{"type": "FeatureCollection", "features": [
{"geometry": {"type": "Point", "coordinates": [-118.1900260465, 33.7669807237]}, "type": "Feature", "properties": {"collection_times": [{"days": "Mon-Fri", "time": "4:00pm"}, {"days": "Sat", "time": "1:00pm"}, {"days": "Sun", "time": "Closed"}], "id": "9080200004", "name": "USPS COLLECTION BOX - BLUE BOX", "address": {"city": "LONG BEACH", "state": "CA", "street": "249 E OCEAN BLVD", "postcode": "90802"}}},
{"geometry": {"type": "Point", "coordinates": [-118.1923860496, 33.7682736979]}, "type": "Feature", "properties": {"collection_times": [{"days": "Mon-Fri", "time": "5:00pm"}, {"days": "Sat", "time": "1:00pm"}, {"days": "Sun", "time": "Closed"}], "id": "9080200011", "name": "USPS COLLECTION BOX - BLUE BOX", "address": {"city": "LONG BEACH", "state": "CA", "street": "110 PINE AVE", "postcode": "90802"}}},
{"geometry": {"type": "Point", "coordinates": [-118.1857638453, 33.766511089]}, "type": "Feature", "properties": {"collection_times": [{"days": "Mon-Fri", "time": "5:00pm"}, {"days": "Sat", "time": "1:00pm"}, {"days": "Sun", "time": "Closed"}], "id": "9080200013", "name": "USPS COLLECTION BOX - BLUE BOX", "address": {"city": "LONG BEACH", "state": "CA", "street": "555 E OCEAN BLVD", "postcode": "90802"}}},
{"geometry": {"type": "Point", "coordinates": [-118.1892711384, 33.7704482992]}, "type": "Feature", "properties": {"collection_times": [{"days": "Mon-Fri", "time": "5:00pm"}, {"days": "Sat", "time": "2:00pm"}, {"days": "Sun", "time": "Closed"}], "id": "9080200014", "name": "USPS COLLECTION BOX - BLUE BOX", "address": {"city": "LONG BEACH", "state": "CA", "street": "300 E 3RD ST", "postcode": "90802"}}},
{"geometry": {"type": "Point", "coordinates": [-118.189200013, 33.770487399]}, "type": "Feature", "properties": {"collection_times": [{"days": "Mon-Fri", "time": "5:00pm"}, {"days": "Sat", "time": "2:00pm"}, {"days": "Sun", "time": "Closed"}], "id": "9080200015", "name": "USPS COLLECTION BOX - BLUE BOX", "address": {"city": "LONG BEACH", "state": "CA", "street": "300 E 3RD ST", "postcode": "90802"}}},
{"geometry": {"type": "Point", "coordinates": [-118.189200013, 33.770487399]}, "type": "Feature", "properties": {"collection_times": [{"days": "Mon-Fri", "time": "5:00pm"}, {"days": "Sat", "time": "2:00pm"}, {"days": "Sun", "time": "Closed"}], "id": "9080200016", "name": "USPS COLLECTION BOX - BLUE BOX", "address": {"city": "LONG BEACH", "state": "CA", "street": "300 E 3RD ST", "postcode": "90802"}}},
{"geometry": {"type": "Point", "coordinates": [-118.1857638453, 33.766511089]}, "type": "Feature", "properties": {"collection_times": [{"days": "Mon-Fri", "time": "5:00pm"}, {"days": "Sat", "time": "1:00pm"}, {"days": "Sun", "time": "Closed"}], "id": "9080200020", "name": "USPS COLLECTION BOX - BLUE BOX", "address": {"city": "LONG BEACH", "state": "CA", "street": "555 E OCEAN BLVD", "postcode": "90802"}}},
{"geometry": {"type": "Point", "coordinates": [-118.1845288227, 33.7693516642]}, "type": "Feature", "properties": {"collection_times": [{"days": "Mon-Fri", "time": "5:00pm"}, {"days": "Sat", "time": "2:00pm"}, {"days": "Sun", "time": "Closed"}], "id": "9080200029", "name": "USPS COLLECTION BOX - EXPRESS", "address": {"city": "LONG BEACH", "state": "CA", "street": "300 E 3RD ST", "postcode": "90802"}}},
{"geometry": {"type": "Point", "coordinates": [-118.1844377729, 33.7661578638]}, "type": "Feature", "properties": {"collection_times": [{"days": "Mon-Sat", "time": "1:00pm"}, {"days": "Sun", "time": "Closed"}], "id": "9080200030", "name": "USPS COLLECTION BOX - BLUE BOX", "address": {"city": "LONG BEACH", "state": "CA", "street": "700 E OCEAN BLVD", "postcode": "90802"}}},
{"geometry": {"type": "Point", "coordinates": [-118.1973087702, 33.767162225]}, "type": "Feature", "properties": {"collection_times": [{"days": "Mon-Fri", "time": "5:00pm"}, {"days": "Sat", "time": "1:00pm"}, {"days": "Sun", "time": "Closed"}], "id": "9080200034", "name": "USPS COLLECTION BOX - BLUE BOX", "address": {"city": "LONG BEACH", "state": "CA", "street": "440 W OCEAN BLVD", "postcode": "90802"}}},
{"geometry": {"type": "Point", "coordinates": [-118.1873975117, 33.7667181069]}, "type": "Feature", "properties": {"collection_times": [{"days": "Mon-Fri", "time": "3:45pm"}, {"days": "Sat", "time": "1:00pm"}, {"days": "Sun", "time": "Closed"}], "id": "9080200035", "name": "USPS COLLECTION BOX - BLUE BOX", "address": {"city": "LONG BEACH", "state": "CA", "street": "401 E OCEAN BLVD", "postcode": "90802"}}},
{"geometry": {"type": "Point", "coordinates": [-118.1984127565, 33.7637213479]}, "type": "Feature", "properties": {"collection_times": [{"days": "Mon-Fri", "time": "5:00pm"}, {"days": "Sat", "time": "1:00pm"}, {"days": "Sun", "time": "Closed"}], "id": "9080200036", "name": "USPS COLLECTION BOX - BLUE BOX", "address": {"city": "LONG BEACH", "state": "CA", "street": "320 GOLDEN SHORE", "postcode": "90802"}}},
{"geometry": {"type": "Point", "coordinates": [-118.1984127565, 33.7637213479]}, "type": "Feature", "properties": {"collection_times": [{"days": "Mon-Fri", "time": "5:00pm"}, {"days": "Sat", "time": "1:00pm"}, {"days": "Sun", "time": "Closed"}], "id": "9080200037", "name": "USPS COLLECTION BOX - BLUE BOX", "address": {"city": "LONG BEACH", "state": "CA", "street": "320 GOLDEN SHORE", "postcode": "90802"}}},
{"geometry": {"type": "Point", "coordinates": [-118.1984127565, 33.7637213479]}, "type": "Feature", "properties": {"collection_times": [{"days": "Mon-Fri", "time": "5:00pm"}, {"days": "Sat", "time": "1:00pm"}, {"days": "Sun", "time": "Closed"}], "id": "9080200038", "name": "USPS COLLECTION BOX - BLUE BOX", "address": {"city": "LONG BEACH", "state": "CA", "street": "320 GOLDEN SHORE", "postcode": "90802"}}},
{"geometry": {"type": "Point", "coordinates": [-118.1959727812, 33.7692886767]}, "type": "Feature", "properties": {"collection_times": [{"days": "Mon-Fri", "time": "4:15pm"}, {"days": "Sat", "time": "1:00pm"}, {"days": "Sun", "time": "Closed"}], "id": "9080200039", "name": "USPS COLLECTION BOX - BLUE BOX", "address": {"city": "LONG BEACH", "state": "CA", "street": "333 W BROADWAY", "postcode": "90802"}}},
{"geometry": {"type": "Point", "coordinates": [-118.19260608, 33.7669688942]}, "type": "Feature", "properties": {"collection_times": [{"days": "Mon-Fri", "time": "4:30pm"}, {"days": "Sat", "time": "1:00pm"}, {"days": "Sun", "time": "Closed"}], "id": "9080200040", "name": "USPS COLLECTION BOX - BLUE BOX", "address": {"city": "LONG BEACH", "state": "CA", "street": "110 W OCEAN BLVD", "postcode": "90802"}}},
{"geometry": {"type": "Point", "coordinates": [-118.19260608, 33.7669688942]}, "type": "Feature", "properties": {"collection_times": [{"days": "Mon-Fri", "time": "4:30pm"}, {"days": "Sat", "time": "1:00pm"}, {"days": "Sun", "time": "Closed"}], "id": "9080200041", "name": "USPS COLLECTION BOX - BLUE BOX", "address": {"city": "LONG BEACH", "state": "CA", "street": "110 W OCEAN BLVD", "postcode": "90802"}}},
{"geometry": {"type": "Point", "coordinates": [-118.1923860496, 33.7682736979]}, "type": "Feature", "properties": {"collection_times": [{"days": "Mon-Fri", "time": "5:00pm"}, {"days": "Sat", "time": "1:00pm"}, {"days": "Sun", "time": "Closed"}], "id": "9080200042", "name": "USPS COLLECTION BOX - BLUE BOX", "address": {"city": "LONG BEACH", "state": "CA", "street": "110 PINE AVE", "postcode": "90802"}}},
{"geometry": {"type": "Point", "coordinates": [-118.1849709337, 33.7681029228]}, "type": "Feature", "properties": {"collection_times": [{"days": "Mon-Sat", "time": "1:00pm"}, {"days": "Sun", "time": "Closed"}], "id": "9080200043", "name": "USPS COLLECTION BOX - BLUE BOX", "address": {"city": "LONG BEACH", "state": "CA", "street": "100 ATLANTIC AVE", "postcode": "90802"}}},
{"geometry": {"type": "Point", "coordinates": [-118.1984127565, 33.7637213479]}, "type": "Feature", "properties": {"collection_times": [{"days": "Mon-Fri", "time": "5:00pm"}, {"days": "Sat", "time": "1:00pm"}, {"days": "Sun", "time": "Closed"}], "id": "9080200059", "name": "USPS COLLECTION BOX - BLUE BOX", "address": {"city": "LONG BEACH", "state": "CA", "street": "320 GOLDEN SHORE", "postcode": "90802"}}},
{"geometry": {"type": "Point", "coordinates": [-118.1703853788, 33.7647425654]}, "type": "Feature", "properties": {"collection_times": [{"days": "Mon-Sat", "time": "1:00pm"}, {"days": "Sun", "time": "Closed"}], "id": "9080200067", "name": "USPS COLLECTION BOX - BLUE BOX", "address": {"city": "LONG BEACH", "state": "CA", "street": "1771 E OCEAN BLVD", "postcode": "90802"}}},
{"geometry": {"type": "Point", "coordinates": [-118.1793096212, 33.765878206]}, "type": "Feature", "properties": {"collection_times": [{"days": "Mon-Fri", "time": "1:30pm"}, {"days": "Sat", "time": "1:00pm"}, {"days": "Sun", "time": "Closed"}], "id": "9080200072", "name": "USPS COLLECTION BOX - BLUE BOX", "address": {"city": "LONG BEACH", "state": "CA", "street": "1078 E OCEAN BLVD", "postcode": "90802"}}},
{"geometry": {"type": "Point", "coordinates": [-118.184138909, 33.7717709973]}, "type": "Feature", "properties": {"collection_times": [{"days": "Mon-Sat", "time": "1:00pm"}, {"days": "Sun", "time": "Closed"}], "id": "9080200076", "name": "USPS COLLECTION BOX - BLUE BOX", "address": {"city": "LONG BEACH", "state": "CA", "street": "647 E 4TH ST", "postcode": "90802"}}},
{"geometry": {"type": "Point", "coordinates": [-118.1834464287, 33.7692934085]}, "type": "Feature", "properties": {"collection_times": [{"days": "Mon-Sat", "time": "1:00pm"}, {"days": "Sun", "time": "Closed"}], "id": "9080200078", "name": "USPS COLLECTION BOX - BLUE BOX", "address": {"city": "LONG BEACH", "state": "CA", "street": "700 E BROADWAY", "postcode": "90802"}}},
{"geometry": {"type": "Point", "coordinates": [-118.1937973197, 33.7720284097]}, "type": "Feature", "properties": {"collection_times": [{"days": "Mon-Fri", "time": "3:30pm"}, {"days": "Sat", "time": "1:00pm"}, {"days": "Sun", "time": "Closed"}], "id": "9080200088", "name": "USPS COLLECTION BOX - BLUE BOX", "address": {"city": "LONG BEACH", "state": "CA", "street": "421 PACIFIC AVE", "postcode": "90802"}}},
{"geometry": {"type": "Point", "coordinates": [-118.1762851892, 33.7717668155]}, "type": "Feature", "properties": {"collection_times": [{"days": "Mon-Sat", "time": "1:00pm"}, {"days": "Sun", "time": "Closed"}], "id": "9080200089", "name": "USPS COLLECTION BOX - BLUE BOX", "address": {"city": "LONG BEACH", "state": "CA", "street": "1203 E 4TH ST", "postcode": "90802"}}},
{"geometry": {"type": "Point", "coordinates": [-118.1924713856, 33.7693490406]}, "type": "Feature", "properties": {"collection_times": [{"days": "Mon-Fri", "time": "1:15pm"}, {"days": "Sat", "time": "1:00pm"}, {"days": "Sun", "time": "Closed"}], "id": "9080200091", "name": "USPS COLLECTION BOX - BLUE BOX", "address": {"city": "LONG BEACH", "state": "CA", "street": "105 W BROADWAY", "postcode": "90802"}}},
{"geometry": {"type": "Point", "coordinates": [-118.1993241039, 33.7668529642]}, "type": "Feature", "properties": {"collection_times": [{"days": "Mon-Fri", "time": "5:00pm"}, {"days": "Sat", "time": "1:00pm"}, {"days": "Sun", "time": "Closed"}], "id": "9080200095", "name": "USPS COLLECTION BOX - BLUE BOX", "address": {"city": "LONG BEACH", "state": "CA", "street": "100 OCEANGATE", "postcode": "90802"}}},
{"geometry": {"type": "Point", "coordinates": [-118.1845288227, 33.7693516642]}, "type": "Feature", "properties": {"collection_times": [{"days": "Mon-Fri", "time": "1:30pm"}, {"days": "Sat", "time": "1:00pm"}, {"days": "Sun", "time": "Closed"}], "id": "9080200100", "name": "USPS COLLECTION BOX - BLUE BOX", "address": {"city": "LONG BEACH", "state": "CA", "street": "463 W 6TH ST", "postcode": "90802"}}},
{"geometry": {"type": "Point", "coordinates": [-118.2015336512, 33.7583690275]}, "type": "Feature", "properties": {"collection_times": [{"days": "Mon-Fri", "time": "2:00pm"}, {"days": "Sat", "time": "1:00pm"}, {"days": "Sun", "time": "Closed"}], "id": "9080200101", "name": "USPS COLLECTION BOX - BLUE BOX", "address": {"city": "LONG BEACH", "state": "CA", "street": "700 QUEENSWAY DR", "postcode": "90802"}}},
{"geometry": {"type": "Point", "coordinates": [-118.1993241039, 33.7668529642]}, "type": "Feature", "properties": {"collection_times": [{"days": "Mon-Fri", "time": "5:00pm"}, {"days": "Sat", "time": "1:00pm"}, {"days": "Sun", "time": "Closed"}], "id": "9080200104", "name": "USPS COLLECTION BOX - BLUE BOX", "address": {"city": "LONG BEACH", "state": "CA", "street": "100 OCEANGATE", "postcode": "90802"}}},
{"geometry": {"type": "Point", "coordinates": [-118.1867592708, 33.7692399719]}, "type": "Feature", "properties": {"collection_times": [{"days": "Mon-Sat", "time": "1:00pm"}, {"days": "Sun", "time": "Closed"}], "id": "9080200105", "name": "USPS COLLECTION BOX - BLUE BOX", "address": {"city": "LONG BEACH", "state": "CA", "street": "448 E BROADWAY", "postcode": "90802"}}},
{"geometry": {"type": "Point", "coordinates": [-118.1845288227, 33.7693517099]}, "type": "Feature", "properties": {"collection_times": [{"days": "Mon-Fri", "time": "2:00pm"}, {"days": "Sat", "time": "1:00pm"}, {"days": "Sun", "time": "Closed"}], "id": "9080200110", "name": "USPS COLLECTION BOX - BLUE BOX", "address": {"city": "LONG BEACH", "state": "CA", "street": "1126 QUEENS HWY", "postcode": "90802"}}},
{"geometry": {"type": "Point", "coordinates": [-118.1850386915, 33.7721786454]}, "type": "Feature", "properties": {"collection_times": [{"days": "Mon-Sat", "time": "1:00pm"}, {"days": "Sun", "time": "Closed"}], "id": "9080200119", "name": "USPS COLLECTION BOX - BLUE BOX", "address": {"city": "LONG BEACH", "state": "CA", "street": "417 ATLANTIC AVE", "postcode": "90802"}}},
{"geometry": {"type": "Point", "coordinates": [-118.1845288227, 33.7693516642]}, "type": "Feature", "properties": {"collection_times": [{"days": "Mon-Fri", "time": "6:00pm"}, {"days": "Sat", "time": "4:00pm"}, {"days": "Sun", "time": "Closed"}], "id": "9080200127", "name": "USPS COLLECTION BOX - PO LOBBY", "address": {"city": "LONG BEACH", "state": "CA", "street": "300 LONG BEACH BLVD LBBY", "postcode": "90802"}}},
{"geometry": {"type": "Point", "coordinates": [-118.1923907815, 33.7696660406]}, "type": "Feature", "properties": {"collection_times": [{"days": "Mon-Fri", "time": "4:45pm"}, {"days": "Sat", "time": "1:00pm"}, {"days": "Sun", "time": "Closed"}], "id": "9080200129", "name": "USPS COLLECTION BOX - BLUE BOX", "address": {"city": "LONG BEACH", "state": "CA", "street": "200 PINE AVE", "postcode": "90802"}}},
{"geometry": {"type": "Point", "coordinates": [-118.1911593212, 33.7668967337]}, "type": "Feature", "properties": {"collection_times": [{"days": "Mon-Fri", "time": "5:00pm"}, {"days": "Sat", "time": "1:00pm"}, {"days": "Sun", "time": "Closed"}], "id": "9080200144", "name": "USPS COLLECTION BOX - BLUE BOX", "address": {"city": "LONG BEACH", "state": "CA", "street": "180 E OCEAN BLVD", "postcode": "90802"}}},
{"geometry": {"type": "Point", "coordinates": [-118.1923860496, 33.7682736979]}, "type": "Feature", "properties": {"collection_times": [{"days": "Mon-Fri", "time": "5:00pm"}, {"days": "Sat", "time": "1:00pm"}, {"days": "Sun", "time": "Closed"}], "id": "9080200145", "name": "USPS COLLECTION BOX - BLUE BOX", "address": {"city": "LONG BEACH", "state": "CA", "street": "110 PINE AVE", "postcode": "90802"}}},
{"geometry": {"type": "Point", "coordinates": [-118.1959727812, 33.7692886767]}, "type": "Feature", "properties": {"collection_times": [{"days": "Mon-Fri", "time": "4:15pm"}, {"days": "Sat", "time": "1:00pm"}, {"days": "Sun", "time": "Closed"}], "id": "9080200146", "name": "USPS COLLECTION BOX - BLUE BOX", "address": {"city": "LONG BEACH", "state": "CA", "street": "333 W BROADWAY", "postcode": "90802"}}},
{"geometry": {"type": "Point", "coordinates": [-118.1873975117, 33.7667181069]}, "type": "Feature", "properties": {"collection_times": [{"days": "Mon-Fri", "time": "3:45pm"}, {"days": "Sat", "time": "1:00pm"}, {"days": "Sun", "time": "Closed"}], "id": "9080200147", "name": "USPS COLLECTION BOX - BLUE BOX", "address": {"city": "LONG BEACH", "state": "CA", "street": "401 E OCEAN BLVD", "postcode": "90802"}}},
{"geometry": {"type": "Point", "coordinates": [-118.1923907815, 33.7696660406]}, "type": "Feature", "properties": {"collection_times": [{"days": "Mon-Fri", "time": "4:45pm"}, {"days": "Sat", "time": "1:00pm"}, {"days": "Sun", "time": "Closed"}], "id": "9080200148", "name": "USPS COLLECTION BOX - BLUE BOX", "address": {"city": "LONG BEACH", "state": "CA", "street": "200 PINE AVE", "postcode": "90802"}}},
{"geometry": {"type": "Point", "coordinates": [-118.1892337276, 33.7705168591]}, "type": "Feature", "properties": {"collection_times": [{"days": "Mon-Fri", "time": "6:00pm"}, {"days": "Sat", "time": "4:00pm"}, {"days": "Sun", "time": "Closed"}], "id": "9080200149", "name": "USPS COLLECTION BOX - APC", "address": {"city": "LONG BEACH", "state": "CA", "street": "300 LONG BEACH BLVD", "postcode": "90802"}}},
{"geometry": {"type": "Point", "coordinates": [-118.1937937708, 33.7743410944]}, "type": "Feature", "properties": {"collection_times": [{"days": "Mon-Fri", "time": "1:30pm"}, {"days": "Sat", "time": "1:00pm"}, {"days": "Sun", "time": "Closed"}], "id": "9080200150", "name": "USPS COLLECTION BOX - BLUE BOX", "address": {"city": "LONG BEACH", "state": "CA", "street": "601 PACIFIC AVE", "postcode": "90802"}}},
{"geometry": {"type": "Point", "coordinates": [-118.1973087702, 33.767162225]}, "type": "Feature", "properties": {"collection_times": [{"days": "Mon-Fri", "time": "5:00pm"}, {"days": "Sat", "time": "1:00pm"}, {"days": "Sun", "time": "Closed"}], "id": "9080200151", "name": "USPS COLLECTION BOX - BLUE BOX", "address": {"city": "LONG BEACH", "state": "CA", "street": "440 W OCEAN BLVD", "postcode": "90802"}}},
{"geometry": {"type": "Point", "coordinates": [-118.2019005886, 33.7664105375]}, "type": "Feature", "properties": {"collection_times": [{"days": "Mon-Fri", "time": "5:00pm"}, {"days": "Sat", "time": "1:00pm"}, {"days": "Sun", "time": "Closed"}], "id": "9080200152", "name": "USPS COLLECTION BOX - BLUE BOX", "address": {"city": "LONG BEACH", "state": "CA", "street": "11 GOLDEN SHORE", "postcode": "90802"}}},
{"geometry": {"type": "Point", "coordinates": [-118.1284513741, 33.7515785097]}, "type": "Feature", "properties": {"collection_times": [{"days": "Mon-Sat", "time": "1:00pm"}, {"days": "Sun", "time": "Closed"}], "id": "9080300007", "name": "USPS COLLECTION BOX - BLUE BOX", "address": {"city": "LONG BEACH", "state": "CA", "street": "5503 E OCEAN BLVD", "postcode": "90803"}}},
{"geometry": {"type": "Point", "coordinates": [-118.1131507366, 33.7577120671]}, "type": "Feature", "properties": {"collection_times": [{"days": "Mon-Fri", "time": "3:00pm"}, {"days": "Sat", "time": "1:00pm"}, {"days": "Sun", "time": "Closed"}], "id": "9080300008", "name": "USPS COLLECTION BOX - BLUE BOX", "address": {"city": "LONG BEACH", "state": "CA", "street": "6201 E 2ND ST", "postcode": "90803"}}},
{"geometry": {"type": "Point", "coordinates": [-118.1197393383, 33.7557622672]}, "type": "Feature", "properties": {"collection_times": [{"days": "Mon-Fri", "time": "3:00pm"}, {"days": "Sat", "time": "1:00pm"}, {"days": "Sun", "time": "Closed"}], "id": "9080300009", "name": "USPS COLLECTION BOX - BLUE BOX", "address": {"city": "LONG BEACH", "state": "CA", "street": "5846 E NAPLES PLZ", "postcode": "90803"}}},
{"geometry": {"type": "Point", "coordinates": [-118.1187610496, 33.7543112332]}, "type": "Feature", "properties": {"collection_times": [{"days": "Mon-Fri", "time": "3:00pm"}, {"days": "Sat", "time": "1:00pm"}, {"days": "Sun", "time": "Closed"}], "id": "9080300010", "name": "USPS COLLECTION BOX - BLUE BOX", "address": {"city": "LONG BEACH", "state": "CA", "street": "5934 E NAPLES PLZ", "postcode": "90803"}}},
{"geometry": {"type": "Point", "coordinates": [-118.1270263838, 33.7636648898]}, "type": "Feature", "properties": {"collection_times": [{"days": "Mon-Sat", "time": "1:00pm"}, {"days": "Sun", "time": "Closed"}], "id": "9080300011", "name": "USPS COLLECTION BOX - BLUE BOX", "address": {"city": "LONG BEACH", "state": "CA", "street": "5296 E APPIAN WAY", "postcode": "90803"}}},
{"geometry": {"type": "Point", "coordinates": [-118.1389103896, 33.7564594867]}, "type": "Feature", "properties": {"collection_times": [{"days": "Mon-Sat", "time": "1:00pm"}, {"days": "Sun", "time": "Closed"}], "id": "9080300012", "name": "USPS COLLECTION BOX - BLUE BOX", "address": {"city": "LONG BEACH", "state": "CA", "street": "5039 E OCEAN BLVD", "postcode": "90803"}}},
{"geometry": {"type": "Point", "coordinates": [-118.1519695625, 33.7643856798]}, "type": "Feature", "properties": {"collection_times": [{"days": "Mon-Sat", "time": "1:00pm"}, {"days": "Sun", "time": "Closed"}], "id": "9080300013", "name": "USPS COLLECTION BOX - BLUE BOX", "address": {"city": "LONG BEACH", "state": "CA", "street": "3440 E BROADWAY", "postcode": "90803"}}},
{"geometry": {"type": "Point", "coordinates": [-118.1147785526, 33.7619753615]}, "type": "Feature", "properties": {"collection_times": [{"days": "Mon-Fri", "time": "3:00pm"}, {"days": "Sat", "time": "1:00pm"}, {"days": "Sun", "time": "Closed"}], "id": "9080300015", "name": "USPS COLLECTION BOX - BLUE BOX", "address": {"city": "LONG BEACH", "state": "CA", "street": "6290 E PACIFIC COAST HWY", "postcode": "90803"}}},
{"geometry": {"type": "Point", "coordinates": [-118.1141439607, 33.7691502705]}, "type": "Feature", "properties": {"collection_times": [{"days": "Mon-Sat", "time": "1:00pm"}, {"days": "Sun", "time": "Closed"}], "id": "9080300016", "name": "USPS COLLECTION BOX - BLUE BOX", "address": {"city": "LONG BEACH", "state": "CA", "street": "6180 BIXBY VILLAGE DR", "postcode": "90803"}}},
{"geometry": {"type": "Point", "coordinates": [-118.1293816551, 33.7622145821]}, "type": "Feature", "properties": {"collection_times": [{"days": "Mon-Sat", "time": "1:00pm"}, {"days": "Sun", "time": "Closed"}], "id": "9080300017", "name": "USPS COLLECTION BOX - BLUE BOX", "address": {"city": "LONG BEACH", "state": "CA", "street": "5320 E BROADWAY", "postcode": "90803"}}},
{"geometry": {"type": "Point", "coordinates": [-118.112989275, 33.766315219]}, "type": "Feature", "properties": {"collection_times": [{"days": "Mon-Sat", "time": "1:00pm"}, {"days": "Sun", "time": "Closed"}], "id": "9080300018", "name": "USPS COLLECTION BOX - BLUE BOX", "address": {"city": "LONG BEACH", "state": "CA", "street": "6230 E MARINA VIEW DR", "postcode": "90803"}}},
{"geometry": {"type": "Point", "coordinates": [-118.1506938439, 33.7619910028]}, "type": "Feature", "properties": {"collection_times": [{"days": "Mon-Sat", "time": "1:00pm"}, {"days": "Sun", "time": "Closed"}], "id": "9080300019", "name": "USPS COLLECTION BOX - BLUE BOX", "address": {"city": "LONG BEACH", "state": "CA", "street": "3535 E 1ST ST", "postcode": "90803"}}},
{"geometry": {"type": "Point", "coordinates": [-118.135259279, 33.764467465]}, "type": "Feature", "properties": {"collection_times": [{"days": "Mon-Sat", "time": "1:00pm"}, {"days": "Sun", "time": "Closed"}], "id": "9080300020", "name": "USPS COLLECTION BOX - BLUE BOX", "address": {"city": "LONG BEACH", "state": "CA", "street": "4939 E BROADWAY", "postcode": "90803"}}},
{"geometry": {"type": "Point", "coordinates": [-118.1068474698, 33.7531909711]}, "type": "Feature", "properties": {"collection_times": [{"days": "Mon-Fri", "time": "3:00pm"}, {"days": "Sat", "time": "1:00pm"}, {"days": "Sun", "time": "Closed"}], "id": "9080300023", "name": "USPS COLLECTION BOX - BLUE BOX", "address": {"city": "LONG BEACH", "state": "CA", "street": "6700 E PACIFIC COAST HWY", "postcode": "90803"}}},
{"geometry": {"type": "Point", "coordinates": [-118.137489793, 33.7615133206]}, "type": "Feature", "properties": {"collection_times": [{"days": "Mon-Sat", "time": "1:00pm"}, {"days": "Sun", "time": "Closed"}], "id": "9080300026", "name": "USPS COLLECTION BOX - BLUE BOX", "address": {"city": "LONG BEACH", "state": "CA", "street": "60 THE COLONNADE", "postcode": "90803"}}},
{"geometry": {"type": "Point", "coordinates": [-118.1272617927, 33.7578707568]}, "type": "Feature", "properties": {"collection_times": [{"days": "Mon-Fri", "time": "3:00pm"}, {"days": "Sat", "time": "1:00pm"}, {"days": "Sun", "time": "Closed"}], "id": "9080300027", "name": "USPS COLLECTION BOX - BLUE BOX", "address": {"city": "LONG BEACH", "state": "CA", "street": "5475 E 2ND ST", "postcode": "90803"}}},
{"geometry": {"type": "Point", "coordinates": [-118.1374984832, 33.7615219643]}, "type": "Feature", "properties": {"collection_times": [{"days": "Mon-Sat", "time": "1:00pm"}, {"days": "Sun", "time": "Closed"}], "id": "9080300030", "name": "USPS COLLECTION BOX - BLUE BOX", "address": {"city": "LONG BEACH", "state": "CA", "street": "245 PARK AVE", "postcode": "90803"}}},
{"geometry": {"type": "Point", "coordinates": [-118.1484154649, 33.7626570087]}, "type": "Feature", "properties": {"collection_times": [{"days": "Mon-Sat", "time": "1:00pm"}, {"days": "Sun", "time": "Closed"}], "id": "9080300031", "name": "USPS COLLECTION BOX - BLUE BOX", "address": {"city": "LONG BEACH", "state": "CA", "street": "3737 E 2ND ST", "postcode": "90803"}}},
{"geometry": {"type": "Point", "coordinates": [-118.1448157208, 33.7641605496]}, "type": "Feature", "properties": {"collection_times": [{"days": "Mon-Sat", "time": "1:00pm"}, {"days": "Sun", "time": "Closed"}], "id": "9080300032", "name": "USPS COLLECTION BOX - BLUE BOX", "address": {"city": "LONG BEACH", "state": "CA", "street": "225 BELMONT AVE", "postcode": "90803"}}},
{"geometry": {"type": "Point", "coordinates": [-118.1469888164, 33.7661159807]}, "type": "Feature", "properties": {"collection_times": [{"days": "Mon-Sat", "time": "1:00pm"}, {"days": "Sun", "time": "Closed"}], "id": "9080300033", "name": "USPS COLLECTION BOX - BLUE BOX", "address": {"city": "LONG BEACH", "state": "CA", "street": "251 MIRA MAR AVE", "postcode": "90803"}}},
{"geometry": {"type": "Point", "coordinates": [-118.1494481881, 33.7644468256]}, "type": "Feature", "properties": {"collection_times": [{"days": "Mon-Sat", "time": "1:00pm"}, {"days": "Sun", "time": "Closed"}], "id": "9080300035", "name": "USPS COLLECTION BOX - BLUE BOX", "address": {"city": "LONG BEACH", "state": "CA", "street": "3633 E BROADWAY", "postcode": "90803"}}},
{"geometry": {"type": "Point", "coordinates": [-118.1089330265, 33.7714629553]}, "type": "Feature", "properties": {"collection_times": [{"days": "Mon-Sat", "time": "1:00pm"}, {"days": "Sun", "time": "Closed"}], "id": "9080300036", "name": "USPS COLLECTION BOX - BLUE BOX", "address": {"city": "LONG BEACH", "state": "CA", "street": "470 LAURINDA AVE", "postcode": "90803"}}},
{"geometry": {"type": "Point", "coordinates": [-118.1078884737, 33.7546081559]}, "type": "Feature", "properties": {"collection_times": [{"days": "Mon-Fri", "time": "3:00pm"}, {"days": "Sat", "time": "1:00pm"}, {"days": "Sun", "time": "Closed"}], "id": "9080300037", "name": "USPS COLLECTION BOX - BLUE BOX", "address": {"city": "LONG BEACH", "state": "CA", "street": "6615 E PACIFIC COAST HWY", "postcode": "90803"}}},
{"geometry": {"type": "Point", "coordinates": [-118.1440255042, 33.758643229]}, "type": "Feature", "properties": {"collection_times": [{"days": "Mon-Sat", "time": "1:00pm"}, {"days": "Sun", "time": "Closed"}], "id": "9080300040", "name": "USPS COLLECTION BOX - BLUE BOX", "address": {"city": "LONG BEACH", "state": "CA", "street": "4305 E OCEAN BLVD", "postcode": "90803"}}},
{"geometry": {"type": "Point", "coordinates": [-118.1560715753, 33.7630958865]}, "type": "Feature", "properties": {"collection_times": [{"days": "Mon-Sat", "time": "1:00pm"}, {"days": "Sun", "time": "Closed"}], "id": "9080300042", "name": "USPS COLLECTION BOX - BLUE BOX", "address": {"city": "LONG BEACH", "state": "CA", "street": "3070 E 1ST ST", "postcode": "90803"}}},
{"geometry": {"type": "Point", "coordinates": [-118.1374984832, 33.7615219643]}, "type": "Feature", "properties": {"collection_times": [{"days": "Mon-Fri", "time": "5:00pm"}, {"days": "Sat", "time": "2:00pm"}, {"days": "Sun", "time": "Closed"}], "id": "9080300046", "name": "USPS COLLECTION BOX - EXPRESS", "address": {"city": "LONG BEACH", "state": "CA", "street": "5050 E 2ND ST", "postcode": "90803"}}},
{"geometry": {"type": "Point", "coordinates": [-118.1068474698, 33.7531909711]}, "type": "Feature", "properties": {"collection_times": [{"days": "Mon-Fri", "time": "3:00pm"}, {"days": "Sat", "time": "1:00pm"}, {"days": "Sun", "time": "Closed"}], "id": "9080300048", "name": "USPS COLLECTION BOX - BLUE BOX", "address": {"city": "LONG BEACH", "state": "CA", "street": "6700 E PACIFIC COAST HWY", "postcode": "90803"}}},
{"geometry": {"type": "Point", "coordinates": [-118.1363240627, 33.7607702619]}, "type": "Feature", "properties": {"collection_times": [{"days": "Mon-Fri", "time": "5:00pm"}, {"days": "Sat", "time": "2:00pm"}, {"days": "Sun", "time": "Closed"}], "id": "9080300051", "name": "USPS COLLECTION BOX - BLUE BOX", "address": {"city": "LONG BEACH", "state": "CA", "street": "5050 E 2ND ST", "postcode": "90803"}}},
{"geometry": {"type": "Point", "coordinates": [-118.1068474698, 33.7531909711]}, "type": "Feature", "properties": {"collection_times": [{"days": "Mon-Fri", "time": "3:00pm"}, {"days": "Sat", "time": "1:00pm"}, {"days": "Sun", "time": "Closed"}], "id": "9080300055", "name": "USPS COLLECTION BOX - BLUE BOX", "address": {"city": "LONG BEACH", "state": "CA", "street": "6700 E PACIFIC COAST HWY", "postcode": "90803"}}},
{"geometry": {"type": "Point", "coordinates": [-118.137489793, 33.7615133206]}, "type": "Feature", "properties": {"collection_times": [{"days": "Mon-Sat", "time": "1:00pm"}, {"days": "Sun", "time": "Closed"}], "id": "9080300056", "name": "USPS COLLECTION BOX - BLUE BOX", "address": {"city": "LONG BEACH", "state": "CA", "street": "5985 AZURE WAY", "postcode": "90803"}}},
{"geometry": {"type": "Point", "coordinates": [-118.1343836428, 33.7601962535]}, "type": "Feature", "properties": {"collection_times": [{"days": "Mon-Fri", "time": "5:00pm"}, {"days": "Sat", "time": "1:00pm"}, {"days": "Sun", "time": "Closed"}], "id": "9080300057", "name": "USPS COLLECTION BOX - BLUE BOX", "address": {"city": "LONG BEACH", "state": "CA", "street": "5227 E 2ND ST", "postcode": "90803"}}},
{"geometry": {"type": "Point", "coordinates": [-118.1504903749, 33.7717030959]}, "type": "Feature", "properties": {"collection_times": [{"days": "Mon-Fri", "time": "5:00pm"}, {"days": "Sat", "time": "4:00pm"}, {"days": "Sun", "time": "Closed"}], "id": "9080300061", "name": "USPS COLLECTION BOX - BLUE BOX", "address": {"city": "LONG BEACH", "state": "CA", "street": "3540 E 4TH ST", "postcode": "90803"}}},
{"geometry": {"type": "Point", "coordinates": [-118.1374984832, 33.7615219643]}, "type": "Feature", "properties": {"collection_times": [{"days": "Mon-Fri", "time": "3:00pm"}, {"days": "Sat", "time": "1:00pm"}, {"days": "Sun", "time": "Closed"}], "id": "9080300063", "name": "USPS COLLECTION BOX - EXPRESS", "address": {"city": "LONG BEACH", "state": "CA", "street": "6700 E PACIFIC COAST HWY", "postcode": "90803"}}},
{"geometry": {"type": "Point", "coordinates": [-118.1343836428, 33.7601962535]}, "type": "Feature", "properties": {"collection_times": [{"days": "Mon-Fri", "time": "5:00pm"}, {"days": "Sat", "time": "1:00pm"}, {"days": "Sun", "time": "Closed"}], "id": "9080300065", "name": "USPS COLLECTION BOX - BLUE BOX", "address": {"city": "LONG BEACH", "state": "CA", "street": "5227 E 2ND ST", "postcode": "90803"}}},
{"geometry": {"type": "Point", "coordinates": [-118.1078884737, 33.7546081559]}, "type": "Feature", "properties": {"collection_times": [{"days": "Mon-Fri", "time": "3:00pm"}, {"days": "Sat", "time": "1:00pm"}, {"days": "Sun", "time": "Closed"}], "id": "9080300067", "name": "USPS COLLECTION BOX - BLUE BOX", "address": {"city": "LONG BEACH", "state": "CA", "street": "6615 E PACIFIC COAST HWY", "postcode": "90803"}}},
{"geometry": {"type": "Point", "coordinates": [-118.1343836428, 33.7601962535]}, "type": "Feature", "properties": {"collection_times": [{"days": "Mon-Fri", "time": "5:00pm"}, {"days": "Sat", "time": "1:00pm"}, {"days": "Sun", "time": "Closed"}], "id": "9080300069", "name": "USPS COLLECTION BOX - BLUE BOX", "address": {"city": "LONG BEACH", "state": "CA", "street": "5227 E 2ND ST", "postcode": "90803"}}},
{"geometry": {"type": "Point", "coordinates": [-118.1363240627, 33.7607702619]}, "type": "Feature", "properties": {"collection_times": [{"days": "Mon-Fri", "time": "5:00pm"}, {"days": "Sat", "time": "2:00pm"}, {"days": "Sun", "time": "Closed"}], "id": "9080300071", "name": "USPS COLLECTION BOX - APC", "address": {"city": "LONG BEACH", "state": "CA", "street": "5050 E 2ND ST", "postcode": "90803"}}},
{"geometry": {"type": "Point", "coordinates": [-118.1363240627, 33.7607702619]}, "type": "Feature", "properties": {"collection_times": [{"days": "Mon-Fri", "time": "5:00pm"}, {"days": "Sat", "time": "2:00pm"}, {"days": "Sun", "time": "Closed"}], "id": "9080300072", "name": "USPS COLLECTION BOX - BLUE BOX", "address": {"city": "LONG BEACH", "state": "CA", "street": "5050 E 2ND ST", "postcode": "90803"}}},
{"geometry": {"type": "Point", "coordinates": [-118.1363240627, 33.7607702619]}, "type": "Feature", "properties": {"collection_times": [{"days": "Mon-Fri", "time": "5:00pm"}, {"days": "Sat", "time": "2:00pm"}, {"days": "Sun", "time": "Closed"}], "id": "9080300073", "name": "USPS COLLECTION BOX - PO LOBBY", "address": {"city": "LONG BEACH", "state": "CA", "street": "5050 E 2ND ST", "postcode": "90803"}}},
{"geometry": {"type": "Point", "coordinates": [-118.1592182462, 33.7825945991]}, "type": "Feature", "properties": {"collection_times": [{"days": "Mon-Fri", "time": "5:30pm"}, {"days": "Sat", "time": "4:00pm"}, {"days": "Sun", "time": "Closed"}], "id": "9080400002", "name": "USPS COLLECTION BOX - BLUE BOX", "address": {"city": "LONG BEACH", "state": "CA", "street": "2727 E ANAHEIM ST", "postcode": "90804"}}},
{"geometry": {"type": "Point", "coordinates": [-118.1333587632, 33.7831529558]}, "type": "Feature", "properties": {"collection_times": [{"days": "Mon-Fri", "time": "5:00pm"}, {"days": "Sat", "time": "1:00pm"}, {"days": "Sun", "time": "Closed"}], "id": "9080400003", "name": "USPS COLLECTION BOX - BLUE BOX", "address": {"city": "LONG BEACH", "state": "CA", "street": "5150 E PACIFIC COAST HWY", "postcode": "90804"}}},
{"geometry": {"type": "Point", "coordinates": [-118.1592182462, 33.7825945991]}, "type": "Feature", "properties": {"collection_times": [{"days": "Mon-Fri", "time": "5:30pm"}, {"days": "Sat", "time": "4:00pm"}, {"days": "Sun", "time": "Closed"}], "id": "9080400004", "name": "USPS COLLECTION BOX - BLUE BOX", "address": {"city": "LONG BEACH", "state": "CA", "street": "2727 E ANAHEIM ST", "postcode": "90804"}}},
{"geometry": {"type": "Point", "coordinates": [-118.1592182462, 33.7825945991]}, "type": "Feature", "properties": {"collection_times": [{"days": "Mon-Fri", "time": "5:30pm"}, {"days": "Sat", "time": "4:00pm"}, {"days": "Sun", "time": "Closed"}], "id": "9080400005", "name": "USPS COLLECTION BOX - BLUE BOX", "address": {"city": "LONG BEACH", "state": "CA", "street": "2727 E ANAHEIM ST", "postcode": "90804"}}},
{"geometry": {"type": "Point", "coordinates": [-118.1400259199, 33.7880811628]}, "type": "Feature", "properties": {"collection_times": [{"days": "Mon-Fri", "time": "5:00pm"}, {"days": "Sat", "time": "1:00pm"}, {"days": "Sun", "time": "Closed"}], "id": "9080400008", "name": "USPS COLLECTION BOX - BLUE BOX", "address": {"city": "LONG BEACH", "state": "CA", "street": "4500 E PACIFIC COAST HWY", "postcode": "90804"}}},
{"geometry": {"type": "Point", "coordinates": [-118.1549714235, 33.782596965]}, "type": "Feature", "properties": {"collection_times": [{"days": "Mon-Sat", "time": "1:00pm"}, {"days": "Sun", "time": "Closed"}], "id": "9080400014", "name": "USPS COLLECTION BOX - BLUE BOX", "address": {"city": "LONG BEACH", "state": "CA", "street": "3140 E ANAHEIM ST", "postcode": "90804"}}},
{"geometry": {"type": "Point", "coordinates": [-118.1662009757, 33.7753963781]}, "type": "Feature", "properties": {"collection_times": [{"days": "Mon-Sat", "time": "1:00pm"}, {"days": "Sun", "time": "Closed"}], "id": "9080400016", "name": "USPS COLLECTION BOX - BLUE BOX", "address": {"city": "LONG BEACH", "state": "CA", "street": "2135 E 7TH ST", "postcode": "90804"}}},
{"geometry": {"type": "Point", "coordinates": [-118.1400259199, 33.7880811628]}, "type": "Feature", "properties": {"collection_times": [{"days": "Mon-Fri", "time": "5:00pm"}, {"days": "Sat", "time": "1:00pm"}, {"days": "Sun", "time": "Closed"}], "id": "9080400019", "name": "USPS COLLECTION BOX - BLUE BOX", "address": {"city": "LONG BEACH", "state": "CA", "street": "4500 E PACIFIC COAST HWY", "postcode": "90804"}}},
{"geometry": {"type": "Point", "coordinates": [-118.1421801837, 33.7790172997]}, "type": "Feature", "properties": {"collection_times": [{"days": "Mon-Sat", "time": "1:00pm"}, {"days": "Sun", "time": "Closed"}], "id": "9080400020", "name": "USPS COLLECTION BOX - BLUE BOX", "address": {"city": "LONG BEACH", "state": "CA", "street": "4341 E 10TH ST", "postcode": "90804"}}},
{"geometry": {"type": "Point", "coordinates": [-118.1244605458, 33.7753170356]}, "type": "Feature", "properties": {"collection_times": [{"days": "Mon-Sat", "time": "1:00pm"}, {"days": "Sun", "time": "Closed"}], "id": "9080400021", "name": "USPS COLLECTION BOX - BLUE BOX", "address": {"city": "LONG BEACH", "state": "CA", "street": "5540 E 7TH ST", "postcode": "90804"}}},
{"geometry": {"type": "Point", "coordinates": [-118.136366794, 33.785729903]}, "type": "Feature", "properties": {"collection_times": [{"days": "Mon-Sat", "time": "1:00pm"}, {"days": "Sun", "time": "Closed"}], "id": "9080400022", "name": "USPS COLLECTION BOX - BLUE BOX", "address": {"city": "LONG BEACH", "state": "CA", "street": "4825 E PACIFIC COAST HWY", "postcode": "90804"}}},
{"geometry": {"type": "Point", "coordinates": [-118.1545845959, 33.7859471048]}, "type": "Feature", "properties": {"collection_times": [{"days": "Mon-Sat", "time": "1:00pm"}, {"days": "Sun", "time": "Closed"}], "id": "9080400024", "name": "USPS COLLECTION BOX - BLUE BOX", "address": {"city": "LONG BEACH", "state": "CA", "street": "1504 OBISPO AVE", "postcode": "90804"}}},
{"geometry": {"type": "Point", "coordinates": [-118.1523584022, 33.7817306306]}, "type": "Feature", "properties": {"collection_times": [{"days": "Mon-Sat", "time": "1:00pm"}, {"days": "Sun", "time": "Closed"}], "id": "9080400025", "name": "USPS COLLECTION BOX - BLUE BOX", "address": {"city": "LONG BEACH", "state": "CA", "street": "1017 OBISPO AVE", "postcode": "90804"}}},
{"geometry": {"type": "Point", "coordinates": [-118.1320586913, 33.7823331652]}, "type": "Feature", "properties": {"collection_times": [{"days": "Mon-Sat", "time": "1:00pm"}, {"days": "Sun", "time": "Closed"}], "id": "9080400026", "name": "USPS COLLECTION BOX - BLUE BOX", "address": {"city": "LONG BEACH", "state": "CA", "street": "5201 E PACIFIC COAST HWY", "postcode": "90804"}}},
{"geometry": {"type": "Point", "coordinates": [-118.1632745772, 33.7862860316]}, "type": "Feature", "properties": {"collection_times": [{"days": "Mon-Sat", "time": "1:00pm"}, {"days": "Sun", "time": "Closed"}], "id": "9080400028", "name": "USPS COLLECTION BOX - BLUE BOX", "address": {"city": "LONG BEACH", "state": "CA", "street": "2401 E 15TH ST", "postcode": "90804"}}},
{"geometry": {"type": "Point", "coordinates": [-118.1274203092, 33.7772760156]}, "type": "Feature", "properties": {"collection_times": [{"days": "Mon-Sat", "time": "1:00pm"}, {"days": "Sun", "time": "Closed"}], "id": "9080400030", "name": "USPS COLLECTION BOX - BLUE BOX", "address": {"city": "LONG BEACH", "state": "CA", "street": "800 TERRAINE AVE", "postcode": "90804"}}},
{"geometry": {"type": "Point", "coordinates": [-118.1458898475, 33.7884159402]}, "type": "Feature", "properties": {"collection_times": [{"days": "Mon-Fri", "time": "3:45pm"}, {"days": "Sat", "time": "1:00pm"}, {"days": "Sun", "time": "Closed"}], "id": "9080400031", "name": "USPS COLLECTION BOX - BLUE BOX", "address": {"city": "LONG BEACH", "state": "CA", "street": "1720 TERMINO AVE", "postcode": "90804"}}},
{"geometry": {"type": "Point", "coordinates": [-118.1523469571, 33.7789347738]}, "type": "Feature", "properties": {"collection_times": [{"days": "Mon-Sat", "time": "1:00pm"}, {"days": "Sun", "time": "Closed"}], "id": "9080400034", "name": "USPS COLLECTION BOX - BLUE BOX", "address": {"city": "LONG BEACH", "state": "CA", "street": "996 REDONDO AVE", "postcode": "90804"}}},
{"geometry": {"type": "Point", "coordinates": [-118.1523514189, 33.7753475308]}, "type": "Feature", "properties": {"collection_times": [{"days": "Mon-Sat", "time": "1:00pm"}, {"days": "Sun", "time": "Closed"}], "id": "9080400035", "name": "USPS COLLECTION BOX - BLUE BOX", "address": {"city": "LONG BEACH", "state": "CA", "street": "700 REDONDO AVE", "postcode": "90804"}}},
{"geometry": {"type": "Point", "coordinates": [-118.1371274894, 33.7826146134]}, "type": "Feature", "properties": {"collection_times": [{"days": "Mon-Fri", "time": "5:00pm"}, {"days": "Sat", "time": "1:00pm"}, {"days": "Sun", "time": "Closed"}], "id": "9080400037", "name": "USPS COLLECTION BOX - BLUE BOX", "address": {"city": "LONG BEACH", "state": "CA", "street": "1300 PARK AVE", "postcode": "90804"}}},
{"geometry": {"type": "Point", "coordinates": [-118.1454858726, 33.7825374943]}, "type": "Feature", "properties": {"collection_times": [{"days": "Mon-Sat", "time": "1:00pm"}, {"days": "Sun", "time": "Closed"}], "id": "9080400039", "name": "USPS COLLECTION BOX - BLUE BOX", "address": {"city": "LONG BEACH", "state": "CA", "street": "4036 E ANAHEIM ST", "postcode": "90804"}}},
{"geometry": {"type": "Point", "coordinates": [-118.1333587632, 33.7831529558]}, "type": "Feature", "properties": {"collection_times": [{"days": "Mon-Fri", "time": "5:00pm"}, {"days": "Sat", "time": "1:00pm"}, {"days": "Sun", "time": "Closed"}], "id": "9080400040", "name": "USPS COLLECTION BOX - BLUE BOX", "address": {"city": "LONG BEACH", "state": "CA", "street": "5150 E PACIFIC COAST HWY", "postcode": "90804"}}},
{"geometry": {"type": "Point", "coordinates": [-118.1384868903, 33.7753395118]}, "type": "Feature", "properties": {"collection_times": [{"days": "Mon-Sat", "time": "1:00pm"}, {"days": "Sun", "time": "Closed"}], "id": "9080400042", "name": "USPS COLLECTION BOX - BLUE BOX", "address": {"city": "LONG BEACH", "state": "CA", "street": "4640 E 7TH ST", "postcode": "90804"}}},
{"geometry": {"type": "Point", "coordinates": [-118.1333587632, 33.7831529558]}, "type": "Feature", "properties": {"collection_times": [{"days": "Mon-Fri", "time": "5:00pm"}, {"days": "Sat", "time": "1:00pm"}, {"days": "Sun", "time": "Closed"}], "id": "9080400043", "name": "USPS COLLECTION BOX - BLUE BOX", "address": {"city": "LONG BEACH", "state": "CA", "street": "5150 E PACIFIC COAST HWY", "postcode": "90804"}}},
{"geometry": {"type": "Point", "coordinates": [-118.1485523616, 33.7825357486]}, "type": "Feature", "properties": {"collection_times": [{"days": "Mon-Sat", "time": "1:00pm"}, {"days": "Sun", "time": "Closed"}], "id": "9080400044", "name": "USPS COLLECTION BOX - BLUE BOX", "address": {"city": "LONG BEACH", "state": "CA", "street": "3750 E ANAHEIM ST", "postcode": "90804"}}},
{"geometry": {"type": "Point", "coordinates": [-118.1400259199, 33.7880811628]}, "type": "Feature", "properties": {"collection_times": [{"days": "Mon-Fri", "time": "5:00pm"}, {"days": "Sat", "time": "1:00pm"}, {"days": "Sun", "time": "Closed"}], "id": "9080400045", "name": "USPS COLLECTION BOX - BLUE BOX", "address": {"city": "LONG BEACH", "state": "CA", "street": "4500 E PACIFIC COAST HWY", "postcode": "90804"}}},
{"geometry": {"type": "Point", "coordinates": [-118.1592182462, 33.7825945991]}, "type": "Feature", "properties": {"collection_times": [{"days": "Mon-Fri", "time": "5:30pm"}, {"days": "Sat", "time": "4:00pm"}, {"days": "Sun", "time": "Closed"}], "id": "9080400047", "name": "USPS COLLECTION BOX - PO LOBBY", "address": {"city": "LONG BEACH", "state": "CA", "street": "2727 E ANAHEIM ST LBBY", "postcode": "90804"}}},
{"geometry": {"type": "Point", "coordinates": [-118.185224416, 33.8665432821]}, "type": "Feature", "properties": {"collection_times": [{"days": "Mon-Fri", "time": "2:00pm"}, {"days": "Sat", "time": "1:00pm"}, {"days": "Sun", "time": "Closed"}], "id": "9080500002", "name": "USPS COLLECTION BOX - BLUE BOX", "address": {"city": "LONG BEACH", "state": "CA", "street": "6191 ATLANTIC AVE", "postcode": "90805"}}},
{"geometry": {"type": "Point", "coordinates": [-118.1850422404, 33.86026177]}, "type": "Feature", "properties": {"collection_times": [{"days": "Mon-Fri", "time": "2:30pm"}, {"days": "Sat", "time": "1:00pm"}, {"days": "Sun", "time": "Closed"}], "id": "9080500003", "name": "USPS COLLECTION BOX - BLUE BOX", "address": {"city": "LONG BEACH", "state": "CA", "street": "5801 ATLANTIC AVE", "postcode": "90805"}}},
{"geometry": {"type": "Point", "coordinates": [-118.1860371089, 33.8782936135]}, "type": "Feature", "properties": {"collection_times": [{"days": "Mon-Fri", "time": "1:45pm"}, {"days": "Sat", "time": "1:00pm"}, {"days": "Sun", "time": "Closed"}], "id": "9080500004", "name": "USPS COLLECTION BOX - BLUE BOX", "address": {"city": "LONG BEACH", "state": "CA", "street": "6813 ATLANTIC AVE", "postcode": "90805"}}},
{"geometry": {"type": "Point", "coordinates": [-118.186225803, 33.8722291025]}, "type": "Feature", "properties": {"collection_times": [{"days": "Mon-Fri", "time": "2:00pm"}, {"days": "Sat", "time": "1:00pm"}, {"days": "Sun", "time": "Closed"}], "id": "9080500005", "name": "USPS COLLECTION BOX - BLUE BOX", "address": {"city": "LONG BEACH", "state": "CA", "street": "6479 ATLANTIC AVE", "postcode": "90805"}}},
{"geometry": {"type": "Point", "coordinates": [-118.1599350794, 33.8585909123]}, "type": "Feature", "properties": {"collection_times": [{"days": "Mon-Fri", "time": "4:30pm"}, {"days": "Sat", "time": "1:00pm"}, {"days": "Sun", "time": "Closed"}], "id": "9080500008", "name": "USPS COLLECTION BOX - BLUE BOX", "address": {"city": "LONG BEACH", "state": "CA", "street": "5601 N PARAMOUNT BLVD", "postcode": "90805"}}},
{"geometry": {"type": "Point", "coordinates": [-118.1598629588, 33.8554731521]}, "type": "Feature", "properties": {"collection_times": [{"days": "Mon-Fri", "time": "4:30pm"}, {"days": "Sat", "time": "1:00pm"}, {"days": "Sun", "time": "Closed"}], "id": "9080500010", "name": "USPS COLLECTION BOX - BLUE BOX", "address": {"city": "LONG BEACH", "state": "CA", "street": "5441 N PARAMOUNT BLVD", "postcode": "90805"}}},
{"geometry": {"type": "Point", "coordinates": [-118.1980618729, 33.8465321832]}, "type": "Feature", "properties": {"collection_times": [{"days": "Mon-Sat", "time": "1:00pm"}, {"days": "Sun", "time": "Closed"}], "id": "9080500012", "name": "USPS COLLECTION BOX - BLUE BOX", "address": {"city": "LONG BEACH", "state": "CA", "street": "90 W DEL AMO BLVD", "postcode": "90805"}}},
{"geometry": {"type": "Point", "coordinates": [-118.1579245632, 33.8745588466]}, "type": "Feature", "properties": {"collection_times": [{"days": "Mon-Fri", "time": "4:00pm"}, {"days": "Sat", "time": "1:00pm"}, {"days": "Sun", "time": "Closed"}], "id": "9080500013", "name": "USPS COLLECTION BOX - BLUE BOX", "address": {"city": "LONG BEACH", "state": "CA", "street": "2990 E ARTESIA BLVD", "postcode": "90805"}}},
{"geometry": {"type": "Point", "coordinates": [-118.1733096533, 33.8782533929]}, "type": "Feature", "properties": {"collection_times": [{"days": "Mon-Fri", "time": "3:00pm"}, {"days": "Sat", "time": "1:00pm"}, {"days": "Sun", "time": "Closed"}], "id": "9080500014", "name": "USPS COLLECTION BOX - BLUE BOX", "address": {"city": "LONG BEACH", "state": "CA", "street": "1542 E 68TH ST", "postcode": "90805"}}},
{"geometry": {"type": "Point", "coordinates": [-118.1740649409, 33.8600796195]}, "type": "Feature", "properties": {"collection_times": [{"days": "Mon-Fri", "time": "2:45pm"}, {"days": "Sat", "time": "1:00pm"}, {"days": "Sun", "time": "Closed"}], "id": "9080500015", "name": "USPS COLLECTION BOX - BLUE BOX", "address": {"city": "LONG BEACH", "state": "CA", "street": "1536 SOUTH ST SW", "postcode": "90805"}}},
{"geometry": {"type": "Point", "coordinates": [-118.1795497619, 33.8500634807]}, "type": "Feature", "properties": {"collection_times": [{"days": "Mon-Fri", "time": "2:45pm"}, {"days": "Sat", "time": "1:00pm"}, {"days": "Sun", "time": "Closed"}], "id": "9080500016", "name": "USPS COLLECTION BOX - BLUE BOX", "address": {"city": "LONG BEACH", "state": "CA", "street": "1000 E VIA WANDA", "postcode": "90805"}}},
{"geometry": {"type": "Point", "coordinates": [-118.1483735737, 33.8602811909]}, "type": "Feature", "properties": {"collection_times": [{"days": "Mon-Fri", "time": "3:45pm"}, {"days": "Sat", "time": "1:00pm"}, {"days": "Sun", "time": "Closed"}], "id": "9080500017", "name": "USPS COLLECTION BOX - BLUE BOX", "address": {"city": "LONG BEACH", "state": "CA", "street": "3719 E SOUTH ST", "postcode": "90805"}}},
{"geometry": {"type": "Point", "coordinates": [-118.155649259, 33.8781481095]}, "type": "Feature", "properties": {"collection_times": [{"days": "Mon-Fri", "time": "4:15pm"}, {"days": "Sat", "time": "1:00pm"}, {"days": "Sun", "time": "Closed"}], "id": "9080500025", "name": "USPS COLLECTION BOX - BLUE BOX", "address": {"city": "LONG BEACH", "state": "CA", "street": "6790 OBISPO AVE", "postcode": "90805"}}},
{"geometry": {"type": "Point", "coordinates": [-118.155301469, 33.8747754935]}, "type": "Feature", "properties": {"collection_times": [{"days": "Mon-Fri", "time": "4:00pm"}, {"days": "Sat", "time": "1:00pm"}, {"days": "Sun", "time": "Closed"}], "id": "9080500026", "name": "USPS COLLECTION BOX - BLUE BOX", "address": {"city": "LONG BEACH", "state": "CA", "street": "3251 E ARTESIA BLVD", "postcode": "90805"}}},
{"geometry": {"type": "Point", "coordinates": [-118.1746049934, 33.8673772682]}, "type": "Feature", "properties": {"collection_times": [{"days": "Mon-Fri", "time": "3:00pm"}, {"days": "Sat", "time": "1:00pm"}, {"days": "Sun", "time": "Closed"}], "id": "9080500029", "name": "USPS COLLECTION BOX - BLUE BOX", "address": {"city": "LONG BEACH", "state": "CA", "street": "1438 E HARDING ST", "postcode": "90805"}}},
{"geometry": {"type": "Point", "coordinates": [-118.1510593782, 33.8676753738]}, "type": "Feature", "properties": {"collection_times": [{"days": "Mon-Fri", "time": "3:45pm"}, {"days": "Sat", "time": "1:00pm"}, {"days": "Sun", "time": "Closed"}], "id": "9080500030", "name": "USPS COLLECTION BOX - BLUE BOX", "address": {"city": "LONG BEACH", "state": "CA", "street": "6170 DOWNEY AVE", "postcode": "90805"}}},
{"geometry": {"type": "Point", "coordinates": [-118.1517172988, 33.8748424034]}, "type": "Feature", "properties": {"collection_times": [{"days": "Mon-Fri", "time": "4:15pm"}, {"days": "Sat", "time": "1:00pm"}, {"days": "Sun", "time": "Closed"}], "id": "9080500031", "name": "USPS COLLECTION BOX - BLUE BOX", "address": {"city": "LONG BEACH", "state": "CA", "street": "3463 E ARTESIA BLVD", "postcode": "90805"}}},
{"geometry": {"type": "Point", "coordinates": [-118.19194244, 33.8467866844]}, "type": "Feature", "properties": {"collection_times": [{"days": "Mon-Sat", "time": "1:00pm"}, {"days": "Sun", "time": "Closed"}], "id": "9080500032", "name": "USPS COLLECTION BOX - BLUE BOX", "address": {"city": "LONG BEACH", "state": "CA", "street": "225 E DEL AMO BLVD", "postcode": "90805"}}},
{"geometry": {"type": "Point", "coordinates": [-118.1895646925, 33.8479578138]}, "type": "Feature", "properties": {"collection_times": [{"days": "Mon-Sat", "time": "1:00pm"}, {"days": "Sun", "time": "Closed"}], "id": "9080500035", "name": "USPS COLLECTION BOX - BLUE BOX", "address": {"city": "LONG BEACH", "state": "CA", "street": "306 E HOME ST", "postcode": "90805"}}},
{"geometry": {"type": "Point", "coordinates": [-118.1799129303, 33.8601056194]}, "type": "Feature", "properties": {"collection_times": [{"days": "Mon-Fri", "time": "2:30pm"}, {"days": "Sat", "time": "1:00pm"}, {"days": "Sun", "time": "Closed"}], "id": "9080500039", "name": "USPS COLLECTION BOX - BLUE BOX", "address": {"city": "LONG BEACH", "state": "CA", "street": "1045 E SOUTH ST", "postcode": "90805"}}},
{"geometry": {"type": "Point", "coordinates": [-118.1919282445, 33.8619214614]}, "type": "Feature", "properties": {"collection_times": [{"days": "Mon-Fri", "time": "2:30pm"}, {"days": "Sat", "time": "1:00pm"}, {"days": "Sun", "time": "Closed"}], "id": "9080500040", "name": "USPS COLLECTION BOX - BLUE BOX", "address": {"city": "LONG BEACH", "state": "CA", "street": "186 E 59TH ST", "postcode": "90805"}}},
{"geometry": {"type": "Point", "coordinates": [-118.2069399938, 33.8776832067]}, "type": "Feature", "properties": {"collection_times": [{"days": "Mon-Fri", "time": "1:45pm"}, {"days": "Sat", "time": "1:00pm"}, {"days": "Sun", "time": "Closed"}], "id": "9080500041", "name": "USPS COLLECTION BOX - BLUE BOX", "address": {"city": "LONG BEACH", "state": "CA", "street": "299 W 68TH ST", "postcode": "90805"}}},
{"geometry": {"type": "Point", "coordinates": [-118.2006856897, 33.8743602749]}, "type": "Feature", "properties": {"collection_times": [{"days": "Mon-Fri", "time": "1:30pm"}, {"days": "Sat", "time": "1:00pm"}, {"days": "Sun", "time": "Closed"}], "id": "9080500044", "name": "USPS COLLECTION BOX - BLUE BOX", "address": {"city": "LONG BEACH", "state": "CA", "street": "191 E ARTESIA BLVD", "postcode": "90805"}}},
{"geometry": {"type": "Point", "coordinates": [-118.2042854338, 33.8794730236]}, "type": "Feature", "properties": {"collection_times": [{"days": "Mon-Fri", "time": "1:45pm"}, {"days": "Sat", "time": "1:00pm"}, {"days": "Sun", "time": "Closed"}], "id": "9080500045", "name": "USPS COLLECTION BOX - BLUE BOX", "address": {"city": "LONG BEACH", "state": "CA", "street": "6900 LONG BEACH BLVD", "postcode": "90805"}}},
{"geometry": {"type": "Point", "coordinates": [-118.1974349185, 33.8565886824]}, "type": "Feature", "properties": {"collection_times": [{"days": "Mon-Sat", "time": "1:00pm"}, {"days": "Sun", "time": "Closed"}], "id": "9080500046", "name": "USPS COLLECTION BOX - BLUE BOX", "address": {"city": "LONG BEACH", "state": "CA", "street": "5538 LONG BEACH BLVD", "postcode": "90805"}}},
{"geometry": {"type": "Point", "coordinates": [-118.196700301, 33.85455281]}, "type": "Feature", "properties": {"collection_times": [{"days": "Mon-Sat", "time": "1:00pm"}, {"days": "Sun", "time": "Closed"}], "id": "9080500050", "name": "USPS COLLECTION BOX - BLUE BOX", "address": {"city": "LONG BEACH", "state": "CA", "street": "5401 LONG BEACH BLVD", "postcode": "90805"}}},
{"geometry": {"type": "Point", "coordinates": [-118.1783371899, 33.8626519673]}, "type": "Feature", "properties": {"collection_times": [{"days": "Mon-Fri", "time": "1:15pm"}, {"days": "Sat", "time": "1:00pm"}, {"days": "Sun", "time": "Closed"}], "id": "9080500053", "name": "USPS COLLECTION BOX - BLUE BOX", "address": {"city": "LONG BEACH", "state": "CA", "street": "6230 LONG BEACH BLVD", "postcode": "90805"}}},
{"geometry": {"type": "Point", "coordinates": [-118.1820493542, 33.8657140278]}, "type": "Feature", "properties": {"collection_times": [{"days": "Mon-Fri", "time": "2:15pm"}, {"days": "Sat", "time": "1:00pm"}, {"days": "Sun", "time": "Closed"}], "id": "9080500058", "name": "USPS COLLECTION BOX - BLUE BOX", "address": {"city": "LONG BEACH", "state": "CA", "street": "6100 MYRTLE AVE", "postcode": "90805"}}},
{"geometry": {"type": "Point", "coordinates": [-118.1685967448, 33.8663303495]}, "type": "Feature", "properties": {"collection_times": [{"days": "Mon-Fri", "time": "3:30pm"}, {"days": "Sat", "time": "1:00pm"}, {"days": "Sun", "time": "Closed"}], "id": "9080500062", "name": "USPS COLLECTION BOX - BLUE BOX", "address": {"city": "LONG BEACH", "state": "CA", "street": "6145 CHERRY AVE", "postcode": "90805"}}},
{"geometry": {"type": "Point", "coordinates": [-118.1686239529, 33.8604723367]}, "type": "Feature", "properties": {"collection_times": [{"days": "Mon-Fri", "time": "3:30pm"}, {"days": "Sat", "time": "1:00pm"}, {"days": "Sun", "time": "Closed"}], "id": "9080500063", "name": "USPS COLLECTION BOX - BLUE BOX", "address": {"city": "LONG BEACH", "state": "CA", "street": "5801 CHERRY AVE", "postcode": "90805"}}},
{"geometry": {"type": "Point", "coordinates": [-118.1967121306, 33.8690594358]}, "type": "Feature", "properties": {"collection_times": [{"days": "Mon-Fri", "time": "1:30pm"}, {"days": "Sat", "time": "1:00pm"}, {"days": "Sun", "time": "Closed"}], "id": "9080500067", "name": "USPS COLLECTION BOX - BLUE BOX", "address": {"city": "LONG BEACH", "state": "CA", "street": "301 E SCOTT ST", "postcode": "90805"}}},
{"geometry": {"type": "Point", "coordinates": [-118.1850734696, 33.854195509]}, "type": "Feature", "properties": {"collection_times": [{"days": "Mon-Fri", "time": "2:45pm"}, {"days": "Sat", "time": "1:00pm"}, {"days": "Sun", "time": "Closed"}], "id": "9080500068", "name": "USPS COLLECTION BOX - BLUE BOX", "address": {"city": "LONG BEACH", "state": "CA", "street": "5395 ATLANTIC AVE", "postcode": "90805"}}},
{"geometry": {"type": "Point", "coordinates": [-118.1841939355, 33.8512489879]}, "type": "Feature", "properties": {"collection_times": [{"days": "Mon-Fri", "time": "2:45pm"}, {"days": "Sat", "time": "1:00pm"}, {"days": "Sun", "time": "Closed"}], "id": "9080500069", "name": "USPS COLLECTION BOX - BLUE BOX", "address": {"city": "LONG BEACH", "state": "CA", "street": "5180 N VIA VERANADA", "postcode": "90805"}}},
{"geometry": {"type": "Point", "coordinates": [-118.165577316, 33.8745323605]}, "type": "Feature", "properties": {"collection_times": [{"days": "Mon-Fri", "time": "3:15pm"}, {"days": "Sat", "time": "1:00pm"}, {"days": "Sun", "time": "Closed"}], "id": "9080500072", "name": "USPS COLLECTION BOX - BLUE BOX", "address": {"city": "LONG BEACH", "state": "CA", "street": "2300 E ARTESIA BLVD", "postcode": "90805"}}},
{"geometry": {"type": "Point", "coordinates": [-118.1557841163, 33.8709474383]}, "type": "Feature", "properties": {"collection_times": [{"days": "Mon-Fri", "time": "4:00pm"}, {"days": "Sat", "time": "1:00pm"}, {"days": "Sun", "time": "Closed"}], "id": "9080500079", "name": "USPS COLLECTION BOX - BLUE BOX", "address": {"city": "LONG BEACH", "state": "CA", "street": "3137 E 64TH ST", "postcode": "90805"}}},
{"geometry": {"type": "Point", "coordinates": [-118.1861028462, 33.8712650099]}, "type": "Feature", "properties": {"collection_times": [{"days": "Mon-Fri", "time": "2:00pm"}, {"days": "Sat", "time": "1:00pm"}, {"days": "Sun", "time": "Closed"}], "id": "9080500080", "name": "USPS COLLECTION BOX - BLUE BOX", "address": {"city": "LONG BEACH", "state": "CA", "street": "6475 ATLANTIC AVE SPC 407", "postcode": "90805"}}},
{"geometry": {"type": "Point", "coordinates": [-118.1733451421, 33.8746773079]}, "type": "Feature", "properties": {"collection_times": [{"days": "Mon-Fri", "time": "3:00pm"}, {"days": "Sat", "time": "1:00pm"}, {"days": "Sun", "time": "Closed"}], "id": "9080500081", "name": "USPS COLLECTION BOX - BLUE BOX", "address": {"city": "LONG BEACH", "state": "CA", "street": "1541 E ARTESIA BLVD", "postcode": "90805"}}},
{"geometry": {"type": "Point", "coordinates": [-118.2035834914, 33.8649272916]}, "type": "Feature", "properties": {"collection_times": [{"days": "Mon-Fri", "time": "1:15pm"}, {"days": "Sat", "time": "1:00pm"}, {"days": "Sun", "time": "Closed"}], "id": "9080500082", "name": "USPS COLLECTION BOX - BLUE BOX", "address": {"city": "LONG BEACH", "state": "CA", "street": "151 W VICTORIA ST", "postcode": "90805"}}},
{"geometry": {"type": "Point", "coordinates": [-118.1986864891, 33.8542618021]}, "type": "Feature", "properties": {"collection_times": [{"days": "Mon-Fri", "time": "5:00pm"}, {"days": "Sat", "time": "1:00pm"}, {"days": "Sun", "time": "Closed"}], "id": "9080500084", "name": "USPS COLLECTION BOX - PO LOBBY", "address": {"city": "LONG BEACH", "state": "CA", "street": "101 E MARKET ST LBBY", "postcode": "90805"}}},
{"geometry": {"type": "Point", "coordinates": [-118.193646206, 33.792250413]}, "type": "Feature", "properties": {"collection_times": [{"days": "Mon-Sat", "time": "5:00pm"}, {"days": "Sun", "time": "Closed"}], "id": "9080600001", "name": "USPS COLLECTION BOX - BLUE BOX", "address": {"city": "LONG BEACH", "state": "CA", "street": "1920 PACIFIC AVE", "postcode": "90806"}}},
{"geometry": {"type": "Point", "coordinates": [-118.1850836439, 33.80940873]}, "type": "Feature", "properties": {"collection_times": [{"days": "Mon-Fri", "time": "4:45pm"}, {"days": "Sat", "time": "1:00pm"}, {"days": "Sun", "time": "Closed"}], "id": "9080600004", "name": "USPS COLLECTION BOX - BLUE BOX", "address": {"city": "LONG BEACH", "state": "CA", "street": "2865 ATLANTIC AVE", "postcode": "90806"}}},
{"geometry": {"type": "Point", "coordinates": [-118.189348211, 33.8092561283]}, "type": "Feature", "properties": {"collection_times": [{"days": "Mon-Fri", "time": "4:30pm"}, {"days": "Sat", "time": "1:00pm"}, {"days": "Sun", "time": "Closed"}], "id": "9080600015", "name": "USPS COLLECTION BOX - BLUE BOX", "address": {"city": "LONG BEACH", "state": "CA", "street": "2860 LONG BEACH BLVD", "postcode": "90806"}}},
{"geometry": {"type": "Point", "coordinates": [-118.1850836439, 33.80940873]}, "type": "Feature", "properties": {"collection_times": [{"days": "Mon-Fri", "time": "4:45pm"}, {"days": "Sat", "time": "1:00pm"}, {"days": "Sun", "time": "Closed"}], "id": "9080600017", "name": "USPS COLLECTION BOX - BLUE BOX", "address": {"city": "LONG BEACH", "state": "CA", "street": "2865 ATLANTIC AVE", "postcode": "90806"}}},
{"geometry": {"type": "Point", "coordinates": [-118.1808569315, 33.793495566]}, "type": "Feature", "properties": {"collection_times": [{"days": "Mon-Sat", "time": "1:00pm"}, {"days": "Sun", "time": "Closed"}], "id": "9080600020", "name": "USPS COLLECTION BOX - BLUE BOX", "address": {"city": "LONG BEACH", "state": "CA", "street": "940 E 20TH ST", "postcode": "90806"}}},
{"geometry": {"type": "Point", "coordinates": [-118.1883012923, 33.8055203439]}, "type": "Feature", "properties": {"collection_times": [{"days": "Mon-Fri", "time": "4:30pm"}, {"days": "Sat", "time": "1:00pm"}, {"days": "Sun", "time": "Closed"}], "id": "9080600021", "name": "USPS COLLECTION BOX - BLUE BOX", "address": {"city": "LONG BEACH", "state": "CA", "street": "2650 ELM AVE", "postcode": "90806"}}},
{"geometry": {"type": "Point", "coordinates": [-118.1891997037, 33.8014916699]}, "type": "Feature", "properties": {"collection_times": [{"days": "Mon-Sat", "time": "1:00pm"}, {"days": "Sun", "time": "Closed"}], "id": "9080600027", "name": "USPS COLLECTION BOX - EXPRESS", "address": {"city": "LONG BEACH", "state": "CA", "street": "1920 PACIFIC AVE", "postcode": "90806"}}},
{"geometry": {"type": "Point", "coordinates": [-118.1923434631, 33.7998468727]}, "type": "Feature", "properties": {"collection_times": [{"days": "Mon-Sat", "time": "1:00pm"}, {"days": "Sun", "time": "Closed"}], "id": "9080600029", "name": "USPS COLLECTION BOX - BLUE BOX", "address": {"city": "LONG BEACH", "state": "CA", "street": "100 E EAGLE ST", "postcode": "90806"}}},
{"geometry": {"type": "Point", "coordinates": [-118.2023879677, 33.8114315898]}, "type": "Feature", "properties": {"collection_times": [{"days": "Mon-Sat", "time": "1:00pm"}, {"days": "Sun", "time": "Closed"}], "id": "9080600030", "name": "USPS COLLECTION BOX - BLUE BOX", "address": {"city": "LONG BEACH", "state": "CA", "street": "2989 GOLDEN AVE", "postcode": "90806"}}},
{"geometry": {"type": "Point", "coordinates": [-118.1953647403, 33.8180620748]}, "type": "Feature", "properties": {"collection_times": [{"days": "Mon-Sat", "time": "3:00pm"}, {"days": "Sun", "time": "Closed"}], "id": "9080600032", "name": "USPS COLLECTION BOX - BLUE BOX", "address": {"city": "LONG BEACH", "state": "CA", "street": "3333 PACIFIC PL", "postcode": "90806"}}},
{"geometry": {"type": "Point", "coordinates": [-118.1980784482, 33.8193171943]}, "type": "Feature", "properties": {"collection_times": [{"days": "Mon-Sat", "time": "1:00pm"}, {"days": "Sun", "time": "Closed"}], "id": "9080600033", "name": "USPS COLLECTION BOX - BLUE BOX", "address": {"city": "LONG BEACH", "state": "CA", "street": "3405 MAGNOLIA AVE", "postcode": "90806"}}},
{"geometry": {"type": "Point", "coordinates": [-118.189348211, 33.8092561283]}, "type": "Feature", "properties": {"collection_times": [{"days": "Mon-Fri", "time": "4:30pm"}, {"days": "Sat", "time": "1:00pm"}, {"days": "Sun", "time": "Closed"}], "id": "9080600034", "name": "USPS COLLECTION BOX - BLUE BOX", "address": {"city": "LONG BEACH", "state": "CA", "street": "2860 LONG BEACH BLVD", "postcode": "90806"}}},
{"geometry": {"type": "Point", "coordinates": [-118.1948111155, 33.8096819935]}, "type": "Feature", "properties": {"collection_times": [{"days": "Mon-Fri", "time": "3:00pm"}, {"days": "Sat", "time": "1:00pm"}, {"days": "Sun", "time": "Closed"}], "id": "9080600045", "name": "USPS COLLECTION BOX - BLUE BOX", "address": {"city": "LONG BEACH", "state": "CA", "street": "2890 CEDAR AVE", "postcode": "90806"}}},
{"geometry": {"type": "Point", "coordinates": [-118.18470628, 33.8080175702]}, "type": "Feature", "properties": {"collection_times": [{"days": "Mon-Sat", "time": "1:00pm"}, {"days": "Sun", "time": "Closed"}], "id": "9080600046", "name": "USPS COLLECTION BOX - BLUE BOX", "address": {"city": "LONG BEACH", "state": "CA", "street": "701 E 28TH ST", "postcode": "90806"}}},
{"geometry": {"type": "Point", "coordinates": [-118.1985225081, 33.804504602]}, "type": "Feature", "properties": {"collection_times": [{"days": "Mon-Fri", "time": "2:00pm"}, {"days": "Sat", "time": "1:00pm"}, {"days": "Sun", "time": "Closed"}], "id": "9080600052", "name": "USPS COLLECTION BOX - BLUE BOX", "address": {"city": "LONG BEACH", "state": "CA", "street": "541 W WILLOW ST", "postcode": "90806"}}},
{"geometry": {"type": "Point", "coordinates": [-118.1850836439, 33.80940873]}, "type": "Feature", "properties": {"collection_times": [{"days": "Mon-Fri", "time": "4:45pm"}, {"days": "Sat", "time": "1:00pm"}, {"days": "Sun", "time": "Closed"}], "id": "9080600066", "name": "USPS COLLECTION BOX - BLUE BOX", "address": {"city": "LONG BEACH", "state": "CA", "street": "2865 ATLANTIC AVE", "postcode": "90806"}}},
{"geometry": {"type": "Point", "coordinates": [-118.193731074, 33.8118917609]}, "type": "Feature", "properties": {"collection_times": [{"days": "Mon-Sat", "time": "1:00pm"}, {"days": "Sun", "time": "Closed"}], "id": "9080600077", "name": "USPS COLLECTION BOX - BLUE BOX", "address": {"city": "LONG BEACH", "state": "CA", "street": "3001 PACIFIC AVE", "postcode": "90806"}}},
{"geometry": {"type": "Point", "coordinates": [-118.2023926995, 33.7936410699]}, "type": "Feature", "properties": {"collection_times": [{"days": "Mon-Sat", "time": "1:00pm"}, {"days": "Sun", "time": "Closed"}], "id": "9080600078", "name": "USPS COLLECTION BOX - BLUE BOX", "address": {"city": "LONG BEACH", "state": "CA", "street": "2001 GOLDEN AVE", "postcode": "90806"}}},
{"geometry": {"type": "Point", "coordinates": [-118.1891997037, 33.8014916699]}, "type": "Feature", "properties": {"collection_times": [{"days": "Mon-Fri", "time": "4:30pm"}, {"days": "Sat", "time": "1:00pm"}, {"days": "Sun", "time": "Closed"}], "id": "9080600086", "name": "USPS COLLECTION BOX - BLUE BOX", "address": {"city": "LONG BEACH", "state": "CA", "street": "2801 ATLANTIC AVE", "postcode": "90806"}}},
{"geometry": {"type": "Point", "coordinates": [-118.1936565475, 33.7921836645]}, "type": "Feature", "properties": {"collection_times": [{"days": "Mon-Fri", "time": "5:00pm"}, {"days": "Sat-Sun", "time": "Closed"}], "id": "9080600092", "name": "USPS COLLECTION BOX - PO LOBBY", "address": {"city": "LONG BEACH", "state": "CA", "street": "1920 PACIFIC AVE LBBY", "postcode": "90806"}}},
{"geometry": {"type": "Point", "coordinates": [-118.1676361822, 33.8164745439]}, "type": "Feature", "properties": {"collection_times": [{"days": "Mon-Fri", "time": "3:00pm"}, {"days": "Sat", "time": "1:00pm"}, {"days": "Sun", "time": "Closed"}], "id": "9080700002", "name": "USPS COLLECTION BOX - BLUE BOX", "address": {"city": "LONG BEACH", "state": "CA", "street": "3275 CHERRY AVE", "postcode": "90807"}}},
{"geometry": {"type": "Point", "coordinates": [-118.1762609571, 33.819157098]}, "type": "Feature", "properties": {"collection_times": [{"days": "Mon-Fri", "time": "4:00pm"}, {"days": "Sat", "time": "1:00pm"}, {"days": "Sun", "time": "Closed"}], "id": "9080700003", "name": "USPS COLLECTION BOX - BLUE BOX", "address": {"city": "LONG BEACH", "state": "CA", "street": "3414 ORANGE AVE", "postcode": "90807"}}},
{"geometry": {"type": "Point", "coordinates": [-118.1752343276, 33.8223041657]}, "type": "Feature", "properties": {"collection_times": [{"days": "Mon-Sat", "time": "1:00pm"}, {"days": "Sun", "time": "Closed"}], "id": "9080700005", "name": "USPS COLLECTION BOX - BLUE BOX", "address": {"city": "LONG BEACH", "state": "CA", "street": "3601 BRAYTON AVE", "postcode": "90807"}}},
{"geometry": {"type": "Point", "coordinates": [-118.1895055445, 33.8349405333]}, "type": "Feature", "properties": {"collection_times": [{"days": "Mon-Fri", "time": "5:00pm"}, {"days": "Sat", "time": "1:00pm"}, {"days": "Sun", "time": "Closed"}], "id": "9080700008", "name": "USPS COLLECTION BOX - BLUE BOX", "address": {"city": "LONG BEACH", "state": "CA", "street": "3711 LONG BEACH BLVD", "postcode": "90807"}}},
{"geometry": {"type": "Point", "coordinates": [-118.185082461, 33.8369420999]}, "type": "Feature", "properties": {"collection_times": [{"days": "Mon-Fri", "time": "4:15pm"}, {"days": "Sat", "time": "1:00pm"}, {"days": "Sun", "time": "Closed"}], "id": "9080700010", "name": "USPS COLLECTION BOX - BLUE BOX", "address": {"city": "LONG BEACH", "state": "CA", "street": "4401 ATLANTIC AVE", "postcode": "90807"}}},
{"geometry": {"type": "Point", "coordinates": [-118.1861696003, 33.8397102239]}, "type": "Feature", "properties": {"collection_times": [{"days": "Mon-Fri", "time": "1:30pm"}, {"days": "Sat", "time": "1:00pm"}, {"days": "Sun", "time": "Closed"}], "id": "9080700011", "name": "USPS COLLECTION BOX - BLUE BOX", "address": {"city": "LONG BEACH", "state": "CA", "street": "4496 LINDEN AVE", "postcode": "90807"}}},
{"geometry": {"type": "Point", "coordinates": [-118.1719468846, 33.8332181451]}, "type": "Feature", "properties": {"collection_times": [{"days": "Mon-Fri", "time": "2:00pm"}, {"days": "Sat", "time": "1:00pm"}, {"days": "Sun", "time": "Closed"}], "id": "9080700012", "name": "USPS COLLECTION BOX - BLUE BOX", "address": {"city": "LONG BEACH", "state": "CA", "street": "4123 WALNUT AVE", "postcode": "90807"}}},
{"geometry": {"type": "Point", "coordinates": [-118.1762544297, 33.8269569468]}, "type": "Feature", "properties": {"collection_times": [{"days": "Mon-Fri", "time": "4:00pm"}, {"days": "Sat", "time": "1:00pm"}, {"days": "Sun", "time": "Closed"}], "id": "9080700015", "name": "USPS COLLECTION BOX - BLUE BOX", "address": {"city": "LONG BEACH", "state": "CA", "street": "3810 ORANGE AVE", "postcode": "90807"}}},
{"geometry": {"type": "Point", "coordinates": [-118.1850761211, 33.826716725]}, "type": "Feature", "properties": {"collection_times": [{"days": "Mon-Fri", "time": "4:30pm"}, {"days": "Sat", "time": "1:00pm"}, {"days": "Sun", "time": "Closed"}], "id": "9080700016", "name": "USPS COLLECTION BOX - BLUE BOX", "address": {"city": "LONG BEACH", "state": "CA", "street": "3801 ATLANTIC AVE", "postcode": "90807"}}},
{"geometry": {"type": "Point", "coordinates": [-118.1849428718, 33.8278191204]}, "type": "Feature", "properties": {"collection_times": [{"days": "Mon-Sat", "time": "1:00pm"}, {"days": "Sun", "time": "Closed"}], "id": "9080700017", "name": "USPS COLLECTION BOX - BLUE BOX", "address": {"city": "LONG BEACH", "state": "CA", "street": "3826 ATLANTIC AVE", "postcode": "90807"}}},
{"geometry": {"type": "Point", "coordinates": [-118.1851431766, 33.8280860409]}, "type": "Feature", "properties": {"collection_times": [{"days": "Mon-Fri", "time": "4:30pm"}, {"days": "Sat", "time": "1:00pm"}, {"days": "Sun", "time": "Closed"}], "id": "9080700018", "name": "USPS COLLECTION BOX - BLUE BOX", "address": {"city": "LONG BEACH", "state": "CA", "street": "3853 ATLANTIC AVE", "postcode": "90807"}}},
{"geometry": {"type": "Point", "coordinates": [-118.1893446621, 33.8232623624]}, "type": "Feature", "properties": {"collection_times": [{"days": "Mon-Fri", "time": "1:15pm"}, {"days": "Sat", "time": "1:00pm"}, {"days": "Sun", "time": "Closed"}], "id": "9080700019", "name": "USPS COLLECTION BOX - BLUE BOX", "address": {"city": "LONG BEACH", "state": "CA", "street": "3626 LONG BEACH BLVD", "postcode": "90807"}}},
{"geometry": {"type": "Point", "coordinates": [-118.1893422962, 33.8246274971]}, "type": "Feature", "properties": {"collection_times": [{"days": "Mon-Fri", "time": "5:00pm"}, {"days": "Sat", "time": "1:00pm"}, {"days": "Sun", "time": "Closed"}], "id": "9080700021", "name": "USPS COLLECTION BOX - BLUE BOX", "address": {"city": "LONG BEACH", "state": "CA", "street": "3711 LONG BEACH BLVD", "postcode": "90807"}}},
{"geometry": {"type": "Point", "coordinates": [-118.1899337012, 33.8363050134]}, "type": "Feature", "properties": {"collection_times": [{"days": "Mon-Fri", "time": "2:30pm"}, {"days": "Sat", "time": "1:00pm"}, {"days": "Sun", "time": "Closed"}], "id": "9080700023", "name": "USPS COLLECTION BOX - BLUE BOX", "address": {"city": "LONG BEACH", "state": "CA", "street": "3777 LONG BEACH BLVD", "postcode": "90807"}}},
{"geometry": {"type": "Point", "coordinates": [-118.1825988383, 33.8221802479]}, "type": "Feature", "properties": {"collection_times": [{"days": "Mon-Sat", "time": "1:00pm"}, {"days": "Sun", "time": "Closed"}], "id": "9080700024", "name": "USPS COLLECTION BOX - BLUE BOX", "address": {"city": "LONG BEACH", "state": "CA", "street": "3600 OLIVE AVE", "postcode": "90807"}}},
{"geometry": {"type": "Point", "coordinates": [-118.1773760835, 33.840790343]}, "type": "Feature", "properties": {"collection_times": [{"days": "Mon-Fri", "time": "4:15pm"}, {"days": "Sat", "time": "1:00pm"}, {"days": "Sun", "time": "Closed"}], "id": "9080700032", "name": "USPS COLLECTION BOX - BLUE BOX", "address": {"city": "LONG BEACH", "state": "CA", "street": "1150 E SAN ANTONIO DR", "postcode": "90807"}}},
{"geometry": {"type": "Point", "coordinates": [-118.1763120032, 33.8329354179]}, "type": "Feature", "properties": {"collection_times": [{"days": "Mon-Fri", "time": "4:00pm"}, {"days": "Sat", "time": "1:00pm"}, {"days": "Sun", "time": "Closed"}], "id": "9080700033", "name": "USPS COLLECTION BOX - BLUE BOX", "address": {"city": "LONG BEACH", "state": "CA", "street": "4100 ORANGE AVE", "postcode": "90807"}}},
{"geometry": {"type": "Point", "coordinates": [-118.1739283409, 33.8294563356]}, "type": "Feature", "properties": {"collection_times": [{"days": "Mon-Fri", "time": "2:15pm"}, {"days": "Sat", "time": "1:00pm"}, {"days": "Sun", "time": "Closed"}], "id": "9080700034", "name": "USPS COLLECTION BOX - BLUE BOX", "address": {"city": "LONG BEACH", "state": "CA", "street": "1400 E ROOSEVELT RD", "postcode": "90807"}}},
{"geometry": {"type": "Point", "coordinates": [-118.1687889686, 33.8323655675]}, "type": "Feature", "properties": {"collection_times": [{"days": "Mon-Fri", "time": "2:00pm"}, {"days": "Sat", "time": "1:00pm"}, {"days": "Sun", "time": "Closed"}], "id": "9080700035", "name": "USPS COLLECTION BOX - BLUE BOX", "address": {"city": "LONG BEACH", "state": "CA", "street": "1898 E CARSON ST", "postcode": "90807"}}},
{"geometry": {"type": "Point", "coordinates": [-118.1970509507, 33.8245188449]}, "type": "Feature", "properties": {"collection_times": [{"days": "Mon-Fri", "time": "1:30pm"}, {"days": "Sat", "time": "1:00pm"}, {"days": "Sun", "time": "Closed"}], "id": "9080700037", "name": "USPS COLLECTION BOX - BLUE BOX", "address": {"city": "LONG BEACH", "state": "CA", "street": "3725 COUNTRY CLUB DR", "postcode": "90807"}}},
{"geometry": {"type": "Point", "coordinates": [-118.1879464046, 33.8217801148]}, "type": "Feature", "properties": {"collection_times": [{"days": "Mon-Sat", "time": "1:00pm"}, {"days": "Sun", "time": "Closed"}], "id": "9080700039", "name": "USPS COLLECTION BOX - BLUE BOX", "address": {"city": "LONG BEACH", "state": "CA", "street": "3595 ELM AVE", "postcode": "90807"}}},
{"geometry": {"type": "Point", "coordinates": [-118.1808533827, 33.8324314774]}, "type": "Feature", "properties": {"collection_times": [{"days": "Mon-Fri", "time": "2:15pm"}, {"days": "Sat", "time": "1:00pm"}, {"days": "Sun", "time": "Closed"}], "id": "9080700040", "name": "USPS COLLECTION BOX - BLUE BOX", "address": {"city": "LONG BEACH", "state": "CA", "street": "953 E CARSON ST", "postcode": "90807"}}},
{"geometry": {"type": "Point", "coordinates": [-118.1851331917, 33.8339957083]}, "type": "Feature", "properties": {"collection_times": [{"days": "Mon-Fri", "time": "4:00pm"}, {"days": "Sat", "time": "1:00pm"}, {"days": "Sun", "time": "Closed"}], "id": "9080700042", "name": "USPS COLLECTION BOX - BLUE BOX", "address": {"city": "LONG BEACH", "state": "CA", "street": "4267 ATLANTIC AVE", "postcode": "90807"}}},
{"geometry": {"type": "Point", "coordinates": [-118.1939440066, 33.8320825045]}, "type": "Feature", "properties": {"collection_times": [{"days": "Mon-Fri", "time": "1:30pm"}, {"days": "Sat", "time": "1:00pm"}, {"days": "Sun", "time": "Closed"}], "id": "9080700046", "name": "USPS COLLECTION BOX - BLUE BOX", "address": {"city": "LONG BEACH", "state": "CA", "street": "105 W SAN ANTONIO DR", "postcode": "90807"}}},
{"geometry": {"type": "Point", "coordinates": [-118.1719053895, 33.8189277545]}, "type": "Feature", "properties": {"collection_times": [{"days": "Mon-Sat", "time": "1:00pm"}, {"days": "Sun", "time": "Closed"}], "id": "9080700048", "name": "USPS COLLECTION BOX - BLUE BOX", "address": {"city": "LONG BEACH", "state": "CA", "street": "3400 WALNUT AVE", "postcode": "90807"}}},
{"geometry": {"type": "Point", "coordinates": [-118.185082461, 33.8369420999]}, "type": "Feature", "properties": {"collection_times": [{"days": "Mon-Fri", "time": "4:15pm"}, {"days": "Sat", "time": "1:00pm"}, {"days": "Sun", "time": "Closed"}], "id": "9080700050", "name": "USPS COLLECTION BOX - BLUE BOX", "address": {"city": "LONG BEACH", "state": "CA", "street": "4401 ATLANTIC AVE", "postcode": "90807"}}},
{"geometry": {"type": "Point", "coordinates": [-118.1893588576, 33.8206929756]}, "type": "Feature", "properties": {"collection_times": [{"days": "Mon-Fri", "time": "1:15pm"}, {"days": "Sat", "time": "1:00pm"}, {"days": "Sun", "time": "Closed"}], "id": "9080700062", "name": "USPS COLLECTION BOX - BLUE BOX", "address": {"city": "LONG BEACH", "state": "CA", "street": "3520 LONG BEACH BLVD", "postcode": "90807"}}},
{"geometry": {"type": "Point", "coordinates": [-118.1785164465, 33.8188538691]}, "type": "Feature", "properties": {"collection_times": [{"days": "Mon-Sat", "time": "1:00pm"}, {"days": "Sun", "time": "Closed"}], "id": "9080700064", "name": "USPS COLLECTION BOX - BLUE BOX", "address": {"city": "LONG BEACH", "state": "CA", "street": "1098 E WARDLOW RD", "postcode": "90807"}}},
{"geometry": {"type": "Point", "coordinates": [-118.1899337012, 33.8363050134]}, "type": "Feature", "properties": {"collection_times": [{"days": "Mon-Fri", "time": "5:00pm"}, {"days": "Sat", "time": "1:00pm"}, {"days": "Sun", "time": "Closed"}], "id": "9080700066", "name": "USPS COLLECTION BOX - BLUE BOX", "address": {"city": "LONG BEACH", "state": "CA", "street": "4300 LONG BEACH BLVD", "postcode": "90807"}}},
{"geometry": {"type": "Point", "coordinates": [-118.1899337012, 33.8363050134]}, "type": "Feature", "properties": {"collection_times": [{"days": "Mon-Fri", "time": "5:00pm"}, {"days": "Sat", "time": "1:00pm"}, {"days": "Sun", "time": "Closed"}], "id": "9080700067", "name": "USPS COLLECTION BOX - BLUE BOX", "address": {"city": "LONG BEACH", "state": "CA", "street": "4300 LONG BEACH BLVD", "postcode": "90807"}}},
{"geometry": {"type": "Point", "coordinates": [-118.1893434792, 33.8226626022]}, "type": "Feature", "properties": {"collection_times": [{"days": "Mon-Fri", "time": "5:00pm"}, {"days": "Sat", "time": "1:00pm"}, {"days": "Sun", "time": "Closed"}], "id": "9080700068", "name": "USPS COLLECTION BOX - BLUE BOX", "address": {"city": "LONG BEACH", "state": "CA", "street": "3605 LONG BEACH BLVD", "postcode": "90807"}}},
{"geometry": {"type": "Point", "coordinates": [-118.1813265537, 33.8325019741]}, "type": "Feature", "properties": {"collection_times": [{"days": "Mon-Fri", "time": "3:00pm"}, {"days": "Sat", "time": "1:00pm"}, {"days": "Sun", "time": "Closed"}], "id": "9080700070", "name": "USPS COLLECTION BOX - BLUE BOX", "address": {"city": "LONG BEACH", "state": "CA", "street": "1598 E 33RD ST", "postcode": "90807"}}},
{"geometry": {"type": "Point", "coordinates": [-118.1893434792, 33.8264184969]}, "type": "Feature", "properties": {"collection_times": [{"days": "Mon-Fri", "time": "2:30pm"}, {"days": "Sat", "time": "1:00pm"}, {"days": "Sun", "time": "Closed"}], "id": "9080700072", "name": "USPS COLLECTION BOX - BLUE BOX", "address": {"city": "LONG BEACH", "state": "CA", "street": "3777 LONG BEACH BLVD", "postcode": "90807"}}},
{"geometry": {"type": "Point", "coordinates": [-118.1895055445, 33.8349405333]}, "type": "Feature", "properties": {"collection_times": [{"days": "Mon-Fri", "time": "5:00pm"}, {"days": "Sat", "time": "1:00pm"}, {"days": "Sun", "time": "Closed"}], "id": "9080700074", "name": "USPS COLLECTION BOX - BLUE BOX", "address": {"city": "LONG BEACH", "state": "CA", "street": "4201 LONG BEACH BLVD", "postcode": "90807"}}},
{"geometry": {"type": "Point", "coordinates": [-118.1895055445, 33.8349405333]}, "type": "Feature", "properties": {"collection_times": [{"days": "Mon-Fri", "time": "5:00pm"}, {"days": "Sat", "time": "1:00pm"}, {"days": "Sun", "time": "Closed"}], "id": "9080700075", "name": "USPS COLLECTION BOX - BLUE BOX", "address": {"city": "LONG BEACH", "state": "CA", "street": "4201 LONG BEACH BLVD", "postcode": "90807"}}},
{"geometry": {"type": "Point", "coordinates": [-118.1893434792, 33.8226626022]}, "type": "Feature", "properties": {"collection_times": [{"days": "Mon-Fri", "time": "5:00pm"}, {"days": "Sat", "time": "1:00pm"}, {"days": "Sun", "time": "Closed"}], "id": "9080700078", "name": "USPS COLLECTION BOX - BLUE BOX", "address": {"city": "LONG BEACH", "state": "CA", "street": "3605 LONG BEACH BLVD", "postcode": "90807"}}},
{"geometry": {"type": "Point", "coordinates": [-118.1893434792, 33.8226626022]}, "type": "Feature", "properties": {"collection_times": [{"days": "Mon-Fri", "time": "5:00pm"}, {"days": "Sat", "time": "1:00pm"}, {"days": "Sun", "time": "Closed"}], "id": "9080700079", "name": "USPS COLLECTION BOX - BLUE BOX", "address": {"city": "LONG BEACH", "state": "CA", "street": "3605 LONG BEACH BLVD", "postcode": "90807"}}},
{"geometry": {"type": "Point", "coordinates": [-118.1851431766, 33.8280860409]}, "type": "Feature", "properties": {"collection_times": [{"days": "Mon-Fri", "time": "4:30pm"}, {"days": "Sat", "time": "1:00pm"}, {"days": "Sun", "time": "Closed"}], "id": "9080700087", "name": "USPS COLLECTION BOX - BLUE BOX", "address": {"city": "LONG BEACH", "state": "CA", "street": "3853 ATLANTIC AVE", "postcode": "90807"}}},
{"geometry": {"type": "Point", "coordinates": [-118.1893588576, 33.8208834319]}, "type": "Feature", "properties": {"collection_times": [{"days": "Mon-Sat", "time": "1:00pm"}, {"days": "Sun", "time": "Closed"}], "id": "9080700093", "name": "USPS COLLECTION BOX - BLUE BOX", "address": {"city": "LONG BEACH", "state": "CA", "street": "3545 LONG BEACH BLVD", "postcode": "90807"}}},
{"geometry": {"type": "Point", "coordinates": [-118.1625116039, 33.8189232689]}, "type": "Feature", "properties": {"collection_times": [{"days": "Mon-Fri", "time": "3:30pm"}, {"days": "Sat", "time": "1:00pm"}, {"days": "Sun", "time": "Closed"}], "id": "9080700095", "name": "USPS COLLECTION BOX - BLUE BOX", "address": {"city": "LONG BEACH", "state": "CA", "street": "2401 E WARDLOW RD", "postcode": "90807"}}},
{"geometry": {"type": "Point", "coordinates": [-118.1264372588, 33.833483298]}, "type": "Feature", "properties": {"collection_times": [{"days": "Mon-Fri", "time": "5:00pm"}, {"days": "Sat", "time": "1:00pm"}, {"days": "Sun", "time": "Closed"}], "id": "9080800003", "name": "USPS COLLECTION BOX - BLUE BOX", "address": {"city": "LONG BEACH", "state": "CA", "street": "5405 E VILLAGE RD", "postcode": "90808"}}},
{"geometry": {"type": "Point", "coordinates": [-118.1264372588, 33.833483298]}, "type": "Feature", "properties": {"collection_times": [{"days": "Mon-Fri", "time": "5:00pm"}, {"days": "Sat", "time": "1:00pm"}, {"days": "Sun", "time": "Closed"}], "id": "9080800004", "name": "USPS COLLECTION BOX - BLUE BOX", "address": {"city": "LONG BEACH", "state": "CA", "street": "5405 E VILLAGE RD", "postcode": "90808"}}},
{"geometry": {"type": "Point", "coordinates": [-118.1165773073, 33.8287844149]}, "type": "Feature", "properties": {"collection_times": [{"days": "Mon-Fri", "time": "2:00pm"}, {"days": "Sat", "time": "1:00pm"}, {"days": "Sun", "time": "Closed"}], "id": "9080800005", "name": "USPS COLLECTION BOX - BLUE BOX", "address": {"city": "LONG BEACH", "state": "CA", "street": "3840 WOODRUFF AVE", "postcode": "90808"}}},
{"geometry": {"type": "Point", "coordinates": [-118.1153259201, 33.8249633896]}, "type": "Feature", "properties": {"collection_times": [{"days": "Mon-Fri", "time": "5:00pm"}, {"days": "Sat", "time": "1:00pm"}, {"days": "Sun", "time": "Closed"}], "id": "9080800006", "name": "USPS COLLECTION BOX - EXPRESS", "address": {"city": "LONG BEACH", "state": "CA", "street": "5405 E VILLAGE RD", "postcode": "90808"}}},
{"geometry": {"type": "Point", "coordinates": [-118.1254790735, 33.8114363217]}, "type": "Feature", "properties": {"collection_times": [{"days": "Mon-Sat", "time": "5:00pm"}, {"days": "Sun", "time": "Closed"}], "id": "9080800008", "name": "USPS COLLECTION BOX - BLUE BOX", "address": {"city": "LONG BEACH", "state": "CA", "street": "3019 N BELLFLOWER BLVD", "postcode": "90808"}}},
{"geometry": {"type": "Point", "coordinates": [-118.1254790735, 33.8114363217]}, "type": "Feature", "properties": {"collection_times": [{"days": "Mon-Sat", "time": "5:00pm"}, {"days": "Sun", "time": "Closed"}], "id": "9080800010", "name": "USPS COLLECTION BOX - BLUE BOX", "address": {"city": "LONG BEACH", "state": "CA", "street": "3019 N BELLFLOWER BLVD", "postcode": "90808"}}},
{"geometry": {"type": "Point", "coordinates": [-118.1254790735, 33.8114363217]}, "type": "Feature", "properties": {"collection_times": [{"days": "Mon-Sat", "time": "5:00pm"}, {"days": "Sun", "time": "Closed"}], "id": "9080800011", "name": "USPS COLLECTION BOX - BLUE BOX", "address": {"city": "LONG BEACH", "state": "CA", "street": "3019 N BELLFLOWER BLVD", "postcode": "90808"}}},
{"geometry": {"type": "Point", "coordinates": [-118.107850619, 33.8149508927]}, "type": "Feature", "properties": {"collection_times": [{"days": "Mon-Fri", "time": "1:30pm"}, {"days": "Sat", "time": "1:00pm"}, {"days": "Sun", "time": "Closed"}], "id": "9080800014", "name": "USPS COLLECTION BOX - BLUE BOX", "address": {"city": "LONG BEACH", "state": "CA", "street": "3160 PALO VERDE AVE", "postcode": "90808"}}},
{"geometry": {"type": "Point", "coordinates": [-118.0993155701, 33.8261996495]}, "type": "Feature", "properties": {"collection_times": [{"days": "Mon-Fri", "time": "1:45pm"}, {"days": "Sat", "time": "1:00pm"}, {"days": "Sun", "time": "Closed"}], "id": "9080800015", "name": "USPS COLLECTION BOX - BLUE BOX", "address": {"city": "LONG BEACH", "state": "CA", "street": "3759 N STUDEBAKER RD", "postcode": "90808"}}},
{"geometry": {"type": "Point", "coordinates": [-118.1004062583, 33.8139382799]}, "type": "Feature", "properties": {"collection_times": [{"days": "Mon-Fri", "time": "1:30pm"}, {"days": "Sat", "time": "1:00pm"}, {"days": "Sun", "time": "Closed"}], "id": "9080800016", "name": "USPS COLLECTION BOX - BLUE BOX", "address": {"city": "LONG BEACH", "state": "CA", "street": "6816 E ROSEBAY ST", "postcode": "90808"}}},
{"geometry": {"type": "Point", "coordinates": [-118.120882095, 33.827917306]}, "type": "Feature", "properties": {"collection_times": [{"days": "Mon-Fri", "time": "2:00pm"}, {"days": "Sat", "time": "1:00pm"}, {"days": "Sun", "time": "Closed"}], "id": "9080800020", "name": "USPS COLLECTION BOX - BLUE BOX", "address": {"city": "LONG BEACH", "state": "CA", "street": "3806 SAN ANSELINE AVE", "postcode": "90808"}}},
{"geometry": {"type": "Point", "coordinates": [-118.1276781942, 33.8250143247]}, "type": "Feature", "properties": {"collection_times": [{"days": "Mon-Fri", "time": "2:45pm"}, {"days": "Sat", "time": "1:00pm"}, {"days": "Sun", "time": "Closed"}], "id": "9080800022", "name": "USPS COLLECTION BOX - BLUE BOX", "address": {"city": "LONG BEACH", "state": "CA", "street": "5358 E CONANT ST", "postcode": "90808"}}},
{"geometry": {"type": "Point", "coordinates": [-118.1306344087, 33.8222816894]}, "type": "Feature", "properties": {"collection_times": [{"days": "Mon-Fri", "time": "2:45pm"}, {"days": "Sat", "time": "1:00pm"}, {"days": "Sun", "time": "Closed"}], "id": "9080800024", "name": "USPS COLLECTION BOX - BLUE BOX", "address": {"city": "LONG BEACH", "state": "CA", "street": "5243 E MONLACO RD", "postcode": "90808"}}},
{"geometry": {"type": "Point", "coordinates": [-118.1334971694, 33.8187410933]}, "type": "Feature", "properties": {"collection_times": [{"days": "Mon-Fri", "time": "3:00pm"}, {"days": "Sat", "time": "1:00pm"}, {"days": "Sun", "time": "Closed"}], "id": "9080800025", "name": "USPS COLLECTION BOX - BLUE BOX", "address": {"city": "LONG BEACH", "state": "CA", "street": "5102 E WARDLOW RD", "postcode": "90808"}}},
{"geometry": {"type": "Point", "coordinates": [-118.1337467166, 33.81542048]}, "type": "Feature", "properties": {"collection_times": [{"days": "Mon-Fri", "time": "2:45pm"}, {"days": "Sat", "time": "1:00pm"}, {"days": "Sun", "time": "Closed"}], "id": "9080800026", "name": "USPS COLLECTION BOX - BLUE BOX", "address": {"city": "LONG BEACH", "state": "CA", "street": "3202 CLARK AVE", "postcode": "90808"}}},
{"geometry": {"type": "Point", "coordinates": [-118.1087619416, 33.8106045321]}, "type": "Feature", "properties": {"collection_times": [{"days": "Mon-Fri", "time": "5:00pm"}, {"days": "Sat", "time": "1:00pm"}, {"days": "Sun", "time": "Closed"}], "id": "9080800028", "name": "USPS COLLECTION BOX - BLUE BOX", "address": {"city": "LONG BEACH", "state": "CA", "street": "6351 E SPRING ST", "postcode": "90808"}}},
{"geometry": {"type": "Point", "coordinates": [-118.1153259201, 33.8249633896]}, "type": "Feature", "properties": {"collection_times": [{"days": "Mon-Fri", "time": "1:30pm"}, {"days": "Sat", "time": "1:00pm"}, {"days": "Sun", "time": "Closed"}], "id": "9080800030", "name": "USPS COLLECTION BOX - BLUE BOX", "address": {"city": "LONG BEACH", "state": "CA", "street": "7040 E MEZZANINE WAY", "postcode": "90808"}}},
{"geometry": {"type": "Point", "coordinates": [-118.1230409951, 33.8151922164]}, "type": "Feature", "properties": {"collection_times": [{"days": "Mon-Fri", "time": "3:00pm"}, {"days": "Sat", "time": "1:00pm"}, {"days": "Sun", "time": "Closed"}], "id": "9080800031", "name": "USPS COLLECTION BOX - BLUE BOX", "address": {"city": "LONG BEACH", "state": "CA", "street": "5602 E MEZZANINE WAY", "postcode": "90808"}}},
{"geometry": {"type": "Point", "coordinates": [-118.1223293171, 33.8221089946]}, "type": "Feature", "properties": {"collection_times": [{"days": "Mon-Fri", "time": "2:45pm"}, {"days": "Sat", "time": "1:00pm"}, {"days": "Sun", "time": "Closed"}], "id": "9080800032", "name": "USPS COLLECTION BOX - BLUE BOX", "address": {"city": "LONG BEACH", "state": "CA", "street": "5640 E MONLACO RD", "postcode": "90808"}}},
{"geometry": {"type": "Point", "coordinates": [-118.0963711852, 33.8226342112]}, "type": "Feature", "properties": {"collection_times": [{"days": "Mon-Fri", "time": "1:30pm"}, {"days": "Sat", "time": "1:00pm"}, {"days": "Sun", "time": "Closed"}], "id": "9080800033", "name": "USPS COLLECTION BOX - BLUE BOX", "address": {"city": "LONG BEACH", "state": "CA", "street": "3568 ROXANNE AVE", "postcode": "90808"}}},
{"geometry": {"type": "Point", "coordinates": [-118.1153172301, 33.8249634353]}, "type": "Feature", "properties": {"collection_times": [{"days": "Mon-Fri", "time": "2:00pm"}, {"days": "Sat", "time": "1:00pm"}, {"days": "Sun", "time": "Closed"}], "id": "9080800036", "name": "USPS COLLECTION BOX - BLUE BOX", "address": {"city": "LONG BEACH", "state": "CA", "street": "3587 N LOS COYOTES DIAGONAL", "postcode": "90808"}}},
{"geometry": {"type": "Point", "coordinates": [-118.1165773073, 33.8287844149]}, "type": "Feature", "properties": {"collection_times": [{"days": "Mon-Fri", "time": "2:00pm"}, {"days": "Sat", "time": "1:00pm"}, {"days": "Sun", "time": "Closed"}], "id": "9080800038", "name": "USPS COLLECTION BOX - BLUE BOX", "address": {"city": "LONG BEACH", "state": "CA", "street": "3840 WOODRUFF AVE", "postcode": "90808"}}},
{"geometry": {"type": "Point", "coordinates": [-118.1198091512, 33.8135727455]}, "type": "Feature", "properties": {"collection_times": [{"days": "Mon-Fri", "time": "3:00pm"}, {"days": "Sat", "time": "1:00pm"}, {"days": "Sun", "time": "Closed"}], "id": "9080800039", "name": "USPS COLLECTION BOX - BLUE BOX", "address": {"city": "LONG BEACH", "state": "CA", "street": "3150 LOMINA AVE", "postcode": "90808"}}},
{"geometry": {"type": "Point", "coordinates": [-118.1153172301, 33.8249634353]}, "type": "Feature", "properties": {"collection_times": [{"days": "Mon-Fri", "time": "1:45pm"}, {"days": "Sat", "time": "1:00pm"}, {"days": "Sun", "time": "Closed"}], "id": "9080800041", "name": "USPS COLLECTION BOX - BLUE BOX", "address": {"city": "LONG BEACH", "state": "CA", "street": "3803 N LOS COYOTES DIAGONAL", "postcode": "90808"}}},
{"geometry": {"type": "Point", "coordinates": [-118.1289759002, 33.8153223419]}, "type": "Feature", "properties": {"collection_times": [{"days": "Mon-Fri", "time": "3:00pm"}, {"days": "Sat", "time": "1:00pm"}, {"days": "Sun", "time": "Closed"}], "id": "9080800043", "name": "USPS COLLECTION BOX - BLUE BOX", "address": {"city": "LONG BEACH", "state": "CA", "street": "5305 E MEZZANINE WAY", "postcode": "90808"}}},
{"geometry": {"type": "Point", "coordinates": [-118.0744923592, 33.817594806]}, "type": "Feature", "properties": {"collection_times": [{"days": "Mon-Fri", "time": "1:15pm"}, {"days": "Sat", "time": "1:00pm"}, {"days": "Sun", "time": "Closed"}], "id": "9080800045", "name": "USPS COLLECTION BOX - BLUE BOX", "address": {"city": "LONG BEACH", "state": "CA", "street": "8000 E WARDLOW RD", "postcode": "90808"}}},
{"geometry": {"type": "Point", "coordinates": [-118.1153172301, 33.8249634353]}, "type": "Feature", "properties": {"collection_times": [{"days": "Mon-Fri", "time": "1:15pm"}, {"days": "Sat", "time": "1:00pm"}, {"days": "Sun", "time": "Closed"}], "id": "9080800046", "name": "USPS COLLECTION BOX - BLUE BOX", "address": {"city": "LONG BEACH", "state": "CA", "street": "3501 THORNLAKE AVE", "postcode": "90808"}}},
{"geometry": {"type": "Point", "coordinates": [-118.0784351614, 33.8108945264]}, "type": "Feature", "properties": {"collection_times": [{"days": "Mon-Fri", "time": "1:15pm"}, {"days": "Sat", "time": "1:00pm"}, {"days": "Sun", "time": "Closed"}], "id": "9080800047", "name": "USPS COLLECTION BOX - BLUE BOX", "address": {"city": "LONG BEACH", "state": "CA", "street": "7896 E BERNER ST", "postcode": "90808"}}},
{"geometry": {"type": "Point", "coordinates": [-118.1153172301, 33.8249634353]}, "type": "Feature", "properties": {"collection_times": [{"days": "Mon-Fri", "time": "2:30pm"}, {"days": "Sat", "time": "1:00pm"}, {"days": "Sun", "time": "Closed"}], "id": "9080800048", "name": "USPS COLLECTION BOX - BLUE BOX", "address": {"city": "LONG BEACH", "state": "CA", "street": "4251 FACULTY AVE", "postcode": "90808"}}},
{"geometry": {"type": "Point", "coordinates": [-118.1417025203, 33.8334096654]}, "type": "Feature", "properties": {"collection_times": [{"days": "Mon-Fri", "time": "2:30pm"}, {"days": "Sat", "time": "1:00pm"}, {"days": "Sun", "time": "Closed"}], "id": "9080800050", "name": "USPS COLLECTION BOX - BLUE BOX", "address": {"city": "LONG BEACH", "state": "CA", "street": "4150 NORSE WAY", "postcode": "90808"}}},
{"geometry": {"type": "Point", "coordinates": [-118.1144006627, 33.8188889628]}, "type": "Feature", "properties": {"collection_times": [{"days": "Mon-Fri", "time": "2:00pm"}, {"days": "Sat", "time": "1:00pm"}, {"days": "Sun", "time": "Closed"}], "id": "9080800052", "name": "USPS COLLECTION BOX - BLUE BOX", "address": {"city": "LONG BEACH", "state": "CA", "street": "6003 E WARDLOW RD", "postcode": "90808"}}},
{"geometry": {"type": "Point", "coordinates": [-118.1085615774, 33.8251515479]}, "type": "Feature", "properties": {"collection_times": [{"days": "Mon-Fri", "time": "2:00pm"}, {"days": "Sat", "time": "1:00pm"}, {"days": "Sun", "time": "Closed"}], "id": "9080800059", "name": "USPS COLLECTION BOX - BLUE BOX", "address": {"city": "LONG BEACH", "state": "CA", "street": "3702 CONQUISTA AVE", "postcode": "90808"}}},
{"geometry": {"type": "Point", "coordinates": [-118.0972323793, 33.8186239803]}, "type": "Feature", "properties": {"collection_times": [{"days": "Mon-Fri", "time": "1:30pm"}, {"days": "Sat", "time": "1:00pm"}, {"days": "Sun", "time": "Closed"}], "id": "9080800060", "name": "USPS COLLECTION BOX - BLUE BOX", "address": {"city": "LONG BEACH", "state": "CA", "street": "3390 KALLIN AVE", "postcode": "90808"}}},
{"geometry": {"type": "Point", "coordinates": [-118.0994349212, 33.830219237]}, "type": "Feature", "properties": {"collection_times": [{"days": "Mon-Fri", "time": "1:45pm"}, {"days": "Sat", "time": "1:00pm"}, {"days": "Sun", "time": "Closed"}], "id": "9080800062", "name": "USPS COLLECTION BOX - BLUE BOX", "address": {"city": "LONG BEACH", "state": "CA", "street": "6900 E PARKCREST ST", "postcode": "90808"}}},
{"geometry": {"type": "Point", "coordinates": [-118.1264372588, 33.833483298]}, "type": "Feature", "properties": {"collection_times": [{"days": "Mon-Fri", "time": "5:00pm"}, {"days": "Sat", "time": "1:00pm"}, {"days": "Sun", "time": "Closed"}], "id": "9080800064", "name": "USPS COLLECTION BOX - BLUE BOX", "address": {"city": "LONG BEACH", "state": "CA", "street": "5405 E VILLAGE RD", "postcode": "90808"}}},
{"geometry": {"type": "Point", "coordinates": [-118.1264372588, 33.833483298]}, "type": "Feature", "properties": {"collection_times": [{"days": "Mon-Fri", "time": "5:00pm"}, {"days": "Sat-Sun", "time": "Closed"}], "id": "9080800065", "name": "USPS COLLECTION BOX - PO LOBBY", "address": {"city": "LONG BEACH", "state": "CA", "street": "5405 E VILLAGE RD LBBY", "postcode": "90808"}}},
{"geometry": {"type": "Point", "coordinates": [-118.1444821263, 33.8179496937]}, "type": "Feature", "properties": {"collection_times": [{"days": "Mon-Fri", "time": "5:00pm"}, {"days": "Sat", "time": "1:00pm"}, {"days": "Sun", "time": "Closed"}], "id": "9080800066", "name": "USPS COLLECTION BOX - BLUE BOX", "address": {"city": "LONG BEACH", "state": "CA", "street": "4100 E DONALD DOUGLAS DR", "postcode": "90808"}}},
{"geometry": {"type": "Point", "coordinates": [-118.1513228823, 33.7991943366]}, "type": "Feature", "properties": {"collection_times": [{"days": "Mon-Fri", "time": "5:30pm"}, {"days": "Sat", "time": "5:00pm"}, {"days": "Sun", "time": "Closed"}], "id": "9080900001", "name": "USPS COLLECTION BOX - BLUE BOX", "address": {"city": "LONG BEACH", "state": "CA", "street": "2300 REDONDO AVE", "postcode": "90809"}}},
{"geometry": {"type": "Point", "coordinates": [-118.1513228823, 33.7991943366]}, "type": "Feature", "properties": {"collection_times": [{"days": "Mon-Fri", "time": "5:30pm"}, {"days": "Sat", "time": "5:00pm"}, {"days": "Sun", "time": "Closed"}], "id": "9080900002", "name": "USPS COLLECTION BOX - BLUE BOX", "address": {"city": "LONG BEACH", "state": "CA", "street": "2300 REDONDO AVE", "postcode": "90809"}}},
{"geometry": {"type": "Point", "coordinates": [-118.1513199457, 33.7977332401]}, "type": "Feature", "properties": {"collection_times": [{"days": "Mon-Fri", "time": "3:30pm"}, {"days": "Sat", "time": "3:00pm"}, {"days": "Sun", "time": "Closed"}], "id": "9080900006", "name": "USPS COLLECTION BOX - EXPRESS", "address": {"city": "LONG BEACH", "state": "CA", "street": "2300 REDONDO AVE", "postcode": "90809"}}},
{"geometry": {"type": "Point", "coordinates": [-118.1513228823, 33.7991943366]}, "type": "Feature", "properties": {"collection_times": [{"days": "Mon-Fri", "time": "6:00pm"}, {"days": "Sat", "time": "5:00pm"}, {"days": "Sun", "time": "Closed"}], "id": "9080900008", "name": "USPS COLLECTION BOX - PO LOBBY", "address": {"city": "LONG BEACH", "state": "CA", "street": "2300 REDONDO AVE", "postcode": "90809"}}},
{"geometry": {"type": "Point", "coordinates": [-118.1513228823, 33.7991943366]}, "type": "Feature", "properties": {"collection_times": [{"days": "Mon-Fri", "time": "6:00pm"}, {"days": "Sat", "time": "5:00pm"}, {"days": "Sun", "time": "Closed"}], "id": "9080900009", "name": "USPS COLLECTION BOX - APC", "address": {"city": "LONG BEACH", "state": "CA", "street": "2300 REDONDO AVE", "postcode": "90809"}}},
{"geometry": {"type": "Point", "coordinates": [-118.1513199457, 33.7977332401]}, "type": "Feature", "properties": {"collection_times": [{"days": "Mon-Fri", "time": "6:00pm"}, {"days": "Sat", "time": "5:00pm"}, {"days": "Sun", "time": "Closed"}], "id": "9080900021", "name": "USPS COLLECTION BOX - PO LOBBY", "address": {"city": "LONG BEACH", "state": "CA", "street": "2300 REDONDO AVE", "postcode": "90809"}}},
{"geometry": {"type": "Point", "coordinates": [-118.2113495699, 33.8353960217]}, "type": "Feature", "properties": {"collection_times": [{"days": "Mon-Fri", "time": "5:00pm"}, {"days": "Sat", "time": "1:00pm"}, {"days": "Sun", "time": "Closed"}], "id": "9081000001", "name": "USPS COLLECTION BOX - BLUE BOX", "address": {"city": "LONG BEACH", "state": "CA", "street": "4091 VIA ORO AVE", "postcode": "90810"}}},
{"geometry": {"type": "Point", "coordinates": [-118.2154975189, 33.835728384]}, "type": "Feature", "properties": {"collection_times": [{"days": "Mon-Sat", "time": "1:00pm"}, {"days": "Sun", "time": "Closed"}], "id": "9081000003", "name": "USPS COLLECTION BOX - BLUE BOX", "address": {"city": "LONG BEACH", "state": "CA", "street": "21241 S SANTA FE AVE", "postcode": "90810"}}},
{"geometry": {"type": "Point", "coordinates": [-118.2113495699, 33.8353960217]}, "type": "Feature", "properties": {"collection_times": [{"days": "Mon-Fri", "time": "5:00pm"}, {"days": "Sat", "time": "1:00pm"}, {"days": "Sun", "time": "Closed"}], "id": "9081000005", "name": "USPS COLLECTION BOX - BLUE BOX", "address": {"city": "LONG BEACH", "state": "CA", "street": "4091 VIA ORO AVE", "postcode": "90810"}}},
{"geometry": {"type": "Point", "coordinates": [-118.2199217854, 33.8116752794]}, "type": "Feature", "properties": {"collection_times": [{"days": "Mon-Sat", "time": "1:00pm"}, {"days": "Sun", "time": "Closed"}], "id": "9081000008", "name": "USPS COLLECTION BOX - BLUE BOX", "address": {"city": "LONG BEACH", "state": "CA", "street": "2100 W SPRING ST", "postcode": "90810"}}},
{"geometry": {"type": "Point", "coordinates": [-118.2179900135, 33.8141831524]}, "type": "Feature", "properties": {"collection_times": [{"days": "Mon-Sat", "time": "1:00pm"}, {"days": "Sun", "time": "Closed"}], "id": "9081000009", "name": "USPS COLLECTION BOX - BLUE BOX", "address": {"city": "LONG BEACH", "state": "CA", "street": "3021 N GOLD STAR DR", "postcode": "90810"}}},
{"geometry": {"type": "Point", "coordinates": [-118.215524727, 33.8202505489]}, "type": "Feature", "properties": {"collection_times": [{"days": "Mon-Sat", "time": "1:00pm"}, {"days": "Sun", "time": "Closed"}], "id": "9081000010", "name": "USPS COLLECTION BOX - BLUE BOX", "address": {"city": "LONG BEACH", "state": "CA", "street": "3595 SANTA FE AVE", "postcode": "90810"}}},
{"geometry": {"type": "Point", "coordinates": [-118.2103220734, 33.8044379364]}, "type": "Feature", "properties": {"collection_times": [{"days": "Mon-Sat", "time": "1:00pm"}, {"days": "Sun", "time": "Closed"}], "id": "9081000011", "name": "USPS COLLECTION BOX - BLUE BOX", "address": {"city": "LONG BEACH", "state": "CA", "street": "1355 W WILLOW ST", "postcode": "90810"}}},
{"geometry": {"type": "Point", "coordinates": [-118.2223054478, 33.8282461685]}, "type": "Feature", "properties": {"collection_times": [{"days": "Mon-Sat", "time": "1:00pm"}, {"days": "Sun", "time": "Closed"}], "id": "9081000012", "name": "USPS COLLECTION BOX - BLUE BOX", "address": {"city": "LONG BEACH", "state": "CA", "street": "21940 S MCHELEN AVE", "postcode": "90810"}}},
{"geometry": {"type": "Point", "coordinates": [-118.2175440379, 33.8302583817]}, "type": "Feature", "properties": {"collection_times": [{"days": "Mon-Sat", "time": "1:00pm"}, {"days": "Sun", "time": "Closed"}], "id": "9081000013", "name": "USPS COLLECTION BOX - BLUE BOX", "address": {"city": "LONG BEACH", "state": "CA", "street": "2762 E 218TH PL", "postcode": "90810"}}},
{"geometry": {"type": "Point", "coordinates": [-118.2120716698, 33.8416408129]}, "type": "Feature", "properties": {"collection_times": [{"days": "Mon-Fri", "time": "5:00pm"}, {"days": "Sat", "time": "1:00pm"}, {"days": "Sun", "time": "Closed"}], "id": "9081000014", "name": "USPS COLLECTION BOX - BLUE BOX", "address": {"city": "LONG BEACH", "state": "CA", "street": "2807 E EL PRESIDIO ST", "postcode": "90810"}}},
{"geometry": {"type": "Point", "coordinates": [-119.2702268805, 36.3741071704]}, "type": "Feature", "properties": {"collection_times": [{"days": "Mon-Sat", "time": "1:00pm"}, {"days": "Sun", "time": "Closed"}], "id": "9081000015", "name": "USPS COLLECTION BOX - BLUE BOX", "address": {"city": "LONG BEACH", "state": "CA", "street": "2896 E VAN BUREN ST", "postcode": "90810"}}},
{"geometry": {"type": "Point", "coordinates": [-118.2111175348, 33.8188360305]}, "type": "Feature", "properties": {"collection_times": [{"days": "Mon-Sat", "time": "1:00pm"}, {"days": "Sun", "time": "Closed"}], "id": "9081000018", "name": "USPS COLLECTION BOX - BLUE BOX", "address": {"city": "LONG BEACH", "state": "CA", "street": "1400 W 34TH ST", "postcode": "90810"}}},
{"geometry": {"type": "Point", "coordinates": [-118.2089246942, 33.8079600315]}, "type": "Feature", "properties": {"collection_times": [{"days": "Mon-Sat", "time": "1:00pm"}, {"days": "Sun", "time": "Closed"}], "id": "9081000019", "name": "USPS COLLECTION BOX - BLUE BOX", "address": {"city": "LONG BEACH", "state": "CA", "street": "1300 W. 28TH ST SW", "postcode": "90810"}}},
{"geometry": {"type": "Point", "coordinates": [-118.2129506083, 33.8081713549]}, "type": "Feature", "properties": {"collection_times": [{"days": "Mon-Sat", "time": "1:00pm"}, {"days": "Sun", "time": "Closed"}], "id": "9081000021", "name": "USPS COLLECTION BOX - BLUE BOX", "address": {"city": "LONG BEACH", "state": "CA", "street": "2801 BALTIC AVE", "postcode": "90810"}}},
{"geometry": {"type": "Point", "coordinates": [-118.2176780416, 33.8026072071]}, "type": "Feature", "properties": {"collection_times": [{"days": "Mon-Sat", "time": "1:00pm"}, {"days": "Sun", "time": "Closed"}], "id": "9081000022", "name": "USPS COLLECTION BOX - BLUE BOX", "address": {"city": "LONG BEACH", "state": "CA", "street": "2501A SEABRIGHT AVE", "postcode": "90810"}}},
{"geometry": {"type": "Point", "coordinates": [-118.2101848502, 33.7971260671]}, "type": "Feature", "properties": {"collection_times": [{"days": "Mon-Sat", "time": "1:00pm"}, {"days": "Sun", "time": "Closed"}], "id": "9081000023", "name": "USPS COLLECTION BOX - BLUE BOX", "address": {"city": "LONG BEACH", "state": "CA", "street": "1356 W HILL ST", "postcode": "90810"}}},
{"geometry": {"type": "Point", "coordinates": [-118.2153174986, 33.7988839686]}, "type": "Feature", "properties": {"collection_times": [{"days": "Mon-Fri", "time": "5:00pm"}, {"days": "Sat", "time": "1:00pm"}, {"days": "Sun", "time": "Closed"}], "id": "9081000025", "name": "USPS COLLECTION BOX - BLUE BOX", "address": {"city": "LONG BEACH", "state": "CA", "street": "1690 W 23RD ST", "postcode": "90810"}}},
{"geometry": {"type": "Point", "coordinates": [-118.2153174986, 33.7988839686]}, "type": "Feature", "properties": {"collection_times": [{"days": "Mon-Fri", "time": "5:00pm"}, {"days": "Sat", "time": "1:00pm"}, {"days": "Sun", "time": "Closed"}], "id": "9081000026", "name": "USPS COLLECTION BOX - BLUE BOX", "address": {"city": "LONG BEACH", "state": "CA", "street": "1690 W 23RD ST", "postcode": "90810"}}},
{"geometry": {"type": "Point", "coordinates": [-118.215524727, 33.810965504]}, "type": "Feature", "properties": {"collection_times": [{"days": "Mon-Sat", "time": "1:00pm"}, {"days": "Sun", "time": "Closed"}], "id": "9081000027", "name": "USPS COLLECTION BOX - BLUE BOX", "address": {"city": "LONG BEACH", "state": "CA", "street": "2943 SANTA FE AVE", "postcode": "90810"}}},
{"geometry": {"type": "Point", "coordinates": [-118.2154478346, 33.8248215023]}, "type": "Feature", "properties": {"collection_times": [{"days": "Mon-Fri", "time": "5:00pm"}, {"days": "Sat", "time": "1:00pm"}, {"days": "Sun", "time": "Closed"}], "id": "9081000028", "name": "USPS COLLECTION BOX - BLUE BOX", "address": {"city": "LONG BEACH", "state": "CA", "street": "3700 SANTA FE AVE", "postcode": "90810"}}},
{"geometry": {"type": "Point", "coordinates": [-118.2165384783, 33.8135620952]}, "type": "Feature", "properties": {"collection_times": [{"days": "Mon-Fri", "time": "5:00pm"}, {"days": "Sat-Sun", "time": "Closed"}], "id": "9081000030", "name": "USPS COLLECTION BOX - PO LOBBY", "address": {"city": "LONG BEACH", "state": "CA", "street": "1690 W 23RD ST LBBY", "postcode": "90810"}}},
{"geometry": {"type": "Point", "coordinates": [-118.2165384783, 33.8135620952]}, "type": "Feature", "properties": {"collection_times": [{"days": "Mon-Fri", "time": "5:00pm"}, {"days": "Sat", "time": "1:00pm"}, {"days": "Sun", "time": "Closed"}], "id": "9081000031", "name": "USPS COLLECTION BOX - BLUE BOX", "address": {"city": "LONG BEACH", "state": "CA", "street": "21750 ARNOLD CENTER RD", "postcode": "90810"}}},
{"geometry": {"type": "Point", "coordinates": [-118.2201220949, 33.8317947887]}, "type": "Feature", "properties": {"collection_times": [{"days": "Mon-Fri", "time": "5:00pm"}, {"days": "Sat", "time": "1:00pm"}, {"days": "Sun", "time": "Closed"}], "id": "9081000033", "name": "USPS COLLECTION BOX - BLUE BOX", "address": {"city": "LONG BEACH", "state": "CA", "street": "2637 E CARSON ST", "postcode": "90810"}}},
{"geometry": {"type": "Point", "coordinates": [-118.1721728298, 33.782599331]}, "type": "Feature", "properties": {"collection_times": [{"days": "Mon-Sat", "time": "1:00pm"}, {"days": "Sun", "time": "Closed"}], "id": "9081300006", "name": "USPS COLLECTION BOX - BLUE BOX", "address": {"city": "LONG BEACH", "state": "CA", "street": "1546 E ANAHEIM ST", "postcode": "90813"}}},
{"geometry": {"type": "Point", "coordinates": [-118.1734279492, 33.7789688299]}, "type": "Feature", "properties": {"collection_times": [{"days": "Mon-Sat", "time": "1:00pm"}, {"days": "Sun", "time": "Closed"}], "id": "9081300013", "name": "USPS COLLECTION BOX - BLUE BOX", "address": {"city": "LONG BEACH", "state": "CA", "street": "1433 E 10TH ST", "postcode": "90813"}}},
{"geometry": {"type": "Point", "coordinates": [-118.1782828128, 33.7848646974]}, "type": "Feature", "properties": {"collection_times": [{"days": "Mon-Sat", "time": "1:00pm"}, {"days": "Sun", "time": "Closed"}], "id": "9081300015", "name": "USPS COLLECTION BOX - BLUE BOX", "address": {"city": "LONG BEACH", "state": "CA", "street": "1150 E NEW YORK ST", "postcode": "90813"}}},
{"geometry": {"type": "Point", "coordinates": [-118.1689208756, 33.7862239172]}, "type": "Feature", "properties": {"collection_times": [{"days": "Mon-Sat", "time": "1:00pm"}, {"days": "Sun", "time": "Closed"}], "id": "9081300016", "name": "USPS COLLECTION BOX - BLUE BOX", "address": {"city": "LONG BEACH", "state": "CA", "street": "1856 E 15TH ST", "postcode": "90813"}}},
{"geometry": {"type": "Point", "coordinates": [-118.1831277464, 33.7790262183]}, "type": "Feature", "properties": {"collection_times": [{"days": "Mon-Sat", "time": "1:00pm"}, {"days": "Sun", "time": "Closed"}], "id": "9081300021", "name": "USPS COLLECTION BOX - BLUE BOX", "address": {"city": "LONG BEACH", "state": "CA", "street": "741 E 10TH ST", "postcode": "90813"}}},
{"geometry": {"type": "Point", "coordinates": [-118.1756256079, 33.7752867326]}, "type": "Feature", "properties": {"collection_times": [{"days": "Mon-Sat", "time": "1:00pm"}, {"days": "Sun", "time": "Closed"}], "id": "9081300028", "name": "USPS COLLECTION BOX - BLUE BOX", "address": {"city": "LONG BEACH", "state": "CA", "street": "1224 E 7TH ST", "postcode": "90813"}}},
{"geometry": {"type": "Point", "coordinates": [-118.1850363256, 33.7775066926]}, "type": "Feature", "properties": {"collection_times": [{"days": "Mon-Sat", "time": "1:00pm"}, {"days": "Sun", "time": "Closed"}], "id": "9081300030", "name": "USPS COLLECTION BOX - BLUE BOX", "address": {"city": "LONG BEACH", "state": "CA", "street": "850 ATLANTIC AVE", "postcode": "90813"}}},
{"geometry": {"type": "Point", "coordinates": [-118.1850434233, 33.7816659763]}, "type": "Feature", "properties": {"collection_times": [{"days": "Mon-Sat", "time": "1:00pm"}, {"days": "Sun", "time": "Closed"}], "id": "9081300033", "name": "USPS COLLECTION BOX - BLUE BOX", "address": {"city": "LONG BEACH", "state": "CA", "street": "1133 ATLANTIC AVE", "postcode": "90813"}}},
{"geometry": {"type": "Point", "coordinates": [-118.1877292079, 33.7765773562]}, "type": "Feature", "properties": {"collection_times": [{"days": "Mon-Sat", "time": "1:00pm"}, {"days": "Sun", "time": "Closed"}], "id": "9081300037", "name": "USPS COLLECTION BOX - BLUE BOX", "address": {"city": "LONG BEACH", "state": "CA", "street": "801 ELM AVE", "postcode": "90813"}}},
{"geometry": {"type": "Point", "coordinates": [-118.1936529987, 33.7762622198]}, "type": "Feature", "properties": {"collection_times": [{"days": "Mon-Sat", "time": "1:00pm"}, {"days": "Sun", "time": "Closed"}], "id": "9081300043", "name": "USPS COLLECTION BOX - BLUE BOX", "address": {"city": "LONG BEACH", "state": "CA", "street": "714 PACIFIC AVE", "postcode": "90813"}}},
{"geometry": {"type": "Point", "coordinates": [-118.1983978471, 33.7826040628]}, "type": "Feature", "properties": {"collection_times": [{"days": "Mon-Sat", "time": "1:00pm"}, {"days": "Sun", "time": "Closed"}], "id": "9081300045", "name": "USPS COLLECTION BOX - BLUE BOX", "address": {"city": "LONG BEACH", "state": "CA", "street": "500 W ANAHEIM ST", "postcode": "90813"}}},
{"geometry": {"type": "Point", "coordinates": [-118.186667626, 33.7799589666]}, "type": "Feature", "properties": {"collection_times": [{"days": "Mon-Fri", "time": "4:00pm"}, {"days": "Sat", "time": "1:00pm"}, {"days": "Sun", "time": "Closed"}], "id": "9081300049", "name": "USPS COLLECTION BOX - BLUE BOX", "address": {"city": "LONG BEACH", "state": "CA", "street": "1050 LINDEN AVE", "postcode": "90813"}}},
{"geometry": {"type": "Point", "coordinates": [-118.186667626, 33.7799589666]}, "type": "Feature", "properties": {"collection_times": [{"days": "Mon-Fri", "time": "4:00pm"}, {"days": "Sat", "time": "1:00pm"}, {"days": "Sun", "time": "Closed"}], "id": "9081300063", "name": "USPS COLLECTION BOX - BLUE BOX", "address": {"city": "LONG BEACH", "state": "CA", "street": "1050 LINDEN AVE", "postcode": "90813"}}},
{"geometry": {"type": "Point", "coordinates": [-118.186667626, 33.7799589666]}, "type": "Feature", "properties": {"collection_times": [{"days": "Mon-Fri", "time": "4:00pm"}, {"days": "Sat", "time": "1:00pm"}, {"days": "Sun", "time": "Closed"}], "id": "9081300064", "name": "USPS COLLECTION BOX - BLUE BOX", "address": {"city": "LONG BEACH", "state": "CA", "street": "1050 LINDEN AVE", "postcode": "90813"}}},
{"geometry": {"type": "Point", "coordinates": [-118.152069763, 33.7716736137]}, "type": "Feature", "properties": {"collection_times": [{"days": "Mon-Sat", "time": "1:00pm"}, {"days": "Sun", "time": "Closed"}], "id": "9081400002", "name": "USPS COLLECTION BOX - BLUE BOX", "address": {"city": "LONG BEACH", "state": "CA", "street": "3400 E 4TH ST", "postcode": "90814"}}},
{"geometry": {"type": "Point", "coordinates": [-118.12958749, 33.7719219433]}, "type": "Feature", "properties": {"collection_times": [{"days": "Mon-Sat", "time": "1:00pm"}, {"days": "Sun", "time": "Closed"}], "id": "9081400004", "name": "USPS COLLECTION BOX - BLUE BOX", "address": {"city": "LONG BEACH", "state": "CA", "street": "402 PANAMA AVE", "postcode": "90814"}}},
{"geometry": {"type": "Point", "coordinates": [-118.1502419535, 33.7682382091]}, "type": "Feature", "properties": {"collection_times": [{"days": "Mon-Sat", "time": "1:00pm"}, {"days": "Sun", "time": "Closed"}], "id": "9081400008", "name": "USPS COLLECTION BOX - BLUE BOX", "address": {"city": "LONG BEACH", "state": "CA", "street": "301 LOMA AVE", "postcode": "90814"}}},
{"geometry": {"type": "Point", "coordinates": [-118.1408959848, 33.7681242035]}, "type": "Feature", "properties": {"collection_times": [{"days": "Mon-Sat", "time": "1:00pm"}, {"days": "Sun", "time": "Closed"}], "id": "9081400010", "name": "USPS COLLECTION BOX - BLUE BOX", "address": {"city": "LONG BEACH", "state": "CA", "street": "4435 E 3RD ST", "postcode": "90814"}}},
{"geometry": {"type": "Point", "coordinates": [-118.1634248482, 33.7717078278]}, "type": "Feature", "properties": {"collection_times": [{"days": "Mon-Sat", "time": "1:00pm"}, {"days": "Sun", "time": "Closed"}], "id": "9081400011", "name": "USPS COLLECTION BOX - BLUE BOX", "address": {"city": "LONG BEACH", "state": "CA", "street": "2340 E 4TH ST", "postcode": "90814"}}},
{"geometry": {"type": "Point", "coordinates": [-118.1418371068, 33.7716456931]}, "type": "Feature", "properties": {"collection_times": [{"days": "Mon-Sat", "time": "1:00pm"}, {"days": "Sun", "time": "Closed"}], "id": "9081400013", "name": "USPS COLLECTION BOX - BLUE BOX", "address": {"city": "LONG BEACH", "state": "CA", "street": "4358 E 4TH ST", "postcode": "90814"}}},
{"geometry": {"type": "Point", "coordinates": [-118.1595068926, 33.7716524332]}, "type": "Feature", "properties": {"collection_times": [{"days": "Mon-Sat", "time": "1:00pm"}, {"days": "Sun", "time": "Closed"}], "id": "9081400015", "name": "USPS COLLECTION BOX - BLUE BOX", "address": {"city": "LONG BEACH", "state": "CA", "street": "2746 E 4TH ST", "postcode": "90814"}}},
{"geometry": {"type": "Point", "coordinates": [-118.1361186064, 33.7682027204]}, "type": "Feature", "properties": {"collection_times": [{"days": "Mon-Sat", "time": "1:00pm"}, {"days": "Sun", "time": "Closed"}], "id": "9081400016", "name": "USPS COLLECTION BOX - BLUE BOX", "address": {"city": "LONG BEACH", "state": "CA", "street": "300 SAINT JOSEPH AVE", "postcode": "90814"}}},
{"geometry": {"type": "Point", "coordinates": [-118.1589426167, 33.7750414061]}, "type": "Feature", "properties": {"collection_times": [{"days": "Mon-Sat", "time": "1:00pm"}, {"days": "Sun", "time": "Closed"}], "id": "9081400023", "name": "USPS COLLECTION BOX - BLUE BOX", "address": {"city": "LONG BEACH", "state": "CA", "street": "689 TEMPLE AVE", "postcode": "90814"}}},
{"geometry": {"type": "Point", "coordinates": [-118.1079174861, 33.7813807327]}, "type": "Feature", "properties": {"collection_times": [{"days": "Mon-Sat", "time": "1:00pm"}, {"days": "Sun", "time": "Closed"}], "id": "9081500002", "name": "USPS COLLECTION BOX - BLUE BOX", "address": {"city": "LONG BEACH", "state": "CA", "street": "1198 PALO VERDE AVE", "postcode": "90815"}}},
{"geometry": {"type": "Point", "coordinates": [-118.1026101108, 33.7810236296]}, "type": "Feature", "properties": {"collection_times": [{"days": "Mon-Sat", "time": "1:00pm"}, {"days": "Sun", "time": "Closed"}], "id": "9081500003", "name": "USPS COLLECTION BOX - BLUE BOX", "address": {"city": "LONG BEACH", "state": "CA", "street": "1180 N STUDEBAKER RD", "postcode": "90815"}}},
{"geometry": {"type": "Point", "coordinates": [-118.121312692, 33.8059757831]}, "type": "Feature", "properties": {"collection_times": [{"days": "Mon-Fri", "time": "5:00pm"}, {"days": "Sat", "time": "1:00pm"}, {"days": "Sun", "time": "Closed"}], "id": "9081500010", "name": "USPS COLLECTION BOX - BLUE BOX", "address": {"city": "LONG BEACH", "state": "CA", "street": "5668 E DEBORAH ST", "postcode": "90815"}}},
{"geometry": {"type": "Point", "coordinates": [-118.1251797849, 33.8063294878]}, "type": "Feature", "properties": {"collection_times": [{"days": "Mon-Fri", "time": "5:00pm"}, {"days": "Sat", "time": "1:00pm"}, {"days": "Sun", "time": "Closed"}], "id": "9081500012", "name": "USPS COLLECTION BOX - BLUE BOX", "address": {"city": "LONG BEACH", "state": "CA", "street": "2750 N BELLFLOWER BLVD", "postcode": "90815"}}},
{"geometry": {"type": "Point", "coordinates": [-118.1097977695, 33.8104154281]}, "type": "Feature", "properties": {"collection_times": [{"days": "Mon-Fri", "time": "5:00pm"}, {"days": "Sat", "time": "1:00pm"}, {"days": "Sun", "time": "Closed"}], "id": "9081500014", "name": "USPS COLLECTION BOX - BLUE BOX", "address": {"city": "LONG BEACH", "state": "CA", "street": "6226 E SPRING ST", "postcode": "90815"}}},
{"geometry": {"type": "Point", "coordinates": [-118.1010580686, 33.8070227018]}, "type": "Feature", "properties": {"collection_times": [{"days": "Mon-Fri", "time": "1:15pm"}, {"days": "Sat", "time": "1:00pm"}, {"days": "Sun", "time": "Closed"}], "id": "9081500015", "name": "USPS COLLECTION BOX - BLUE BOX", "address": {"city": "LONG BEACH", "state": "CA", "street": "2803 OSTROM AVE", "postcode": "90815"}}},
{"geometry": {"type": "Point", "coordinates": [-118.0788965581, 33.8102785697]}, "type": "Feature", "properties": {"collection_times": [{"days": "Mon-Fri", "time": "1:15pm"}, {"days": "Sat", "time": "1:00pm"}, {"days": "Sun", "time": "Closed"}], "id": "9081500016", "name": "USPS COLLECTION BOX - BLUE BOX", "address": {"city": "LONG BEACH", "state": "CA", "street": "7890 E SPRING ST", "postcode": "90815"}}},
{"geometry": {"type": "Point", "coordinates": [-118.1079428898, 33.7916454182]}, "type": "Feature", "properties": {"collection_times": [{"days": "Mon-Sat", "time": "1:00pm"}, {"days": "Sun", "time": "Closed"}], "id": "9081500017", "name": "USPS COLLECTION BOX - BLUE BOX", "address": {"city": "LONG BEACH", "state": "CA", "street": "1945 PALO VERDE AVE", "postcode": "90815"}}},
{"geometry": {"type": "Point", "coordinates": [-118.0990340259, 33.792343364]}, "type": "Feature", "properties": {"collection_times": [{"days": "Mon-Sat", "time": "1:00pm"}, {"days": "Sun", "time": "Closed"}], "id": "9081500020", "name": "USPS COLLECTION BOX - BLUE BOX", "address": {"city": "LONG BEACH", "state": "CA", "street": "2002 N STUDEBAKER RD", "postcode": "90815"}}},
{"geometry": {"type": "Point", "coordinates": [-118.1134625763, 33.7956781253]}, "type": "Feature", "properties": {"collection_times": [{"days": "Mon-Sat", "time": "1:00pm"}, {"days": "Sun", "time": "Closed"}], "id": "9081500021", "name": "USPS COLLECTION BOX - BLUE BOX", "address": {"city": "LONG BEACH", "state": "CA", "street": "2191 GONDAR AVE", "postcode": "90815"}}},
{"geometry": {"type": "Point", "coordinates": [-118.1136826067, 33.7991075233]}, "type": "Feature", "properties": {"collection_times": [{"days": "Mon-Sat", "time": "1:00pm"}, {"days": "Sun", "time": "Closed"}], "id": "9081500022", "name": "USPS COLLECTION BOX - BLUE BOX", "address": {"city": "LONG BEACH", "state": "CA", "street": "2285 GONDAR AVE", "postcode": "90815"}}},
{"geometry": {"type": "Point", "coordinates": [-118.1099901574, 33.7746529924]}, "type": "Feature", "properties": {"collection_times": [{"days": "Mon-Sat", "time": "1:00pm"}, {"days": "Sun", "time": "Closed"}], "id": "9081500023", "name": "USPS COLLECTION BOX - BLUE BOX", "address": {"city": "LONG BEACH", "state": "CA", "street": "6376 RIVIERA CIR", "postcode": "90815"}}},
{"geometry": {"type": "Point", "coordinates": [-118.1330405472, 33.792170652]}, "type": "Feature", "properties": {"collection_times": [{"days": "Mon-Sat", "time": "1:00pm"}, {"days": "Sun", "time": "Closed"}], "id": "9081500025", "name": "USPS COLLECTION BOX - BLUE BOX", "address": {"city": "LONG BEACH", "state": "CA", "street": "2003 N GREENBRIER RD", "postcode": "90815"}}},
{"geometry": {"type": "Point", "coordinates": [-118.1097977695, 33.8104154281]}, "type": "Feature", "properties": {"collection_times": [{"days": "Mon-Fri", "time": "5:00pm"}, {"days": "Sat", "time": "1:00pm"}, {"days": "Sun", "time": "Closed"}], "id": "9081500027", "name": "USPS COLLECTION BOX - BLUE BOX", "address": {"city": "LONG BEACH", "state": "CA", "street": "6226 E SPRING ST", "postcode": "90815"}}},
{"geometry": {"type": "Point", "coordinates": [-118.1076052466, 33.810366266]}, "type": "Feature", "properties": {"collection_times": [{"days": "Mon-Fri", "time": "5:00pm"}, {"days": "Sat", "time": "1:00pm"}, {"days": "Sun", "time": "Closed"}], "id": "9081500028", "name": "USPS COLLECTION BOX - BLUE BOX", "address": {"city": "LONG BEACH", "state": "CA", "street": "6414 E SPRING ST", "postcode": "90815"}}},
{"geometry": {"type": "Point", "coordinates": [-118.1007540482, 33.7793497427]}, "type": "Feature", "properties": {"collection_times": [{"days": "Mon-Sat", "time": "1:00pm"}, {"days": "Sun", "time": "Closed"}], "id": "9081500029", "name": "USPS COLLECTION BOX - BLUE BOX", "address": {"city": "LONG BEACH", "state": "CA", "street": "881 ROXANNE AVE", "postcode": "90815"}}},
{"geometry": {"type": "Point", "coordinates": [-118.1389186703, 33.7911911619]}, "type": "Feature", "properties": {"collection_times": [{"days": "Mon-Fri", "time": "5:00pm"}, {"days": "Sat", "time": "1:00pm"}, {"days": "Sun", "time": "Closed"}], "id": "9081500033", "name": "USPS COLLECTION BOX - BLUE BOX", "address": {"city": "LONG BEACH", "state": "CA", "street": "1800 XIMENO AVE", "postcode": "90815"}}},
{"geometry": {"type": "Point", "coordinates": [-118.1307089568, 33.7834255026]}, "type": "Feature", "properties": {"collection_times": [{"days": "Mon-Sat", "time": "1:00pm"}, {"days": "Sun", "time": "Closed"}], "id": "9081500037", "name": "USPS COLLECTION BOX - BLUE BOX", "address": {"city": "LONG BEACH", "state": "CA", "street": "5265 E ANAHEIM RD", "postcode": "90815"}}},
{"geometry": {"type": "Point", "coordinates": [-118.1076690353, 33.7953181489]}, "type": "Feature", "properties": {"collection_times": [{"days": "Mon-Sat", "time": "1:00pm"}, {"days": "Sun", "time": "Closed"}], "id": "9081500038", "name": "USPS COLLECTION BOX - BLUE BOX", "address": {"city": "LONG BEACH", "state": "CA", "street": "6400A E STEARNS ST", "postcode": "90815"}}},
{"geometry": {"type": "Point", "coordinates": [-118.122369174, 33.7935620808]}, "type": "Feature", "properties": {"collection_times": [{"days": "Mon-Sat", "time": "1:00pm"}, {"days": "Sun", "time": "Closed"}], "id": "9081500041", "name": "USPS COLLECTION BOX - BLUE BOX", "address": {"city": "LONG BEACH", "state": "CA", "street": "1050 BRYANT RD", "postcode": "90815"}}},
{"geometry": {"type": "Point", "coordinates": [-118.1331458306, 33.7844234537]}, "type": "Feature", "properties": {"collection_times": [{"days": "Mon-Sat", "time": "1:00pm"}, {"days": "Sun", "time": "Closed"}], "id": "9081500043", "name": "USPS COLLECTION BOX - BLUE BOX", "address": {"city": "LONG BEACH", "state": "CA", "street": "5116 E ANAHEIM RD", "postcode": "90815"}}},
{"geometry": {"type": "Point", "coordinates": [-118.1339625998, 33.78935877]}, "type": "Feature", "properties": {"collection_times": [{"days": "Mon-Sat", "time": "1:00pm"}, {"days": "Sun", "time": "Closed"}], "id": "9081500044", "name": "USPS COLLECTION BOX - BLUE BOX", "address": {"city": "LONG BEACH", "state": "CA", "street": "1772 CLARK AVE", "postcode": "90815"}}},
{"geometry": {"type": "Point", "coordinates": [-118.1026030131, 33.7963334845]}, "type": "Feature", "properties": {"collection_times": [{"days": "Mon-Sat", "time": "1:00pm"}, {"days": "Sun", "time": "Closed"}], "id": "9081500045", "name": "USPS COLLECTION BOX - BLUE BOX", "address": {"city": "LONG BEACH", "state": "CA", "street": "6702 E EL PROGRESO ST", "postcode": "90815"}}},
{"geometry": {"type": "Point", "coordinates": [-118.1251797849, 33.8063294878]}, "type": "Feature", "properties": {"collection_times": [{"days": "Mon-Fri", "time": "5:00pm"}, {"days": "Sat", "time": "1:00pm"}, {"days": "Sun", "time": "Closed"}], "id": "9081500046", "name": "USPS COLLECTION BOX - BLUE BOX", "address": {"city": "LONG BEACH", "state": "CA", "street": "2750 N BELLFLOWER BLVD", "postcode": "90815"}}},
{"geometry": {"type": "Point", "coordinates": [-118.1296868586, 33.8040049734]}, "type": "Feature", "properties": {"collection_times": [{"days": "Mon-Fri", "time": "5:00pm"}, {"days": "Sat", "time": "1:00pm"}, {"days": "Sun", "time": "Closed"}], "id": "9081500047", "name": "USPS COLLECTION BOX - BLUE BOX", "address": {"city": "LONG BEACH", "state": "CA", "street": "2620 STANBRIDGE AVE", "postcode": "90815"}}},
{"geometry": {"type": "Point", "coordinates": [-118.1241613307, 33.7883894156]}, "type": "Feature", "properties": {"collection_times": [{"days": "Mon-Sat", "time": "1:00pm"}, {"days": "Sun", "time": "Closed"}], "id": "9081500048", "name": "USPS COLLECTION BOX - BLUE BOX", "address": {"city": "LONG BEACH", "state": "CA", "street": "1790 N BELLFLOWER BLVD", "postcode": "90815"}}},
{"geometry": {"type": "Point", "coordinates": [-118.1062027572, 33.7838165957]}, "type": "Feature", "properties": {"collection_times": [{"days": "Mon-Sat", "time": "1:00pm"}, {"days": "Sun", "time": "Closed"}], "id": "9081500052", "name": "USPS COLLECTION BOX - BLUE BOX", "address": {"city": "LONG BEACH", "state": "CA", "street": "6461 E DE LEON ST", "postcode": "90815"}}},
{"geometry": {"type": "Point", "coordinates": [-118.1252271033, 33.7944987152]}, "type": "Feature", "properties": {"collection_times": [{"days": "Mon-Sat", "time": "1:00pm"}, {"days": "Sun", "time": "Closed"}], "id": "9081500057", "name": "USPS COLLECTION BOX - BLUE BOX", "address": {"city": "LONG BEACH", "state": "CA", "street": "2100 N BELLFLOWER BLVD", "postcode": "90815"}}},
{"geometry": {"type": "Point", "coordinates": [-118.1252275189, 33.7939509333]}, "type": "Feature", "properties": {"collection_times": [{"days": "Mon-Sat", "time": "1:00pm"}, {"days": "Sun", "time": "Closed"}], "id": "9081500058", "name": "USPS COLLECTION BOX - BLUE BOX", "address": {"city": "LONG BEACH", "state": "CA", "street": "2100 N BELLFLOWER BLVD", "postcode": "90815"}}},
{"geometry": {"type": "Point", "coordinates": [-118.1348433767, 33.8079998259]}, "type": "Feature", "properties": {"collection_times": [{"days": "Mon-Fri", "time": "5:00pm"}, {"days": "Sat", "time": "1:00pm"}, {"days": "Sun", "time": "Closed"}], "id": "9081500059", "name": "USPS COLLECTION BOX - BLUE BOX", "address": {"city": "LONG BEACH", "state": "CA", "street": "5000 AIRPORT PLAZA DR", "postcode": "90815"}}},
{"geometry": {"type": "Point", "coordinates": [-118.1348433767, 33.8079998259]}, "type": "Feature", "properties": {"collection_times": [{"days": "Mon-Fri", "time": "5:00pm"}, {"days": "Sat", "time": "1:00pm"}, {"days": "Sun", "time": "Closed"}], "id": "9081500060", "name": "USPS COLLECTION BOX - BLUE BOX", "address": {"city": "LONG BEACH", "state": "CA", "street": "5000 AIRPORT PLAZA DR", "postcode": "90815"}}},
{"geometry": {"type": "Point", "coordinates": [-118.1079547194, 33.7892179864]}, "type": "Feature", "properties": {"collection_times": [{"days": "Mon-Sat", "time": "1:00pm"}, {"days": "Sun", "time": "Closed"}], "id": "9081500065", "name": "USPS COLLECTION BOX - BLUE BOX", "address": {"city": "LONG BEACH", "state": "CA", "street": "1800 PALO VERDE AVE", "postcode": "90815"}}},
{"geometry": {"type": "Point", "coordinates": [-118.1254805547, 33.795226464]}, "type": "Feature", "properties": {"collection_times": [{"days": "Mon-Sat", "time": "1:00pm"}, {"days": "Sun", "time": "Closed"}], "id": "9081500067", "name": "USPS COLLECTION BOX - BLUE BOX", "address": {"city": "LONG BEACH", "state": "CA", "street": "2141 N BELLFLOWER BLVD", "postcode": "90815"}}},
{"geometry": {"type": "Point", "coordinates": [-118.1220147213, 33.796125834]}, "type": "Feature", "properties": {"collection_times": [{"days": "Mon-Sat", "time": "1:00pm"}, {"days": "Sun", "time": "Closed"}], "id": "9081500068", "name": "USPS COLLECTION BOX - BLUE BOX", "address": {"city": "LONG BEACH", "state": "CA", "street": "2200 MARWICK AVE", "postcode": "90815"}}},
{"geometry": {"type": "Point", "coordinates": [-118.1254805547, 33.795226464]}, "type": "Feature", "properties": {"collection_times": [{"days": "Mon-Sat", "time": "1:00pm"}, {"days": "Sun", "time": "Closed"}], "id": "9081500069", "name": "USPS COLLECTION BOX - BLUE BOX", "address": {"city": "LONG BEACH", "state": "CA", "street": "2141 N BELLFLOWER BLVD", "postcode": "90815"}}},
{"geometry": {"type": "Point", "coordinates": [-118.1029932466, 33.7801012344]}, "type": "Feature", "properties": {"collection_times": [{"days": "Mon-Fri", "time": "3:00pm"}, {"days": "Sat", "time": "1:00pm"}, {"days": "Sun", "time": "Closed"}], "id": "9081500071", "name": "USPS COLLECTION BOX - BLUE BOX", "address": {"city": "LONG BEACH", "state": "CA", "street": "911 N STUDEBAKER RD", "postcode": "90815"}}},
{"geometry": {"type": "Point", "coordinates": [-118.1241613307, 33.7883894156]}, "type": "Feature", "properties": {"collection_times": [{"days": "Mon-Sat", "time": "1:00pm"}, {"days": "Sun", "time": "Closed"}], "id": "9081500072", "name": "USPS COLLECTION BOX - BLUE BOX", "address": {"city": "LONG BEACH", "state": "CA", "street": "1790 N BELLFLOWER BLVD", "postcode": "90815"}}},
{"geometry": {"type": "Point", "coordinates": [-118.1368389302, 33.8114430147]}, "type": "Feature", "properties": {"collection_times": [{"days": "Mon-Fri", "time": "5:00pm"}, {"days": "Sat", "time": "1:00pm"}, {"days": "Sun", "time": "Closed"}], "id": "9081500073", "name": "USPS COLLECTION BOX - BLUE BOX", "address": {"city": "LONG BEACH", "state": "CA", "street": "4700 AIRPORT PLAZA DR", "postcode": "90815"}}},
{"geometry": {"type": "Point", "coordinates": [-118.1029932466, 33.7801012344]}, "type": "Feature", "properties": {"collection_times": [{"days": "Mon-Fri", "time": "3:00pm"}, {"days": "Sat", "time": "1:00pm"}, {"days": "Sun", "time": "Closed"}], "id": "9081500079", "name": "USPS COLLECTION BOX - BLUE BOX", "address": {"city": "LONG BEACH", "state": "CA", "street": "911 N STUDEBAKER RD", "postcode": "90815"}}},
{"geometry": {"type": "Point", "coordinates": [-118.1251557731, 33.7970403301]}, "type": "Feature", "properties": {"collection_times": [{"days": "Mon-Fri", "time": "5:30pm"}, {"days": "Sat", "time": "3:00pm"}, {"days": "Sun", "time": "Closed"}], "id": "9081500080", "name": "USPS COLLECTION BOX - PO LOBBY", "address": {"city": "LONG BEACH", "state": "CA", "street": "2234 N BELLFLOWER BLVD LBBY", "postcode": "90815"}}},
{"geometry": {"type": "Point", "coordinates": [-118.1425787454, 33.7922227021]}, "type": "Feature", "properties": {"collection_times": [{"days": "Mon-Sat", "time": "1:00pm"}, {"days": "Sun", "time": "Closed"}], "id": "9081500081", "name": "USPS COLLECTION BOX - BLUE BOX", "address": {"city": "LONG BEACH", "state": "CA", "street": "1930 N LAKEWOOD BLVD", "postcode": "90815"}}},
{"geometry": {"type": "Point", "coordinates": [-118.1923972584, 33.7667236265]}, "type": "Feature", "properties": {"collection_times": [{"days": "Mon-Fri", "time": "5:30pm"}, {"days": "Sat", "time": "3:00pm"}, {"days": "Sun", "time": "Closed"}], "id": "9081500082", "name": "USPS COLLECTION BOX - APC", "address": {"city": "LONG BEACH", "state": "CA", "street": "2234 N BELLFLOWER BLVD LBBY", "postcode": "90815"}}},
{"geometry": {"type": "Point", "coordinates": [-118.1513677408, 33.7983111258]}, "type": "Feature", "properties": {"collection_times": [{"days": "Mon-Fri", "time": "3:00pm"}, {"days": "Sat", "time": "10:00am"}, {"days": "Sun", "time": "Closed"}], "id": "9082200005", "name": "USPS COLLECTION BOX - BLUE BOX", "address": {"city": "LONG BEACH", "state": "CA", "street": "5901 E 7TH ST", "postcode": "90822"}}},
{"geometry": {"type": "Point", "coordinates": [-118.1178536701, 33.7754186745]}, "type": "Feature", "properties": {"collection_times": [{"days": "Mon-Fri", "time": "3:00pm"}, {"days": "Sat", "time": "10:00am"}, {"days": "Sun", "time": "Closed"}], "id": "9082200006", "name": "USPS COLLECTION BOX - BLUE BOX", "address": {"city": "LONG BEACH", "state": "CA", "street": "5901 E 7TH ST", "postcode": "90822"}}},
{"geometry": {"type": "Point", "coordinates": [-118.1994481456, 33.768321402]}, "type": "Feature", "properties": {"collection_times": [{"days": "Mon-Fri", "time": "5:00pm"}, {"days": "Sat-Sun", "time": "Closed"}], "id": "9083100005", "name": "USPS COLLECTION BOX - PO LOBBY", "address": {"city": "LONG BEACH", "state": "CA", "street": "1 WORLD TRADE CTR LBBY", "postcode": "90831"}}},
{"geometry": {"type": "Point", "coordinates": [-118.1994481456, 33.768321402]}, "type": "Feature", "properties": {"collection_times": [{"days": "Mon-Fri", "time": "5:00pm"}, {"days": "Sat-Sun", "time": "Closed"}], "id": "9083100006", "name": "USPS COLLECTION BOX - PO LOBBY", "address": {"city": "LONG BEACH", "state": "CA", "street": "1 WORLD TRADE CTR LBBY", "postcode": "90831"}}},
{"geometry": {"type": "Point", "coordinates": [-118.1223756221, 33.7822364021]}, "type": "Feature", "properties": {"collection_times": [{"days": "Mon-Fri", "time": "3:00pm"}, {"days": "Sat", "time": "1:00pm"}, {"days": "Sun", "time": "Closed"}], "id": "9084000001", "name": "USPS COLLECTION BOX - BLUE BOX", "address": {"city": "LONG BEACH", "state": "CA", "street": "1250 N BELLFLOWER BLVD", "postcode": "90840"}}},
{"geometry": {"type": "Point", "coordinates": [-118.1223756221, 33.7822364021]}, "type": "Feature", "properties": {"collection_times": [{"days": "Mon-Fri", "time": "3:00pm"}, {"days": "Sat", "time": "1:00pm"}, {"days": "Sun", "time": "Closed"}], "id": "9084000002", "name": "USPS COLLECTION BOX - BLUE BOX", "address": {"city": "LONG BEACH", "state": "CA", "street": "1250 N BELLFLOWER BLVD", "postcode": "90840"}}}
]}
