{"type": "FeatureCollection", "features": [
{"geometry": {"type": "Point", "coordinates": [-118.1315429212, 34.1849437853]}, "type": "Feature", "properties": {"collection_times": [{"days": "Mon-Fri", "time": "5:00pm"}, {"days": "Sat", "time": "3:00pm"}, {"days": "Sun", "time": "Closed"}], "id": "9100100002", "name": "USPS COLLECTION BOX - BLUE BOX", "address": {"city": "ALTADENA", "state": "CA", "street": "2271 LAKE AVE", "postcode": "91001"}}},
{"geometry": {"type": "Point", "coordinates": [-118.11236638, 34.1785088673]}, "type": "Feature", "properties": {"collection_times": [{"days": "Mon-Sat", "time": "3:00pm"}, {"days": "Sun", "time": "Closed"}], "id": "9100100010", "name": "USPS COLLECTION BOX - BLUE BOX", "address": {"city": "ALTADENA", "state": "CA", "street": "1848 NEW YORK DR", "postcode": "91001"}}},
{"geometry": {"type": "Point", "coordinates": [-118.1288162008, 34.1858179919]}, "type": "Feature", "properties": {"collection_times": [{"days": "Mon-Sat", "time": "3:00pm"}, {"days": "Sun", "time": "Closed"}], "id": "9100100019", "name": "USPS COLLECTION BOX - BLUE BOX", "address": {"city": "ALTADENA", "state": "CA", "street": "1059 E MENDOCINO ST", "postcode": "91001"}}},
{"geometry": {"type": "Point", "coordinates": [-118.1587474285, 34.1930399564]}, "type": "Feature", "properties": {"collection_times": [{"days": "Mon-Sat", "time": "3:00pm"}, {"days": "Sun", "time": "Closed"}], "id": "9100100030", "name": "USPS COLLECTION BOX - BLUE BOX", "address": {"city": "ALTADENA", "state": "CA", "street": "2768 LINCOLN AVE", "postcode": "91001"}}},
{"geometry": {"type": "Point", "coordinates": [-118.1605443432, 34.1830439532]}, "type": "Feature", "properties": {"collection_times": [{"days": "Mon-Fri", "time": "5:00pm"}, {"days": "Sat", "time": "3:00pm"}, {"days": "Sun", "time": "Closed"}], "id": "9100100033", "name": "USPS COLLECTION BOX - BLUE BOX", "address": {"city": "ALTADENA", "state": "CA", "street": "2271 LAKE AVE", "postcode": "91001"}}},
{"geometry": {"type": "Point", "coordinates": [-118.1389757851, 34.1903609721]}, "type": "Feature", "properties": {"collection_times": [{"days": "Mon-Sat", "time": "3:00pm"}, {"days": "Sun", "time": "Closed"}], "id": "9100100035", "name": "USPS COLLECTION BOX - BLUE BOX", "address": {"city": "ALTADENA", "state": "CA", "street": "2171 FAIR OAKS AVE", "postcode": "91001"}}},
{"geometry": {"type": "Point", "coordinates": [-118.1314733461, 34.1849526577]}, "type": "Feature", "properties": {"collection_times": [{"days": "Mon-Sat", "time": "3:00pm"}, {"days": "Sun", "time": "Closed"}], "id": "9100100037", "name": "USPS COLLECTION BOX - BLUE BOX", "address": {"city": "ALTADENA", "state": "CA", "street": "2270 LAKE AVE", "postcode": "91001"}}},
{"geometry": {"type": "Point", "coordinates": [-118.1389757851, 34.1903609721]}, "type": "Feature", "properties": {"collection_times": [{"days": "Mon-Sat", "time": "3:00pm"}, {"days": "Sun", "time": "Closed"}], "id": "9100100040", "name": "USPS COLLECTION BOX - EXPRESS", "address": {"city": "ALTADENA", "state": "CA", "street": "729 W WOODBURY RD", "postcode": "91001"}}},
{"geometry": {"type": "Point", "coordinates": [-118.1314733461, 34.1849526577]}, "type": "Feature", "properties": {"collection_times": [{"days": "Mon-Sat", "time": "3:00pm"}, {"days": "Sun", "time": "Closed"}], "id": "9100100041", "name": "USPS COLLECTION BOX - BLUE BOX", "address": {"city": "ALTADENA", "state": "CA", "street": "2270 LAKE AVE", "postcode": "91001"}}},
{"geometry": {"type": "Point", "coordinates": [-118.1315429212, 34.1849437853]}, "type": "Feature", "properties": {"collection_times": [{"days": "Mon-Fri", "time": "5:30pm"}, {"days": "Sat", "time": "3:00pm"}, {"days": "Sun", "time": "Closed"}], "id": "9100100043", "name": "USPS COLLECTION BOX - PO LOBBY", "address": {"city": "ALTADENA", "state": "CA", "street": "2271 LAKE AVE", "postcode": "91001"}}},
{"geometry": {"type": "Point", "coordinates": [-118.1213363512, 34.1784800975]}, "type": "Feature", "properties": {"collection_times": [{"days": "Mon-Sat", "time": "3:00pm"}, {"days": "Sun", "time": "Closed"}], "id": "9100100056", "name": "USPS COLLECTION BOX - BLUE BOX", "address": {"city": "ALTADENA", "state": "CA", "street": "1419 NEW YORK DR", "postcode": "91001"}}},
{"geometry": {"type": "Point", "coordinates": [-118.0249889108, 34.1322334885]}, "type": "Feature", "properties": {"collection_times": [{"days": "Mon-Sat", "time": "5:00pm"}, {"days": "Sun", "time": "Closed"}], "id": "9100600000", "name": "USPS COLLECTION BOX - BLUE BOX", "address": {"city": "ARCADIA", "state": "CA", "street": "41 WHEELER AVE", "postcode": "91006"}}},
{"geometry": {"type": "Point", "coordinates": [-118.0296037983, 34.1411944139]}, "type": "Feature", "properties": {"collection_times": [{"days": "Mon-Sat", "time": "5:00pm"}, {"days": "Sun", "time": "Closed"}], "id": "9100600003", "name": "USPS COLLECTION BOX - BLUE BOX", "address": {"city": "ARCADIA", "state": "CA", "street": "41 WHEELER AVE", "postcode": "91006"}}},
{"geometry": {"type": "Point", "coordinates": [-118.0296037983, 34.1411944139]}, "type": "Feature", "properties": {"collection_times": [{"days": "Mon-Sat", "time": "5:00pm"}, {"days": "Sun", "time": "Closed"}], "id": "9100600004", "name": "USPS COLLECTION BOX - BLUE BOX", "address": {"city": "ARCADIA", "state": "CA", "street": "41 WHEELER AVE", "postcode": "91006"}}},
{"geometry": {"type": "Point", "coordinates": [-118.0296037983, 34.1411944139]}, "type": "Feature", "properties": {"collection_times": [{"days": "Mon-Sat", "time": "5:00pm"}, {"days": "Sun", "time": "Closed"}], "id": "9100600005", "name": "USPS COLLECTION BOX - BLUE BOX", "address": {"city": "ARCADIA", "state": "CA", "street": "41 WHEELER AVE", "postcode": "91006"}}},
{"geometry": {"type": "Point", "coordinates": [-118.0281747839, 34.1311735685]}, "type": "Feature", "properties": {"collection_times": [{"days": "Mon-Fri", "time": "10:00am"}, {"days": "Sat", "time": "1:00pm"}, {"days": "Sun", "time": "Closed"}], "id": "9100600010", "name": "USPS COLLECTION BOX - BLUE BOX", "address": {"city": "ARCADIA", "state": "CA", "street": "802 S 1ST AVE", "postcode": "91006"}}},
{"geometry": {"type": "Point", "coordinates": [-118.025356528, 34.151112779]}, "type": "Feature", "properties": {"collection_times": [{"days": "Mon-Sat", "time": "10:00am"}, {"days": "Sun", "time": "Closed"}], "id": "9100600017", "name": "USPS COLLECTION BOX - BLUE BOX", "address": {"city": "ARCADIA", "state": "CA", "street": "201 E FOOTHILL BLVD", "postcode": "91006"}}},
{"geometry": {"type": "Point", "coordinates": [-118.0228692129, 34.1510957804]}, "type": "Feature", "properties": {"collection_times": [{"days": "Mon-Fri", "time": "3:00pm"}, {"days": "Sat", "time": "1:00pm"}, {"days": "Sun", "time": "Closed"}], "id": "9100600019", "name": "USPS COLLECTION BOX - BLUE BOX", "address": {"city": "ARCADIA", "state": "CA", "street": "301 E FOOTHILL BLVD", "postcode": "91006"}}},
{"geometry": {"type": "Point", "coordinates": [-118.0215570085, 34.1402937469]}, "type": "Feature", "properties": {"collection_times": [{"days": "Mon-Sat", "time": "10:00am"}, {"days": "Sun", "time": "Closed"}], "id": "9100600026", "name": "USPS COLLECTION BOX - BLUE BOX", "address": {"city": "ARCADIA", "state": "CA", "street": "411 E HUNTINGTON DR", "postcode": "91006"}}},
{"geometry": {"type": "Point", "coordinates": [-118.0220529712, 34.1401332997]}, "type": "Feature", "properties": {"collection_times": [{"days": "Mon-Sat", "time": "10:00am"}, {"days": "Sun", "time": "Closed"}], "id": "9100600027", "name": "USPS COLLECTION BOX - BLUE BOX", "address": {"city": "ARCADIA", "state": "CA", "street": "440 E HUNTINGTON DR", "postcode": "91006"}}},
{"geometry": {"type": "Point", "coordinates": [-118.0086370336, 34.102762443]}, "type": "Feature", "properties": {"collection_times": [{"days": "Mon-Sat", "time": "1:00pm"}, {"days": "Sun", "time": "Closed"}], "id": "9100600030", "name": "USPS COLLECTION BOX - BLUE BOX", "address": {"city": "ARCADIA", "state": "CA", "street": "5600 PECK RD", "postcode": "91006"}}},
{"geometry": {"type": "Point", "coordinates": [-118.0376215846, 34.1076323821]}, "type": "Feature", "properties": {"collection_times": [{"days": "Mon-Fri", "time": "1:00pm"}, {"days": "Sat", "time": "10:00am"}, {"days": "Sun", "time": "Closed"}], "id": "9100600045", "name": "USPS COLLECTION BOX - BLUE BOX", "address": {"city": "ARCADIA", "state": "CA", "street": "180 LAS TUNAS DR", "postcode": "91006"}}},
{"geometry": {"type": "Point", "coordinates": [-118.0288691808, 34.1510520109]}, "type": "Feature", "properties": {"collection_times": [{"days": "Mon-Fri", "time": "11:00am"}, {"days": "Sat", "time": "10:00am"}, {"days": "Sun", "time": "Closed"}], "id": "9100600047", "name": "USPS COLLECTION BOX - BLUE BOX", "address": {"city": "ARCADIA", "state": "CA", "street": "77 E FOOTHILL BLVD", "postcode": "91006"}}},
{"geometry": {"type": "Point", "coordinates": [-118.0227745762, 34.1085329168]}, "type": "Feature", "properties": {"collection_times": [{"days": "Mon-Sat", "time": "10:00am"}, {"days": "Sun", "time": "Closed"}], "id": "9100600050", "name": "USPS COLLECTION BOX - BLUE BOX", "address": {"city": "ARCADIA", "state": "CA", "street": "303 E LIVE OAK AVE", "postcode": "91006"}}},
{"geometry": {"type": "Point", "coordinates": [-118.0220565201, 34.1085364657]}, "type": "Feature", "properties": {"collection_times": [{"days": "Mon-Sat", "time": "10:00am"}, {"days": "Sun", "time": "Closed"}], "id": "9100600051", "name": "USPS COLLECTION BOX - BLUE BOX", "address": {"city": "ARCADIA", "state": "CA", "street": "330 E LIVE OAK AVE", "postcode": "91006"}}},
{"geometry": {"type": "Point", "coordinates": [-118.0249889108, 34.1322334885]}, "type": "Feature", "properties": {"collection_times": [{"days": "Mon-Sat", "time": "10:00am"}, {"days": "Sun", "time": "Closed"}], "id": "9100600063", "name": "USPS COLLECTION BOX - EXPRESS", "address": {"city": "ARCADIA", "state": "CA", "street": "301 E FOOTHILL BLVD", "postcode": "91006"}}},
{"geometry": {"type": "Point", "coordinates": [-118.0306603885, 34.1071970135]}, "type": "Feature", "properties": {"collection_times": [{"days": "Mon-Sat", "time": "10:00am"}, {"days": "Sun", "time": "Closed"}], "id": "9100600072", "name": "USPS COLLECTION BOX - BLUE BOX", "address": {"city": "ARCADIA", "state": "CA", "street": "2 E LIVE OAK AVE", "postcode": "91006"}}},
{"geometry": {"type": "Point", "coordinates": [-118.0296037983, 34.1411944139]}, "type": "Feature", "properties": {"collection_times": [{"days": "Mon-Sat", "time": "5:00pm"}, {"days": "Sun", "time": "Closed"}], "id": "9100600078", "name": "USPS COLLECTION BOX - PO LOBBY", "address": {"city": "ARCADIA", "state": "CA", "street": "41 WHEELER AVE", "postcode": "91006"}}},
{"geometry": {"type": "Point", "coordinates": [-118.0296037983, 34.1411944139]}, "type": "Feature", "properties": {"collection_times": [{"days": "Mon-Sat", "time": "5:00pm"}, {"days": "Sun", "time": "Closed"}], "id": "9100600079", "name": "USPS COLLECTION BOX - APC", "address": {"city": "ARCADIA", "state": "CA", "street": "41 WHEELER AVE", "postcode": "91006"}}},
{"geometry": {"type": "Point", "coordinates": [-118.0425299909, 34.1347721296]}, "type": "Feature", "properties": {"collection_times": [{"days": "Mon-Sat", "time": "10:00am"}, {"days": "Sun", "time": "Closed"}], "id": "9100700002", "name": "USPS COLLECTION BOX - BLUE BOX", "address": {"city": "ARCADIA", "state": "CA", "street": "301 W HUNTINGTON DR", "postcode": "91007"}}},
{"geometry": {"type": "Point", "coordinates": [-118.0520942141, 34.12646066]}, "type": "Feature", "properties": {"collection_times": [{"days": "Mon-Sat", "time": "10:00am"}, {"days": "Sun", "time": "Closed"}], "id": "9100700003", "name": "USPS COLLECTION BOX - BLUE BOX", "address": {"city": "ARCADIA", "state": "CA", "street": "622 W DUARTE RD", "postcode": "91007"}}},
{"geometry": {"type": "Point", "coordinates": [-118.0537255145, 34.126227617]}, "type": "Feature", "properties": {"collection_times": [{"days": "Mon-Sat", "time": "10:00am"}, {"days": "Sun", "time": "Closed"}], "id": "9100700005", "name": "USPS COLLECTION BOX - BLUE BOX", "address": {"city": "ARCADIA", "state": "CA", "street": "650 W DUARTE RD", "postcode": "91007"}}},
{"geometry": {"type": "Point", "coordinates": [-118.0513276567, 34.1074978277]}, "type": "Feature", "properties": {"collection_times": [{"days": "Mon-Sat", "time": "10:00am"}, {"days": "Sun", "time": "Closed"}], "id": "9100700012", "name": "USPS COLLECTION BOX - BLUE BOX", "address": {"city": "ARCADIA", "state": "CA", "street": "615 LAS TUNAS DR", "postcode": "91007"}}},
{"geometry": {"type": "Point", "coordinates": [-118.0413103615, 34.1335520772]}, "type": "Feature", "properties": {"collection_times": [{"days": "Mon-Sat", "time": "10:00am"}, {"days": "Sun", "time": "Closed"}], "id": "9100700015", "name": "USPS COLLECTION BOX - BLUE BOX", "address": {"city": "ARCADIA", "state": "CA", "street": "300 W HUNTINGTON DR", "postcode": "91007"}}},
{"geometry": {"type": "Point", "coordinates": [-118.0533878667, 34.1277711679]}, "type": "Feature", "properties": {"collection_times": [{"days": "Mon-Sat", "time": "10:00am"}, {"days": "Sun", "time": "Closed"}], "id": "9100700021", "name": "USPS COLLECTION BOX - EXPRESS", "address": {"city": "ARCADIA", "state": "CA", "street": "650 W DUARTE RD", "postcode": "91007"}}},
{"geometry": {"type": "Point", "coordinates": [-118.0659323755, 34.1310841881]}, "type": "Feature", "properties": {"collection_times": [{"days": "Mon-Sat", "time": "10:00am"}, {"days": "Sun", "time": "Closed"}], "id": "9100700023", "name": "USPS COLLECTION BOX - BLUE BOX", "address": {"city": "ARCADIA", "state": "CA", "street": "1155 W HUNTINGTON DR", "postcode": "91007"}}},
{"geometry": {"type": "Point", "coordinates": [-118.0599147558, 34.1340741839]}, "type": "Feature", "properties": {"collection_times": [{"days": "Mon-Sat", "time": "10:00am"}, {"days": "Sun", "time": "Closed"}], "id": "9100700024", "name": "USPS COLLECTION BOX - BLUE BOX", "address": {"city": "ARCADIA", "state": "CA", "street": "864 BALBOA DR", "postcode": "91007"}}},
{"geometry": {"type": "Point", "coordinates": [-118.0438437489, 34.1309683957]}, "type": "Feature", "properties": {"collection_times": [{"days": "Mon-Sat", "time": "10:00am"}, {"days": "Sun", "time": "Closed"}], "id": "9100700025", "name": "USPS COLLECTION BOX - BLUE BOX", "address": {"city": "ARCADIA", "state": "CA", "street": "365 CAMPUS DR", "postcode": "91007"}}},
{"geometry": {"type": "Point", "coordinates": [-118.05604648, 34.1258904737]}, "type": "Feature", "properties": {"collection_times": [{"days": "Mon-Fri", "time": "5:00pm"}, {"days": "Sat", "time": "4:45pm"}, {"days": "Sun", "time": "Closed"}], "id": "9100700026", "name": "USPS COLLECTION BOX - PO LOBBY", "address": {"city": "ARCADIA", "state": "CA", "street": "725 W DUARTE RD", "postcode": "91007"}}},
{"geometry": {"type": "Point", "coordinates": [-118.0547298467, 34.1286645125]}, "type": "Feature", "properties": {"collection_times": [{"days": "Mon-Sat", "time": "10:00am"}, {"days": "Sun", "time": "Closed"}], "id": "9100700027", "name": "USPS COLLECTION BOX - BLUE BOX", "address": {"city": "ARCADIA", "state": "CA", "street": "1003 S BALDWIN AVE", "postcode": "91007"}}},
{"geometry": {"type": "Point", "coordinates": [-117.9666195141, 34.1388935587]}, "type": "Feature", "properties": {"collection_times": [{"days": "Mon-Fri", "time": "5:00pm"}, {"days": "Sat", "time": "3:00pm"}, {"days": "Sun", "time": "Closed"}], "id": "9101000000", "name": "USPS COLLECTION BOX - BLUE BOX", "address": {"city": "DUARTE", "state": "CA", "street": "1220 HIGHLAND AVE", "postcode": "91010"}}},
{"geometry": {"type": "Point", "coordinates": [-117.9666195141, 34.1388935587]}, "type": "Feature", "properties": {"collection_times": [{"days": "Mon-Fri", "time": "5:00pm"}, {"days": "Sat", "time": "3:00pm"}, {"days": "Sun", "time": "Closed"}], "id": "9101000001", "name": "USPS COLLECTION BOX - BLUE BOX", "address": {"city": "DUARTE", "state": "CA", "street": "1220 HIGHLAND AVE", "postcode": "91010"}}},
{"geometry": {"type": "Point", "coordinates": [-117.9665572768, 34.1377212305]}, "type": "Feature", "properties": {"collection_times": [{"days": "Mon-Fri", "time": "5:00pm"}, {"days": "Sat", "time": "3:00pm"}, {"days": "Sun", "time": "Closed"}], "id": "9101000002", "name": "USPS COLLECTION BOX - EXPRESS", "address": {"city": "DUARTE", "state": "CA", "street": "1220 HIGHLAND AVE", "postcode": "91010"}}},
{"geometry": {"type": "Point", "coordinates": [-117.9547069713, 34.1398503199]}, "type": "Feature", "properties": {"collection_times": [{"days": "Mon-Sat", "time": "1:00pm"}, {"days": "Sun", "time": "Closed"}], "id": "9101000011", "name": "USPS COLLECTION BOX - BLUE BOX", "address": {"city": "DUARTE", "state": "CA", "street": "2315 HUNTINGTON DR", "postcode": "91010"}}},
{"geometry": {"type": "Point", "coordinates": [-117.9775666164, 34.1416250109]}, "type": "Feature", "properties": {"collection_times": [{"days": "Mon-Fri", "time": "1:00pm"}, {"days": "Sat", "time": "10:00am"}, {"days": "Sun", "time": "Closed"}], "id": "9101000018", "name": "USPS COLLECTION BOX - BLUE BOX", "address": {"city": "DUARTE", "state": "CA", "street": "931 BUENA VISTA ST", "postcode": "91010"}}},
{"geometry": {"type": "Point", "coordinates": [-117.9877893096, 34.1214616429]}, "type": "Feature", "properties": {"collection_times": [{"days": "Mon-Fri", "time": "1:00pm"}, {"days": "Sat", "time": "10:00am"}, {"days": "Sun", "time": "Closed"}], "id": "9101000019", "name": "USPS COLLECTION BOX - BLUE BOX", "address": {"city": "DUARTE", "state": "CA", "street": "831 MERIDIAN ST", "postcode": "91010"}}},
{"geometry": {"type": "Point", "coordinates": [-117.9666195141, 34.1388935587]}, "type": "Feature", "properties": {"collection_times": [{"days": "Mon-Fri", "time": "5:00pm"}, {"days": "Sat", "time": "3:00pm"}, {"days": "Sun", "time": "Closed"}], "id": "9101000023", "name": "USPS COLLECTION BOX - PO LOBBY", "address": {"city": "DUARTE", "state": "CA", "street": "1220 HIGHLAND AVE", "postcode": "91010"}}},
{"geometry": {"type": "Point", "coordinates": [-117.9666195141, 34.1388935587]}, "type": "Feature", "properties": {"collection_times": [{"days": "Mon-Fri", "time": "5:00pm"}, {"days": "Sat", "time": "3:00pm"}, {"days": "Sun", "time": "Closed"}], "id": "9101000024", "name": "USPS COLLECTION BOX - BLUE BOX", "address": {"city": "DUARTE", "state": "CA", "street": "1220 HIGHLAND AVE", "postcode": "91010"}}},
{"geometry": {"type": "Point", "coordinates": [-117.9727487404, 34.1395243358]}, "type": "Feature", "properties": {"collection_times": [{"days": "Mon-Fri", "time": "1:00pm"}, {"days": "Sat", "time": "10:00am"}, {"days": "Sun", "time": "Closed"}], "id": "9101000025", "name": "USPS COLLECTION BOX - BLUE BOX", "address": {"city": "DUARTE", "state": "CA", "street": "1600 HUNTINGTON DR", "postcode": "91010"}}},
{"geometry": {"type": "Point", "coordinates": [-118.1919164149, 34.2007185431]}, "type": "Feature", "properties": {"collection_times": [{"days": "Mon-Sat", "time": "5:00pm"}, {"days": "Sun", "time": "Closed"}], "id": "9101100000", "name": "USPS COLLECTION BOX - BLUE BOX", "address": {"city": "LA CANADA", "state": "CA", "street": "607 FOOTHILL BLVD", "postcode": "91011"}}},
{"geometry": {"type": "Point", "coordinates": [-118.2002302505, 34.2054598426]}, "type": "Feature", "properties": {"collection_times": [{"days": "Mon-Sat", "time": "3:00pm"}, {"days": "Sun", "time": "Closed"}], "id": "9101100011", "name": "USPS COLLECTION BOX - BLUE BOX", "address": {"city": "LA CANADA", "state": "CA", "street": "4529 ANGELES CREST HWY", "postcode": "91011"}}},
{"geometry": {"type": "Point", "coordinates": [-118.2084731086, 34.2082232347]}, "type": "Feature", "properties": {"collection_times": [{"days": "Mon-Sat", "time": "3:00pm"}, {"days": "Sun", "time": "Closed"}], "id": "9101100020", "name": "USPS COLLECTION BOX - BLUE BOX", "address": {"city": "LA CANADA", "state": "CA", "street": "1400 FOOTHILL BLVD", "postcode": "91011"}}},
{"geometry": {"type": "Point", "coordinates": [-118.1882565114, 34.1991042313]}, "type": "Feature", "properties": {"collection_times": [{"days": "Mon-Sat", "time": "3:00pm"}, {"days": "Sun", "time": "Closed"}], "id": "9101100024", "name": "USPS COLLECTION BOX - BLUE BOX", "address": {"city": "LA CANADA", "state": "CA", "street": "459 FOOTHILL BLVD", "postcode": "91011"}}},
{"geometry": {"type": "Point", "coordinates": [-118.2002302505, 34.2054598426]}, "type": "Feature", "properties": {"collection_times": [{"days": "Mon-Sat", "time": "3:00pm"}, {"days": "Sun", "time": "Closed"}], "id": "9101100027", "name": "USPS COLLECTION BOX - BLUE BOX", "address": {"city": "LA CANADA", "state": "CA", "street": "4529 ANGELES CREST HWY", "postcode": "91011"}}},
{"geometry": {"type": "Point", "coordinates": [-118.2070535578, 34.2075832539]}, "type": "Feature", "properties": {"collection_times": [{"days": "Mon-Sat", "time": "3:00pm"}, {"days": "Sun", "time": "Closed"}], "id": "9101100029", "name": "USPS COLLECTION BOX - BLUE BOX", "address": {"city": "LA CANADA", "state": "CA", "street": "1327 FOOTHILL BLVD", "postcode": "91011"}}},
{"geometry": {"type": "Point", "coordinates": [-118.1919164149, 34.2007185431]}, "type": "Feature", "properties": {"collection_times": [{"days": "Mon-Sat", "time": "5:00pm"}, {"days": "Sun", "time": "Closed"}], "id": "9101100030", "name": "USPS COLLECTION BOX - PO LOBBY", "address": {"city": "LA CANADA", "state": "CA", "street": "607 FOOTHILL BLVD", "postcode": "91011"}}},
{"geometry": {"type": "Point", "coordinates": [-118.1919164149, 34.2007185431]}, "type": "Feature", "properties": {"collection_times": [{"days": "Mon-Sat", "time": "5:00pm"}, {"days": "Sun", "time": "Closed"}], "id": "9101100031", "name": "USPS COLLECTION BOX - APC", "address": {"city": "LA CANADA", "state": "CA", "street": "607 FOOTHILL BLVD", "postcode": "91011"}}},
{"geometry": {"type": "Point", "coordinates": [-118.200611326, 34.204594445]}, "type": "Feature", "properties": {"collection_times": [{"days": "Mon-Sat", "time": "3:00pm"}, {"days": "Sun", "time": "Closed"}], "id": "9101100033", "name": "USPS COLLECTION BOX - BLUE BOX", "address": {"city": "LA CANADA", "state": "CA", "street": "1010 FOOTHILL BLVD", "postcode": "91011"}}},
{"geometry": {"type": "Point", "coordinates": [-117.9988161083, 34.1494467356]}, "type": "Feature", "properties": {"collection_times": [{"days": "Mon-Fri", "time": "5:00pm"}, {"days": "Sat", "time": "4:30pm"}, {"days": "Sun", "time": "Closed"}], "id": "9101600000", "name": "USPS COLLECTION BOX - BLUE BOX", "address": {"city": "MONROVIA", "state": "CA", "street": "225 S IVY AVE", "postcode": "91016"}}},
{"geometry": {"type": "Point", "coordinates": [-117.9988161083, 34.1494467356]}, "type": "Feature", "properties": {"collection_times": [{"days": "Mon-Fri", "time": "5:00pm"}, {"days": "Sat", "time": "4:30pm"}, {"days": "Sun", "time": "Closed"}], "id": "9101600001", "name": "USPS COLLECTION BOX - BLUE BOX", "address": {"city": "MONROVIA", "state": "CA", "street": "225 S IVY AVE", "postcode": "91016"}}},
{"geometry": {"type": "Point", "coordinates": [-117.9988161083, 34.1494467356]}, "type": "Feature", "properties": {"collection_times": [{"days": "Mon-Fri", "time": "5:00pm"}, {"days": "Sat", "time": "4:30pm"}, {"days": "Sun", "time": "Closed"}], "id": "9101600002", "name": "USPS COLLECTION BOX - BLUE BOX", "address": {"city": "MONROVIA", "state": "CA", "street": "225 S IVY AVE", "postcode": "91016"}}},
{"geometry": {"type": "Point", "coordinates": [-118.0080218949, 34.1571075779]}, "type": "Feature", "properties": {"collection_times": [{"days": "Mon-Sat", "time": "1:00pm"}, {"days": "Sun", "time": "Closed"}], "id": "9101600011", "name": "USPS COLLECTION BOX - BLUE BOX", "address": {"city": "MONROVIA", "state": "CA", "street": "402 W HILLCREST BLVD", "postcode": "91016"}}},
{"geometry": {"type": "Point", "coordinates": [-118.0198573994, 34.1511277203]}, "type": "Feature", "properties": {"collection_times": [{"days": "Mon-Sat", "time": "1:00pm"}, {"days": "Sun", "time": "Closed"}], "id": "9101600021", "name": "USPS COLLECTION BOX - BLUE BOX", "address": {"city": "MONROVIA", "state": "CA", "street": "931 W FOOTHILL BLVD", "postcode": "91016"}}},
{"geometry": {"type": "Point", "coordinates": [-118.0088531233, 34.1513238287]}, "type": "Feature", "properties": {"collection_times": [{"days": "Mon-Sat", "time": "1:00pm"}, {"days": "Sun", "time": "Closed"}], "id": "9101600022", "name": "USPS COLLECTION BOX - BLUE BOX", "address": {"city": "MONROVIA", "state": "CA", "street": "457 W FOOTHILL BLVD", "postcode": "91016"}}},
{"geometry": {"type": "Point", "coordinates": [-118.0036295683, 34.1513323722]}, "type": "Feature", "properties": {"collection_times": [{"days": "Mon-Sat", "time": "1:00pm"}, {"days": "Sun", "time": "Closed"}], "id": "9101600024", "name": "USPS COLLECTION BOX - BLUE BOX", "address": {"city": "MONROVIA", "state": "CA", "street": "204 W FOOTHILL BLVD", "postcode": "91016"}}},
{"geometry": {"type": "Point", "coordinates": [-118.0110041345, 34.1402492296]}, "type": "Feature", "properties": {"collection_times": [{"days": "Mon-Sat", "time": "1:00pm"}, {"days": "Sun", "time": "Closed"}], "id": "9101600029", "name": "USPS COLLECTION BOX - BLUE BOX", "address": {"city": "MONROVIA", "state": "CA", "street": "530 W HUNTINGTON DR", "postcode": "91016"}}},
{"geometry": {"type": "Point", "coordinates": [-118.0010166058, 34.1467177195]}, "type": "Feature", "properties": {"collection_times": [{"days": "Mon-Sat", "time": "1:00pm"}, {"days": "Sun", "time": "Closed"}], "id": "9101600040", "name": "USPS COLLECTION BOX - BLUE BOX", "address": {"city": "MONROVIA", "state": "CA", "street": "525 S MYRTLE AVE", "postcode": "91016"}}},
{"geometry": {"type": "Point", "coordinates": [-118.0012482035, 34.1170098314]}, "type": "Feature", "properties": {"collection_times": [{"days": "Mon-Sat", "time": "1:00pm"}, {"days": "Sun", "time": "Closed"}], "id": "9101600043", "name": "USPS COLLECTION BOX - BLUE BOX", "address": {"city": "MONROVIA", "state": "CA", "street": "2640 S MYRTLE AVE", "postcode": "91016"}}},
{"geometry": {"type": "Point", "coordinates": [-118.0058357868, 34.1414676774]}, "type": "Feature", "properties": {"collection_times": [{"days": "Mon-Sat", "time": "1:00pm"}, {"days": "Sun", "time": "Closed"}], "id": "9101600046", "name": "USPS COLLECTION BOX - BLUE BOX", "address": {"city": "MONROVIA", "state": "CA", "street": "300 W MAPLE AVE", "postcode": "91016"}}},
{"geometry": {"type": "Point", "coordinates": [-118.0008070282, 34.1376277926]}, "type": "Feature", "properties": {"collection_times": [{"days": "Mon-Sat", "time": "1:00pm"}, {"days": "Sun", "time": "Closed"}], "id": "9101600066", "name": "USPS COLLECTION BOX - BLUE BOX", "address": {"city": "MONROVIA", "state": "CA", "street": "1307 S MYRTLE AVE", "postcode": "91016"}}},
{"geometry": {"type": "Point", "coordinates": [-117.9940736258, 34.1404763578]}, "type": "Feature", "properties": {"collection_times": [{"days": "Mon-Sat", "time": "1:00pm"}, {"days": "Sun", "time": "Closed"}], "id": "9101600068", "name": "USPS COLLECTION BOX - BLUE BOX", "address": {"city": "MONROVIA", "state": "CA", "street": "404 E HUNTINGTON DR", "postcode": "91016"}}},
{"geometry": {"type": "Point", "coordinates": [-117.9988161083, 34.1494467356]}, "type": "Feature", "properties": {"collection_times": [{"days": "Mon-Fri", "time": "5:00pm"}, {"days": "Sat", "time": "4:30pm"}, {"days": "Sun", "time": "Closed"}], "id": "9101600069", "name": "USPS COLLECTION BOX - APC", "address": {"city": "MONROVIA", "state": "CA", "street": "225 S IVY AVE", "postcode": "91016"}}},
{"geometry": {"type": "Point", "coordinates": [-117.9988161083, 34.1494467356]}, "type": "Feature", "properties": {"collection_times": [{"days": "Mon-Fri", "time": "5:00pm"}, {"days": "Sat", "time": "4:30pm"}, {"days": "Sun", "time": "Closed"}], "id": "9101600074", "name": "USPS COLLECTION BOX - BLUE BOX", "address": {"city": "MONROVIA", "state": "CA", "street": "225 S IVY AVE", "postcode": "91016"}}},
{"geometry": {"type": "Point", "coordinates": [-117.9988161083, 34.1494467356]}, "type": "Feature", "properties": {"collection_times": [{"days": "Mon-Fri", "time": "5:00pm"}, {"days": "Sat", "time": "4:30pm"}, {"days": "Sun", "time": "Closed"}], "id": "9101600075", "name": "USPS COLLECTION BOX - PO LOBBY", "address": {"city": "MONROVIA", "state": "CA", "street": "225 S IVY AVE", "postcode": "91016"}}},
{"geometry": {"type": "Point", "coordinates": [-118.0009548981, 34.1468347622]}, "type": "Feature", "properties": {"collection_times": [{"days": "Mon-Sat", "time": "1:00pm"}, {"days": "Sun", "time": "Closed"}], "id": "9101600079", "name": "USPS COLLECTION BOX - BLUE BOX", "address": {"city": "MONROVIA", "state": "CA", "street": "501 S MYRTLE AVE", "postcode": "91016"}}},
{"geometry": {"type": "Point", "coordinates": [-118.2247033056, 34.206602581]}, "type": "Feature", "properties": {"collection_times": [{"days": "Mon-Fri", "time": "5:00pm"}, {"days": "Sat", "time": "3:00pm"}, {"days": "Sun", "time": "Closed"}], "id": "9102000000", "name": "USPS COLLECTION BOX - BLUE BOX", "address": {"city": "MONTROSE", "state": "CA", "street": "2100 MONTROSE AVE", "postcode": "91020"}}},
{"geometry": {"type": "Point", "coordinates": [-118.2247033056, 34.206602581]}, "type": "Feature", "properties": {"collection_times": [{"days": "Mon-Fri", "time": "5:00pm"}, {"days": "Sat", "time": "3:00pm"}, {"days": "Sun", "time": "Closed"}], "id": "9102000001", "name": "USPS COLLECTION BOX - BLUE BOX", "address": {"city": "MONTROSE", "state": "CA", "street": "2100 MONTROSE AVE", "postcode": "91020"}}},
{"geometry": {"type": "Point", "coordinates": [-118.2308856864, 34.2099743269]}, "type": "Feature", "properties": {"collection_times": [{"days": "Mon-Fri", "time": "5:00pm"}, {"days": "Sat", "time": "3:00pm"}, {"days": "Sun", "time": "Closed"}], "id": "9102000002", "name": "USPS COLLECTION BOX - EXPRESS", "address": {"city": "MONTROSE", "state": "CA", "street": "2100 MONTROSE AVE", "postcode": "91020"}}},
{"geometry": {"type": "Point", "coordinates": [-118.2247033056, 34.206602581]}, "type": "Feature", "properties": {"collection_times": [{"days": "Mon-Fri", "time": "5:00pm"}, {"days": "Sat", "time": "3:00pm"}, {"days": "Sun", "time": "Closed"}], "id": "9102000016", "name": "USPS COLLECTION BOX - BLUE BOX", "address": {"city": "MONTROSE", "state": "CA", "street": "2100 MONTROSE AVE", "postcode": "91020"}}},
{"geometry": {"type": "Point", "coordinates": [-118.2247033056, 34.206602581]}, "type": "Feature", "properties": {"collection_times": [{"days": "Mon-Fri", "time": "5:00pm"}, {"days": "Sat-Sun", "time": "Closed"}], "id": "9102000019", "name": "USPS COLLECTION BOX - APC", "address": {"city": "MONTROSE", "state": "CA", "street": "2100 MONTROSE AVE", "postcode": "91020"}}},
{"geometry": {"type": "Point", "coordinates": [-118.2306157345, 34.2064133075]}, "type": "Feature", "properties": {"collection_times": [{"days": "Mon-Sat", "time": "3:00pm"}, {"days": "Sun", "time": "Closed"}], "id": "9102000023", "name": "USPS COLLECTION BOX - BLUE BOX", "address": {"city": "MONTROSE", "state": "CA", "street": "2401 HONOLULU AVE", "postcode": "91020"}}},
{"geometry": {"type": "Point", "coordinates": [-118.229765187, 34.2061163848]}, "type": "Feature", "properties": {"collection_times": [{"days": "Mon-Sat", "time": "3:00pm"}, {"days": "Sun", "time": "Closed"}], "id": "9102000027", "name": "USPS COLLECTION BOX - BLUE BOX", "address": {"city": "MONTROSE", "state": "CA", "street": "2340 HONOLULU AVE", "postcode": "91020"}}},
{"geometry": {"type": "Point", "coordinates": [-118.2276501344, 34.2053780491]}, "type": "Feature", "properties": {"collection_times": [{"days": "Mon-Sat", "time": "3:00pm"}, {"days": "Sun", "time": "Closed"}], "id": "9102000029", "name": "USPS COLLECTION BOX - BLUE BOX", "address": {"city": "MONTROSE", "state": "CA", "street": "2284 HONOLULU AVE", "postcode": "91020"}}},
{"geometry": {"type": "Point", "coordinates": [-118.2247033056, 34.206602581]}, "type": "Feature", "properties": {"collection_times": [{"days": "Mon-Fri", "time": "5:00pm"}, {"days": "Sat-Sun", "time": "Closed"}], "id": "9102000032", "name": "USPS COLLECTION BOX - PO LOBBY", "address": {"city": "MONTROSE", "state": "CA", "street": "2100 MONTROSE AVE", "postcode": "91020"}}},
{"geometry": {"type": "Point", "coordinates": [-118.2255444003, 34.2050979924]}, "type": "Feature", "properties": {"collection_times": [{"days": "Mon-Sat", "time": "3:00pm"}, {"days": "Sun", "time": "Closed"}], "id": "9102000033", "name": "USPS COLLECTION BOX - BLUE BOX", "address": {"city": "MONTROSE", "state": "CA", "street": "2207 HONOLULU AVE", "postcode": "91020"}}},
{"geometry": {"type": "Point", "coordinates": [-118.0527161437, 34.1608676758]}, "type": "Feature", "properties": {"collection_times": [{"days": "Mon-Fri", "time": "5:00pm"}, {"days": "Sat", "time": "3:00pm"}, {"days": "Sun", "time": "Closed"}], "id": "9102400001", "name": "USPS COLLECTION BOX - BLUE BOX", "address": {"city": "SIERRA MADRE", "state": "CA", "street": "50 S BALDWIN AVE", "postcode": "91024"}}},
{"geometry": {"type": "Point", "coordinates": [-118.0453619947, 34.1619316845]}, "type": "Feature", "properties": {"collection_times": [{"days": "Mon-Sat", "time": "3:30pm"}, {"days": "Sun", "time": "Closed"}], "id": "9102400009", "name": "USPS COLLECTION BOX - BLUE BOX", "address": {"city": "SIERRA MADRE", "state": "CA", "street": "345 W SIERRA MADRE BLVD", "postcode": "91024"}}},
{"geometry": {"type": "Point", "coordinates": [-118.06437806, 34.1618074738]}, "type": "Feature", "properties": {"collection_times": [{"days": "Mon-Sat", "time": "3:30pm"}, {"days": "Sun", "time": "Closed"}], "id": "9102400016", "name": "USPS COLLECTION BOX - BLUE BOX", "address": {"city": "SIERRA MADRE", "state": "CA", "street": "555 W SIERRA MADRE BLVD", "postcode": "91024"}}},
{"geometry": {"type": "Point", "coordinates": [-118.0528271908, 34.1606827328]}, "type": "Feature", "properties": {"collection_times": [{"days": "Mon-Fri", "time": "5:00pm"}, {"days": "Sat", "time": "3:00pm"}, {"days": "Sun", "time": "Closed"}], "id": "9102400018", "name": "USPS COLLECTION BOX - APC", "address": {"city": "SIERRA MADRE", "state": "CA", "street": "61 S BALDWIN AVE", "postcode": "91024"}}},
{"geometry": {"type": "Point", "coordinates": [-118.0527682251, 34.1623413263]}, "type": "Feature", "properties": {"collection_times": [{"days": "Mon-Sat", "time": "3:30pm"}, {"days": "Sun", "time": "Closed"}], "id": "9102400019", "name": "USPS COLLECTION BOX - BLUE BOX", "address": {"city": "SIERRA MADRE", "state": "CA", "street": "9 KERSTING CT", "postcode": "91024"}}},
{"geometry": {"type": "Point", "coordinates": [-118.1547099895, 34.1147505492]}, "type": "Feature", "properties": {"collection_times": [{"days": "Mon-Sat", "time": "5:00pm"}, {"days": "Sun", "time": "Closed"}], "id": "9103000000", "name": "USPS COLLECTION BOX - BLUE BOX", "address": {"city": "SOUTH PASADENA", "state": "CA", "street": "1100 EL CENTRO ST", "postcode": "91030"}}},
{"geometry": {"type": "Point", "coordinates": [-118.1648798878, 34.1157016482]}, "type": "Feature", "properties": {"collection_times": [{"days": "Mon-Sat", "time": "3:00pm"}, {"days": "Sun", "time": "Closed"}], "id": "9103000002", "name": "USPS COLLECTION BOX - BLUE BOX", "address": {"city": "SOUTH PASADENA", "state": "CA", "street": "505 MISSION ST", "postcode": "91030"}}},
{"geometry": {"type": "Point", "coordinates": [-118.1531658582, 34.1147437806]}, "type": "Feature", "properties": {"collection_times": [{"days": "Mon-Sat", "time": "5:00pm"}, {"days": "Sun", "time": "Closed"}], "id": "9103000008", "name": "USPS COLLECTION BOX - BLUE BOX", "address": {"city": "SOUTH PASADENA", "state": "CA", "street": "1001 FREMONT AVE", "postcode": "91030"}}},
{"geometry": {"type": "Point", "coordinates": [-118.1531658582, 34.1147437806]}, "type": "Feature", "properties": {"collection_times": [{"days": "Mon-Sat", "time": "5:00pm"}, {"days": "Sun", "time": "Closed"}], "id": "9103000009", "name": "USPS COLLECTION BOX - BLUE BOX", "address": {"city": "SOUTH PASADENA", "state": "CA", "street": "1001 FREMONT AVE", "postcode": "91030"}}},
{"geometry": {"type": "Point", "coordinates": [-118.1451753403, 34.1155880841]}, "type": "Feature", "properties": {"collection_times": [{"days": "Mon-Sat", "time": "1:00pm"}, {"days": "Sun", "time": "Closed"}], "id": "9103000011", "name": "USPS COLLECTION BOX - BLUE BOX", "address": {"city": "SOUTH PASADENA", "state": "CA", "street": "1836 MISSION ST", "postcode": "91030"}}},
{"geometry": {"type": "Point", "coordinates": [-118.1631799757, 34.1207954695]}, "type": "Feature", "properties": {"collection_times": [{"days": "Mon-Sat", "time": "1:00pm"}, {"days": "Sun", "time": "Closed"}], "id": "9103000021", "name": "USPS COLLECTION BOX - BLUE BOX", "address": {"city": "SOUTH PASADENA", "state": "CA", "street": "500 GRAND AVE", "postcode": "91030"}}},
{"geometry": {"type": "Point", "coordinates": [-118.1585042405, 34.1174133254]}, "type": "Feature", "properties": {"collection_times": [{"days": "Mon-Sat", "time": "1:00pm"}, {"days": "Sun", "time": "Closed"}], "id": "9103000023", "name": "USPS COLLECTION BOX - BLUE BOX", "address": {"city": "SOUTH PASADENA", "state": "CA", "street": "900 MAGNOLIA ST", "postcode": "91030"}}},
{"geometry": {"type": "Point", "coordinates": [-118.1766550613, 34.1096141413]}, "type": "Feature", "properties": {"collection_times": [{"days": "Mon-Sat", "time": "1:00pm"}, {"days": "Sun", "time": "Closed"}], "id": "9103000026", "name": "USPS COLLECTION BOX - BLUE BOX", "address": {"city": "SOUTH PASADENA", "state": "CA", "street": "111 MONTEREY RD", "postcode": "91030"}}},
{"geometry": {"type": "Point", "coordinates": [-118.150559661, 34.1040532475]}, "type": "Feature", "properties": {"collection_times": [{"days": "Mon-Sat", "time": "3:00pm"}, {"days": "Sun", "time": "Closed"}], "id": "9103000033", "name": "USPS COLLECTION BOX - BLUE BOX", "address": {"city": "SOUTH PASADENA", "state": "CA", "street": "1499 HUNTINGTON DR", "postcode": "91030"}}},
{"geometry": {"type": "Point", "coordinates": [-118.1514580353, 34.1042139337]}, "type": "Feature", "properties": {"collection_times": [{"days": "Mon-Sat", "time": "3:00pm"}, {"days": "Sun", "time": "Closed"}], "id": "9103000037", "name": "USPS COLLECTION BOX - BLUE BOX", "address": {"city": "SOUTH PASADENA", "state": "CA", "street": "1502 HUNTINGTON DR", "postcode": "91030"}}},
{"geometry": {"type": "Point", "coordinates": [-118.143914306, 34.1042541543]}, "type": "Feature", "properties": {"collection_times": [{"days": "Mon-Sat", "time": "3:00pm"}, {"days": "Sun", "time": "Closed"}], "id": "9103000038", "name": "USPS COLLECTION BOX - BLUE BOX", "address": {"city": "SOUTH PASADENA", "state": "CA", "street": "1900 HUNTINGTON DR", "postcode": "91030"}}},
{"geometry": {"type": "Point", "coordinates": [-118.1526894956, 34.1157856383]}, "type": "Feature", "properties": {"collection_times": [{"days": "Mon-Sat", "time": "3:00pm"}, {"days": "Sun", "time": "Closed"}], "id": "9103000040", "name": "USPS COLLECTION BOX - BLUE BOX", "address": {"city": "SOUTH PASADENA", "state": "CA", "street": "1400 MISSION ST", "postcode": "91030"}}},
{"geometry": {"type": "Point", "coordinates": [-118.1503294925, 34.1062143173]}, "type": "Feature", "properties": {"collection_times": [{"days": "Mon-Sat", "time": "3:00pm"}, {"days": "Sun", "time": "Closed"}], "id": "9103000041", "name": "USPS COLLECTION BOX - BLUE BOX", "address": {"city": "SOUTH PASADENA", "state": "CA", "street": "1700 FAIR OAKS AVE", "postcode": "91030"}}},
{"geometry": {"type": "Point", "coordinates": [-118.1503011015, 34.1095751037]}, "type": "Feature", "properties": {"collection_times": [{"days": "Mon-Sat", "time": "3:00pm"}, {"days": "Sun", "time": "Closed"}], "id": "9103000043", "name": "USPS COLLECTION BOX - BLUE BOX", "address": {"city": "SOUTH PASADENA", "state": "CA", "street": "1414 FAIR OAKS AVE", "postcode": "91030"}}},
{"geometry": {"type": "Point", "coordinates": [-118.1503673472, 34.1146180578]}, "type": "Feature", "properties": {"collection_times": [{"days": "Mon-Sat", "time": "3:00pm"}, {"days": "Sun", "time": "Closed"}], "id": "9103000047", "name": "USPS COLLECTION BOX - BLUE BOX", "address": {"city": "SOUTH PASADENA", "state": "CA", "street": "1001 FAIR OAKS AVE", "postcode": "91030"}}},
{"geometry": {"type": "Point", "coordinates": [-118.1503673472, 34.1146180578]}, "type": "Feature", "properties": {"collection_times": [{"days": "Mon-Sat", "time": "3:00pm"}, {"days": "Sun", "time": "Closed"}], "id": "9103000048", "name": "USPS COLLECTION BOX - BLUE BOX", "address": {"city": "SOUTH PASADENA", "state": "CA", "street": "1001 FAIR OAKS AVE", "postcode": "91030"}}},
{"geometry": {"type": "Point", "coordinates": [-118.1503117481, 34.1181834961]}, "type": "Feature", "properties": {"collection_times": [{"days": "Mon-Sat", "time": "3:00pm"}, {"days": "Sun", "time": "Closed"}], "id": "9103000053", "name": "USPS COLLECTION BOX - BLUE BOX", "address": {"city": "SOUTH PASADENA", "state": "CA", "street": "625 FAIR OAKS AVE", "postcode": "91030"}}},
{"geometry": {"type": "Point", "coordinates": [-118.1503117481, 34.1181834961]}, "type": "Feature", "properties": {"collection_times": [{"days": "Mon-Sat", "time": "3:00pm"}, {"days": "Sun", "time": "Closed"}], "id": "9103000058", "name": "USPS COLLECTION BOX - BLUE BOX", "address": {"city": "SOUTH PASADENA", "state": "CA", "street": "625 FAIR OAKS AVE", "postcode": "91030"}}},
{"geometry": {"type": "Point", "coordinates": [-118.1531658582, 34.1147437806]}, "type": "Feature", "properties": {"collection_times": [{"days": "Mon-Sat", "time": "5:00pm"}, {"days": "Sun", "time": "Closed"}], "id": "9103000059", "name": "USPS COLLECTION BOX - PO LOBBY", "address": {"city": "SOUTH PASADENA", "state": "CA", "street": "1001 FREMONT AVE", "postcode": "91030"}}},
{"geometry": {"type": "Point", "coordinates": [-118.1531658582, 34.1147437806]}, "type": "Feature", "properties": {"collection_times": [{"days": "Mon-Fri", "time": "5:00pm"}, {"days": "Sat", "time": "4:30pm"}, {"days": "Sun", "time": "Closed"}], "id": "9103000061", "name": "USPS COLLECTION BOX - APC", "address": {"city": "SOUTH PASADENA", "state": "CA", "street": "1001 FREMONT AVE", "postcode": "91030"}}},
{"geometry": {"type": "Point", "coordinates": [-118.3197611562, 34.2620750757]}, "type": "Feature", "properties": {"collection_times": [{"days": "Mon-Sat", "time": "5:00pm"}, {"days": "Sun", "time": "Closed"}], "id": "9104000001", "name": "USPS COLLECTION BOX - BLUE BOX", "address": {"city": "SUNLAND", "state": "CA", "street": "8587 FENWICK ST", "postcode": "91040"}}},
{"geometry": {"type": "Point", "coordinates": [-118.3249985056, 34.2597116049]}, "type": "Feature", "properties": {"collection_times": [{"days": "Mon-Sat", "time": "5:00pm"}, {"days": "Sun", "time": "Closed"}], "id": "9104000002", "name": "USPS COLLECTION BOX - EXPRESS", "address": {"city": "SUNLAND", "state": "CA", "street": "8587 FENWICK ST", "postcode": "91040"}}},
{"geometry": {"type": "Point", "coordinates": [-118.3138203896, 34.2597473712]}, "type": "Feature", "properties": {"collection_times": [{"days": "Mon-Sat", "time": "1:00pm"}, {"days": "Sun", "time": "Closed"}], "id": "9104000006", "name": "USPS COLLECTION BOX - BLUE BOX", "address": {"city": "SUNLAND", "state": "CA", "street": "8307 FOOTHILL BLVD", "postcode": "91040"}}},
{"geometry": {"type": "Point", "coordinates": [-118.3264838331, 34.2598259971]}, "type": "Feature", "properties": {"collection_times": [{"days": "Mon-Sat", "time": "1:00pm"}, {"days": "Sun", "time": "Closed"}], "id": "9104000009", "name": "USPS COLLECTION BOX - BLUE BOX", "address": {"city": "SUNLAND", "state": "CA", "street": "10465 SUNLAND BLVD", "postcode": "91040"}}},
{"geometry": {"type": "Point", "coordinates": [-118.3187804832, 34.2597198044]}, "type": "Feature", "properties": {"collection_times": [{"days": "Mon-Sat", "time": "1:00pm"}, {"days": "Sun", "time": "Closed"}], "id": "9104000015", "name": "USPS COLLECTION BOX - BLUE BOX", "address": {"city": "SUNLAND", "state": "CA", "street": "8522 FOOTHILL BLVD", "postcode": "91040"}}},
{"geometry": {"type": "Point", "coordinates": [-118.3197611562, 34.2620750757]}, "type": "Feature", "properties": {"collection_times": [{"days": "Mon-Sat", "time": "5:00pm"}, {"days": "Sun", "time": "Closed"}], "id": "9104000020", "name": "USPS COLLECTION BOX - PO LOBBY", "address": {"city": "SUNLAND", "state": "CA", "street": "8587 FENWICK ST", "postcode": "91040"}}},
{"geometry": {"type": "Point", "coordinates": [-118.3249985056, 34.2597116049]}, "type": "Feature", "properties": {"collection_times": [{"days": "Mon-Sat", "time": "1:00pm"}, {"days": "Sun", "time": "Closed"}], "id": "9104000023", "name": "USPS COLLECTION BOX - BLUE BOX", "address": {"city": "SUNLAND", "state": "CA", "street": "9680 SUNLAND BLVD", "postcode": "91040"}}},
{"geometry": {"type": "Point", "coordinates": [-118.2950396797, 34.2525759152]}, "type": "Feature", "properties": {"collection_times": [{"days": "Mon-Sat", "time": "3:00pm"}, {"days": "Sun", "time": "Closed"}], "id": "9104200009", "name": "USPS COLLECTION BOX - BLUE BOX", "address": {"city": "TUJUNGA", "state": "CA", "street": "7469 FOOTHILL BLVD", "postcode": "91042"}}},
{"geometry": {"type": "Point", "coordinates": [-118.285663547, 34.2480025959]}, "type": "Feature", "properties": {"collection_times": [{"days": "Mon-Sat", "time": "3:00pm"}, {"days": "Sun", "time": "Closed"}], "id": "9104200011", "name": "USPS COLLECTION BOX - BLUE BOX", "address": {"city": "TUJUNGA", "state": "CA", "street": "7061 FOOTHILL BLVD", "postcode": "91042"}}},
{"geometry": {"type": "Point", "coordinates": [-118.2819774468, 34.247795578]}, "type": "Feature", "properties": {"collection_times": [{"days": "Mon-Sat", "time": "3:00pm"}, {"days": "Sun", "time": "Closed"}], "id": "9104200012", "name": "USPS COLLECTION BOX - BLUE BOX", "address": {"city": "TUJUNGA", "state": "CA", "street": "6900 FOOTHILL BLVD", "postcode": "91042"}}},
{"geometry": {"type": "Point", "coordinates": [-118.2745644375, 34.2457379381]}, "type": "Feature", "properties": {"collection_times": [{"days": "Mon-Sat", "time": "3:00pm"}, {"days": "Sun", "time": "Closed"}], "id": "9104200013", "name": "USPS COLLECTION BOX - BLUE BOX", "address": {"city": "TUJUNGA", "state": "CA", "street": "6545 FOOTHILL BLVD", "postcode": "91042"}}},
{"geometry": {"type": "Point", "coordinates": [-118.2674660892, 34.2412490831]}, "type": "Feature", "properties": {"collection_times": [{"days": "Mon-Sat", "time": "3:00pm"}, {"days": "Sun", "time": "Closed"}], "id": "9104200016", "name": "USPS COLLECTION BOX - BLUE BOX", "address": {"city": "TUJUNGA", "state": "CA", "street": "6240 FOOTHILL BLVD", "postcode": "91042"}}},
{"geometry": {"type": "Point", "coordinates": [-118.2908680888, 34.2515370025]}, "type": "Feature", "properties": {"collection_times": [{"days": "Mon-Sat", "time": "5:00pm"}, {"days": "Sun", "time": "Closed"}], "id": "9104200019", "name": "USPS COLLECTION BOX - BLUE BOX", "address": {"city": "TUJUNGA", "state": "CA", "street": "10209 TUJUNGA CANYON BLVD", "postcode": "91042"}}},
{"geometry": {"type": "Point", "coordinates": [-118.2872664778, 34.2546105684]}, "type": "Feature", "properties": {"collection_times": [{"days": "Mon-Sat", "time": "5:00pm"}, {"days": "Sun", "time": "Closed"}], "id": "9104200020", "name": "USPS COLLECTION BOX - BLUE BOX", "address": {"city": "TUJUNGA", "state": "CA", "street": "10209 TUJUNGA CANYON BLVD", "postcode": "91042"}}},
{"geometry": {"type": "Point", "coordinates": [-118.2872664778, 34.2546105684]}, "type": "Feature", "properties": {"collection_times": [{"days": "Mon-Sat", "time": "5:00pm"}, {"days": "Sun", "time": "Closed"}], "id": "9104200022", "name": "USPS COLLECTION BOX - PO LOBBY", "address": {"city": "TUJUNGA", "state": "CA", "street": "10209 TUJUNGA CANYON BLVD", "postcode": "91042"}}},
{"geometry": {"type": "Point", "coordinates": [-118.2418028096, 34.2124256261]}, "type": "Feature", "properties": {"collection_times": [{"days": "Mon-Fri", "time": "5:00pm"}, {"days": "Sat-Sun", "time": "Closed"}], "id": "9104600000", "name": "USPS COLLECTION BOX - PO LOBBY", "address": {"city": "VERDUGO CITY", "state": "CA", "street": "2816 HONOLULU AVE", "postcode": "91046"}}},
{"geometry": {"type": "Point", "coordinates": [-118.2418028096, 34.2124256261]}, "type": "Feature", "properties": {"collection_times": [{"days": "Mon-Fri", "time": "5:00pm"}, {"days": "Sat", "time": "3:00pm"}, {"days": "Sun", "time": "Closed"}], "id": "9104600001", "name": "USPS COLLECTION BOX - BLUE BOX", "address": {"city": "VERDUGO CITY", "state": "CA", "street": "2816 HONOLULU AVE", "postcode": "91046"}}},
{"geometry": {"type": "Point", "coordinates": [-118.2385980714, 34.2113021382]}, "type": "Feature", "properties": {"collection_times": [{"days": "Mon-Fri", "time": "3:00pm"}, {"days": "Sat-Sun", "time": "Closed"}], "id": "9104600002", "name": "USPS COLLECTION BOX - BLUE BOX", "address": {"city": "VERDUGO CITY", "state": "CA", "street": "2816 HONOLULU AVE", "postcode": "91046"}}},
{"geometry": {"type": "Point", "coordinates": [-118.2418028096, 34.2124256261]}, "type": "Feature", "properties": {"collection_times": [{"days": "Mon-Fri", "time": "3:00pm"}, {"days": "Sat-Sun", "time": "Closed"}], "id": "9104600003", "name": "USPS COLLECTION BOX - BLUE BOX", "address": {"city": "VERDUGO CITY", "state": "CA", "street": "2816 HONOLULU AVE", "postcode": "91046"}}}
]}
