{"type": "FeatureCollection", "features": [
{"geometry": {"type": "Point", "coordinates": [-118.1444621135, 34.1495731407]}, "type": "Feature", "properties": {"collection_times": [{"days": "Mon-Sat", "time": "12:00pm"}, {"days": "Sun", "time": "Closed"}], "id": "9110100002", "name": "USPS COLLECTION BOX - BLUE BOX", "address": {"city": "PASADENA", "state": "CA", "street": "285 E WALNUT ST", "postcode": "91101"}}},
{"geometry": {"type": "Point", "coordinates": [-118.1325846748, 34.1424828028]}, "type": "Feature", "properties": {"collection_times": [{"days": "Mon-Sat", "time": "12:00pm"}, {"days": "Sun", "time": "Closed"}], "id": "9110100003", "name": "USPS COLLECTION BOX - BLUE BOX", "address": {"city": "PASADENA", "state": "CA", "street": "860 CORDOVA ST", "postcode": "91101"}}},
{"geometry": {"type": "Point", "coordinates": [-118.1428863147, 34.1423974831]}, "type": "Feature", "properties": {"collection_times": [{"days": "Mon-Sat", "time": "12:00pm"}, {"days": "Sun", "time": "Closed"}], "id": "9110100009", "name": "USPS COLLECTION BOX - BLUE BOX", "address": {"city": "PASADENA", "state": "CA", "street": "200 S EUCLID AVE", "postcode": "91101"}}},
{"geometry": {"type": "Point", "coordinates": [-118.1442135545, 34.1466937002]}, "type": "Feature", "properties": {"collection_times": [{"days": "Mon-Sat", "time": "12:00pm"}, {"days": "Sun", "time": "Closed"}], "id": "9110100012", "name": "USPS COLLECTION BOX - BLUE BOX", "address": {"city": "PASADENA", "state": "CA", "street": "301 E COLORADO BLVD", "postcode": "91101"}}},
{"geometry": {"type": "Point", "coordinates": [-118.1324068968, 34.1369974541]}, "type": "Feature", "properties": {"collection_times": [{"days": "Mon-Sat", "time": "12:00pm"}, {"days": "Sun", "time": "Closed"}], "id": "9110100037", "name": "USPS COLLECTION BOX - BLUE BOX", "address": {"city": "PASADENA", "state": "CA", "street": "519 S LAKE AVE", "postcode": "91101"}}},
{"geometry": {"type": "Point", "coordinates": [-118.1322586113, 34.142371458]}, "type": "Feature", "properties": {"collection_times": [{"days": "Mon-Sat", "time": "12:00pm"}, {"days": "Sun", "time": "Closed"}], "id": "9110100039", "name": "USPS COLLECTION BOX - BLUE BOX", "address": {"city": "PASADENA", "state": "CA", "street": "200 S LAKE AVE", "postcode": "91101"}}},
{"geometry": {"type": "Point", "coordinates": [-118.132439549, 34.1409885182]}, "type": "Feature", "properties": {"collection_times": [{"days": "Mon-Sat", "time": "12:00pm"}, {"days": "Sun", "time": "Closed"}], "id": "9110100040", "name": "USPS COLLECTION BOX - BLUE BOX", "address": {"city": "PASADENA", "state": "CA", "street": "285 S LAKE AVE", "postcode": "91101"}}},
{"geometry": {"type": "Point", "coordinates": [-118.1413697613, 34.1429735841]}, "type": "Feature", "properties": {"collection_times": [{"days": "Mon-Sat", "time": "12:00pm"}, {"days": "Sun", "time": "Closed"}], "id": "9110100056", "name": "USPS COLLECTION BOX - BLUE BOX", "address": {"city": "PASADENA", "state": "CA", "street": "150 S LOS ROBLES AVE", "postcode": "91101"}}},
{"geometry": {"type": "Point", "coordinates": [-118.1459135067, 34.1420709865]}, "type": "Feature", "properties": {"collection_times": [{"days": "Mon-Sat", "time": "12:00pm"}, {"days": "Sun", "time": "Closed"}], "id": "9110100072", "name": "USPS COLLECTION BOX - BLUE BOX", "address": {"city": "PASADENA", "state": "CA", "street": "215 N MARENGO AVE", "postcode": "91101"}}},
{"geometry": {"type": "Point", "coordinates": [-118.1459418977, 34.1438761818]}, "type": "Feature", "properties": {"collection_times": [{"days": "Mon-Sat", "time": "12:00pm"}, {"days": "Sun", "time": "Closed"}], "id": "9110100073", "name": "USPS COLLECTION BOX - BLUE BOX", "address": {"city": "PASADENA", "state": "CA", "street": "101 S MARENGO AVE", "postcode": "91101"}}},
{"geometry": {"type": "Point", "coordinates": [-118.1442548291, 34.1468055066]}, "type": "Feature", "properties": {"collection_times": [{"days": "Mon-Sat", "time": "12:00pm"}, {"days": "Sun", "time": "Closed"}], "id": "9110100083", "name": "USPS COLLECTION BOX - BLUE BOX", "address": {"city": "PASADENA", "state": "CA", "street": "300 E UNION ST", "postcode": "91101"}}},
{"geometry": {"type": "Point", "coordinates": [-118.1325846748, 34.1424828028]}, "type": "Feature", "properties": {"collection_times": [{"days": "Mon-Sat", "time": "12:00pm"}, {"days": "Sun", "time": "Closed"}], "id": "9110100090", "name": "USPS COLLECTION BOX - BLUE BOX", "address": {"city": "PASADENA", "state": "CA", "street": "860 CORDOVA ST", "postcode": "91101"}}},
{"geometry": {"type": "Point", "coordinates": [-118.144987275, 34.145849816]}, "type": "Feature", "properties": {"collection_times": [{"days": "Mon-Fri", "time": "5:00pm"}, {"days": "Sat", "time": "3:00pm"}, {"days": "Sun", "time": "Closed"}], "id": "9110100097", "name": "USPS COLLECTION BOX - BLUE BOX", "address": {"city": "PASADENA", "state": "CA", "street": "263 E COLORADO BLVD", "postcode": "91101"}}},
{"geometry": {"type": "Point", "coordinates": [-118.1322929172, 34.1508568227]}, "type": "Feature", "properties": {"collection_times": [{"days": "Mon-Sat", "time": "12:00pm"}, {"days": "Sun", "time": "Closed"}], "id": "9110100117", "name": "USPS COLLECTION BOX - BLUE BOX", "address": {"city": "PASADENA", "state": "CA", "street": "300 N LAKE AVE", "postcode": "91101"}}},
{"geometry": {"type": "Point", "coordinates": [-118.1327897599, 34.145888395]}, "type": "Feature", "properties": {"collection_times": [{"days": "Mon-Sat", "time": "12:00pm"}, {"days": "Sun", "time": "Closed"}], "id": "9110100128", "name": "USPS COLLECTION BOX - BLUE BOX", "address": {"city": "PASADENA", "state": "CA", "street": "855 E COLORADO BLVD", "postcode": "91101"}}},
{"geometry": {"type": "Point", "coordinates": [-118.1405890084, 34.1458505403]}, "type": "Feature", "properties": {"collection_times": [{"days": "Mon-Sat", "time": "12:00pm"}, {"days": "Sun", "time": "Closed"}], "id": "9110100129", "name": "USPS COLLECTION BOX - BLUE BOX", "address": {"city": "PASADENA", "state": "CA", "street": "497 E COLORADO BLVD", "postcode": "91101"}}},
{"geometry": {"type": "Point", "coordinates": [-118.134833913, 34.1445256263]}, "type": "Feature", "properties": {"collection_times": [{"days": "Mon-Sat", "time": "12:00pm"}, {"days": "Sun", "time": "Closed"}], "id": "9110100135", "name": "USPS COLLECTION BOX - BLUE BOX", "address": {"city": "PASADENA", "state": "CA", "street": "747 E GREEN ST", "postcode": "91101"}}},
{"geometry": {"type": "Point", "coordinates": [-118.1396843261, 34.1445054743]}, "type": "Feature", "properties": {"collection_times": [{"days": "Mon-Sat", "time": "12:00pm"}, {"days": "Sun", "time": "Closed"}], "id": "9110100137", "name": "USPS COLLECTION BOX - BLUE BOX", "address": {"city": "PASADENA", "state": "CA", "street": "500 E GREEN ST", "postcode": "91101"}}},
{"geometry": {"type": "Point", "coordinates": [-118.1323355037, 34.1450106395]}, "type": "Feature", "properties": {"collection_times": [{"days": "Mon-Sat", "time": "12:00pm"}, {"days": "Sun", "time": "Closed"}], "id": "9110100143", "name": "USPS COLLECTION BOX - BLUE BOX", "address": {"city": "PASADENA", "state": "CA", "street": "55 S LAKE AVE", "postcode": "91101"}}},
{"geometry": {"type": "Point", "coordinates": [-118.138432009, 34.146909404]}, "type": "Feature", "properties": {"collection_times": [{"days": "Mon-Sat", "time": "12:00pm"}, {"days": "Sun", "time": "Closed"}], "id": "9110100144", "name": "USPS COLLECTION BOX - BLUE BOX", "address": {"city": "PASADENA", "state": "CA", "street": "65 N MADISON AVE", "postcode": "91101"}}},
{"geometry": {"type": "Point", "coordinates": [-118.1314360375, 34.1434878209]}, "type": "Feature", "properties": {"collection_times": [{"days": "Mon-Sat", "time": "12:00pm"}, {"days": "Sun", "time": "Closed"}], "id": "9110100155", "name": "USPS COLLECTION BOX - BLUE BOX", "address": {"city": "PASADENA", "state": "CA", "street": "140 SHOPPERS LN", "postcode": "91101"}}},
{"geometry": {"type": "Point", "coordinates": [-118.1337759249, 34.1458337892]}, "type": "Feature", "properties": {"collection_times": [{"days": "Mon-Sat", "time": "12:00pm"}, {"days": "Sun", "time": "Closed"}], "id": "9110100166", "name": "USPS COLLECTION BOX - BLUE BOX", "address": {"city": "PASADENA", "state": "CA", "street": "800 E COLORADO BLVD", "postcode": "91101"}}},
{"geometry": {"type": "Point", "coordinates": [-118.144549555, 34.14583043]}, "type": "Feature", "properties": {"collection_times": [{"days": "Mon-Fri", "time": "5:00pm"}, {"days": "Sat", "time": "2:00pm"}, {"days": "Sun", "time": "Closed"}], "id": "9110100167", "name": "USPS COLLECTION BOX - PO LOBBY", "address": {"city": "PASADENA", "state": "CA", "street": "281 E COLORADO BLVD", "postcode": "91101"}}},
{"geometry": {"type": "Point", "coordinates": [-118.1324411686, 34.1415942199]}, "type": "Feature", "properties": {"collection_times": [{"days": "Mon-Sat", "time": "12:00pm"}, {"days": "Sun", "time": "Closed"}], "id": "9110100168", "name": "USPS COLLECTION BOX - BLUE BOX", "address": {"city": "PASADENA", "state": "CA", "street": "251 S LAKE AVE", "postcode": "91101"}}},
{"geometry": {"type": "Point", "coordinates": [-118.1413531999, 34.1418639686]}, "type": "Feature", "properties": {"collection_times": [{"days": "Mon-Sat", "time": "12:00pm"}, {"days": "Sun", "time": "Closed"}], "id": "9110100187", "name": "USPS COLLECTION BOX - BLUE BOX", "address": {"city": "PASADENA", "state": "CA", "street": "245 S LOS ROBLES AVE", "postcode": "91101"}}},
{"geometry": {"type": "Point", "coordinates": [-118.1338847099, 34.1450293445]}, "type": "Feature", "properties": {"collection_times": [{"days": "Mon-Sat", "time": "12:00pm"}, {"days": "Sun", "time": "Closed"}], "id": "9110100188", "name": "USPS COLLECTION BOX - BLUE BOX", "address": {"city": "PASADENA", "state": "CA", "street": "45 S HUDSON AVE", "postcode": "91101"}}},
{"geometry": {"type": "Point", "coordinates": [-118.132324857, 34.1444641124]}, "type": "Feature", "properties": {"collection_times": [{"days": "Mon-Sat", "time": "12:00pm"}, {"days": "Sun", "time": "Closed"}], "id": "9110100189", "name": "USPS COLLECTION BOX - BLUE BOX", "address": {"city": "PASADENA", "state": "CA", "street": "80 S LAKE AVE", "postcode": "91101"}}},
{"geometry": {"type": "Point", "coordinates": [-118.1369623397, 34.1479881159]}, "type": "Feature", "properties": {"collection_times": [{"days": "Mon-Sat", "time": "12:00pm"}, {"days": "Sun", "time": "Closed"}], "id": "9110100190", "name": "USPS COLLECTION BOX - BLUE BOX", "address": {"city": "PASADENA", "state": "CA", "street": "131 N EL MOLINO AVE", "postcode": "91101"}}},
{"geometry": {"type": "Point", "coordinates": [-118.1594923959, 34.1682440974]}, "type": "Feature", "properties": {"collection_times": [{"days": "Mon-Sat", "time": "2:00pm"}, {"days": "Sun", "time": "Closed"}], "id": "9110300007", "name": "USPS COLLECTION BOX - BLUE BOX", "address": {"city": "PASADENA", "state": "CA", "street": "1270 LINCOLN AVE", "postcode": "91103"}}},
{"geometry": {"type": "Point", "coordinates": [-118.1541075973, 34.1475459299]}, "type": "Feature", "properties": {"collection_times": [{"days": "Mon-Fri", "time": "3:00pm"}, {"days": "Sat", "time": "2:00pm"}, {"days": "Sun", "time": "Closed"}], "id": "9110300014", "name": "USPS COLLECTION BOX - BLUE BOX", "address": {"city": "PASADENA", "state": "CA", "street": "74 N PASADENA AVE", "postcode": "91103"}}},
{"geometry": {"type": "Point", "coordinates": [-118.14896731, 34.1475302646]}, "type": "Feature", "properties": {"collection_times": [{"days": "Mon-Fri", "time": "3:00pm"}, {"days": "Sat", "time": "2:00pm"}, {"days": "Sun", "time": "Closed"}], "id": "9110300020", "name": "USPS COLLECTION BOX - BLUE BOX", "address": {"city": "PASADENA", "state": "CA", "street": "91 N RAYMOND AVE", "postcode": "91103"}}},
{"geometry": {"type": "Point", "coordinates": [-118.14896731, 34.1475302646]}, "type": "Feature", "properties": {"collection_times": [{"days": "Mon-Fri", "time": "3:00pm"}, {"days": "Sat", "time": "2:00pm"}, {"days": "Sun", "time": "Closed"}], "id": "9110300021", "name": "USPS COLLECTION BOX - BLUE BOX", "address": {"city": "PASADENA", "state": "CA", "street": "91 N RAYMOND AVE", "postcode": "91103"}}},
{"geometry": {"type": "Point", "coordinates": [-118.1505329614, 34.1475693797]}, "type": "Feature", "properties": {"collection_times": [{"days": "Mon-Fri", "time": "3:00pm"}, {"days": "Sat", "time": "2:00pm"}, {"days": "Sun", "time": "Closed"}], "id": "9110300028", "name": "USPS COLLECTION BOX - BLUE BOX", "address": {"city": "PASADENA", "state": "CA", "street": "75 N FAIR OAKS AVE", "postcode": "91103"}}},
{"geometry": {"type": "Point", "coordinates": [-118.1524517209, 34.1496419238]}, "type": "Feature", "properties": {"collection_times": [{"days": "Mon-Fri", "time": "3:00pm"}, {"days": "Sat-Sun", "time": "Closed"}], "id": "9110300033", "name": "USPS COLLECTION BOX - BLUE BOX", "address": {"city": "PASADENA", "state": "CA", "street": "100 W WALNUT ST", "postcode": "91103"}}},
{"geometry": {"type": "Point", "coordinates": [-118.1767556128, 34.1724174328]}, "type": "Feature", "properties": {"collection_times": [{"days": "Mon-Sat", "time": "2:00pm"}, {"days": "Sun", "time": "Closed"}], "id": "9110300034", "name": "USPS COLLECTION BOX - BLUE BOX", "address": {"city": "PASADENA", "state": "CA", "street": "1446 LINDA VISTA AVE", "postcode": "91103"}}},
{"geometry": {"type": "Point", "coordinates": [-118.1506406107, 34.1648500443]}, "type": "Feature", "properties": {"collection_times": [{"days": "Mon-Fri", "time": "5:00pm"}, {"days": "Sat", "time": "3:00pm"}, {"days": "Sun", "time": "Closed"}], "id": "9110300036", "name": "USPS COLLECTION BOX - BLUE BOX", "address": {"city": "PASADENA", "state": "CA", "street": "1100 N FAIR OAKS AVE", "postcode": "91103"}}},
{"geometry": {"type": "Point", "coordinates": [-118.1506406107, 34.1648500443]}, "type": "Feature", "properties": {"collection_times": [{"days": "Mon-Fri", "time": "5:00pm"}, {"days": "Sat-Sun", "time": "Closed"}], "id": "9110300037", "name": "USPS COLLECTION BOX - PO LOBBY", "address": {"city": "PASADENA", "state": "CA", "street": "1100 N FAIR OAKS AVE", "postcode": "91103"}}},
{"geometry": {"type": "Point", "coordinates": [-118.1309656372, 34.1691974185]}, "type": "Feature", "properties": {"collection_times": [{"days": "Mon-Fri", "time": "3:30pm"}, {"days": "Sat", "time": "3:00pm"}, {"days": "Sun", "time": "Closed"}], "id": "9110400001", "name": "USPS COLLECTION BOX - BLUE BOX", "address": {"city": "PASADENA", "state": "CA", "street": "1355 N MENTOR AVE", "postcode": "91104"}}},
{"geometry": {"type": "Point", "coordinates": [-118.1309656372, 34.1691974185]}, "type": "Feature", "properties": {"collection_times": [{"days": "Mon-Fri", "time": "3:30pm"}, {"days": "Sat", "time": "3:00pm"}, {"days": "Sun", "time": "Closed"}], "id": "9110400002", "name": "USPS COLLECTION BOX - BLUE BOX", "address": {"city": "PASADENA", "state": "CA", "street": "1355 N MENTOR AVE", "postcode": "91104"}}},
{"geometry": {"type": "Point", "coordinates": [-118.1130863954, 34.1640763891]}, "type": "Feature", "properties": {"collection_times": [{"days": "Mon-Fri", "time": "3:00pm"}, {"days": "Sat", "time": "2:00pm"}, {"days": "Sun", "time": "Closed"}], "id": "9110400003", "name": "USPS COLLECTION BOX - BLUE BOX", "address": {"city": "PASADENA", "state": "CA", "street": "1047 N ALLEN AVE", "postcode": "91104"}}},
{"geometry": {"type": "Point", "coordinates": [-118.123451418, 34.1680303568]}, "type": "Feature", "properties": {"collection_times": [{"days": "Mon-Sat", "time": "2:00pm"}, {"days": "Sun", "time": "Closed"}], "id": "9110400010", "name": "USPS COLLECTION BOX - BLUE BOX", "address": {"city": "PASADENA", "state": "CA", "street": "1546 E WASHINGTON BLVD", "postcode": "91104"}}},
{"geometry": {"type": "Point", "coordinates": [-118.132498752, 34.1619139401]}, "type": "Feature", "properties": {"collection_times": [{"days": "Mon-Fri", "time": "3:00pm"}, {"days": "Sat", "time": "2:00pm"}, {"days": "Sun", "time": "Closed"}], "id": "9110400022", "name": "USPS COLLECTION BOX - BLUE BOX", "address": {"city": "PASADENA", "state": "CA", "street": "919 N LAKE AVE", "postcode": "91104"}}},
{"geometry": {"type": "Point", "coordinates": [-118.1029176801, 34.1624888582]}, "type": "Feature", "properties": {"collection_times": [{"days": "Mon-Sat", "time": "2:00pm"}, {"days": "Sun", "time": "Closed"}], "id": "9110400027", "name": "USPS COLLECTION BOX - BLUE BOX", "address": {"city": "PASADENA", "state": "CA", "street": "2304 E DUDLEY ST", "postcode": "91104"}}},
{"geometry": {"type": "Point", "coordinates": [-118.1270240179, 34.1577735838]}, "type": "Feature", "properties": {"collection_times": [{"days": "Mon-Sat", "time": "2:00pm"}, {"days": "Sun", "time": "Closed"}], "id": "9110400028", "name": "USPS COLLECTION BOX - BLUE BOX", "address": {"city": "PASADENA", "state": "CA", "street": "1140 E ORANGE GROVE BLVD", "postcode": "91104"}}},
{"geometry": {"type": "Point", "coordinates": [-118.0990151301, 34.1691961086]}, "type": "Feature", "properties": {"collection_times": [{"days": "Mon-Sat", "time": "2:00pm"}, {"days": "Sun", "time": "Closed"}], "id": "9110400036", "name": "USPS COLLECTION BOX - BLUE BOX", "address": {"city": "PASADENA", "state": "CA", "street": "2505 E WASHINGTON BLVD", "postcode": "91104"}}},
{"geometry": {"type": "Point", "coordinates": [-118.1244096786, 34.1618110227]}, "type": "Feature", "properties": {"collection_times": [{"days": "Mon-Sat", "time": "2:00pm"}, {"days": "Sun", "time": "Closed"}], "id": "9110400037", "name": "USPS COLLECTION BOX - BLUE BOX", "address": {"city": "PASADENA", "state": "CA", "street": "916 N CHESTER AVE", "postcode": "91104"}}},
{"geometry": {"type": "Point", "coordinates": [-118.142534261, 34.1688493062]}, "type": "Feature", "properties": {"collection_times": [{"days": "Mon-Sat", "time": "2:00pm"}, {"days": "Sun", "time": "Closed"}], "id": "9110400038", "name": "USPS COLLECTION BOX - BLUE BOX", "address": {"city": "PASADENA", "state": "CA", "street": "404 E WASHINGTON BLVD", "postcode": "91104"}}},
{"geometry": {"type": "Point", "coordinates": [-118.1210512581, 34.157825634]}, "type": "Feature", "properties": {"collection_times": [{"days": "Mon-Sat", "time": "2:00pm"}, {"days": "Sun", "time": "Closed"}], "id": "9110400040", "name": "USPS COLLECTION BOX - BLUE BOX", "address": {"city": "PASADENA", "state": "CA", "street": "1425 E ORANGE GROVE BLVD", "postcode": "91104"}}},
{"geometry": {"type": "Point", "coordinates": [-118.1126676279, 34.1691406365]}, "type": "Feature", "properties": {"collection_times": [{"days": "Mon-Fri", "time": "3:00pm"}, {"days": "Sat", "time": "2:00pm"}, {"days": "Sun", "time": "Closed"}], "id": "9110400041", "name": "USPS COLLECTION BOX - BLUE BOX", "address": {"city": "PASADENA", "state": "CA", "street": "1845 E WASHINGTON BLVD", "postcode": "91104"}}},
{"geometry": {"type": "Point", "coordinates": [-118.1082906798, 34.1618039249]}, "type": "Feature", "properties": {"collection_times": [{"days": "Mon-Sat", "time": "2:00pm"}, {"days": "Sun", "time": "Closed"}], "id": "9110400044", "name": "USPS COLLECTION BOX - BLUE BOX", "address": {"city": "PASADENA", "state": "CA", "street": "2037 E MOUNTAIN ST", "postcode": "91104"}}},
{"geometry": {"type": "Point", "coordinates": [-118.1127646306, 34.1731082808]}, "type": "Feature", "properties": {"collection_times": [{"days": "Mon-Sat", "time": "2:00pm"}, {"days": "Sun", "time": "Closed"}], "id": "9110400045", "name": "USPS COLLECTION BOX - BLUE BOX", "address": {"city": "PASADENA", "state": "CA", "street": "1575 N ALLEN AVE", "postcode": "91104"}}},
{"geometry": {"type": "Point", "coordinates": [-118.1506406107, 34.1648500443]}, "type": "Feature", "properties": {"collection_times": [{"days": "Mon-Fri", "time": "5:00pm"}, {"days": "Sat", "time": "3:00pm"}, {"days": "Sun", "time": "Closed"}], "id": "9110400046", "name": "USPS COLLECTION BOX - BLUE BOX", "address": {"city": "PASADENA", "state": "CA", "street": "1100 N FAIR OAKS AVE", "postcode": "91104"}}},
{"geometry": {"type": "Point", "coordinates": [-118.1137881895, 34.1579408562]}, "type": "Feature", "properties": {"collection_times": [{"days": "Mon-Sat", "time": "2:00pm"}, {"days": "Sun", "time": "Closed"}], "id": "9110400048", "name": "USPS COLLECTION BOX - BLUE BOX", "address": {"city": "PASADENA", "state": "CA", "street": "1775 E ORANGE GROVE BLVD", "postcode": "91104"}}},
{"geometry": {"type": "Point", "coordinates": [-118.1508132961, 34.1310968802]}, "type": "Feature", "properties": {"collection_times": [{"days": "Mon-Sat", "time": "12:00pm"}, {"days": "Sun", "time": "Closed"}], "id": "9110500002", "name": "USPS COLLECTION BOX - BLUE BOX", "address": {"city": "PASADENA", "state": "CA", "street": "51 ALESSANDRO PL", "postcode": "91105"}}},
{"geometry": {"type": "Point", "coordinates": [-118.1586270309, 34.1315952281]}, "type": "Feature", "properties": {"collection_times": [{"days": "Mon-Sat", "time": "12:00pm"}, {"days": "Sun", "time": "Closed"}], "id": "9110500005", "name": "USPS COLLECTION BOX - BLUE BOX", "address": {"city": "PASADENA", "state": "CA", "street": "400 BELLEFONTAINE ST", "postcode": "91105"}}},
{"geometry": {"type": "Point", "coordinates": [-118.1591757156, 34.1369912696]}, "type": "Feature", "properties": {"collection_times": [{"days": "Mon-Sat", "time": "12:00pm"}, {"days": "Sun", "time": "Closed"}], "id": "9110500020", "name": "USPS COLLECTION BOX - BLUE BOX", "address": {"city": "PASADENA", "state": "CA", "street": "150 E COLORADO BLVD", "postcode": "91105"}}},
{"geometry": {"type": "Point", "coordinates": [-118.149250275, 34.1458410313]}, "type": "Feature", "properties": {"collection_times": [{"days": "Mon-Sat", "time": "12:00pm"}, {"days": "Sun", "time": "Closed"}], "id": "9110500022", "name": "USPS COLLECTION BOX - BLUE BOX", "address": {"city": "PASADENA", "state": "CA", "street": "59 E COLORADO BLVD", "postcode": "91105"}}},
{"geometry": {"type": "Point", "coordinates": [-118.157395924, 34.1456954178]}, "type": "Feature", "properties": {"collection_times": [{"days": "Mon-Sat", "time": "12:00pm"}, {"days": "Sun", "time": "Closed"}], "id": "9110500023", "name": "USPS COLLECTION BOX - BLUE BOX", "address": {"city": "PASADENA", "state": "CA", "street": "320 W COLORADO BLVD", "postcode": "91105"}}},
{"geometry": {"type": "Point", "coordinates": [-118.1517209128, 34.1328303429]}, "type": "Feature", "properties": {"collection_times": [{"days": "Mon-Sat", "time": "12:00pm"}, {"days": "Sun", "time": "Closed"}], "id": "9110500025", "name": "USPS COLLECTION BOX - BLUE BOX", "address": {"city": "PASADENA", "state": "CA", "street": "800 FAIRMOUNT AVE", "postcode": "91105"}}},
{"geometry": {"type": "Point", "coordinates": [-118.1617734375, 34.1446876917]}, "type": "Feature", "properties": {"collection_times": [{"days": "Mon-Sat", "time": "12:00pm"}, {"days": "Sun", "time": "Closed"}], "id": "9110500031", "name": "USPS COLLECTION BOX - BLUE BOX", "address": {"city": "PASADENA", "state": "CA", "street": "125 S GRAND AVE", "postcode": "91105"}}},
{"geometry": {"type": "Point", "coordinates": [-118.1513797744, 34.1445177555]}, "type": "Feature", "properties": {"collection_times": [{"days": "Mon-Sat", "time": "12:00pm"}, {"days": "Sun", "time": "Closed"}], "id": "9110500035", "name": "USPS COLLECTION BOX - BLUE BOX", "address": {"city": "PASADENA", "state": "CA", "street": "33 W GREEN ST", "postcode": "91105"}}},
{"geometry": {"type": "Point", "coordinates": [-118.1592939555, 34.1391372482]}, "type": "Feature", "properties": {"collection_times": [{"days": "Mon-Sat", "time": "12:00pm"}, {"days": "Sun", "time": "Closed"}], "id": "9110500036", "name": "USPS COLLECTION BOX - BLUE BOX", "address": {"city": "PASADENA", "state": "CA", "street": "391 S ORANGE GROVE BLVD", "postcode": "91105"}}},
{"geometry": {"type": "Point", "coordinates": [-118.154092485, 34.1384866208]}, "type": "Feature", "properties": {"collection_times": [{"days": "Mon-Sat", "time": "12:00pm"}, {"days": "Sun", "time": "Closed"}], "id": "9110500039", "name": "USPS COLLECTION BOX - BLUE BOX", "address": {"city": "PASADENA", "state": "CA", "street": "422 S PASADENA AVE", "postcode": "91105"}}},
{"geometry": {"type": "Point", "coordinates": [-118.1488791848, 34.1450721533]}, "type": "Feature", "properties": {"collection_times": [{"days": "Mon-Sat", "time": "12:00pm"}, {"days": "Sun", "time": "Closed"}], "id": "9110500043", "name": "USPS COLLECTION BOX - BLUE BOX", "address": {"city": "PASADENA", "state": "CA", "street": "35 S RAYMOND AVE", "postcode": "91105"}}},
{"geometry": {"type": "Point", "coordinates": [-118.158069593, 34.145744074]}, "type": "Feature", "properties": {"collection_times": [{"days": "Mon-Fri", "time": "12:00pm"}, {"days": "Sat-Sun", "time": "Closed"}], "id": "9110500052", "name": "USPS COLLECTION BOX - BLUE BOX", "address": {"city": "PASADENA", "state": "CA", "street": "350 W COLORADO BLVD", "postcode": "91105"}}},
{"geometry": {"type": "Point", "coordinates": [-118.1519420505, 34.1358331385]}, "type": "Feature", "properties": {"collection_times": [{"days": "Mon-Fri", "time": "5:00pm"}, {"days": "Sat", "time": "3:00pm"}, {"days": "Sun", "time": "Closed"}], "id": "9110500056", "name": "USPS COLLECTION BOX - BLUE BOX", "address": {"city": "PASADENA", "state": "CA", "street": "99 W CALIFORNIA BLVD", "postcode": "91105"}}},
{"geometry": {"type": "Point", "coordinates": [-118.1503369852, 34.1390932314]}, "type": "Feature", "properties": {"collection_times": [{"days": "Mon-Sat", "time": "12:00pm"}, {"days": "Sun", "time": "Closed"}], "id": "9110500060", "name": "USPS COLLECTION BOX - BLUE BOX", "address": {"city": "PASADENA", "state": "CA", "street": "390 S FAIR OAKS AVE", "postcode": "91105"}}},
{"geometry": {"type": "Point", "coordinates": [-118.1519420505, 34.1358331385]}, "type": "Feature", "properties": {"collection_times": [{"days": "Mon-Fri", "time": "5:00pm"}, {"days": "Sat-Sun", "time": "Closed"}], "id": "9110500069", "name": "USPS COLLECTION BOX - PO LOBBY", "address": {"city": "PASADENA", "state": "CA", "street": "99 W CALIFORNIA BLVD", "postcode": "91105"}}},
{"geometry": {"type": "Point", "coordinates": [-118.1511114284, 34.1340659031]}, "type": "Feature", "properties": {"collection_times": [{"days": "Mon-Sat", "time": "12:00pm"}, {"days": "Sun", "time": "Closed"}], "id": "9110500075", "name": "USPS COLLECTION BOX - BLUE BOX", "address": {"city": "PASADENA", "state": "CA", "street": "10 CONGRESS ST", "postcode": "91105"}}},
{"geometry": {"type": "Point", "coordinates": [-118.1487443275, 34.1315130777]}, "type": "Feature", "properties": {"collection_times": [{"days": "Mon-Sat", "time": "12:00pm"}, {"days": "Sun", "time": "Closed"}], "id": "9110500076", "name": "USPS COLLECTION BOX - BLUE BOX", "address": {"city": "PASADENA", "state": "CA", "street": "870 S RAYMOND AVE", "postcode": "91105"}}},
{"geometry": {"type": "Point", "coordinates": [-118.1471982001, 34.1289850944]}, "type": "Feature", "properties": {"collection_times": [{"days": "Mon-Sat", "time": "12:00pm"}, {"days": "Sun", "time": "Closed"}], "id": "9110500079", "name": "USPS COLLECTION BOX - BLUE BOX", "address": {"city": "PASADENA", "state": "CA", "street": "980 S ARROYO PKWY", "postcode": "91105"}}},
{"geometry": {"type": "Point", "coordinates": [-118.1499793366, 34.1457783799]}, "type": "Feature", "properties": {"collection_times": [{"days": "Mon-Sat", "time": "12:00pm"}, {"days": "Sun", "time": "Closed"}], "id": "9110500080", "name": "USPS COLLECTION BOX - BLUE BOX", "address": {"city": "PASADENA", "state": "CA", "street": "13 W COLORADO BLVD", "postcode": "91105"}}},
{"geometry": {"type": "Point", "coordinates": [-118.1463214528, 34.1404419682]}, "type": "Feature", "properties": {"collection_times": [{"days": "Mon-Sat", "time": "12:00pm"}, {"days": "Sun", "time": "Closed"}], "id": "9110500081", "name": "USPS COLLECTION BOX - BLUE BOX", "address": {"city": "PASADENA", "state": "CA", "street": "200 E DEL MAR BLVD", "postcode": "91105"}}},
{"geometry": {"type": "Point", "coordinates": [-118.1302712403, 34.1459085053]}, "type": "Feature", "properties": {"collection_times": [{"days": "Mon-Fri", "time": "5:00pm"}, {"days": "Sat", "time": "3:00pm"}, {"days": "Sun", "time": "Closed"}], "id": "9110600001", "name": "USPS COLLECTION BOX - BLUE BOX", "address": {"city": "PASADENA", "state": "CA", "street": "967 E COLORADO BLVD", "postcode": "91106"}}},
{"geometry": {"type": "Point", "coordinates": [-118.1132792314, 34.1460717908]}, "type": "Feature", "properties": {"collection_times": [{"days": "Mon-Fri", "time": "3:00pm"}, {"days": "Sat", "time": "2:00pm"}, {"days": "Sun", "time": "Closed"}], "id": "9110600004", "name": "USPS COLLECTION BOX - BLUE BOX", "address": {"city": "PASADENA", "state": "CA", "street": "1795 E COLORADO BLVD", "postcode": "91106"}}},
{"geometry": {"type": "Point", "coordinates": [-118.1293946677, 34.1450780681]}, "type": "Feature", "properties": {"collection_times": [{"days": "Mon-Sat", "time": "3:00pm"}, {"days": "Sun", "time": "Closed"}], "id": "9110600008", "name": "USPS COLLECTION BOX - BLUE BOX", "address": {"city": "PASADENA", "state": "CA", "street": "42 S CATALINA AVE", "postcode": "91106"}}},
{"geometry": {"type": "Point", "coordinates": [-118.1301174556, 34.1496064351]}, "type": "Feature", "properties": {"collection_times": [{"days": "Mon-Sat", "time": "3:00pm"}, {"days": "Sun", "time": "Closed"}], "id": "9110600011", "name": "USPS COLLECTION BOX - BLUE BOX", "address": {"city": "PASADENA", "state": "CA", "street": "1000 E WALNUT ST", "postcode": "91106"}}},
{"geometry": {"type": "Point", "coordinates": [-118.1301813354, 34.1445705787]}, "type": "Feature", "properties": {"collection_times": [{"days": "Mon-Sat", "time": "3:00pm"}, {"days": "Sun", "time": "Closed"}], "id": "9110600017", "name": "USPS COLLECTION BOX - BLUE BOX", "address": {"city": "PASADENA", "state": "CA", "street": "960 E GREEN ST", "postcode": "91106"}}},
{"geometry": {"type": "Point", "coordinates": [-118.1213552786, 34.1469104716]}, "type": "Feature", "properties": {"collection_times": [{"days": "Mon-Sat", "time": "3:00pm"}, {"days": "Sun", "time": "Closed"}], "id": "9110600018", "name": "USPS COLLECTION BOX - BLUE BOX", "address": {"city": "PASADENA", "state": "CA", "street": "50 N HILL ST", "postcode": "91106"}}},
{"geometry": {"type": "Point", "coordinates": [-118.1211656775, 34.1408431561]}, "type": "Feature", "properties": {"collection_times": [{"days": "Mon-Sat", "time": "3:00pm"}, {"days": "Sun", "time": "Closed"}], "id": "9110600020", "name": "USPS COLLECTION BOX - BLUE BOX", "address": {"city": "PASADENA", "state": "CA", "street": "1400 ROSE VILLA ST", "postcode": "91106"}}},
{"geometry": {"type": "Point", "coordinates": [-118.1321928681, 34.1355360689]}, "type": "Feature", "properties": {"collection_times": [{"days": "Mon-Sat", "time": "3:00pm"}, {"days": "Sun", "time": "Closed"}], "id": "9110600025", "name": "USPS COLLECTION BOX - BLUE BOX", "address": {"city": "PASADENA", "state": "CA", "street": "600 S LAKE AVE", "postcode": "91106"}}},
{"geometry": {"type": "Point", "coordinates": [-118.1274759082, 34.135913685]}, "type": "Feature", "properties": {"collection_times": [{"days": "Mon-Sat", "time": "3:00pm"}, {"days": "Sun", "time": "Closed"}], "id": "9110600034", "name": "USPS COLLECTION BOX - BLUE BOX", "address": {"city": "PASADENA", "state": "CA", "street": "1200 E CALIFORNIA BLVD", "postcode": "91106"}}},
{"geometry": {"type": "Point", "coordinates": [-118.1257857347, 34.1446523197]}, "type": "Feature", "properties": {"collection_times": [{"days": "Mon-Sat", "time": "3:00pm"}, {"days": "Sun", "time": "Closed"}], "id": "9110600041", "name": "USPS COLLECTION BOX - BLUE BOX", "address": {"city": "PASADENA", "state": "CA", "street": "1207 E GREEN ST", "postcode": "91106"}}},
{"geometry": {"type": "Point", "coordinates": [-118.1257857347, 34.1446523197]}, "type": "Feature", "properties": {"collection_times": [{"days": "Mon-Sat", "time": "3:00pm"}, {"days": "Sun", "time": "Closed"}], "id": "9110600042", "name": "USPS COLLECTION BOX - BLUE BOX", "address": {"city": "PASADENA", "state": "CA", "street": "1207 E GREEN ST", "postcode": "91106"}}},
{"geometry": {"type": "Point", "coordinates": [-118.1303398005, 34.1459478493]}, "type": "Feature", "properties": {"collection_times": [{"days": "Mon-Fri", "time": "5:00pm"}, {"days": "Sat-Sun", "time": "Closed"}], "id": "9110600049", "name": "USPS COLLECTION BOX - PO LOBBY", "address": {"city": "PASADENA", "state": "CA", "street": "967 E COLORADO BLVD", "postcode": "91106"}}},
{"geometry": {"type": "Point", "coordinates": [-118.0969143846, 34.1462214324]}, "type": "Feature", "properties": {"collection_times": [{"days": "Mon-Sat", "time": "3:00pm"}, {"days": "Sun", "time": "Closed"}], "id": "9110700000", "name": "USPS COLLECTION BOX - BLUE BOX", "address": {"city": "PASADENA", "state": "CA", "street": "2609 E COLORADO BLVD", "postcode": "91107"}}},
{"geometry": {"type": "Point", "coordinates": [-118.0985711087, 34.1497584951]}, "type": "Feature", "properties": {"collection_times": [{"days": "Mon-Fri", "time": "3:00pm"}, {"days": "Sat", "time": "1:00pm"}, {"days": "Sun", "time": "Closed"}], "id": "9110700010", "name": "USPS COLLECTION BOX - BLUE BOX", "address": {"city": "PASADENA", "state": "CA", "street": "2500 E FOOTHILL BLVD", "postcode": "91107"}}},
{"geometry": {"type": "Point", "coordinates": [-118.0768014951, 34.150156511]}, "type": "Feature", "properties": {"collection_times": [{"days": "Mon-Fri", "time": "3:00pm"}, {"days": "Sat", "time": "1:00pm"}, {"days": "Sun", "time": "Closed"}], "id": "9110700016", "name": "USPS COLLECTION BOX - BLUE BOX", "address": {"city": "PASADENA", "state": "CA", "street": "3555 E FOOTHILL BLVD", "postcode": "91107"}}},
{"geometry": {"type": "Point", "coordinates": [-118.0787983298, 34.15012812]}, "type": "Feature", "properties": {"collection_times": [{"days": "Mon-Fri", "time": "3:00pm"}, {"days": "Sat", "time": "1:00pm"}, {"days": "Sun", "time": "Closed"}], "id": "9110700018", "name": "USPS COLLECTION BOX - BLUE BOX", "address": {"city": "PASADENA", "state": "CA", "street": "3452 E FOOTHILL BLVD", "postcode": "91107"}}},
{"geometry": {"type": "Point", "coordinates": [-118.0788986757, 34.1556009072]}, "type": "Feature", "properties": {"collection_times": [{"days": "Mon-Fri", "time": "3:00pm"}, {"days": "Sat", "time": "1:00pm"}, {"days": "Sun", "time": "Closed"}], "id": "9110700033", "name": "USPS COLLECTION BOX - BLUE BOX", "address": {"city": "PASADENA", "state": "CA", "street": "550 N ROSEMEAD BLVD", "postcode": "91107"}}},
{"geometry": {"type": "Point", "coordinates": [-118.0696551484, 34.1619795257]}, "type": "Feature", "properties": {"collection_times": [{"days": "Mon-Sat", "time": "1:00pm"}, {"days": "Sun", "time": "Closed"}], "id": "9110700054", "name": "USPS COLLECTION BOX - BLUE BOX", "address": {"city": "PASADENA", "state": "CA", "street": "3837 E SIERRA MADRE BLVD", "postcode": "91107"}}},
{"geometry": {"type": "Point", "coordinates": [-118.101416643, 34.1380908805]}, "type": "Feature", "properties": {"collection_times": [{"days": "Mon-Sat", "time": "1:00pm"}, {"days": "Sun", "time": "Closed"}], "id": "9110700056", "name": "USPS COLLECTION BOX - BLUE BOX", "address": {"city": "PASADENA", "state": "CA", "street": "480 S SIERRA MADRE BLVD", "postcode": "91107"}}},
{"geometry": {"type": "Point", "coordinates": [-118.0947517144, 34.1498749667]}, "type": "Feature", "properties": {"collection_times": [{"days": "Mon-Fri", "time": "3:00pm"}, {"days": "Sat", "time": "1:00pm"}, {"days": "Sun", "time": "Closed"}], "id": "9110700057", "name": "USPS COLLECTION BOX - BLUE BOX", "address": {"city": "PASADENA", "state": "CA", "street": "2700 E FOOTHILL BLVD", "postcode": "91107"}}},
{"geometry": {"type": "Point", "coordinates": [-118.0825126726, 34.1500075252]}, "type": "Feature", "properties": {"collection_times": [{"days": "Mon-Fri", "time": "3:00pm"}, {"days": "Sat", "time": "1:00pm"}, {"days": "Sun", "time": "Closed"}], "id": "9110700058", "name": "USPS COLLECTION BOX - BLUE BOX", "address": {"city": "PASADENA", "state": "CA", "street": "3280 E FOOTHILL BLVD", "postcode": "91107"}}},
{"geometry": {"type": "Point", "coordinates": [-118.0787983298, 34.15012812]}, "type": "Feature", "properties": {"collection_times": [{"days": "Mon-Fri", "time": "3:00pm"}, {"days": "Sat", "time": "1:00pm"}, {"days": "Sun", "time": "Closed"}], "id": "9110700061", "name": "USPS COLLECTION BOX - BLUE BOX", "address": {"city": "PASADENA", "state": "CA", "street": "3452 E FOOTHILL BLVD", "postcode": "91107"}}},
{"geometry": {"type": "Point", "coordinates": [-118.0721702107, 34.1555259617]}, "type": "Feature", "properties": {"collection_times": [{"days": "Mon-Sat", "time": "1:00pm"}, {"days": "Sun", "time": "Closed"}], "id": "9110700065", "name": "USPS COLLECTION BOX - BLUE BOX", "address": {"city": "PASADENA", "state": "CA", "street": "3750 FAIRMEADE RD", "postcode": "91107"}}},
{"geometry": {"type": "Point", "coordinates": [-118.0880890654, 34.1461287851]}, "type": "Feature", "properties": {"collection_times": [{"days": "Mon-Fri", "time": "5:00pm"}, {"days": "Sat", "time": "3:00pm"}, {"days": "Sun", "time": "Closed"}], "id": "9110700074", "name": "USPS COLLECTION BOX - PO LOBBY", "address": {"city": "PASADENA", "state": "CA", "street": "3016 E COLORADO BLVD", "postcode": "91107"}}},
{"geometry": {"type": "Point", "coordinates": [-118.1067670286, 34.1228727454]}, "type": "Feature", "properties": {"collection_times": [{"days": "Mon-Fri", "time": "3:00pm"}, {"days": "Sat", "time": "1:00pm"}, {"days": "Sun", "time": "Closed"}], "id": "9110800004", "name": "USPS COLLECTION BOX - BLUE BOX", "address": {"city": "PASADENA", "state": "CA", "street": "1405 SAN MARINO AVE", "postcode": "91108"}}},
{"geometry": {"type": "Point", "coordinates": [-118.1089448561, 34.1206866372]}, "type": "Feature", "properties": {"collection_times": [{"days": "Mon-Fri", "time": "3:00pm"}, {"days": "Sat", "time": "2:40pm"}, {"days": "Sun", "time": "Closed"}], "id": "9110800005", "name": "USPS COLLECTION BOX - BLUE BOX", "address": {"city": "PASADENA", "state": "CA", "street": "2060 HUNTINGTON DR", "postcode": "91108"}}},
{"geometry": {"type": "Point", "coordinates": [-118.1389489362, 34.1163299062]}, "type": "Feature", "properties": {"collection_times": [{"days": "Mon-Fri", "time": "3:00pm"}, {"days": "Sat", "time": "1:00pm"}, {"days": "Sun", "time": "Closed"}], "id": "9110800007", "name": "USPS COLLECTION BOX - BLUE BOX", "address": {"city": "PASADENA", "state": "CA", "street": "2529 MISSION ST", "postcode": "91108"}}},
{"geometry": {"type": "Point", "coordinates": [-118.1035321567, 34.1230437602]}, "type": "Feature", "properties": {"collection_times": [{"days": "Mon-Fri", "time": "3:00pm"}, {"days": "Sat", "time": "1:00pm"}, {"days": "Sun", "time": "Closed"}], "id": "9110800017", "name": "USPS COLLECTION BOX - BLUE BOX", "address": {"city": "PASADENA", "state": "CA", "street": "2395 HUNTINGTON DR", "postcode": "91108"}}},
{"geometry": {"type": "Point", "coordinates": [-118.1047713304, 34.1221506843]}, "type": "Feature", "properties": {"collection_times": [{"days": "Mon-Fri", "time": "3:00pm"}, {"days": "Sat", "time": "1:00pm"}, {"days": "Sun", "time": "Closed"}], "id": "9110800021", "name": "USPS COLLECTION BOX - BLUE BOX", "address": {"city": "PASADENA", "state": "CA", "street": "2300 HUNTINGTON DR", "postcode": "91108"}}},
{"geometry": {"type": "Point", "coordinates": [-118.1137261446, 34.1223862175]}, "type": "Feature", "properties": {"collection_times": [{"days": "Mon-Fri", "time": "3:00pm"}, {"days": "Sat", "time": "1:00pm"}, {"days": "Sun", "time": "Closed"}], "id": "9110800023", "name": "USPS COLLECTION BOX - BLUE BOX", "address": {"city": "PASADENA", "state": "CA", "street": "2200 HUNTINGTON DR", "postcode": "91108"}}},
{"geometry": {"type": "Point", "coordinates": [-118.0919187761, 34.1265593509]}, "type": "Feature", "properties": {"collection_times": [{"days": "Mon-Fri", "time": "5:00pm"}, {"days": "Sat", "time": "3:00pm"}, {"days": "Sun", "time": "Closed"}], "id": "9110800029", "name": "USPS COLLECTION BOX - BLUE BOX", "address": {"city": "PASADENA", "state": "CA", "street": "2960 HUNTINGTON DR", "postcode": "91108"}}},
{"geometry": {"type": "Point", "coordinates": [-118.0918618915, 34.1265350407]}, "type": "Feature", "properties": {"collection_times": [{"days": "Mon-Fri", "time": "5:00pm"}, {"days": "Sat", "time": "3:00pm"}, {"days": "Sun", "time": "Closed"}], "id": "9110800030", "name": "USPS COLLECTION BOX - PO LOBBY", "address": {"city": "PASADENA", "state": "CA", "street": "2960 HUNTINGTON DR", "postcode": "91108"}}},
{"geometry": {"type": "Point", "coordinates": [-118.1253051785, 34.1127016642]}, "type": "Feature", "properties": {"collection_times": [{"days": "Mon-Fri", "time": "3:00pm"}, {"days": "Sat", "time": "1:00pm"}, {"days": "Sun", "time": "Closed"}], "id": "9110800034", "name": "USPS COLLECTION BOX - BLUE BOX", "address": {"city": "PASADENA", "state": "CA", "street": "980 HUNTINGTON DR", "postcode": "91108"}}},
{"geometry": {"type": "Point", "coordinates": [-118.1543397245, 34.1552316026]}, "type": "Feature", "properties": {"collection_times": [{"days": "Mon-Fri", "time": "6:30pm"}, {"days": "Sat", "time": "5:00pm"}, {"days": "Sun", "time": "Closed"}], "id": "9110900001", "name": "USPS COLLECTION BOX - BLUE BOX", "address": {"city": "PASADENA", "state": "CA", "street": "600 LINCOLN AVE", "postcode": "91109"}}},
{"geometry": {"type": "Point", "coordinates": [-118.1543397245, 34.1552316026]}, "type": "Feature", "properties": {"collection_times": [{"days": "Mon-Fri", "time": "6:30pm"}, {"days": "Sat", "time": "5:00pm"}, {"days": "Sun", "time": "Closed"}], "id": "9110900004", "name": "USPS COLLECTION BOX - BLUE BOX", "address": {"city": "PASADENA", "state": "CA", "street": "600 LINCOLN AVE", "postcode": "91109"}}},
{"geometry": {"type": "Point", "coordinates": [-118.1543397245, 34.1552316026]}, "type": "Feature", "properties": {"collection_times": [{"days": "Mon-Fri", "time": "6:30pm"}, {"days": "Sat", "time": "5:00pm"}, {"days": "Sun", "time": "Closed"}], "id": "9110900005", "name": "USPS COLLECTION BOX - BLUE BOX", "address": {"city": "PASADENA", "state": "CA", "street": "600 LINCOLN AVE", "postcode": "91109"}}},
{"geometry": {"type": "Point", "coordinates": [-118.1543397245, 34.1552316026]}, "type": "Feature", "properties": {"collection_times": [{"days": "Mon-Fri", "time": "6:30pm"}, {"days": "Sat", "time": "5:00pm"}, {"days": "Sun", "time": "Closed"}], "id": "9110900006", "name": "USPS COLLECTION BOX - BLUE BOX", "address": {"city": "PASADENA", "state": "CA", "street": "600 LINCOLN AVE", "postcode": "91109"}}},
{"geometry": {"type": "Point", "coordinates": [-118.1543397245, 34.1552316026]}, "type": "Feature", "properties": {"collection_times": [{"days": "Mon-Fri", "time": "6:30pm"}, {"days": "Sat", "time": "5:00pm"}, {"days": "Sun", "time": "Closed"}], "id": "9110900009", "name": "USPS COLLECTION BOX - APC", "address": {"city": "PASADENA", "state": "CA", "street": "600 LINCOLN AVE", "postcode": "91109"}}}
]}
