{"type": "FeatureCollection", "features": [
{"geometry": {"type": "Point", "coordinates": [-118.2931045887, 34.1776280735]}, "type": "Feature", "properties": {"collection_times": [{"days": "Mon-Sat", "time": "1:00pm"}, {"days": "Sun", "time": "Closed"}], "id": "9120100009", "name": "USPS COLLECTION BOX - BLUE BOX", "address": {"city": "GLENDALE", "state": "CA", "street": "2000 GLENWOOD RD", "postcode": "91201"}}},
{"geometry": {"type": "Point", "coordinates": [-118.296992745, 34.1669651749]}, "type": "Feature", "properties": {"collection_times": [{"days": "Mon-Fri", "time": "3:00pm"}, {"days": "Sat", "time": "1:00pm"}, {"days": "Sun", "time": "Closed"}], "id": "9120100012", "name": "USPS COLLECTION BOX - BLUE BOX", "address": {"city": "GLENDALE", "state": "CA", "street": "1763 FLOWER ST", "postcode": "91201"}}},
{"geometry": {"type": "Point", "coordinates": [-118.2792486704, 34.1724691985]}, "type": "Feature", "properties": {"collection_times": [{"days": "Mon-Sat", "time": "1:00pm"}, {"days": "Sun", "time": "Closed"}], "id": "9120100015", "name": "USPS COLLECTION BOX - BLUE BOX", "address": {"city": "GLENDALE", "state": "CA", "street": "1400 W KENNETH RD", "postcode": "91201"}}},
{"geometry": {"type": "Point", "coordinates": [-118.2924004983, 34.1734004717]}, "type": "Feature", "properties": {"collection_times": [{"days": "Mon-Sat", "time": "1:00pm"}, {"days": "Sun", "time": "Closed"}], "id": "9120100019", "name": "USPS COLLECTION BOX - BLUE BOX", "address": {"city": "GLENDALE", "state": "CA", "street": "1107 IRVING AVE", "postcode": "91201"}}},
{"geometry": {"type": "Point", "coordinates": [-118.2854730906, 34.1718519784]}, "type": "Feature", "properties": {"collection_times": [{"days": "Mon-Sat", "time": "1:00pm"}, {"days": "Sun", "time": "Closed"}], "id": "9120100022", "name": "USPS COLLECTION BOX - BLUE BOX", "address": {"city": "GLENDALE", "state": "CA", "street": "1180 JUSTIN AVE", "postcode": "91201"}}},
{"geometry": {"type": "Point", "coordinates": [-118.2875326221, 34.1777336504]}, "type": "Feature", "properties": {"collection_times": [{"days": "Mon-Sat", "time": "1:00pm"}, {"days": "Sun", "time": "Closed"}], "id": "9120100024", "name": "USPS COLLECTION BOX - BLUE BOX", "address": {"city": "GLENDALE", "state": "CA", "street": "1824 W KENNETH RD", "postcode": "91201"}}},
{"geometry": {"type": "Point", "coordinates": [-118.2983812908, 34.1599000089]}, "type": "Feature", "properties": {"collection_times": [{"days": "Mon-Sat", "time": "1:00pm"}, {"days": "Sun", "time": "Closed"}], "id": "9120100025", "name": "USPS COLLECTION BOX - BLUE BOX", "address": {"city": "GLENDALE", "state": "CA", "street": "1605 VICTORY BLVD", "postcode": "91201"}}},
{"geometry": {"type": "Point", "coordinates": [-118.282971829, 34.1621129284]}, "type": "Feature", "properties": {"collection_times": [{"days": "Mon-Fri", "time": "3:00pm"}, {"days": "Sat", "time": "1:00pm"}, {"days": "Sun", "time": "Closed"}], "id": "9120100028", "name": "USPS COLLECTION BOX - BLUE BOX", "address": {"city": "GLENDALE", "state": "CA", "street": "6106 SAN FERNANDO RD", "postcode": "91201"}}},
{"geometry": {"type": "Point", "coordinates": [-118.2880365627, 34.1657774841]}, "type": "Feature", "properties": {"collection_times": [{"days": "Mon-Fri", "time": "3:00pm"}, {"days": "Sat", "time": "1:00pm"}, {"days": "Sun", "time": "Closed"}], "id": "9120100029", "name": "USPS COLLECTION BOX - BLUE BOX", "address": {"city": "GLENDALE", "state": "CA", "street": "6343 SAN FERNANDO RD", "postcode": "91201"}}},
{"geometry": {"type": "Point", "coordinates": [-118.2999714356, 34.1609817685]}, "type": "Feature", "properties": {"collection_times": [{"days": "Mon-Sat", "time": "1:00pm"}, {"days": "Sun", "time": "Closed"}], "id": "9120100032", "name": "USPS COLLECTION BOX - BLUE BOX", "address": {"city": "GLENDALE", "state": "CA", "street": "1650 VICTORY BLVD", "postcode": "91201"}}},
{"geometry": {"type": "Point", "coordinates": [-118.2899600539, 34.1671911201]}, "type": "Feature", "properties": {"collection_times": [{"days": "Mon-Sat", "time": "5:00pm"}, {"days": "Sun", "time": "Closed"}], "id": "9120100035", "name": "USPS COLLECTION BOX - PO LOBBY", "address": {"city": "GLENDALE", "state": "CA", "street": "6444 SAN FERNANDO RD", "postcode": "91201"}}},
{"geometry": {"type": "Point", "coordinates": [-118.2899600539, 34.1671911201]}, "type": "Feature", "properties": {"collection_times": [{"days": "Mon-Sat", "time": "5:00pm"}, {"days": "Sun", "time": "Closed"}], "id": "9120100037", "name": "USPS COLLECTION BOX - PO LOBBY", "address": {"city": "GLENDALE", "state": "CA", "street": "6444 SAN FERNANDO RD", "postcode": "91201"}}},
{"geometry": {"type": "Point", "coordinates": [-118.2899600539, 34.1671911201]}, "type": "Feature", "properties": {"collection_times": [{"days": "Mon-Sat", "time": "5:00pm"}, {"days": "Sun", "time": "Closed"}], "id": "9120100038", "name": "USPS COLLECTION BOX - BLUE BOX", "address": {"city": "GLENDALE", "state": "CA", "street": "6444 SAN FERNANDO RD", "postcode": "91201"}}},
{"geometry": {"type": "Point", "coordinates": [-118.2899600539, 34.1671911201]}, "type": "Feature", "properties": {"collection_times": [{"days": "Mon-Sat", "time": "5:00pm"}, {"days": "Sun", "time": "Closed"}], "id": "9120100039", "name": "USPS COLLECTION BOX - APC", "address": {"city": "GLENDALE", "state": "CA", "street": "6444 SAN FERNANDO RD", "postcode": "91201"}}},
{"geometry": {"type": "Point", "coordinates": [-118.2960830849, 34.1715851939]}, "type": "Feature", "properties": {"collection_times": [{"days": "Mon-Sat", "time": "1:00pm"}, {"days": "Sun", "time": "Closed"}], "id": "9120100040", "name": "USPS COLLECTION BOX - BLUE BOX", "address": {"city": "GLENDALE", "state": "CA", "street": "6801 SAN FERNANDO RD", "postcode": "91201"}}},
{"geometry": {"type": "Point", "coordinates": [-118.2870121202, 34.1814599711]}, "type": "Feature", "properties": {"collection_times": [{"days": "Mon-Sat", "time": "1:00pm"}, {"days": "Sun", "time": "Closed"}], "id": "9120100041", "name": "USPS COLLECTION BOX - BLUE BOX", "address": {"city": "GLENDALE", "state": "CA", "street": "1920 BEL AIRE DR", "postcode": "91201"}}},
{"geometry": {"type": "Point", "coordinates": [-118.2978219992, 34.1729249222]}, "type": "Feature", "properties": {"collection_times": [{"days": "Mon-Sat", "time": "1:00pm"}, {"days": "Sun", "time": "Closed"}], "id": "9120100042", "name": "USPS COLLECTION BOX - BLUE BOX", "address": {"city": "GLENDALE", "state": "CA", "street": "6850 SAN FERNANDO RD", "postcode": "91201"}}},
{"geometry": {"type": "Point", "coordinates": [-118.2813178231, 34.1652155678]}, "type": "Feature", "properties": {"collection_times": [{"days": "Mon-Fri", "time": "3:00pm"}, {"days": "Sat", "time": "1:00pm"}, {"days": "Sun", "time": "Closed"}], "id": "9120100046", "name": "USPS COLLECTION BOX - BLUE BOX", "address": {"city": "GLENDALE", "state": "CA", "street": "1201 W GLENOAKS BLVD", "postcode": "91201"}}},
{"geometry": {"type": "Point", "coordinates": [-118.2860184347, 34.1685586206]}, "type": "Feature", "properties": {"collection_times": [{"days": "Mon-Sat", "time": "1:00pm"}, {"days": "Sun", "time": "Closed"}], "id": "9120100047", "name": "USPS COLLECTION BOX - BLUE BOX", "address": {"city": "GLENDALE", "state": "CA", "street": "1501 W GLENOAKS BLVD", "postcode": "91201"}}},
{"geometry": {"type": "Point", "coordinates": [-118.2892094952, 34.1709153244]}, "type": "Feature", "properties": {"collection_times": [{"days": "Mon-Sat", "time": "1:00pm"}, {"days": "Sun", "time": "Closed"}], "id": "9120100048", "name": "USPS COLLECTION BOX - BLUE BOX", "address": {"city": "GLENDALE", "state": "CA", "street": "1651 W GLENOAKS BLVD", "postcode": "91201"}}},
{"geometry": {"type": "Point", "coordinates": [-118.2937100338, 34.1741658461]}, "type": "Feature", "properties": {"collection_times": [{"days": "Mon-Fri", "time": "3:00pm"}, {"days": "Sat", "time": "1:00pm"}, {"days": "Sun", "time": "Closed"}], "id": "9120100049", "name": "USPS COLLECTION BOX - BLUE BOX", "address": {"city": "GLENDALE", "state": "CA", "street": "1901 W GLENOAKS BLVD", "postcode": "91201"}}},
{"geometry": {"type": "Point", "coordinates": [-118.2870416942, 34.1690826715]}, "type": "Feature", "properties": {"collection_times": [{"days": "Mon-Fri", "time": "3:00pm"}, {"days": "Sat", "time": "1:00pm"}, {"days": "Sun", "time": "Closed"}], "id": "9120100050", "name": "USPS COLLECTION BOX - BLUE BOX", "address": {"city": "GLENDALE", "state": "CA", "street": "1530 W GLENOAKS BLVD", "postcode": "91201"}}},
{"geometry": {"type": "Point", "coordinates": [-118.289742196, 34.167063582]}, "type": "Feature", "properties": {"collection_times": [{"days": "Mon-Sat", "time": "5:00pm"}, {"days": "Sun", "time": "Closed"}], "id": "9120100053", "name": "USPS COLLECTION BOX - BLUE BOX", "address": {"city": "GLENDALE", "state": "CA", "street": "6444 SAN FERNANDO RD", "postcode": "91201"}}},
{"geometry": {"type": "Point", "coordinates": [-118.289742196, 34.167063582]}, "type": "Feature", "properties": {"collection_times": [{"days": "Mon-Sat", "time": "5:00pm"}, {"days": "Sun", "time": "Closed"}], "id": "9120100054", "name": "USPS COLLECTION BOX - BLUE BOX", "address": {"city": "GLENDALE", "state": "CA", "street": "6444 SAN FERNANDO RD", "postcode": "91201"}}},
{"geometry": {"type": "Point", "coordinates": [-118.2643194184, 34.1604103993]}, "type": "Feature", "properties": {"collection_times": [{"days": "Mon-Fri", "time": "5:00pm"}, {"days": "Sat", "time": "2:30pm"}, {"days": "Sun", "time": "Closed"}], "id": "9120200000", "name": "USPS COLLECTION BOX - BLUE BOX", "address": {"city": "GLENDALE", "state": "CA", "street": "1009 N PACIFIC AVE", "postcode": "91202"}}},
{"geometry": {"type": "Point", "coordinates": [-118.2645071445, 34.1596514394]}, "type": "Feature", "properties": {"collection_times": [{"days": "Mon-Sat", "time": "3:00pm"}, {"days": "Sun", "time": "Closed"}], "id": "9120200001", "name": "USPS COLLECTION BOX - BLUE BOX", "address": {"city": "GLENDALE", "state": "CA", "street": "513 W GLENOAKS BLVD", "postcode": "91202"}}},
{"geometry": {"type": "Point", "coordinates": [-118.2607556707, 34.1598466968]}, "type": "Feature", "properties": {"collection_times": [{"days": "Mon-Fri", "time": "3:00pm"}, {"days": "Sat", "time": "1:00pm"}, {"days": "Sun", "time": "Closed"}], "id": "9120200003", "name": "USPS COLLECTION BOX - BLUE BOX", "address": {"city": "GLENDALE", "state": "CA", "street": "1000 SAN RAFAEL AVE", "postcode": "91202"}}},
{"geometry": {"type": "Point", "coordinates": [-118.2594503593, 34.1616063708]}, "type": "Feature", "properties": {"collection_times": [{"days": "Mon-Sat", "time": "1:00pm"}, {"days": "Sun", "time": "Closed"}], "id": "9120200004", "name": "USPS COLLECTION BOX - BLUE BOX", "address": {"city": "GLENDALE", "state": "CA", "street": "1101 MELROSE AVE", "postcode": "91202"}}},
{"geometry": {"type": "Point", "coordinates": [-118.2550082518, 34.1615562515]}, "type": "Feature", "properties": {"collection_times": [{"days": "Mon-Fri", "time": "3:00pm"}, {"days": "Sat", "time": "1:00pm"}, {"days": "Sun", "time": "Closed"}], "id": "9120200006", "name": "USPS COLLECTION BOX - BLUE BOX", "address": {"city": "GLENDALE", "state": "CA", "street": "1122 N BRAND BLVD", "postcode": "91202"}}},
{"geometry": {"type": "Point", "coordinates": [-118.2649679096, 34.1636218083]}, "type": "Feature", "properties": {"collection_times": [{"days": "Mon-Sat", "time": "1:00pm"}, {"days": "Sun", "time": "Closed"}], "id": "9120200007", "name": "USPS COLLECTION BOX - BLUE BOX", "address": {"city": "GLENDALE", "state": "CA", "street": "801 PATTERSON AVE", "postcode": "91202"}}},
{"geometry": {"type": "Point", "coordinates": [-118.2550257363, 34.1663896525]}, "type": "Feature", "properties": {"collection_times": [{"days": "Mon-Sat", "time": "1:00pm"}, {"days": "Sun", "time": "Closed"}], "id": "9120200008", "name": "USPS COLLECTION BOX - BLUE BOX", "address": {"city": "GLENDALE", "state": "CA", "street": "1336 N BRAND BLVD", "postcode": "91202"}}},
{"geometry": {"type": "Point", "coordinates": [-118.256834837, 34.1643922392]}, "type": "Feature", "properties": {"collection_times": [{"days": "Mon-Fri", "time": "3:00pm"}, {"days": "Sat", "time": "1:00pm"}, {"days": "Sun", "time": "Closed"}], "id": "9120200009", "name": "USPS COLLECTION BOX - BLUE BOX", "address": {"city": "GLENDALE", "state": "CA", "street": "1200 N CENTRAL AVE", "postcode": "91202"}}},
{"geometry": {"type": "Point", "coordinates": [-118.2659294255, 34.1695700506]}, "type": "Feature", "properties": {"collection_times": [{"days": "Mon-Sat", "time": "1:00pm"}, {"days": "Sun", "time": "Closed"}], "id": "9120200010", "name": "USPS COLLECTION BOX - BLUE BOX", "address": {"city": "GLENDALE", "state": "CA", "street": "450 W KENNETH RD", "postcode": "91202"}}},
{"geometry": {"type": "Point", "coordinates": [-118.2648601332, 34.1626929524]}, "type": "Feature", "properties": {"collection_times": [{"days": "Mon-Sat", "time": "1:00pm"}, {"days": "Sun", "time": "Closed"}], "id": "9120200011", "name": "USPS COLLECTION BOX - BLUE BOX", "address": {"city": "GLENDALE", "state": "CA", "street": "1163 N PACIFIC AVE", "postcode": "91202"}}},
{"geometry": {"type": "Point", "coordinates": [-118.262051686, 34.1647447609]}, "type": "Feature", "properties": {"collection_times": [{"days": "Mon-Sat", "time": "1:00pm"}, {"days": "Sun", "time": "Closed"}], "id": "9120200014", "name": "USPS COLLECTION BOX - BLUE BOX", "address": {"city": "GLENDALE", "state": "CA", "street": "1236 N COLUMBUS AVE", "postcode": "91202"}}},
{"geometry": {"type": "Point", "coordinates": [-118.2807012337, 34.1647608585]}, "type": "Feature", "properties": {"collection_times": [{"days": "Mon-Fri", "time": "3:00pm"}, {"days": "Sat", "time": "1:00pm"}, {"days": "Sun", "time": "Closed"}], "id": "9120200019", "name": "USPS COLLECTION BOX - BLUE BOX", "address": {"city": "GLENDALE", "state": "CA", "street": "1119 W GLENOAKS BLVD", "postcode": "91202"}}},
{"geometry": {"type": "Point", "coordinates": [-118.2550816918, 34.1634659823]}, "type": "Feature", "properties": {"collection_times": [{"days": "Mon-Fri", "time": "3:00pm"}, {"days": "Sat", "time": "1:00pm"}, {"days": "Sun", "time": "Closed"}], "id": "9120200020", "name": "USPS COLLECTION BOX - BLUE BOX", "address": {"city": "GLENDALE", "state": "CA", "street": "1156 N BRAND BLVD", "postcode": "91202"}}},
{"geometry": {"type": "Point", "coordinates": [-118.2748331266, 34.1609818717]}, "type": "Feature", "properties": {"collection_times": [{"days": "Mon-Fri", "time": "3:00pm"}, {"days": "Sat", "time": "1:00pm"}, {"days": "Sun", "time": "Closed"}], "id": "9120200021", "name": "USPS COLLECTION BOX - BLUE BOX", "address": {"city": "GLENDALE", "state": "CA", "street": "1001 HIGHLAND AVE", "postcode": "91202"}}},
{"geometry": {"type": "Point", "coordinates": [-118.2646898996, 34.1596704974]}, "type": "Feature", "properties": {"collection_times": [{"days": "Mon-Sat", "time": "3:00pm"}, {"days": "Sun", "time": "Closed"}], "id": "9120200022", "name": "USPS COLLECTION BOX - BLUE BOX", "address": {"city": "GLENDALE", "state": "CA", "street": "513 W GLENOAKS BLVD", "postcode": "91202"}}},
{"geometry": {"type": "Point", "coordinates": [-118.2550674963, 34.1604222289]}, "type": "Feature", "properties": {"collection_times": [{"days": "Mon-Fri", "time": "3:00pm"}, {"days": "Sat", "time": "1:00pm"}, {"days": "Sun", "time": "Closed"}], "id": "9120200028", "name": "USPS COLLECTION BOX - BLUE BOX", "address": {"city": "GLENDALE", "state": "CA", "street": "1000 N BRAND BLVD", "postcode": "91202"}}},
{"geometry": {"type": "Point", "coordinates": [-118.2551491205, 34.1581497647]}, "type": "Feature", "properties": {"collection_times": [{"days": "Mon-Fri", "time": "3:00pm"}, {"days": "Sat", "time": "1:00pm"}, {"days": "Sun", "time": "Closed"}], "id": "9120300004", "name": "USPS COLLECTION BOX - BLUE BOX", "address": {"city": "GLENDALE", "state": "CA", "street": "801 N BRAND BLVD", "postcode": "91203"}}},
{"geometry": {"type": "Point", "coordinates": [-118.254936261, 34.1570809]}, "type": "Feature", "properties": {"collection_times": [{"days": "Mon-Sat", "time": "1:00pm"}, {"days": "Sun", "time": "Closed"}], "id": "9120300015", "name": "USPS COLLECTION BOX - BLUE BOX", "address": {"city": "GLENDALE", "state": "CA", "street": "700 N BRAND BLVD", "postcode": "91203"}}},
{"geometry": {"type": "Point", "coordinates": [-118.2551503034, 34.1570839187]}, "type": "Feature", "properties": {"collection_times": [{"days": "Mon-Fri", "time": "3:00pm"}, {"days": "Sat", "time": "1:00pm"}, {"days": "Sun", "time": "Closed"}], "id": "9120300021", "name": "USPS COLLECTION BOX - BLUE BOX", "address": {"city": "GLENDALE", "state": "CA", "street": "701 N BRAND BLVD", "postcode": "91203"}}},
{"geometry": {"type": "Point", "coordinates": [-118.2590891512, 34.158463654]}, "type": "Feature", "properties": {"collection_times": [{"days": "Mon-Sat", "time": "10:00am"}, {"days": "Sun", "time": "Closed"}], "id": "9120300025", "name": "USPS COLLECTION BOX - BLUE BOX", "address": {"city": "GLENDALE", "state": "CA", "street": "320 ARDEN AVE", "postcode": "91203"}}},
{"geometry": {"type": "Point", "coordinates": [-118.2587559623, 34.1584738955]}, "type": "Feature", "properties": {"collection_times": [{"days": "Mon-Sat", "time": "10:00am"}, {"days": "Sun", "time": "Closed"}], "id": "9120300026", "name": "USPS COLLECTION BOX - BLUE BOX", "address": {"city": "GLENDALE", "state": "CA", "street": "315 ARDEN AVE", "postcode": "91203"}}},
{"geometry": {"type": "Point", "coordinates": [-118.2628490004, 34.1584490533]}, "type": "Feature", "properties": {"collection_times": [{"days": "Mon-Sat", "time": "10:00am"}, {"days": "Sun", "time": "Closed"}], "id": "9120300028", "name": "USPS COLLECTION BOX - BLUE BOX", "address": {"city": "GLENDALE", "state": "CA", "street": "435 ARDEN AVE", "postcode": "91203"}}},
{"geometry": {"type": "Point", "coordinates": [-118.2551581524, 34.1521317354]}, "type": "Feature", "properties": {"collection_times": [{"days": "Mon-Fri", "time": "3:00pm"}, {"days": "Sat", "time": "1:00pm"}, {"days": "Sun", "time": "Closed"}], "id": "9120300036", "name": "USPS COLLECTION BOX - BLUE BOX", "address": {"city": "GLENDALE", "state": "CA", "street": "431 N BRAND BLVD", "postcode": "91203"}}},
{"geometry": {"type": "Point", "coordinates": [-118.26133983, 34.1528331596]}, "type": "Feature", "properties": {"collection_times": [{"days": "Mon-Sat", "time": "1:00pm"}, {"days": "Sun", "time": "Closed"}], "id": "9120300054", "name": "USPS COLLECTION BOX - BLUE BOX", "address": {"city": "GLENDALE", "state": "CA", "street": "411 N CENTRAL AVE", "postcode": "91203"}}},
{"geometry": {"type": "Point", "coordinates": [-118.2579816093, 34.1490154923]}, "type": "Feature", "properties": {"collection_times": [{"days": "Mon-Sat", "time": "1:00pm"}, {"days": "Sun", "time": "Closed"}], "id": "9120300058", "name": "USPS COLLECTION BOX - BLUE BOX", "address": {"city": "GLENDALE", "state": "CA", "street": "229 N CENTRAL AVE", "postcode": "91203"}}},
{"geometry": {"type": "Point", "coordinates": [-118.2614546334, 34.1543032537]}, "type": "Feature", "properties": {"collection_times": [{"days": "Mon-Sat", "time": "1:00pm"}, {"days": "Sun", "time": "Closed"}], "id": "9120300063", "name": "USPS COLLECTION BOX - BLUE BOX", "address": {"city": "GLENDALE", "state": "CA", "street": "607 N COLUMBUS AVE", "postcode": "91203"}}},
{"geometry": {"type": "Point", "coordinates": [-118.2723327824, 34.1555862926]}, "type": "Feature", "properties": {"collection_times": [{"days": "Mon-Sat", "time": "1:00pm"}, {"days": "Sun", "time": "Closed"}], "id": "9120300065", "name": "USPS COLLECTION BOX - BLUE BOX", "address": {"city": "GLENDALE", "state": "CA", "street": "750 FAIRMONT AVE", "postcode": "91203"}}},
{"geometry": {"type": "Point", "coordinates": [-118.26133983, 34.1528331596]}, "type": "Feature", "properties": {"collection_times": [{"days": "Mon-Sat", "time": "1:00pm"}, {"days": "Sun", "time": "Closed"}], "id": "9120300066", "name": "USPS COLLECTION BOX - BLUE BOX", "address": {"city": "GLENDALE", "state": "CA", "street": "550 N BRAND BLVD", "postcode": "91203"}}},
{"geometry": {"type": "Point", "coordinates": [-118.2549846892, 34.1570933824]}, "type": "Feature", "properties": {"collection_times": [{"days": "Mon-Sat", "time": "1:00pm"}, {"days": "Sun", "time": "Closed"}], "id": "9120300075", "name": "USPS COLLECTION BOX - BLUE BOX", "address": {"city": "GLENDALE", "state": "CA", "street": "700 N BRAND BLVD", "postcode": "91203"}}},
{"geometry": {"type": "Point", "coordinates": [-118.2554811638, 34.1462393088]}, "type": "Feature", "properties": {"collection_times": [{"days": "Mon-Sat", "time": "1:00pm"}, {"days": "Sun", "time": "Closed"}], "id": "9120300076", "name": "USPS COLLECTION BOX - BLUE BOX", "address": {"city": "GLENDALE", "state": "CA", "street": "100 W BROADWAY", "postcode": "91203"}}},
{"geometry": {"type": "Point", "coordinates": [-118.2557493731, 34.1462121384]}, "type": "Feature", "properties": {"collection_times": [{"days": "Mon-Sat", "time": "1:00pm"}, {"days": "Sun", "time": "Closed"}], "id": "9120300078", "name": "USPS COLLECTION BOX - BLUE BOX", "address": {"city": "GLENDALE", "state": "CA", "street": "100 W BROADWAY", "postcode": "91203"}}},
{"geometry": {"type": "Point", "coordinates": [-118.2486395075, 34.146333127]}, "type": "Feature", "properties": {"collection_times": [{"days": "Mon-Fri", "time": "3:00pm"}, {"days": "Sat", "time": "1:00pm"}, {"days": "Sun", "time": "Closed"}], "id": "9120300081", "name": "USPS COLLECTION BOX - BLUE BOX", "address": {"city": "GLENDALE", "state": "CA", "street": "655 N CENTRAL AVE", "postcode": "91203"}}},
{"geometry": {"type": "Point", "coordinates": [-118.2549657618, 34.1511714898]}, "type": "Feature", "properties": {"collection_times": [{"days": "Mon-Fri", "time": "1:00pm"}, {"days": "Sat-Sun", "time": "Closed"}], "id": "9120300084", "name": "USPS COLLECTION BOX - BLUE BOX", "address": {"city": "GLENDALE", "state": "CA", "street": "330 N BRAND BLVD", "postcode": "91203"}}},
{"geometry": {"type": "Point", "coordinates": [-118.2579822855, 34.1558702088]}, "type": "Feature", "properties": {"collection_times": [{"days": "Mon-Fri", "time": "3:00pm"}, {"days": "Sat-Sun", "time": "Closed"}], "id": "9120300102", "name": "USPS COLLECTION BOX - BLUE BOX", "address": {"city": "GLENDALE", "state": "CA", "street": "655 N CENTRAL AVE", "postcode": "91203"}}},
{"geometry": {"type": "Point", "coordinates": [-118.26133983, 34.1528331596]}, "type": "Feature", "properties": {"collection_times": [{"days": "Mon-Sat", "time": "1:00pm"}, {"days": "Sun", "time": "Closed"}], "id": "9120300103", "name": "USPS COLLECTION BOX - BLUE BOX", "address": {"city": "GLENDALE", "state": "CA", "street": "550 N BRAND BLVD", "postcode": "91203"}}},
{"geometry": {"type": "Point", "coordinates": [-118.26133983, 34.1528331596]}, "type": "Feature", "properties": {"collection_times": [{"days": "Mon-Fri", "time": "3:00pm"}, {"days": "Sat", "time": "1:00pm"}, {"days": "Sun", "time": "Closed"}], "id": "9120300104", "name": "USPS COLLECTION BOX - BLUE BOX", "address": {"city": "GLENDALE", "state": "CA", "street": "535 N BRAND BLVD", "postcode": "91203"}}},
{"geometry": {"type": "Point", "coordinates": [-118.2557493731, 34.1462121384]}, "type": "Feature", "properties": {"collection_times": [{"days": "Mon-Sat", "time": "1:00pm"}, {"days": "Sun", "time": "Closed"}], "id": "9120300111", "name": "USPS COLLECTION BOX - BLUE BOX", "address": {"city": "GLENDALE", "state": "CA", "street": "100 W BROADWAY", "postcode": "91203"}}},
{"geometry": {"type": "Point", "coordinates": [-118.2579681117, 34.1570945653]}, "type": "Feature", "properties": {"collection_times": [{"days": "Mon-Sat", "time": "1:00pm"}, {"days": "Sun", "time": "Closed"}], "id": "9120300113", "name": "USPS COLLECTION BOX - BLUE BOX", "address": {"city": "GLENDALE", "state": "CA", "street": "700 N CENTRAL AVE", "postcode": "91203"}}},
{"geometry": {"type": "Point", "coordinates": [-118.2579681117, 34.1570945653]}, "type": "Feature", "properties": {"collection_times": [{"days": "Mon-Sat", "time": "1:00pm"}, {"days": "Sun", "time": "Closed"}], "id": "9120300114", "name": "USPS COLLECTION BOX - BLUE BOX", "address": {"city": "GLENDALE", "state": "CA", "street": "700 N CENTRAL AVE", "postcode": "91203"}}},
{"geometry": {"type": "Point", "coordinates": [-118.2579681117, 34.1570945653]}, "type": "Feature", "properties": {"collection_times": [{"days": "Mon-Sat", "time": "1:00pm"}, {"days": "Sun", "time": "Closed"}], "id": "9120300115", "name": "USPS COLLECTION BOX - BLUE BOX", "address": {"city": "GLENDALE", "state": "CA", "street": "700 N CENTRAL AVE", "postcode": "91203"}}},
{"geometry": {"type": "Point", "coordinates": [-118.2550367394, 34.1412559277]}, "type": "Feature", "properties": {"collection_times": [{"days": "Mon-Fri", "time": "3:00pm"}, {"days": "Sat", "time": "1:00pm"}, {"days": "Sun", "time": "Closed"}], "id": "9120300116", "name": "USPS COLLECTION BOX - BLUE BOX", "address": {"city": "GLENDALE", "state": "CA", "street": "401 N BRAND BLVD", "postcode": "91203"}}},
{"geometry": {"type": "Point", "coordinates": [-118.2486395075, 34.146333127]}, "type": "Feature", "properties": {"collection_times": [{"days": "Mon-Sat", "time": "1:00pm"}, {"days": "Sun", "time": "Closed"}], "id": "9120300118", "name": "USPS COLLECTION BOX - BLUE BOX", "address": {"city": "GLENDALE", "state": "CA", "street": "100 N CENTRAL AVE", "postcode": "91203"}}},
{"geometry": {"type": "Point", "coordinates": [-118.2549480174, 34.153355232]}, "type": "Feature", "properties": {"collection_times": [{"days": "Mon-Sat", "time": "1:00pm"}, {"days": "Sun", "time": "Closed"}], "id": "9120300119", "name": "USPS COLLECTION BOX - BLUE BOX", "address": {"city": "GLENDALE", "state": "CA", "street": "500 N BRAND BLVD", "postcode": "91203"}}},
{"geometry": {"type": "Point", "coordinates": [-118.2549480174, 34.153355232]}, "type": "Feature", "properties": {"collection_times": [{"days": "Mon-Sat", "time": "1:00pm"}, {"days": "Sun", "time": "Closed"}], "id": "9120300120", "name": "USPS COLLECTION BOX - BLUE BOX", "address": {"city": "GLENDALE", "state": "CA", "street": "500 N BRAND BLVD", "postcode": "91203"}}},
{"geometry": {"type": "Point", "coordinates": [-118.2550994362, 34.153499553]}, "type": "Feature", "properties": {"collection_times": [{"days": "Mon-Fri", "time": "3:00pm"}, {"days": "Sat", "time": "1:00pm"}, {"days": "Sun", "time": "Closed"}], "id": "9120300121", "name": "USPS COLLECTION BOX - BLUE BOX", "address": {"city": "GLENDALE", "state": "CA", "street": "505 N BRAND BLVD", "postcode": "91203"}}},
{"geometry": {"type": "Point", "coordinates": [-118.2550994362, 34.153499553]}, "type": "Feature", "properties": {"collection_times": [{"days": "Mon-Fri", "time": "3:00pm"}, {"days": "Sat", "time": "1:00pm"}, {"days": "Sun", "time": "Closed"}], "id": "9120300122", "name": "USPS COLLECTION BOX - BLUE BOX", "address": {"city": "GLENDALE", "state": "CA", "street": "505 N BRAND BLVD", "postcode": "91203"}}},
{"geometry": {"type": "Point", "coordinates": [-118.2549257713, 34.147920612]}, "type": "Feature", "properties": {"collection_times": [{"days": "Mon-Sat", "time": "1:00pm"}, {"days": "Sun", "time": "Closed"}], "id": "9120300123", "name": "USPS COLLECTION BOX - BLUE BOX", "address": {"city": "GLENDALE", "state": "CA", "street": "142 N BRAND BLVD", "postcode": "91203"}}},
{"geometry": {"type": "Point", "coordinates": [-118.2646825868, 34.1425063154]}, "type": "Feature", "properties": {"collection_times": [{"days": "Mon-Fri", "time": "10:00am"}, {"days": "Sat", "time": "1:00pm"}, {"days": "Sun", "time": "Closed"}], "id": "9120400000", "name": "USPS COLLECTION BOX - BLUE BOX", "address": {"city": "GLENDALE", "state": "CA", "street": "500 W COLORADO ST", "postcode": "91204"}}},
{"geometry": {"type": "Point", "coordinates": [-118.2486395075, 34.146333127]}, "type": "Feature", "properties": {"collection_times": [{"days": "Mon-Fri", "time": "10:00am"}, {"days": "Sat", "time": "1:00pm"}, {"days": "Sun", "time": "Closed"}], "id": "9120400002", "name": "USPS COLLECTION BOX - BLUE BOX", "address": {"city": "GLENDALE", "state": "CA", "street": "1023 S BRAND BLVD", "postcode": "91204"}}},
{"geometry": {"type": "Point", "coordinates": [-118.2548782229, 34.1353766217]}, "type": "Feature", "properties": {"collection_times": [{"days": "Mon-Fri", "time": "10:00am"}, {"days": "Sat", "time": "1:00pm"}, {"days": "Sun", "time": "Closed"}], "id": "9120400003", "name": "USPS COLLECTION BOX - BLUE BOX", "address": {"city": "GLENDALE", "state": "CA", "street": "900 S BRAND BLVD", "postcode": "91204"}}},
{"geometry": {"type": "Point", "coordinates": [-118.2578624481, 34.1329905009]}, "type": "Feature", "properties": {"collection_times": [{"days": "Mon-Sat", "time": "11:00am"}, {"days": "Sun", "time": "Closed"}], "id": "9120400010", "name": "USPS COLLECTION BOX - BLUE BOX", "address": {"city": "GLENDALE", "state": "CA", "street": "1101 S CENTRAL AVE", "postcode": "91204"}}},
{"geometry": {"type": "Point", "coordinates": [-118.2594975476, 34.1367001542]}, "type": "Feature", "properties": {"collection_times": [{"days": "Mon-Fri", "time": "10:00am"}, {"days": "Sat", "time": "1:00pm"}, {"days": "Sun", "time": "Closed"}], "id": "9120400011", "name": "USPS COLLECTION BOX - BLUE BOX", "address": {"city": "GLENDALE", "state": "CA", "street": "625 S BRAND BLVD", "postcode": "91204"}}},
{"geometry": {"type": "Point", "coordinates": [-118.2592954414, 34.1283257407]}, "type": "Feature", "properties": {"collection_times": [{"days": "Mon-Fri", "time": "10:00am"}, {"days": "Sat", "time": "1:00pm"}, {"days": "Sun", "time": "Closed"}], "id": "9120400013", "name": "USPS COLLECTION BOX - BLUE BOX", "address": {"city": "GLENDALE", "state": "CA", "street": "4001 SAN FERNANDO RD", "postcode": "91204"}}},
{"geometry": {"type": "Point", "coordinates": [-118.2578273396, 34.1325245076]}, "type": "Feature", "properties": {"collection_times": [{"days": "Mon-Fri", "time": "10:00am"}, {"days": "Sat", "time": "1:00pm"}, {"days": "Sun", "time": "Closed"}], "id": "9120400015", "name": "USPS COLLECTION BOX - BLUE BOX", "address": {"city": "GLENDALE", "state": "CA", "street": "1130 S CENTRAL AVE", "postcode": "91204"}}},
{"geometry": {"type": "Point", "coordinates": [-118.2568513984, 34.1670858367]}, "type": "Feature", "properties": {"collection_times": [{"days": "Mon-Sat", "time": "11:00am"}, {"days": "Sun", "time": "Closed"}], "id": "9120400017", "name": "USPS COLLECTION BOX - BLUE BOX", "address": {"city": "GLENDALE", "state": "CA", "street": "1400 S CENTRAL AVE", "postcode": "91204"}}},
{"geometry": {"type": "Point", "coordinates": [-118.2580390892, 34.1243017598]}, "type": "Feature", "properties": {"collection_times": [{"days": "Mon-Sat", "time": "11:00am"}, {"days": "Sun", "time": "Closed"}], "id": "9120400019", "name": "USPS COLLECTION BOX - BLUE BOX", "address": {"city": "GLENDALE", "state": "CA", "street": "345 W CERRITOS AVE", "postcode": "91204"}}},
{"geometry": {"type": "Point", "coordinates": [-118.2578569135, 34.1374255066]}, "type": "Feature", "properties": {"collection_times": [{"days": "Mon-Sat", "time": "11:00am"}, {"days": "Sun", "time": "Closed"}], "id": "9120400024", "name": "USPS COLLECTION BOX - BLUE BOX", "address": {"city": "GLENDALE", "state": "CA", "street": "710 S CENTRAL AVE", "postcode": "91204"}}},
{"geometry": {"type": "Point", "coordinates": [-118.2568513984, 34.1670858367]}, "type": "Feature", "properties": {"collection_times": [{"days": "Mon-Sat", "time": "11:00am"}, {"days": "Sun", "time": "Closed"}], "id": "9120400029", "name": "USPS COLLECTION BOX - BLUE BOX", "address": {"city": "GLENDALE", "state": "CA", "street": "1400 S CENTRAL AVE", "postcode": "91204"}}},
{"geometry": {"type": "Point", "coordinates": [-118.2469074454, 34.1463414683]}, "type": "Feature", "properties": {"collection_times": [{"days": "Mon-Fri", "time": "10:00am"}, {"days": "Sat", "time": "1:00pm"}, {"days": "Sun", "time": "Closed"}], "id": "9120400032", "name": "USPS COLLECTION BOX - BLUE BOX", "address": {"city": "GLENDALE", "state": "CA", "street": "700 W BROADWAY", "postcode": "91204"}}},
{"geometry": {"type": "Point", "coordinates": [-118.2578794282, 34.1409973791]}, "type": "Feature", "properties": {"collection_times": [{"days": "Mon-Fri", "time": "10:00am"}, {"days": "Sat", "time": "1:00pm"}, {"days": "Sun", "time": "Closed"}], "id": "9120400034", "name": "USPS COLLECTION BOX - BLUE BOX", "address": {"city": "GLENDALE", "state": "CA", "street": "421 S CENTRAL AVE", "postcode": "91204"}}},
{"geometry": {"type": "Point", "coordinates": [-118.2578454468, 34.1307522944]}, "type": "Feature", "properties": {"collection_times": [{"days": "Mon-Fri", "time": "10:00am"}, {"days": "Sat", "time": "1:00pm"}, {"days": "Sun", "time": "Closed"}], "id": "9120400036", "name": "USPS COLLECTION BOX - BLUE BOX", "address": {"city": "GLENDALE", "state": "CA", "street": "300 MAGNOLIA AVE", "postcode": "91204"}}},
{"geometry": {"type": "Point", "coordinates": [-118.2486395075, 34.146333127]}, "type": "Feature", "properties": {"collection_times": [{"days": "Mon-Fri", "time": "10:00am"}, {"days": "Sat", "time": "1:00pm"}, {"days": "Sun", "time": "Closed"}], "id": "9120400038", "name": "USPS COLLECTION BOX - BLUE BOX", "address": {"city": "GLENDALE", "state": "CA", "street": "3901 SAN FERNANDO RD", "postcode": "91204"}}},
{"geometry": {"type": "Point", "coordinates": [-118.2578998572, 34.1386514499]}, "type": "Feature", "properties": {"collection_times": [{"days": "Mon-Fri", "time": "3:00pm"}, {"days": "Sat", "time": "1:00pm"}, {"days": "Sun", "time": "Closed"}], "id": "9120400039", "name": "USPS COLLECTION BOX - BLUE BOX", "address": {"city": "GLENDALE", "state": "CA", "street": "601 S CENTRAL AVE", "postcode": "91204"}}},
{"geometry": {"type": "Point", "coordinates": [-118.2578569135, 34.1374255066]}, "type": "Feature", "properties": {"collection_times": [{"days": "Mon-Sat", "time": "11:00am"}, {"days": "Sun", "time": "Closed"}], "id": "9120400041", "name": "USPS COLLECTION BOX - BLUE BOX", "address": {"city": "GLENDALE", "state": "CA", "street": "710 S CENTRAL AVE", "postcode": "91204"}}},
{"geometry": {"type": "Point", "coordinates": [-118.2539152943, 34.1335252909]}, "type": "Feature", "properties": {"collection_times": [{"days": "Mon-Fri", "time": "5:00pm"}, {"days": "Sat", "time": "3:00pm"}, {"days": "Sun", "time": "Closed"}], "id": "9120500000", "name": "USPS COLLECTION BOX - PO LOBBY", "address": {"city": "GLENDALE", "state": "CA", "street": "120 E CHEVY CHASE DR", "postcode": "91205"}}},
{"geometry": {"type": "Point", "coordinates": [-118.2539152943, 34.1335252909]}, "type": "Feature", "properties": {"collection_times": [{"days": "Mon-Fri", "time": "5:00pm"}, {"days": "Sat", "time": "3:00pm"}, {"days": "Sun", "time": "Closed"}], "id": "9120500001", "name": "USPS COLLECTION BOX - BLUE BOX", "address": {"city": "GLENDALE", "state": "CA", "street": "120 E CHEVY CHASE DR", "postcode": "91205"}}},
{"geometry": {"type": "Point", "coordinates": [-118.2438772529, 34.1385424365]}, "type": "Feature", "properties": {"collection_times": [{"days": "Mon-Fri", "time": "5:00pm"}, {"days": "Sat", "time": "3:00pm"}, {"days": "Sun", "time": "Closed"}], "id": "9120500002", "name": "USPS COLLECTION BOX - EXPRESS", "address": {"city": "GLENDALE", "state": "CA", "street": "120 E CHEVY CHASE DR", "postcode": "91205"}}},
{"geometry": {"type": "Point", "coordinates": [-118.2418486983, 34.1463003071]}, "type": "Feature", "properties": {"collection_times": [{"days": "Mon-Fri", "time": "3:00pm"}, {"days": "Sat", "time": "1:00pm"}, {"days": "Sun", "time": "Closed"}], "id": "9120500009", "name": "USPS COLLECTION BOX - BLUE BOX", "address": {"city": "GLENDALE", "state": "CA", "street": "1099 E BROADWAY", "postcode": "91205"}}},
{"geometry": {"type": "Point", "coordinates": [-118.2522732649, 34.131136543]}, "type": "Feature", "properties": {"collection_times": [{"days": "Mon-Sat", "time": "10:00am"}, {"days": "Sun", "time": "Closed"}], "id": "9120500012", "name": "USPS COLLECTION BOX - BLUE BOX", "address": {"city": "GLENDALE", "state": "CA", "street": "1240 S GLENDALE AVE", "postcode": "91205"}}},
{"geometry": {"type": "Point", "coordinates": [-118.2384469228, 34.1371415964]}, "type": "Feature", "properties": {"collection_times": [{"days": "Mon-Sat", "time": "10:00am"}, {"days": "Sun", "time": "Closed"}], "id": "9120500015", "name": "USPS COLLECTION BOX - BLUE BOX", "address": {"city": "GLENDALE", "state": "CA", "street": "1230 E WINDSOR RD", "postcode": "91205"}}},
{"geometry": {"type": "Point", "coordinates": [-118.2465705213, 34.1427172893]}, "type": "Feature", "properties": {"collection_times": [{"days": "Mon-Fri", "time": "10:00am"}, {"days": "Sat", "time": "1:00pm"}, {"days": "Sun", "time": "Closed"}], "id": "9120500016", "name": "USPS COLLECTION BOX - BLUE BOX", "address": {"city": "GLENDALE", "state": "CA", "street": "725 E COLORADO ST", "postcode": "91205"}}},
{"geometry": {"type": "Point", "coordinates": [-118.2417698546, 34.1365844228]}, "type": "Feature", "properties": {"collection_times": [{"days": "Mon-Sat", "time": "10:00am"}, {"days": "Sun", "time": "Closed"}], "id": "9120500018", "name": "USPS COLLECTION BOX - BLUE BOX", "address": {"city": "GLENDALE", "state": "CA", "street": "800 S ADAMS ST", "postcode": "91205"}}},
{"geometry": {"type": "Point", "coordinates": [-118.2526613578, 34.1549936302]}, "type": "Feature", "properties": {"collection_times": [{"days": "Mon-Sat", "time": "10:00am"}, {"days": "Sun", "time": "Closed"}], "id": "9120500019", "name": "USPS COLLECTION BOX - BLUE BOX", "address": {"city": "GLENDALE", "state": "CA", "street": "600 S LOUISE ST", "postcode": "91205"}}},
{"geometry": {"type": "Point", "coordinates": [-118.2413503422, 34.1305814929]}, "type": "Feature", "properties": {"collection_times": [{"days": "Mon-Sat", "time": "10:00am"}, {"days": "Sun", "time": "Closed"}], "id": "9120500021", "name": "USPS COLLECTION BOX - BLUE BOX", "address": {"city": "GLENDALE", "state": "CA", "street": "1275 S ADAMS ST", "postcode": "91205"}}},
{"geometry": {"type": "Point", "coordinates": [-118.2372803001, 34.1426104499]}, "type": "Feature", "properties": {"collection_times": [{"days": "Mon-Sat", "time": "10:00am"}, {"days": "Sun", "time": "Closed"}], "id": "9120500022", "name": "USPS COLLECTION BOX - BLUE BOX", "address": {"city": "GLENDALE", "state": "CA", "street": "1300 E COLORADO ST", "postcode": "91205"}}},
{"geometry": {"type": "Point", "coordinates": [-118.2495347972, 34.1421774528]}, "type": "Feature", "properties": {"collection_times": [{"days": "Mon-Fri", "time": "3:00pm"}, {"days": "Sat", "time": "1:00pm"}, {"days": "Sun", "time": "Closed"}], "id": "9120500026", "name": "USPS COLLECTION BOX - BLUE BOX", "address": {"city": "GLENDALE", "state": "CA", "street": "300 S GLENDALE AVE", "postcode": "91205"}}},
{"geometry": {"type": "Point", "coordinates": [-118.2438772529, 34.1385424365]}, "type": "Feature", "properties": {"collection_times": [{"days": "Mon-Fri", "time": "3:00pm"}, {"days": "Sat", "time": "1:00pm"}, {"days": "Sun", "time": "Closed"}], "id": "9120500029", "name": "USPS COLLECTION BOX - BLUE BOX", "address": {"city": "GLENDALE", "state": "CA", "street": "112 N MARYLAND", "postcode": "91205"}}},
{"geometry": {"type": "Point", "coordinates": [-118.2418486983, 34.1463003071]}, "type": "Feature", "properties": {"collection_times": [{"days": "Mon-Fri", "time": "3:00pm"}, {"days": "Sat", "time": "1:00pm"}, {"days": "Sun", "time": "Closed"}], "id": "9120500035", "name": "USPS COLLECTION BOX - BLUE BOX", "address": {"city": "GLENDALE", "state": "CA", "street": "1099 W BROADWAY", "postcode": "91205"}}},
{"geometry": {"type": "Point", "coordinates": [-118.2395884782, 34.1367535859]}, "type": "Feature", "properties": {"collection_times": [{"days": "Mon-Fri", "time": "10:00am"}, {"days": "Sat", "time": "1:00pm"}, {"days": "Sun", "time": "Closed"}], "id": "9120500036", "name": "USPS COLLECTION BOX - BLUE BOX", "address": {"city": "GLENDALE", "state": "CA", "street": "801 S CHEVY CHASE DR", "postcode": "91205"}}},
{"geometry": {"type": "Point", "coordinates": [-118.2335234476, 34.1427618345]}, "type": "Feature", "properties": {"collection_times": [{"days": "Mon-Fri", "time": "10:00am"}, {"days": "Sat", "time": "1:00pm"}, {"days": "Sun", "time": "Closed"}], "id": "9120500037", "name": "USPS COLLECTION BOX - BLUE BOX", "address": {"city": "GLENDALE", "state": "CA", "street": "1415 E COLORADO ST", "postcode": "91205"}}},
{"geometry": {"type": "Point", "coordinates": [-118.2486395075, 34.146333127]}, "type": "Feature", "properties": {"collection_times": [{"days": "Mon-Sat", "time": "10:00am"}, {"days": "Sun", "time": "Closed"}], "id": "9120500046", "name": "USPS COLLECTION BOX - BLUE BOX", "address": {"city": "GLENDALE", "state": "CA", "street": "200 S LOUISE ST", "postcode": "91205"}}},
{"geometry": {"type": "Point", "coordinates": [-118.2486395075, 34.146333127]}, "type": "Feature", "properties": {"collection_times": [{"days": "Mon-Sat", "time": "10:00am"}, {"days": "Sun", "time": "Closed"}], "id": "9120500047", "name": "USPS COLLECTION BOX - BLUE BOX", "address": {"city": "GLENDALE", "state": "CA", "street": "143 S GLENDALE AVE", "postcode": "91205"}}},
{"geometry": {"type": "Point", "coordinates": [-118.2485730516, 34.1518126535]}, "type": "Feature", "properties": {"collection_times": [{"days": "Mon-Sat", "time": "12:00pm"}, {"days": "Sun", "time": "Closed"}], "id": "9120600001", "name": "USPS COLLECTION BOX - BLUE BOX", "address": {"city": "GLENDALE", "state": "CA", "street": "600 E LEXINGTON DR", "postcode": "91206"}}},
{"geometry": {"type": "Point", "coordinates": [-118.2526377945, 34.1546186762]}, "type": "Feature", "properties": {"collection_times": [{"days": "Mon-Sat", "time": "12:00pm"}, {"days": "Sun", "time": "Closed"}], "id": "9120600003", "name": "USPS COLLECTION BOX - BLUE BOX", "address": {"city": "GLENDALE", "state": "CA", "street": "300 E DORAN ST", "postcode": "91206"}}},
{"geometry": {"type": "Point", "coordinates": [-118.2537411073, 34.1498607763]}, "type": "Feature", "properties": {"collection_times": [{"days": "Mon-Fri", "time": "3:00pm"}, {"days": "Sat", "time": "1:00pm"}, {"days": "Sun", "time": "Closed"}], "id": "9120600004", "name": "USPS COLLECTION BOX - BLUE BOX", "address": {"city": "GLENDALE", "state": "CA", "street": "200 E CALIFORNIA AVE", "postcode": "91206"}}},
{"geometry": {"type": "Point", "coordinates": [-118.2263121298, 34.152663201]}, "type": "Feature", "properties": {"collection_times": [{"days": "Mon-Sat", "time": "12:00pm"}, {"days": "Sun", "time": "Closed"}], "id": "9120600008", "name": "USPS COLLECTION BOX - BLUE BOX", "address": {"city": "GLENDALE", "state": "CA", "street": "1900 E GLENOAKS BLVD", "postcode": "91206"}}},
{"geometry": {"type": "Point", "coordinates": [-118.2310948329, 34.1494822244]}, "type": "Feature", "properties": {"collection_times": [{"days": "Mon-Fri", "time": "3:00pm"}, {"days": "Sat", "time": "1:00pm"}, {"days": "Sun", "time": "Closed"}], "id": "9120600011", "name": "USPS COLLECTION BOX - BLUE BOX", "address": {"city": "GLENDALE", "state": "CA", "street": "1509 WILSON TER", "postcode": "91206"}}},
{"geometry": {"type": "Point", "coordinates": [-118.2449163475, 34.1500140631]}, "type": "Feature", "properties": {"collection_times": [{"days": "Mon-Sat", "time": "12:00pm"}, {"days": "Sun", "time": "Closed"}], "id": "9120600014", "name": "USPS COLLECTION BOX - BLUE BOX", "address": {"city": "GLENDALE", "state": "CA", "street": "825 E CALIFORNIA AVE", "postcode": "91206"}}},
{"geometry": {"type": "Point", "coordinates": [-118.2313385224, 34.1524195115]}, "type": "Feature", "properties": {"collection_times": [{"days": "Mon-Fri", "time": "3:00pm"}, {"days": "Sat", "time": "1:00pm"}, {"days": "Sun", "time": "Closed"}], "id": "9120600021", "name": "USPS COLLECTION BOX - BLUE BOX", "address": {"city": "GLENDALE", "state": "CA", "street": "1530 E CHEVY CHASE DR", "postcode": "91206"}}},
{"geometry": {"type": "Point", "coordinates": [-118.2464762842, 34.148215516]}, "type": "Feature", "properties": {"collection_times": [{"days": "Mon-Fri", "time": "3:00pm"}, {"days": "Sat", "time": "1:00pm"}, {"days": "Sun", "time": "Closed"}], "id": "9120600023", "name": "USPS COLLECTION BOX - BLUE BOX", "address": {"city": "GLENDALE", "state": "CA", "street": "203 N GLENDALE AVE", "postcode": "91206"}}},
{"geometry": {"type": "Point", "coordinates": [-118.2438258373, 34.1532724249]}, "type": "Feature", "properties": {"collection_times": [{"days": "Mon-Fri", "time": "3:00pm"}, {"days": "Sat", "time": "1:00pm"}, {"days": "Sun", "time": "Closed"}], "id": "9120600026", "name": "USPS COLLECTION BOX - BLUE BOX", "address": {"city": "GLENDALE", "state": "CA", "street": "500 N GLENDALE AVE", "postcode": "91206"}}},
{"geometry": {"type": "Point", "coordinates": [-118.2445793821, 34.1520847341]}, "type": "Feature", "properties": {"collection_times": [{"days": "Mon-Fri", "time": "3:00pm"}, {"days": "Sat", "time": "1:00pm"}, {"days": "Sun", "time": "Closed"}], "id": "9120600031", "name": "USPS COLLECTION BOX - BLUE BOX", "address": {"city": "GLENDALE", "state": "CA", "street": "400 N GLENDALE AVE", "postcode": "91206"}}},
{"geometry": {"type": "Point", "coordinates": [-118.2485363799, 34.1547203667]}, "type": "Feature", "properties": {"collection_times": [{"days": "Mon-Sat", "time": "12:00pm"}, {"days": "Sun", "time": "Closed"}], "id": "9120600033", "name": "USPS COLLECTION BOX - BLUE BOX", "address": {"city": "GLENDALE", "state": "CA", "street": "600 E DORAN ST", "postcode": "91206"}}},
{"geometry": {"type": "Point", "coordinates": [-118.2350940266, 34.1461633379]}, "type": "Feature", "properties": {"collection_times": [{"days": "Mon-Fri", "time": "5:00pm"}, {"days": "Sat", "time": "3:00pm"}, {"days": "Sun", "time": "Closed"}], "id": "9120600034", "name": "USPS COLLECTION BOX - BLUE BOX", "address": {"city": "GLENDALE", "state": "CA", "street": "101 N VERDUGO RD", "postcode": "91206"}}},
{"geometry": {"type": "Point", "coordinates": [-118.2537411073, 34.1498607763]}, "type": "Feature", "properties": {"collection_times": [{"days": "Mon-Fri", "time": "3:00pm"}, {"days": "Sat", "time": "1:00pm"}, {"days": "Sun", "time": "Closed"}], "id": "9120600038", "name": "USPS COLLECTION BOX - BLUE BOX", "address": {"city": "GLENDALE", "state": "CA", "street": "200 E CALIFORNIA AVE", "postcode": "91206"}}},
{"geometry": {"type": "Point", "coordinates": [-118.2487937757, 34.1462929591]}, "type": "Feature", "properties": {"collection_times": [{"days": "Mon-Fri", "time": "3:00pm"}, {"days": "Sat", "time": "1:00pm"}, {"days": "Sun", "time": "Closed"}], "id": "9120600040", "name": "USPS COLLECTION BOX - BLUE BOX", "address": {"city": "GLENDALE", "state": "CA", "street": "600 E BROADWAY", "postcode": "91206"}}},
{"geometry": {"type": "Point", "coordinates": [-118.2485992463, 34.1464026046]}, "type": "Feature", "properties": {"collection_times": [{"days": "Mon-Fri", "time": "3:00pm"}, {"days": "Sat", "time": "1:00pm"}, {"days": "Sun", "time": "Closed"}], "id": "9120600041", "name": "USPS COLLECTION BOX - BLUE BOX", "address": {"city": "GLENDALE", "state": "CA", "street": "613 E BROADWAY", "postcode": "91206"}}},
{"geometry": {"type": "Point", "coordinates": [-118.2470709375, 34.1463838428]}, "type": "Feature", "properties": {"collection_times": [{"days": "Mon-Fri", "time": "3:00pm"}, {"days": "Sat", "time": "1:00pm"}, {"days": "Sun", "time": "Closed"}], "id": "9120600043", "name": "USPS COLLECTION BOX - BLUE BOX", "address": {"city": "GLENDALE", "state": "CA", "street": "102 N GLENDALE AVE", "postcode": "91206"}}},
{"geometry": {"type": "Point", "coordinates": [-118.2487937757, 34.1462929591]}, "type": "Feature", "properties": {"collection_times": [{"days": "Mon-Fri", "time": "3:00pm"}, {"days": "Sat", "time": "1:00pm"}, {"days": "Sun", "time": "Closed"}], "id": "9120600044", "name": "USPS COLLECTION BOX - BLUE BOX", "address": {"city": "GLENDALE", "state": "CA", "street": "600 E BROADWAY", "postcode": "91206"}}},
{"geometry": {"type": "Point", "coordinates": [-118.2350940266, 34.1461633379]}, "type": "Feature", "properties": {"collection_times": [{"days": "Mon-Fri", "time": "5:00pm"}, {"days": "Sat", "time": "3:00pm"}, {"days": "Sun", "time": "Closed"}], "id": "9120600045", "name": "USPS COLLECTION BOX - PO LOBBY", "address": {"city": "GLENDALE", "state": "CA", "street": "101 N VERDUGO RD", "postcode": "91206"}}},
{"geometry": {"type": "Point", "coordinates": [-118.2350940266, 34.1461633379]}, "type": "Feature", "properties": {"collection_times": [{"days": "Mon-Fri", "time": "5:00pm"}, {"days": "Sat", "time": "3:00pm"}, {"days": "Sun", "time": "Closed"}], "id": "9120600046", "name": "USPS COLLECTION BOX - PO LOBBY", "address": {"city": "GLENDALE", "state": "CA", "street": "101 N VERDUGO RD", "postcode": "91206"}}},
{"geometry": {"type": "Point", "coordinates": [-118.2615406478, 34.1480106234]}, "type": "Feature", "properties": {"collection_times": [{"days": "Mon-Sat", "time": "12:00pm"}, {"days": "Sun", "time": "Closed"}], "id": "9120600047", "name": "USPS COLLECTION BOX - BLUE BOX", "address": {"city": "GLENDALE", "state": "CA", "street": "400 E WILSON AVE", "postcode": "91206"}}},
{"geometry": {"type": "Point", "coordinates": [-118.2181568107, 34.1590760216]}, "type": "Feature", "properties": {"collection_times": [{"days": "Mon-Sat", "time": "12:00pm"}, {"days": "Sun", "time": "Closed"}], "id": "9120600048", "name": "USPS COLLECTION BOX - BLUE BOX", "address": {"city": "GLENDALE", "state": "CA", "street": "2243 E CHEVY CHASE DR", "postcode": "91206"}}},
{"geometry": {"type": "Point", "coordinates": [-118.2479467912, 34.1481252051]}, "type": "Feature", "properties": {"collection_times": [{"days": "Mon-Fri", "time": "3:00pm"}, {"days": "Sat-Sun", "time": "Closed"}], "id": "9120600050", "name": "USPS COLLECTION BOX - BLUE BOX", "address": {"city": "GLENDALE", "state": "CA", "street": "650 E WILSON AVE", "postcode": "91206"}}},
{"geometry": {"type": "Point", "coordinates": [-118.2537248379, 34.1614360247]}, "type": "Feature", "properties": {"collection_times": [{"days": "Mon-Sat", "time": "10:00am"}, {"days": "Sun", "time": "Closed"}], "id": "9120700000", "name": "USPS COLLECTION BOX - BLUE BOX", "address": {"city": "GLENDALE", "state": "CA", "street": "200 E DRYDEN ST", "postcode": "91207"}}},
{"geometry": {"type": "Point", "coordinates": [-118.2482974221, 34.1582597799]}, "type": "Feature", "properties": {"collection_times": [{"days": "Mon-Sat", "time": "10:00am"}, {"days": "Sun", "time": "Closed"}], "id": "9120700003", "name": "USPS COLLECTION BOX - BLUE BOX", "address": {"city": "GLENDALE", "state": "CA", "street": "621 E GLENOAKS BLVD", "postcode": "91207"}}},
{"geometry": {"type": "Point", "coordinates": [-118.2502824273, 34.1583011835]}, "type": "Feature", "properties": {"collection_times": [{"days": "Mon-Sat", "time": "10:00am"}, {"days": "Sun", "time": "Closed"}], "id": "9120700004", "name": "USPS COLLECTION BOX - BLUE BOX", "address": {"city": "GLENDALE", "state": "CA", "street": "419 E GLENOAKS BLVD", "postcode": "91207"}}},
{"geometry": {"type": "Point", "coordinates": [-118.2351075215, 34.2069098345]}, "type": "Feature", "properties": {"collection_times": [{"days": "Mon-Sat", "time": "10:00am"}, {"days": "Sun", "time": "Closed"}], "id": "9120800000", "name": "USPS COLLECTION BOX - BLUE BOX", "address": {"city": "GLENDALE", "state": "CA", "street": "1444 BROADVIEW DR", "postcode": "91208"}}},
{"geometry": {"type": "Point", "coordinates": [-118.2291182289, 34.1832809402]}, "type": "Feature", "properties": {"collection_times": [{"days": "Mon-Sat", "time": "1:00pm"}, {"days": "Sun", "time": "Closed"}], "id": "9120800001", "name": "USPS COLLECTION BOX - BLUE BOX", "address": {"city": "GLENDALE", "state": "CA", "street": "2523 CANADA BLVD", "postcode": "91208"}}},
{"geometry": {"type": "Point", "coordinates": [-118.2257204554, 34.1765106945]}, "type": "Feature", "properties": {"collection_times": [{"days": "Mon-Sat", "time": "10:00am"}, {"days": "Sun", "time": "Closed"}], "id": "9120800003", "name": "USPS COLLECTION BOX - BLUE BOX", "address": {"city": "GLENDALE", "state": "CA", "street": "1930 N VERDUGO RD", "postcode": "91208"}}},
{"geometry": {"type": "Point", "coordinates": [-118.2280191396, 34.1692151629]}, "type": "Feature", "properties": {"collection_times": [{"days": "Mon-Fri", "time": "10:00am"}, {"days": "Sat-Sun", "time": "Closed"}], "id": "9120800005", "name": "USPS COLLECTION BOX - BLUE BOX", "address": {"city": "GLENDALE", "state": "CA", "street": "1545 N VERDUGO RD", "postcode": "91208"}}},
{"geometry": {"type": "Point", "coordinates": [-118.216186001, 34.2056053465]}, "type": "Feature", "properties": {"collection_times": [{"days": "Mon-Fri", "time": "3:00pm"}, {"days": "Sat", "time": "1:00pm"}, {"days": "Sun", "time": "Closed"}], "id": "9120800006", "name": "USPS COLLECTION BOX - BLUE BOX", "address": {"city": "GLENDALE", "state": "CA", "street": "1809 VERDUGO BLVD", "postcode": "91208"}}},
{"geometry": {"type": "Point", "coordinates": [-118.2165456206, 34.2055793214]}, "type": "Feature", "properties": {"collection_times": [{"days": "Mon-Fri", "time": "3:00pm"}, {"days": "Sat", "time": "1:00pm"}, {"days": "Sun", "time": "Closed"}], "id": "9120800007", "name": "USPS COLLECTION BOX - BLUE BOX", "address": {"city": "GLENDALE", "state": "CA", "street": "1818 VERDUGO BLVD", "postcode": "91208"}}},
{"geometry": {"type": "Point", "coordinates": [-118.2151765147, 34.2056073576]}, "type": "Feature", "properties": {"collection_times": [{"days": "Mon-Fri", "time": "3:00pm"}, {"days": "Sat", "time": "1:00pm"}, {"days": "Sun", "time": "Closed"}], "id": "9120800008", "name": "USPS COLLECTION BOX - BLUE BOX", "address": {"city": "GLENDALE", "state": "CA", "street": "1808 N VERDUGO BLVD", "postcode": "91208"}}},
{"geometry": {"type": "Point", "coordinates": [-118.2164131292, 34.2055887851]}, "type": "Feature", "properties": {"collection_times": [{"days": "Mon-Fri", "time": "3:00pm"}, {"days": "Sat", "time": "1:00pm"}, {"days": "Sun", "time": "Closed"}], "id": "9120800009", "name": "USPS COLLECTION BOX - BLUE BOX", "address": {"city": "GLENDALE", "state": "CA", "street": "1812 VERDUGO BLVD", "postcode": "91208"}}},
{"geometry": {"type": "Point", "coordinates": [-118.2151765147, 34.2056073576]}, "type": "Feature", "properties": {"collection_times": [{"days": "Mon-Fri", "time": "3:00pm"}, {"days": "Sat", "time": "1:00pm"}, {"days": "Sun", "time": "Closed"}], "id": "9120800010", "name": "USPS COLLECTION BOX - BLUE BOX", "address": {"city": "GLENDALE", "state": "CA", "street": "1808 N VERDUGO BLVD", "postcode": "91208"}}},
{"geometry": {"type": "Point", "coordinates": [-118.2260601595, 34.1884134039]}, "type": "Feature", "properties": {"collection_times": [{"days": "Mon-Sat", "time": "10:00am"}, {"days": "Sun", "time": "Closed"}], "id": "9120800011", "name": "USPS COLLECTION BOX - BLUE BOX", "address": {"city": "GLENDALE", "state": "CA", "street": "2840 N VERDUGO RD", "postcode": "91208"}}},
{"geometry": {"type": "Point", "coordinates": [-118.2519811564, 34.1463118943]}, "type": "Feature", "properties": {"collection_times": [{"days": "Mon-Fri", "time": "5:00pm"}, {"days": "Sat", "time": "3:00pm"}, {"days": "Sun", "time": "Closed"}], "id": "9120900001", "name": "USPS COLLECTION BOX - BLUE BOX", "address": {"city": "GLENDALE", "state": "CA", "street": "313 E BROADWAY", "postcode": "91209"}}},
{"geometry": {"type": "Point", "coordinates": [-118.2519811564, 34.1463118943]}, "type": "Feature", "properties": {"collection_times": [{"days": "Mon-Fri", "time": "5:00pm"}, {"days": "Sat", "time": "3:00pm"}, {"days": "Sun", "time": "Closed"}], "id": "9120900004", "name": "USPS COLLECTION BOX - BLUE BOX", "address": {"city": "GLENDALE", "state": "CA", "street": "313 E BROADWAY", "postcode": "91209"}}},
{"geometry": {"type": "Point", "coordinates": [-118.2519811564, 34.1463118943]}, "type": "Feature", "properties": {"collection_times": [{"days": "Mon-Fri", "time": "5:00pm"}, {"days": "Sat", "time": "3:00pm"}, {"days": "Sun", "time": "Closed"}], "id": "9120900005", "name": "USPS COLLECTION BOX - PO LOBBY", "address": {"city": "GLENDALE", "state": "CA", "street": "313 E BROADWAY", "postcode": "91209"}}},
{"geometry": {"type": "Point", "coordinates": [-118.2519811564, 34.1463118943]}, "type": "Feature", "properties": {"collection_times": [{"days": "Mon-Fri", "time": "5:00pm"}, {"days": "Sat", "time": "3:00pm"}, {"days": "Sun", "time": "Closed"}], "id": "9120900007", "name": "USPS COLLECTION BOX - APC", "address": {"city": "GLENDALE", "state": "CA", "street": "313 E BROADWAY", "postcode": "91209"}}},
{"geometry": {"type": "Point", "coordinates": [-118.2509661776, 34.2309916459]}, "type": "Feature", "properties": {"collection_times": [{"days": "Mon-Fri", "time": "5:00pm"}, {"days": "Sat", "time": "3:00pm"}, {"days": "Sun", "time": "Closed"}], "id": "9121400001", "name": "USPS COLLECTION BOX - BLUE BOX", "address": {"city": "LA CRESCENTA", "state": "CA", "street": "3300 FOOTHILL BLVD", "postcode": "91214"}}},
{"geometry": {"type": "Point", "coordinates": [-118.2398321475, 34.2295742379]}, "type": "Feature", "properties": {"collection_times": [{"days": "Mon-Sat", "time": "10:00am"}, {"days": "Sun", "time": "Closed"}], "id": "9121400006", "name": "USPS COLLECTION BOX - BLUE BOX", "address": {"city": "LA CRESCENTA", "state": "CA", "street": "4800 LA CRESCENTA AVE", "postcode": "91214"}}},
{"geometry": {"type": "Point", "coordinates": [-118.2441132963, 34.2267365425]}, "type": "Feature", "properties": {"collection_times": [{"days": "Mon-Sat", "time": "10:00am"}, {"days": "Sun", "time": "Closed"}], "id": "9121400008", "name": "USPS COLLECTION BOX - BLUE BOX", "address": {"city": "LA CRESCENTA", "state": "CA", "street": "2963 FOOTHILL BLVD", "postcode": "91214"}}},
{"geometry": {"type": "Point", "coordinates": [-118.2362241829, 34.2218918308]}, "type": "Feature", "properties": {"collection_times": [{"days": "Mon-Sat", "time": "10:00am"}, {"days": "Sun", "time": "Closed"}], "id": "9121400009", "name": "USPS COLLECTION BOX - BLUE BOX", "address": {"city": "LA CRESCENTA", "state": "CA", "street": "2647 FOOTHILL BLVD", "postcode": "91214"}}},
{"geometry": {"type": "Point", "coordinates": [-118.2480596474, 34.2291923653]}, "type": "Feature", "properties": {"collection_times": [{"days": "Mon-Sat", "time": "10:00am"}, {"days": "Sun", "time": "Closed"}], "id": "9121400011", "name": "USPS COLLECTION BOX - BLUE BOX", "address": {"city": "LA CRESCENTA", "state": "CA", "street": "3141 FOOTHILL BLVD", "postcode": "91214"}}},
{"geometry": {"type": "Point", "coordinates": [-118.2345644515, 34.2208158329]}, "type": "Feature", "properties": {"collection_times": [{"days": "Mon-Sat", "time": "10:00am"}, {"days": "Sun", "time": "Closed"}], "id": "9121400014", "name": "USPS COLLECTION BOX - BLUE BOX", "address": {"city": "LA CRESCENTA", "state": "CA", "street": "2550 FOOTHILL BLVD", "postcode": "91214"}}},
{"geometry": {"type": "Point", "coordinates": [-118.242227897, 34.2173054922]}, "type": "Feature", "properties": {"collection_times": [{"days": "Mon-Sat", "time": "10:00am"}, {"days": "Sun", "time": "Closed"}], "id": "9121400016", "name": "USPS COLLECTION BOX - BLUE BOX", "address": {"city": "LA CRESCENTA", "state": "CA", "street": "2902 MONTROSE AVE", "postcode": "91214"}}},
{"geometry": {"type": "Point", "coordinates": [-118.2485434776, 34.2212961143]}, "type": "Feature", "properties": {"collection_times": [{"days": "Mon-Sat", "time": "10:00am"}, {"days": "Sun", "time": "Closed"}], "id": "9121400020", "name": "USPS COLLECTION BOX - BLUE BOX", "address": {"city": "LA CRESCENTA", "state": "CA", "street": "3155 MONTROSE AVE", "postcode": "91214"}}},
{"geometry": {"type": "Point", "coordinates": [-118.2618174602, 34.2291237537]}, "type": "Feature", "properties": {"collection_times": [{"days": "Mon-Sat", "time": "10:00am"}, {"days": "Sun", "time": "Closed"}], "id": "9121400022", "name": "USPS COLLECTION BOX - BLUE BOX", "address": {"city": "LA CRESCENTA", "state": "CA", "street": "4001 BOSTON AVE", "postcode": "91214"}}},
{"geometry": {"type": "Point", "coordinates": [-118.2509661776, 34.2309916459]}, "type": "Feature", "properties": {"collection_times": [{"days": "Mon-Fri", "time": "5:00pm"}, {"days": "Sat", "time": "3:00pm"}, {"days": "Sun", "time": "Closed"}], "id": "9121400023", "name": "USPS COLLECTION BOX - PO LOBBY", "address": {"city": "LA CRESCENTA", "state": "CA", "street": "3300 FOOTHILL BLVD", "postcode": "91214"}}},
{"geometry": {"type": "Point", "coordinates": [-118.2509661776, 34.2309916459]}, "type": "Feature", "properties": {"collection_times": [{"days": "Mon-Fri", "time": "5:00pm"}, {"days": "Sat", "time": "3:00pm"}, {"days": "Sun", "time": "Closed"}], "id": "9121400024", "name": "USPS COLLECTION BOX - PO LOBBY", "address": {"city": "LA CRESCENTA", "state": "CA", "street": "3300 FOOTHILL BLVD", "postcode": "91214"}}},
{"geometry": {"type": "Point", "coordinates": [-118.2509661776, 34.2309916459]}, "type": "Feature", "properties": {"collection_times": [{"days": "Mon-Fri", "time": "5:00pm"}, {"days": "Sat", "time": "3:00pm"}, {"days": "Sun", "time": "Closed"}], "id": "9121400025", "name": "USPS COLLECTION BOX - APC", "address": {"city": "LA CRESCENTA", "state": "CA", "street": "3300 FOOTHILL BLVD", "postcode": "91214"}}}
]}
