{"type": "FeatureCollection", "features": [
{"geometry": {"type": "Point", "coordinates": [-118.7538059323, 34.1471554793]}, "type": "Feature", "properties": {"collection_times": [{"days": "Mon-Fri", "time": "5:00pm"}, {"days": "Sat", "time": "3:30pm"}, {"days": "Sun", "time": "Closed"}], "id": "9130100001", "name": "USPS COLLECTION BOX - PO LOBBY", "address": {"city": "AGOURA HILLS", "state": "CA", "street": "5158 CLARETON DR", "postcode": "91301"}}},
{"geometry": {"type": "Point", "coordinates": [-118.7786877207, 34.1463603957]}, "type": "Feature", "properties": {"collection_times": [{"days": "Mon-Fri", "time": "3:00pm"}, {"days": "Sat", "time": "10:00am"}, {"days": "Sun", "time": "Closed"}], "id": "9130100003", "name": "USPS COLLECTION BOX - BLUE BOX", "address": {"city": "AGOURA HILLS", "state": "CA", "street": "30101 AGOURA CT", "postcode": "91301"}}},
{"geometry": {"type": "Point", "coordinates": [-118.788200801, 34.1466713347]}, "type": "Feature", "properties": {"collection_times": [{"days": "Mon-Sat", "time": "10:00am"}, {"days": "Sun", "time": "Closed"}], "id": "9130100009", "name": "USPS COLLECTION BOX - BLUE BOX", "address": {"city": "AGOURA HILLS", "state": "CA", "street": "30600 CANWOOD ST", "postcode": "91301"}}},
{"geometry": {"type": "Point", "coordinates": [-118.7840299634, 34.1471103916]}, "type": "Feature", "properties": {"collection_times": [{"days": "Mon-Fri", "time": "3:00pm"}, {"days": "Sat", "time": "10:00am"}, {"days": "Sun", "time": "Closed"}], "id": "9130100011", "name": "USPS COLLECTION BOX - BLUE BOX", "address": {"city": "AGOURA HILLS", "state": "CA", "street": "30423 CANWOOD ST", "postcode": "91301"}}},
{"geometry": {"type": "Point", "coordinates": [-118.781850953, 34.1477941419]}, "type": "Feature", "properties": {"collection_times": [{"days": "Mon-Fri", "time": "3:00pm"}, {"days": "Sat", "time": "10:00am"}, {"days": "Sun", "time": "Closed"}], "id": "9130100012", "name": "USPS COLLECTION BOX - BLUE BOX", "address": {"city": "AGOURA HILLS", "state": "CA", "street": "30313 CANWOOD ST", "postcode": "91301"}}},
{"geometry": {"type": "Point", "coordinates": [-118.7678660121, 34.1472487978]}, "type": "Feature", "properties": {"collection_times": [{"days": "Mon-Fri", "time": "3:00pm"}, {"days": "Sat", "time": "10:00am"}, {"days": "Sun", "time": "Closed"}], "id": "9130100013", "name": "USPS COLLECTION BOX - BLUE BOX", "address": {"city": "AGOURA HILLS", "state": "CA", "street": "29525 CANWOOD ST", "postcode": "91301"}}},
{"geometry": {"type": "Point", "coordinates": [-118.7606816909, 34.1477077993]}, "type": "Feature", "properties": {"collection_times": [{"days": "Mon-Sat", "time": "10:00am"}, {"days": "Sun", "time": "Closed"}], "id": "9130100014", "name": "USPS COLLECTION BOX - BLUE BOX", "address": {"city": "AGOURA HILLS", "state": "CA", "street": "5160 KANAN RD", "postcode": "91301"}}},
{"geometry": {"type": "Point", "coordinates": [-118.7376934608, 34.142143147]}, "type": "Feature", "properties": {"collection_times": [{"days": "Mon-Fri", "time": "3:00pm"}, {"days": "Sat", "time": "10:00am"}, {"days": "Sun", "time": "Closed"}], "id": "9130100019", "name": "USPS COLLECTION BOX - BLUE BOX", "address": {"city": "AGOURA HILLS", "state": "CA", "street": "28038 DOROTHY DR", "postcode": "91301"}}},
{"geometry": {"type": "Point", "coordinates": [-118.7567557153, 34.1550449891]}, "type": "Feature", "properties": {"collection_times": [{"days": "Mon-Fri", "time": "3:00pm"}, {"days": "Sat", "time": "10:00am"}, {"days": "Sun", "time": "Closed"}], "id": "9130100022", "name": "USPS COLLECTION BOX - BLUE BOX", "address": {"city": "AGOURA HILLS", "state": "CA", "street": "5737 KANAN RD", "postcode": "91301"}}},
{"geometry": {"type": "Point", "coordinates": [-118.7891273336, 34.1550255701]}, "type": "Feature", "properties": {"collection_times": [{"days": "Mon-Sat", "time": "10:00am"}, {"days": "Sun", "time": "Closed"}], "id": "9130100025", "name": "USPS COLLECTION BOX - BLUE BOX", "address": {"city": "AGOURA HILLS", "state": "CA", "street": "5719 LAKE LINDERO DR", "postcode": "91301"}}},
{"geometry": {"type": "Point", "coordinates": [-118.7224742703, 34.1887056203]}, "type": "Feature", "properties": {"collection_times": [{"days": "Mon-Sat", "time": "10:00am"}, {"days": "Sun", "time": "Closed"}], "id": "9130100030", "name": "USPS COLLECTION BOX - BLUE BOX", "address": {"city": "AGOURA HILLS", "state": "CA", "street": "26900 COLD SPRING ST", "postcode": "91301"}}},
{"geometry": {"type": "Point", "coordinates": [-118.7757412314, 34.143931155]}, "type": "Feature", "properties": {"collection_times": [{"days": "Mon-Sat", "time": "10:00am"}, {"days": "Sun", "time": "Closed"}], "id": "9130100038", "name": "USPS COLLECTION BOX - BLUE BOX", "address": {"city": "AGOURA HILLS", "state": "CA", "street": "30001 LADY FACE CR", "postcode": "91301"}}},
{"geometry": {"type": "Point", "coordinates": [-118.748807146, 34.1451888661]}, "type": "Feature", "properties": {"collection_times": [{"days": "Mon-Fri", "time": "3:00pm"}, {"days": "Sat", "time": "10:00am"}, {"days": "Sun", "time": "Closed"}], "id": "9130100042", "name": "USPS COLLECTION BOX - BLUE BOX", "address": {"city": "AGOURA HILLS", "state": "CA", "street": "5321 DERRY AVE", "postcode": "91301"}}},
{"geometry": {"type": "Point", "coordinates": [-118.7840299634, 34.1471103916]}, "type": "Feature", "properties": {"collection_times": [{"days": "Mon-Fri", "time": "3:00pm"}, {"days": "Sat", "time": "10:00am"}, {"days": "Sun", "time": "Closed"}], "id": "9130100044", "name": "USPS COLLECTION BOX - BLUE BOX", "address": {"city": "AGOURA HILLS", "state": "CA", "street": "30423 CANWOOD ST", "postcode": "91301"}}},
{"geometry": {"type": "Point", "coordinates": [-118.7840299634, 34.1471103916]}, "type": "Feature", "properties": {"collection_times": [{"days": "Mon-Fri", "time": "3:00pm"}, {"days": "Sat", "time": "10:00am"}, {"days": "Sun", "time": "Closed"}], "id": "9130100045", "name": "USPS COLLECTION BOX - BLUE BOX", "address": {"city": "AGOURA HILLS", "state": "CA", "street": "30423 CANWOOD ST", "postcode": "91301"}}},
{"geometry": {"type": "Point", "coordinates": [-118.7376934608, 34.142143147]}, "type": "Feature", "properties": {"collection_times": [{"days": "Mon-Fri", "time": "3:00pm"}, {"days": "Sat", "time": "10:00am"}, {"days": "Sun", "time": "Closed"}], "id": "9130100047", "name": "USPS COLLECTION BOX - BLUE BOX", "address": {"city": "AGOURA HILLS", "state": "CA", "street": "28038 DOROTHY DR", "postcode": "91301"}}},
{"geometry": {"type": "Point", "coordinates": [-118.7796664216, 34.1450823984]}, "type": "Feature", "properties": {"collection_times": [{"days": "Mon-Sat", "time": "10:00am"}, {"days": "Sun", "time": "Closed"}], "id": "9130100050", "name": "USPS COLLECTION BOX - BLUE BOX", "address": {"city": "AGOURA HILLS", "state": "CA", "street": "30135 AGOURA RD", "postcode": "91301"}}},
{"geometry": {"type": "Point", "coordinates": [-118.7572688605, 34.1538757445]}, "type": "Feature", "properties": {"collection_times": [{"days": "Mon-Fri", "time": "3:00pm"}, {"days": "Sat", "time": "10:00am"}, {"days": "Sun", "time": "Closed"}], "id": "9130100056", "name": "USPS COLLECTION BOX - BLUE BOX", "address": {"city": "AGOURA HILLS", "state": "CA", "street": "5699 KANAN RD", "postcode": "91301"}}},
{"geometry": {"type": "Point", "coordinates": [-118.7538059323, 34.1471554793]}, "type": "Feature", "properties": {"collection_times": [{"days": "Mon-Fri", "time": "5:00pm"}, {"days": "Sat", "time": "3:30pm"}, {"days": "Sun", "time": "Closed"}], "id": "9130100057", "name": "USPS COLLECTION BOX - APC", "address": {"city": "AGOURA HILLS", "state": "CA", "street": "5158 CLARETON DR", "postcode": "91301"}}},
{"geometry": {"type": "Point", "coordinates": [-118.7118682836, 34.1382145402]}, "type": "Feature", "properties": {"collection_times": [{"days": "Mon-Fri", "time": "3:00pm"}, {"days": "Sat", "time": "10:00am"}, {"days": "Sun", "time": "Closed"}], "id": "9130100058", "name": "USPS COLLECTION BOX - BLUE BOX", "address": {"city": "AGOURA HILLS", "state": "CA", "street": "26901 AGOURA RD", "postcode": "91301"}}},
{"geometry": {"type": "Point", "coordinates": [-118.7118682836, 34.1382145402]}, "type": "Feature", "properties": {"collection_times": [{"days": "Mon-Fri", "time": "3:00pm"}, {"days": "Sat", "time": "10:00am"}, {"days": "Sun", "time": "Closed"}], "id": "9130100059", "name": "USPS COLLECTION BOX - BLUE BOX", "address": {"city": "AGOURA HILLS", "state": "CA", "street": "26901 AGOURA RD", "postcode": "91301"}}},
{"geometry": {"type": "Point", "coordinates": [-118.7517055229, 34.1441541137]}, "type": "Feature", "properties": {"collection_times": [{"days": "Mon-Fri", "time": "3:00pm"}, {"days": "Sat", "time": "10:00am"}, {"days": "Sun", "time": "Closed"}], "id": "9130100061", "name": "USPS COLLECTION BOX - BLUE BOX", "address": {"city": "AGOURA HILLS", "state": "CA", "street": "28720 ROADSIDE DR", "postcode": "91301"}}},
{"geometry": {"type": "Point", "coordinates": [-118.7538059323, 34.1471554793]}, "type": "Feature", "properties": {"collection_times": [{"days": "Mon-Fri", "time": "5:00pm"}, {"days": "Sat", "time": "3:30pm"}, {"days": "Sun", "time": "Closed"}], "id": "9130100063", "name": "USPS COLLECTION BOX - BLUE BOX", "address": {"city": "AGOURA HILLS", "state": "CA", "street": "5158 CLARETON DR", "postcode": "91301"}}},
{"geometry": {"type": "Point", "coordinates": [-118.7424394921, 34.1409116867]}, "type": "Feature", "properties": {"collection_times": [{"days": "Mon-Fri", "time": "3:00pm"}, {"days": "Sat", "time": "10:00am"}, {"days": "Sun", "time": "Closed"}], "id": "9130100066", "name": "USPS COLLECTION BOX - BLUE BOX", "address": {"city": "AGOURA HILLS", "state": "CA", "street": "28240 AGOURA RD", "postcode": "91301"}}},
{"geometry": {"type": "Point", "coordinates": [-118.7558098757, 34.1438079074]}, "type": "Feature", "properties": {"collection_times": [{"days": "Mon-Sat", "time": "10:00am"}, {"days": "Sun", "time": "Closed"}], "id": "9130100067", "name": "USPS COLLECTION BOX - BLUE BOX", "address": {"city": "AGOURA HILLS", "state": "CA", "street": "5050 CORNELL RD", "postcode": "91301"}}},
{"geometry": {"type": "Point", "coordinates": [-118.759846656, 34.1386119566]}, "type": "Feature", "properties": {"collection_times": [{"days": "Mon-Fri", "time": "5:00pm"}, {"days": "Sat", "time": "3:30pm"}, {"days": "Sun", "time": "Closed"}], "id": "9130100068", "name": "USPS COLLECTION BOX - EXPRESS", "address": {"city": "AGOURA HILLS", "state": "CA", "street": "5158 CLARETON DR", "postcode": "91301"}}},
{"geometry": {"type": "Point", "coordinates": [-118.6423564318, 34.154422261]}, "type": "Feature", "properties": {"collection_times": [{"days": "Mon-Fri", "time": "5:00pm"}, {"days": "Sat", "time": "2:00pm"}, {"days": "Sun", "time": "Closed"}], "id": "9130200000", "name": "USPS COLLECTION BOX - BLUE BOX", "address": {"city": "CALABASAS", "state": "CA", "street": "4774 PARK GRANADA", "postcode": "91302"}}},
{"geometry": {"type": "Point", "coordinates": [-118.7019929422, 34.1431025267]}, "type": "Feature", "properties": {"collection_times": [{"days": "Mon-Fri", "time": "3:00pm"}, {"days": "Sat", "time": "10:00am"}, {"days": "Sun", "time": "Closed"}], "id": "9130200002", "name": "USPS COLLECTION BOX - BLUE BOX", "address": {"city": "CALABASAS", "state": "CA", "street": "26540 AGOURA RD", "postcode": "91302"}}},
{"geometry": {"type": "Point", "coordinates": [-118.7050674525, 34.1406206788]}, "type": "Feature", "properties": {"collection_times": [{"days": "Mon-Fri", "time": "3:00pm"}, {"days": "Sat", "time": "10:00am"}, {"days": "Sun", "time": "Closed"}], "id": "9130200005", "name": "USPS COLLECTION BOX - EXPRESS", "address": {"city": "CALABASAS", "state": "CA", "street": "26677 AGOURA RD", "postcode": "91302"}}},
{"geometry": {"type": "Point", "coordinates": [-118.6628357182, 34.1432741475]}, "type": "Feature", "properties": {"collection_times": [{"days": "Mon-Fri", "time": "3:00pm"}, {"days": "Sat", "time": "10:00am"}, {"days": "Sun", "time": "Closed"}], "id": "9130200007", "name": "USPS COLLECTION BOX - BLUE BOX", "address": {"city": "CALABASAS", "state": "CA", "street": "26677 AGOURA RD", "postcode": "91302"}}},
{"geometry": {"type": "Point", "coordinates": [-118.6417980752, 34.1564273765]}, "type": "Feature", "properties": {"collection_times": [{"days": "Mon-Fri", "time": "3:00pm"}, {"days": "Sat", "time": "10:00am"}, {"days": "Sun", "time": "Closed"}], "id": "9130200009", "name": "USPS COLLECTION BOX - BLUE BOX", "address": {"city": "CALABASAS", "state": "CA", "street": "23622 CALABASAS RD", "postcode": "91302"}}},
{"geometry": {"type": "Point", "coordinates": [-118.6417980752, 34.1564273765]}, "type": "Feature", "properties": {"collection_times": [{"days": "Mon-Fri", "time": "3:00pm"}, {"days": "Sat", "time": "10:00am"}, {"days": "Sun", "time": "Closed"}], "id": "9130200010", "name": "USPS COLLECTION BOX - BLUE BOX", "address": {"city": "CALABASAS", "state": "CA", "street": "23622 CALABASAS RD", "postcode": "91302"}}},
{"geometry": {"type": "Point", "coordinates": [-118.7020946945, 34.1594959665]}, "type": "Feature", "properties": {"collection_times": [{"days": "Mon-Sat", "time": "10:00am"}, {"days": "Sun", "time": "Closed"}], "id": "9130200015", "name": "USPS COLLECTION BOX - BLUE BOX", "address": {"city": "CALABASAS", "state": "CA", "street": "5661 LAS VIRGENES RD", "postcode": "91302"}}},
{"geometry": {"type": "Point", "coordinates": [-118.6956440014, 34.1524952209]}, "type": "Feature", "properties": {"collection_times": [{"days": "Mon-Fri", "time": "3:00pm"}, {"days": "Sat", "time": "10:00am"}, {"days": "Sun", "time": "Closed"}], "id": "9130200017", "name": "USPS COLLECTION BOX - BLUE BOX", "address": {"city": "CALABASAS", "state": "CA", "street": "26115 MUREAU RD", "postcode": "91302"}}},
{"geometry": {"type": "Point", "coordinates": [-118.6735339098, 34.1246495281]}, "type": "Feature", "properties": {"collection_times": [{"days": "Mon-Fri", "time": "3:00pm"}, {"days": "Sat", "time": "2:00pm"}, {"days": "Sun", "time": "Closed"}], "id": "9130200021", "name": "USPS COLLECTION BOX - BLUE BOX", "address": {"city": "CALABASAS", "state": "CA", "street": "4800 PARK GRANADA BLVD", "postcode": "91302"}}},
{"geometry": {"type": "Point", "coordinates": [-118.6400023435, 34.1559636565]}, "type": "Feature", "properties": {"collection_times": [{"days": "Mon-Sat", "time": "10:00am"}, {"days": "Sun", "time": "Closed"}], "id": "9130200025", "name": "USPS COLLECTION BOX - BLUE BOX", "address": {"city": "CALABASAS", "state": "CA", "street": "23480 PARK SORRENTO", "postcode": "91302"}}},
{"geometry": {"type": "Point", "coordinates": [-118.6519443143, 34.1544920556]}, "type": "Feature", "properties": {"collection_times": [{"days": "Mon-Fri", "time": "3:00pm"}, {"days": "Sat", "time": "10:00am"}, {"days": "Sun", "time": "Closed"}], "id": "9130200026", "name": "USPS COLLECTION BOX - BLUE BOX", "address": {"city": "CALABASAS", "state": "CA", "street": "24011 VENTURA BLVD", "postcode": "91302"}}},
{"geometry": {"type": "Point", "coordinates": [-118.6519443143, 34.1544920556]}, "type": "Feature", "properties": {"collection_times": [{"days": "Mon-Fri", "time": "3:00pm"}, {"days": "Sat", "time": "10:00am"}, {"days": "Sun", "time": "Closed"}], "id": "9130200027", "name": "USPS COLLECTION BOX - BLUE BOX", "address": {"city": "CALABASAS", "state": "CA", "street": "24011 VENTURA BLVD", "postcode": "91302"}}},
{"geometry": {"type": "Point", "coordinates": [-118.6519443143, 34.1544920556]}, "type": "Feature", "properties": {"collection_times": [{"days": "Mon-Fri", "time": "3:00pm"}, {"days": "Sat", "time": "10:00am"}, {"days": "Sun", "time": "Closed"}], "id": "9130200029", "name": "USPS COLLECTION BOX - BLUE BOX", "address": {"city": "CALABASAS", "state": "CA", "street": "24011 VENTURA BLVD", "postcode": "91302"}}},
{"geometry": {"type": "Point", "coordinates": [-118.6123116401, 34.1482140924]}, "type": "Feature", "properties": {"collection_times": [{"days": "Mon-Sat", "time": "10:00am"}, {"days": "Sun", "time": "Closed"}], "id": "9130200031", "name": "USPS COLLECTION BOX - BLUE BOX", "address": {"city": "CALABASAS", "state": "CA", "street": "22231 MULHOLLAND HWY", "postcode": "91302"}}},
{"geometry": {"type": "Point", "coordinates": [-118.6458177698, 34.1548067227]}, "type": "Feature", "properties": {"collection_times": [{"days": "Mon-Fri", "time": "3:00pm"}, {"days": "Sat", "time": "10:00am"}, {"days": "Sun", "time": "Closed"}], "id": "9130200034", "name": "USPS COLLECTION BOX - BLUE BOX", "address": {"city": "CALABASAS", "state": "CA", "street": "23801 CALABASAS RD", "postcode": "91302"}}},
{"geometry": {"type": "Point", "coordinates": [-118.6458177698, 34.1548067227]}, "type": "Feature", "properties": {"collection_times": [{"days": "Mon-Fri", "time": "3:00pm"}, {"days": "Sat", "time": "10:00am"}, {"days": "Sun", "time": "Closed"}], "id": "9130200035", "name": "USPS COLLECTION BOX - BLUE BOX", "address": {"city": "CALABASAS", "state": "CA", "street": "23801 CALABASAS RD", "postcode": "91302"}}},
{"geometry": {"type": "Point", "coordinates": [-118.6458177698, 34.1548067227]}, "type": "Feature", "properties": {"collection_times": [{"days": "Mon-Fri", "time": "3:00pm"}, {"days": "Sat", "time": "10:00am"}, {"days": "Sun", "time": "Closed"}], "id": "9130200036", "name": "USPS COLLECTION BOX - BLUE BOX", "address": {"city": "CALABASAS", "state": "CA", "street": "23801 CALABASAS RD", "postcode": "91302"}}},
{"geometry": {"type": "Point", "coordinates": [-118.6423564318, 34.154422261]}, "type": "Feature", "properties": {"collection_times": [{"days": "Mon-Fri", "time": "5:00pm"}, {"days": "Sat", "time": "2:00pm"}, {"days": "Sun", "time": "Closed"}], "id": "9130200037", "name": "USPS COLLECTION BOX - PO LOBBY", "address": {"city": "CALABASAS", "state": "CA", "street": "4774 PARK GRANADA", "postcode": "91302"}}},
{"geometry": {"type": "Point", "coordinates": [-118.6423564318, 34.154422261]}, "type": "Feature", "properties": {"collection_times": [{"days": "Mon-Fri", "time": "3:00pm"}, {"days": "Sat", "time": "2:00pm"}, {"days": "Sun", "time": "Closed"}], "id": "9130200039", "name": "USPS COLLECTION BOX - APC", "address": {"city": "CALABASAS", "state": "CA", "street": "4774 PARK GRANADA", "postcode": "91302"}}},
{"geometry": {"type": "Point", "coordinates": [-118.6031354274, 34.2010201976]}, "type": "Feature", "properties": {"collection_times": [{"days": "Mon-Fri", "time": "5:00pm"}, {"days": "Sat", "time": "3:00pm"}, {"days": "Sun", "time": "Closed"}], "id": "9130300002", "name": "USPS COLLECTION BOX - BLUE BOX", "address": {"city": "CANOGA PARK", "state": "CA", "street": "21801 SHERMAN WAY", "postcode": "91303"}}},
{"geometry": {"type": "Point", "coordinates": [-118.6106543145, 34.2010060021]}, "type": "Feature", "properties": {"collection_times": [{"days": "Mon-Fri", "time": "3:00pm"}, {"days": "Sat", "time": "10:00am"}, {"days": "Sun", "time": "Closed"}], "id": "9130300005", "name": "USPS COLLECTION BOX - BLUE BOX", "address": {"city": "CANOGA PARK", "state": "CA", "street": "22200 SHERMAN WAY", "postcode": "91303"}}},
{"geometry": {"type": "Point", "coordinates": [-118.5944808996, 34.1883483412]}, "type": "Feature", "properties": {"collection_times": [{"days": "Mon-Fri", "time": "3:00pm"}, {"days": "Sat", "time": "10:00am"}, {"days": "Sun", "time": "Closed"}], "id": "9130300007", "name": "USPS COLLECTION BOX - BLUE BOX", "address": {"city": "CANOGA PARK", "state": "CA", "street": "21201 VICTORY BLVD", "postcode": "91303"}}},
{"geometry": {"type": "Point", "coordinates": [-118.6031354274, 34.2010201976]}, "type": "Feature", "properties": {"collection_times": [{"days": "Mon-Fri", "time": "5:00pm"}, {"days": "Sat", "time": "3:00pm"}, {"days": "Sun", "time": "Closed"}], "id": "9130300020", "name": "USPS COLLECTION BOX - BLUE BOX", "address": {"city": "CANOGA PARK", "state": "CA", "street": "21801 SHERMAN WAY", "postcode": "91303"}}},
{"geometry": {"type": "Point", "coordinates": [-118.6059398899, 34.2009681865]}, "type": "Feature", "properties": {"collection_times": [{"days": "Mon-Fri", "time": "3:00pm"}, {"days": "Sat", "time": "10:00am"}, {"days": "Sun", "time": "Closed"}], "id": "9130300026", "name": "USPS COLLECTION BOX - BLUE BOX", "address": {"city": "CANOGA PARK", "state": "CA", "street": "22000 SHERMAN WAY", "postcode": "91303"}}},
{"geometry": {"type": "Point", "coordinates": [-118.6059398899, 34.2009681865]}, "type": "Feature", "properties": {"collection_times": [{"days": "Mon-Fri", "time": "3:00pm"}, {"days": "Sat", "time": "10:00am"}, {"days": "Sun", "time": "Closed"}], "id": "9130300027", "name": "USPS COLLECTION BOX - BLUE BOX", "address": {"city": "CANOGA PARK", "state": "CA", "street": "22000 SHERMAN WAY", "postcode": "91303"}}},
{"geometry": {"type": "Point", "coordinates": [-118.6031354274, 34.2010201976]}, "type": "Feature", "properties": {"collection_times": [{"days": "Mon-Fri", "time": "5:00pm"}, {"days": "Sat", "time": "3:00pm"}, {"days": "Sun", "time": "Closed"}], "id": "9130300028", "name": "USPS COLLECTION BOX - BLUE BOX", "address": {"city": "CANOGA PARK", "state": "CA", "street": "21801 SHERMAN WAY", "postcode": "91303"}}},
{"geometry": {"type": "Point", "coordinates": [-118.6058361227, 34.1903877624]}, "type": "Feature", "properties": {"collection_times": [{"days": "Mon-Sat", "time": "10:00am"}, {"days": "Sun", "time": "Closed"}], "id": "9130300030", "name": "USPS COLLECTION BOX - BLUE BOX", "address": {"city": "CANOGA PARK", "state": "CA", "street": "6600 TOPANGA CANYON BLVD", "postcode": "91303"}}},
{"geometry": {"type": "Point", "coordinates": [-118.591951657, 34.2011521682]}, "type": "Feature", "properties": {"collection_times": [{"days": "Mon-Sat", "time": "10:00am"}, {"days": "Sun", "time": "Closed"}], "id": "9130300031", "name": "USPS COLLECTION BOX - BLUE BOX", "address": {"city": "CANOGA PARK", "state": "CA", "street": "21061 SHERMAN WAY", "postcode": "91303"}}},
{"geometry": {"type": "Point", "coordinates": [-118.59752347, 34.2185114289]}, "type": "Feature", "properties": {"collection_times": [{"days": "Mon-Fri", "time": "6:00pm"}, {"days": "Sat", "time": "4:00pm"}, {"days": "Sun", "time": "Closed"}], "id": "9130400001", "name": "USPS COLLECTION BOX - BLUE BOX", "address": {"city": "CANOGA PARK", "state": "CA", "street": "8201 CANOGA AVE", "postcode": "91304"}}},
{"geometry": {"type": "Point", "coordinates": [-118.5911402235, 34.2281998628]}, "type": "Feature", "properties": {"collection_times": [{"days": "Mon-Sat", "time": "10:00am"}, {"days": "Sun", "time": "Closed"}], "id": "9130400009", "name": "USPS COLLECTION BOX - BLUE BOX", "address": {"city": "CANOGA PARK", "state": "CA", "street": "21000 PARTHENIA ST", "postcode": "91304"}}},
{"geometry": {"type": "Point", "coordinates": [-118.610553763, 34.2155646781]}, "type": "Feature", "properties": {"collection_times": [{"days": "Mon-Sat", "time": "10:00am"}, {"days": "Sun", "time": "Closed"}], "id": "9130400012", "name": "USPS COLLECTION BOX - BLUE BOX", "address": {"city": "CANOGA PARK", "state": "CA", "street": "22200 STRATHERN ST", "postcode": "91304"}}},
{"geometry": {"type": "Point", "coordinates": [-118.6147860341, 34.2194863737]}, "type": "Feature", "properties": {"collection_times": [{"days": "Mon-Sat", "time": "10:00am"}, {"days": "Sun", "time": "Closed"}], "id": "9130400013", "name": "USPS COLLECTION BOX - BLUE BOX", "address": {"city": "CANOGA PARK", "state": "CA", "street": "22400 ROSCOE BLVD", "postcode": "91304"}}},
{"geometry": {"type": "Point", "coordinates": [-118.59752347, 34.2185114289]}, "type": "Feature", "properties": {"collection_times": [{"days": "Mon-Fri", "time": "6:00pm"}, {"days": "Sat", "time": "4:00pm"}, {"days": "Sun", "time": "Closed"}], "id": "9130400022", "name": "USPS COLLECTION BOX - BLUE BOX", "address": {"city": "CANOGA PARK", "state": "CA", "street": "8201 CANOGA AVE", "postcode": "91304"}}},
{"geometry": {"type": "Point", "coordinates": [-118.6096789209, 34.2219317821]}, "type": "Feature", "properties": {"collection_times": [{"days": "Mon-Fri", "time": "3:30pm"}, {"days": "Sat", "time": "3:00pm"}, {"days": "Sun", "time": "Closed"}], "id": "9130400026", "name": "USPS COLLECTION BOX - EXPRESS", "address": {"city": "CANOGA PARK", "state": "CA", "street": "8201 CANOGA AVE", "postcode": "91304"}}},
{"geometry": {"type": "Point", "coordinates": [-118.6082600056, 34.2196257762]}, "type": "Feature", "properties": {"collection_times": [{"days": "Mon-Sat", "time": "10:00am"}, {"days": "Sun", "time": "Closed"}], "id": "9130400030", "name": "USPS COLLECTION BOX - BLUE BOX", "address": {"city": "CANOGA PARK", "state": "CA", "street": "22110 ROSCOE BLVD", "postcode": "91304"}}},
{"geometry": {"type": "Point", "coordinates": [-118.597552632, 34.2185108168]}, "type": "Feature", "properties": {"collection_times": [{"days": "Mon-Fri", "time": "6:00pm"}, {"days": "Sat", "time": "4:00pm"}, {"days": "Sun", "time": "Closed"}], "id": "9130400031", "name": "USPS COLLECTION BOX - APC", "address": {"city": "CANOGA PARK", "state": "CA", "street": "8201 CANOGA AVE", "postcode": "91304"}}},
{"geometry": {"type": "Point", "coordinates": [-118.59752347, 34.2185114289]}, "type": "Feature", "properties": {"collection_times": [{"days": "Mon-Fri", "time": "6:00pm"}, {"days": "Sat", "time": "4:00pm"}, {"days": "Sun", "time": "Closed"}], "id": "9130400035", "name": "USPS COLLECTION BOX - BLUE BOX", "address": {"city": "CANOGA PARK", "state": "CA", "street": "8201 CANOGA AVE", "postcode": "91304"}}},
{"geometry": {"type": "Point", "coordinates": [-118.59752347, 34.2185114289]}, "type": "Feature", "properties": {"collection_times": [{"days": "Mon-Fri", "time": "6:00pm"}, {"days": "Sat", "time": "4:00pm"}, {"days": "Sun", "time": "Closed"}], "id": "9130400036", "name": "USPS COLLECTION BOX - PO LOBBY", "address": {"city": "CANOGA PARK", "state": "CA", "street": "8201 CANOGA AVE", "postcode": "91304"}}},
{"geometry": {"type": "Point", "coordinates": [-118.5759399532, 34.2084014349]}, "type": "Feature", "properties": {"collection_times": [{"days": "Mon-Fri", "time": "5:00pm"}, {"days": "Sat", "time": "3:00pm"}, {"days": "Sun", "time": "Closed"}], "id": "9130600017", "name": "USPS COLLECTION BOX - EXPRESS", "address": {"city": "WINNETKA", "state": "CA", "street": "7655 WINNETKA AVE", "postcode": "91306"}}},
{"geometry": {"type": "Point", "coordinates": [-118.5710216403, 34.2101585556]}, "type": "Feature", "properties": {"collection_times": [{"days": "Mon-Fri", "time": "5:00pm"}, {"days": "Sat", "time": "3:00pm"}, {"days": "Sun", "time": "Closed"}], "id": "9130600018", "name": "USPS COLLECTION BOX - BLUE BOX", "address": {"city": "WINNETKA", "state": "CA", "street": "7655 WINNETKA AVE", "postcode": "91306"}}},
{"geometry": {"type": "Point", "coordinates": [-118.5710216403, 34.2101585556]}, "type": "Feature", "properties": {"collection_times": [{"days": "Mon-Fri", "time": "5:00pm"}, {"days": "Sat", "time": "3:00pm"}, {"days": "Sun", "time": "Closed"}], "id": "9130600020", "name": "USPS COLLECTION BOX - APC", "address": {"city": "WINNETKA", "state": "CA", "street": "7655 WINNETKA AVE", "postcode": "91306"}}},
{"geometry": {"type": "Point", "coordinates": [-118.5710216403, 34.2101585556]}, "type": "Feature", "properties": {"collection_times": [{"days": "Mon-Fri", "time": "5:00pm"}, {"days": "Sat", "time": "3:00pm"}, {"days": "Sun", "time": "Closed"}], "id": "9130600021", "name": "USPS COLLECTION BOX - BLUE BOX", "address": {"city": "WINNETKA", "state": "CA", "street": "7655 WINNETKA AVE", "postcode": "91306"}}},
{"geometry": {"type": "Point", "coordinates": [-118.5710428709, 34.2101610289]}, "type": "Feature", "properties": {"collection_times": [{"days": "Mon-Fri", "time": "5:00pm"}, {"days": "Sat", "time": "3:00pm"}, {"days": "Sun", "time": "Closed"}], "id": "9130600023", "name": "USPS COLLECTION BOX - BLUE BOX", "address": {"city": "WINNETKA", "state": "CA", "street": "7655 WINNETKA AVE", "postcode": "91306"}}},
{"geometry": {"type": "Point", "coordinates": [-118.5710428709, 34.2101610289]}, "type": "Feature", "properties": {"collection_times": [{"days": "Mon-Fri", "time": "5:00pm"}, {"days": "Sat", "time": "3:00pm"}, {"days": "Sun", "time": "Closed"}], "id": "9130600024", "name": "USPS COLLECTION BOX - BLUE BOX", "address": {"city": "WINNETKA", "state": "CA", "street": "7655 WINNETKA AVE", "postcode": "91306"}}},
{"geometry": {"type": "Point", "coordinates": [-118.6285270614, 34.2008309988]}, "type": "Feature", "properties": {"collection_times": [{"days": "Mon-Fri", "time": "5:00pm"}, {"days": "Sat", "time": "4:00pm"}, {"days": "Sun", "time": "Closed"}], "id": "9130700001", "name": "USPS COLLECTION BOX - BLUE BOX", "address": {"city": "WEST HILLS", "state": "CA", "street": "23055 SHERMAN WAY", "postcode": "91307"}}},
{"geometry": {"type": "Point", "coordinates": [-118.642693058, 34.1871804547]}, "type": "Feature", "properties": {"collection_times": [{"days": "Mon-Fri", "time": "3:00pm"}, {"days": "Sat", "time": "10:00am"}, {"days": "Sun", "time": "Closed"}], "id": "9130700002", "name": "USPS COLLECTION BOX - BLUE BOX", "address": {"city": "WEST HILLS", "state": "CA", "street": "6434 PLATT AVE", "postcode": "91307"}}},
{"geometry": {"type": "Point", "coordinates": [-118.6313052292, 34.2037208929]}, "type": "Feature", "properties": {"collection_times": [{"days": "Mon-Fri", "time": "3:00pm"}, {"days": "Sat", "time": "10:00am"}, {"days": "Sun", "time": "Closed"}], "id": "9130700005", "name": "USPS COLLECTION BOX - BLUE BOX", "address": {"city": "WEST HILLS", "state": "CA", "street": "7345 MEDICAL CENTER DR", "postcode": "91307"}}},
{"geometry": {"type": "Point", "coordinates": [-118.6569517533, 34.1949944356]}, "type": "Feature", "properties": {"collection_times": [{"days": "Mon-Sat", "time": "3:00pm"}, {"days": "Sun", "time": "Closed"}], "id": "9130700007", "name": "USPS COLLECTION BOX - BLUE BOX", "address": {"city": "WEST HILLS", "state": "CA", "street": "24400 VANOWEN ST", "postcode": "91307"}}},
{"geometry": {"type": "Point", "coordinates": [-118.671832685, 34.2037244416]}, "type": "Feature", "properties": {"collection_times": [{"days": "Mon-Sat", "time": "3:00pm"}, {"days": "Sun", "time": "Closed"}], "id": "9130700011", "name": "USPS COLLECTION BOX - BLUE BOX", "address": {"city": "WEST HILLS", "state": "CA", "street": "47 BELL CANYON RD", "postcode": "91307"}}},
{"geometry": {"type": "Point", "coordinates": [-118.6198121493, 34.193672629]}, "type": "Feature", "properties": {"collection_times": [{"days": "Mon-Fri", "time": "3:00pm"}, {"days": "Sat", "time": "10:00am"}, {"days": "Sun", "time": "Closed"}], "id": "9130700014", "name": "USPS COLLECTION BOX - BLUE BOX", "address": {"city": "WEST HILLS", "state": "CA", "street": "22736 VANOWEN ST", "postcode": "91307"}}},
{"geometry": {"type": "Point", "coordinates": [-118.6294538984, 34.2030820951]}, "type": "Feature", "properties": {"collection_times": [{"days": "Mon-Fri", "time": "3:00pm"}, {"days": "Sat", "time": "10:00am"}, {"days": "Sun", "time": "Closed"}], "id": "9130700017", "name": "USPS COLLECTION BOX - BLUE BOX", "address": {"city": "WEST HILLS", "state": "CA", "street": "7301 MEDICAL CENTER DR", "postcode": "91307"}}},
{"geometry": {"type": "Point", "coordinates": [-118.6285270614, 34.2008309988]}, "type": "Feature", "properties": {"collection_times": [{"days": "Mon-Fri", "time": "5:00pm"}, {"days": "Sat", "time": "4:00pm"}, {"days": "Sun", "time": "Closed"}], "id": "9130700020", "name": "USPS COLLECTION BOX - BLUE BOX", "address": {"city": "WEST HILLS", "state": "CA", "street": "23055 SHERMAN WAY", "postcode": "91307"}}},
{"geometry": {"type": "Point", "coordinates": [-118.6380170468, 34.1978126565]}, "type": "Feature", "properties": {"collection_times": [{"days": "Mon-Fri", "time": "5:00pm"}, {"days": "Sat", "time": "4:00pm"}, {"days": "Sun", "time": "Closed"}], "id": "9130700024", "name": "USPS COLLECTION BOX - EXPRESS", "address": {"city": "WEST HILLS", "state": "CA", "street": "23055 SHERMAN WAY", "postcode": "91307"}}},
{"geometry": {"type": "Point", "coordinates": [-118.6285270614, 34.2008309988]}, "type": "Feature", "properties": {"collection_times": [{"days": "Mon-Fri", "time": "5:00pm"}, {"days": "Sat", "time": "4:00pm"}, {"days": "Sun", "time": "Closed"}], "id": "9130700026", "name": "USPS COLLECTION BOX - PO LOBBY", "address": {"city": "WEST HILLS", "state": "CA", "street": "23055 SHERMAN WAY", "postcode": "91307"}}},
{"geometry": {"type": "Point", "coordinates": [-118.6321498619, 34.202422004]}, "type": "Feature", "properties": {"collection_times": [{"days": "Mon-Sat", "time": "10:00am"}, {"days": "Sun", "time": "Closed"}], "id": "9130700027", "name": "USPS COLLECTION BOX - BLUE BOX", "address": {"city": "WEST HILLS", "state": "CA", "street": "7320 WOODLAKE AVE", "postcode": "91307"}}},
{"geometry": {"type": "Point", "coordinates": [-118.6285270614, 34.2008309988]}, "type": "Feature", "properties": {"collection_times": [{"days": "Mon-Fri", "time": "5:00pm"}, {"days": "Sat", "time": "4:00pm"}, {"days": "Sun", "time": "Closed"}], "id": "9130700028", "name": "USPS COLLECTION BOX - APC", "address": {"city": "WEST HILLS", "state": "CA", "street": "23055 SHERMAN WAY", "postcode": "91307"}}},
{"geometry": {"type": "Point", "coordinates": [-118.6005169804, 34.2571785653]}, "type": "Feature", "properties": {"collection_times": [{"days": "Mon-Sat", "time": "5:00pm"}, {"days": "Sun", "time": "Closed"}], "id": "9131100001", "name": "USPS COLLECTION BOX - BLUE BOX", "address": {"city": "CHATSWORTH", "state": "CA", "street": "21606 DEVONSHIRE ST", "postcode": "91311"}}},
{"geometry": {"type": "Point", "coordinates": [-118.584176144, 34.2509079431]}, "type": "Feature", "properties": {"collection_times": [{"days": "Mon-Sat", "time": "10:00am"}, {"days": "Sun", "time": "Closed"}], "id": "9131100017", "name": "USPS COLLECTION BOX - BLUE BOX", "address": {"city": "CHATSWORTH", "state": "CA", "street": "9901 LURLINE AVE", "postcode": "91311"}}},
{"geometry": {"type": "Point", "coordinates": [-118.5668824669, 34.2462612803]}, "type": "Feature", "properties": {"collection_times": [{"days": "Mon-Sat", "time": "10:00am"}, {"days": "Sun", "time": "Closed"}], "id": "9131100027", "name": "USPS COLLECTION BOX - BLUE BOX", "address": {"city": "CHATSWORTH", "state": "CA", "street": "9701 OAKDALE AVE", "postcode": "91311"}}},
{"geometry": {"type": "Point", "coordinates": [-118.6005169804, 34.2571785653]}, "type": "Feature", "properties": {"collection_times": [{"days": "Mon-Sat", "time": "5:00pm"}, {"days": "Sun", "time": "Closed"}], "id": "9131100032", "name": "USPS COLLECTION BOX - PO LOBBY", "address": {"city": "CHATSWORTH", "state": "CA", "street": "21606 DEVONSHIRE ST", "postcode": "91311"}}},
{"geometry": {"type": "Point", "coordinates": [-118.6047198539, 34.2427032257]}, "type": "Feature", "properties": {"collection_times": [{"days": "Mon-Fri", "time": "3:00pm"}, {"days": "Sat", "time": "10:00am"}, {"days": "Sun", "time": "Closed"}], "id": "9131100033", "name": "USPS COLLECTION BOX - BLUE BOX", "address": {"city": "CHATSWORTH", "state": "CA", "street": "9501 VASSAR AVE", "postcode": "91311"}}},
{"geometry": {"type": "Point", "coordinates": [-118.5935723871, 34.2572379565]}, "type": "Feature", "properties": {"collection_times": [{"days": "Mon-Fri", "time": "3:00pm"}, {"days": "Sat", "time": "10:00am"}, {"days": "Sun", "time": "Closed"}], "id": "9131100035", "name": "USPS COLLECTION BOX - BLUE BOX", "address": {"city": "CHATSWORTH", "state": "CA", "street": "21119 DEVONSHIRE ST", "postcode": "91311"}}},
{"geometry": {"type": "Point", "coordinates": [-118.5945471453, 34.235457316]}, "type": "Feature", "properties": {"collection_times": [{"days": "Mon-Fri", "time": "3:00pm"}, {"days": "Sat", "time": "10:00am"}, {"days": "Sun", "time": "Closed"}], "id": "9131100047", "name": "USPS COLLECTION BOX - BLUE BOX", "address": {"city": "CHATSWORTH", "state": "CA", "street": "21211 NORDHOFF ST", "postcode": "91311"}}},
{"geometry": {"type": "Point", "coordinates": [-118.5715882777, 34.2427407944]}, "type": "Feature", "properties": {"collection_times": [{"days": "Mon-Fri", "time": "3:00pm"}, {"days": "Sat", "time": "10:00am"}, {"days": "Sun", "time": "Closed"}], "id": "9131100051", "name": "USPS COLLECTION BOX - BLUE BOX", "address": {"city": "CHATSWORTH", "state": "CA", "street": "20100 PLUMMER ST", "postcode": "91311"}}},
{"geometry": {"type": "Point", "coordinates": [-118.5797620566, 34.2571456666]}, "type": "Feature", "properties": {"collection_times": [{"days": "Mon-Fri", "time": "3:00pm"}, {"days": "Sat", "time": "10:00am"}, {"days": "Sun", "time": "Closed"}], "id": "9131100054", "name": "USPS COLLECTION BOX - BLUE BOX", "address": {"city": "CHATSWORTH", "state": "CA", "street": "10298 MASON AVE", "postcode": "91311"}}},
{"geometry": {"type": "Point", "coordinates": [-118.5669468952, 34.2374621857]}, "type": "Feature", "properties": {"collection_times": [{"days": "Mon-Fri", "time": "3:00pm"}, {"days": "Sat", "time": "10:00am"}, {"days": "Sun", "time": "Closed"}], "id": "9131100057", "name": "USPS COLLECTION BOX - BLUE BOX", "address": {"city": "CHATSWORTH", "state": "CA", "street": "9207 OAKDALE AVE", "postcode": "91311"}}},
{"geometry": {"type": "Point", "coordinates": [-118.5669468952, 34.2374621857]}, "type": "Feature", "properties": {"collection_times": [{"days": "Mon-Fri", "time": "3:00pm"}, {"days": "Sat-Sun", "time": "Closed"}], "id": "9131100059", "name": "USPS COLLECTION BOX - BLUE BOX", "address": {"city": "CHATSWORTH", "state": "CA", "street": "9207 OAKDALE AVE", "postcode": "91311"}}},
{"geometry": {"type": "Point", "coordinates": [-118.6005169804, 34.2571785653]}, "type": "Feature", "properties": {"collection_times": [{"days": "Mon-Sat", "time": "5:00pm"}, {"days": "Sun", "time": "Closed"}], "id": "9131100060", "name": "USPS COLLECTION BOX - APC", "address": {"city": "CHATSWORTH", "state": "CA", "street": "21606 DEVONSHIRE ST", "postcode": "91311"}}},
{"geometry": {"type": "Point", "coordinates": [-118.6135087945, 34.2573929241]}, "type": "Feature", "properties": {"collection_times": [{"days": "Mon-Sat", "time": "10:00am"}, {"days": "Sun", "time": "Closed"}], "id": "9131100065", "name": "USPS COLLECTION BOX - BLUE BOX", "address": {"city": "CHATSWORTH", "state": "CA", "street": "22300 DEVONSHIRE ST", "postcode": "91311"}}},
{"geometry": {"type": "Point", "coordinates": [-118.5167664104, 34.1619565267]}, "type": "Feature", "properties": {"collection_times": [{"days": "Mon-Fri", "time": "3:00pm"}, {"days": "Sat-Sun", "time": "Closed"}], "id": "9131600001", "name": "USPS COLLECTION BOX - BLUE BOX", "address": {"city": "ENCINO", "state": "CA", "street": "17609 VENTURA BLVD", "postcode": "91316"}}},
{"geometry": {"type": "Point", "coordinates": [-118.5188076395, 34.1762211225]}, "type": "Feature", "properties": {"collection_times": [{"days": "Mon-Sat", "time": "5:00pm"}, {"days": "Sun", "time": "Closed"}], "id": "9131600003", "name": "USPS COLLECTION BOX - BLUE BOX", "address": {"city": "ENCINO", "state": "CA", "street": "5805 WHITE OAK AVE", "postcode": "91316"}}},
{"geometry": {"type": "Point", "coordinates": [-118.5202809815, 34.1694020704]}, "type": "Feature", "properties": {"collection_times": [{"days": "Mon-Sat", "time": "10:00am"}, {"days": "Sun", "time": "Closed"}], "id": "9131600006", "name": "USPS COLLECTION BOX - BLUE BOX", "address": {"city": "ENCINO", "state": "CA", "street": "5400 YARMOUTH AVE", "postcode": "91316"}}},
{"geometry": {"type": "Point", "coordinates": [-118.518273571, 34.1701479494]}, "type": "Feature", "properties": {"collection_times": [{"days": "Mon-Sat", "time": "10:00am"}, {"days": "Sun", "time": "Closed"}], "id": "9131600007", "name": "USPS COLLECTION BOX - BLUE BOX", "address": {"city": "ENCINO", "state": "CA", "street": "5460 WHITE OAK AVE", "postcode": "91316"}}},
{"geometry": {"type": "Point", "coordinates": [-118.5025519754, 34.1691784911]}, "type": "Feature", "properties": {"collection_times": [{"days": "Mon-Fri", "time": "12:00pm"}, {"days": "Sat-Sun", "time": "Closed"}], "id": "9131600010", "name": "USPS COLLECTION BOX - BLUE BOX", "address": {"city": "ENCINO", "state": "CA", "street": "5353 BALBOA BLVD", "postcode": "91316"}}},
{"geometry": {"type": "Point", "coordinates": [-118.5250766971, 34.158573264]}, "type": "Feature", "properties": {"collection_times": [{"days": "Mon-Sat", "time": "10:00am"}, {"days": "Sun", "time": "Closed"}], "id": "9131600045", "name": "USPS COLLECTION BOX - BLUE BOX", "address": {"city": "ENCINO", "state": "CA", "street": "4900 NEWCASTLE AVE", "postcode": "91316"}}},
{"geometry": {"type": "Point", "coordinates": [-118.5075677215, 34.1764619695]}, "type": "Feature", "properties": {"collection_times": [{"days": "Mon-Sat", "time": "10:00am"}, {"days": "Sun", "time": "Closed"}], "id": "9131600048", "name": "USPS COLLECTION BOX - BLUE BOX", "address": {"city": "ENCINO", "state": "CA", "street": "5800 ALDEA AVE", "postcode": "91316"}}},
{"geometry": {"type": "Point", "coordinates": [-118.5272052382, 34.1654882016]}, "type": "Feature", "properties": {"collection_times": [{"days": "Mon-Sat", "time": "3:00pm"}, {"days": "Sun", "time": "Closed"}], "id": "9131600051", "name": "USPS COLLECTION BOX - BLUE BOX", "address": {"city": "ENCINO", "state": "CA", "street": "18099 VENTURA BLVD", "postcode": "91316"}}},
{"geometry": {"type": "Point", "coordinates": [-118.515416243, 34.1616157838]}, "type": "Feature", "properties": {"collection_times": [{"days": "Mon-Fri", "time": "3:00pm"}, {"days": "Sat-Sun", "time": "Closed"}], "id": "9131600059", "name": "USPS COLLECTION BOX - BLUE BOX", "address": {"city": "ENCINO", "state": "CA", "street": "17550 VENTURA BLVD", "postcode": "91316"}}},
{"geometry": {"type": "Point", "coordinates": [-118.5105629736, 34.1609640241]}, "type": "Feature", "properties": {"collection_times": [{"days": "Mon-Sat", "time": "3:00pm"}, {"days": "Sun", "time": "Closed"}], "id": "9131600060", "name": "USPS COLLECTION BOX - BLUE BOX", "address": {"city": "ENCINO", "state": "CA", "street": "17300 VENTURA BLVD", "postcode": "91316"}}},
{"geometry": {"type": "Point", "coordinates": [-118.5212647013, 34.1631926395]}, "type": "Feature", "properties": {"collection_times": [{"days": "Mon-Fri", "time": "3:00pm"}, {"days": "Sat-Sun", "time": "Closed"}], "id": "9131600061", "name": "USPS COLLECTION BOX - BLUE BOX", "address": {"city": "ENCINO", "state": "CA", "street": "17850 VENTURA BLVD", "postcode": "91316"}}},
{"geometry": {"type": "Point", "coordinates": [-118.5011158633, 34.1864094714]}, "type": "Feature", "properties": {"collection_times": [{"days": "Mon-Sat", "time": "12:00pm"}, {"days": "Sun", "time": "Closed"}], "id": "9131600062", "name": "USPS COLLECTION BOX - BLUE BOX", "address": {"city": "ENCINO", "state": "CA", "street": "6345 BALBOA BLVD", "postcode": "91316"}}},
{"geometry": {"type": "Point", "coordinates": [-118.5011158633, 34.1864094714]}, "type": "Feature", "properties": {"collection_times": [{"days": "Mon-Sat", "time": "12:00pm"}, {"days": "Sun", "time": "Closed"}], "id": "9131600063", "name": "USPS COLLECTION BOX - BLUE BOX", "address": {"city": "ENCINO", "state": "CA", "street": "6345 BALBOA BLVD", "postcode": "91316"}}},
{"geometry": {"type": "Point", "coordinates": [-118.5112266135, 34.1610562949]}, "type": "Feature", "properties": {"collection_times": [{"days": "Mon-Fri", "time": "3:00pm"}, {"days": "Sat-Sun", "time": "Closed"}], "id": "9131600065", "name": "USPS COLLECTION BOX - BLUE BOX", "address": {"city": "ENCINO", "state": "CA", "street": "17337 VENTURA BLVD", "postcode": "91316"}}},
{"geometry": {"type": "Point", "coordinates": [-118.5011158633, 34.1864094714]}, "type": "Feature", "properties": {"collection_times": [{"days": "Mon-Sat", "time": "12:00pm"}, {"days": "Sun", "time": "Closed"}], "id": "9131600066", "name": "USPS COLLECTION BOX - BLUE BOX", "address": {"city": "ENCINO", "state": "CA", "street": "6345 BALBOA BLVD", "postcode": "91316"}}},
{"geometry": {"type": "Point", "coordinates": [-118.5162960627, 34.1667328322]}, "type": "Feature", "properties": {"collection_times": [{"days": "Mon-Sat", "time": "12:00pm"}, {"days": "Sun", "time": "Closed"}], "id": "9131600067", "name": "USPS COLLECTION BOX - EXPRESS", "address": {"city": "ENCINO", "state": "CA", "street": "6345 BALBOA BLVD", "postcode": "91316"}}},
{"geometry": {"type": "Point", "coordinates": [-118.5188076395, 34.1762211225]}, "type": "Feature", "properties": {"collection_times": [{"days": "Mon-Sat", "time": "5:00pm"}, {"days": "Sun", "time": "Closed"}], "id": "9131600079", "name": "USPS COLLECTION BOX - APC", "address": {"city": "ENCINO", "state": "CA", "street": "5805 WHITE OAK AVE", "postcode": "91316"}}},
{"geometry": {"type": "Point", "coordinates": [-118.5243515433, 34.1686331471]}, "type": "Feature", "properties": {"collection_times": [{"days": "Mon-Sat", "time": "10:00am"}, {"days": "Sun", "time": "Closed"}], "id": "9131600084", "name": "USPS COLLECTION BOX - BLUE BOX", "address": {"city": "ENCINO", "state": "CA", "street": "5403 NEWCASTLE AVE", "postcode": "91316"}}},
{"geometry": {"type": "Point", "coordinates": [-118.5188076395, 34.1762211225]}, "type": "Feature", "properties": {"collection_times": [{"days": "Mon-Sat", "time": "5:00pm"}, {"days": "Sun", "time": "Closed"}], "id": "9131600085", "name": "USPS COLLECTION BOX - BLUE BOX", "address": {"city": "ENCINO", "state": "CA", "street": "5805 WHITE OAK AVE", "postcode": "91316"}}},
{"geometry": {"type": "Point", "coordinates": [-118.9165861484, 34.1883474411]}, "type": "Feature", "properties": {"collection_times": [{"days": "Mon-Sat", "time": "10:00am"}, {"days": "Sun", "time": "Closed"}], "id": "9132000014", "name": "USPS COLLECTION BOX - BLUE BOX", "address": {"city": "NEWBURY PARK", "state": "CA", "street": "1800 W HILLCREST DR", "postcode": "91320"}}},
{"geometry": {"type": "Point", "coordinates": [-118.9456753912, 34.1760183599]}, "type": "Feature", "properties": {"collection_times": [{"days": "Mon-Sat", "time": "10:00am"}, {"days": "Sun", "time": "Closed"}], "id": "9132000016", "name": "USPS COLLECTION BOX - BLUE BOX", "address": {"city": "NEWBURY PARK", "state": "CA", "street": "3303 KIMBER DR", "postcode": "91320"}}},
{"geometry": {"type": "Point", "coordinates": [-118.956808218, 34.1763271122]}, "type": "Feature", "properties": {"collection_times": [{"days": "Mon-Sat", "time": "10:00am"}, {"days": "Sun", "time": "Closed"}], "id": "9132000017", "name": "USPS COLLECTION BOX - BLUE BOX", "address": {"city": "NEWBURY PARK", "state": "CA", "street": "118 KNOLLWOOD DR", "postcode": "91320"}}},
{"geometry": {"type": "Point", "coordinates": [-118.928210185, 34.1812754295]}, "type": "Feature", "properties": {"collection_times": [{"days": "Mon-Fri", "time": "3:00pm"}, {"days": "Sat", "time": "10:00am"}, {"days": "Sun", "time": "Closed"}], "id": "9132000025", "name": "USPS COLLECTION BOX - BLUE BOX", "address": {"city": "NEWBURY PARK", "state": "CA", "street": "2331 BORCHARD RD", "postcode": "91320"}}},
{"geometry": {"type": "Point", "coordinates": [-118.9353892232, 34.1813711557]}, "type": "Feature", "properties": {"collection_times": [{"days": "Mon-Sat", "time": "10:00am"}, {"days": "Sun", "time": "Closed"}], "id": "9132000026", "name": "USPS COLLECTION BOX - BLUE BOX", "address": {"city": "NEWBURY PARK", "state": "CA", "street": "REINO RD", "postcode": "91320"}}},
{"geometry": {"type": "Point", "coordinates": [-118.8958372871, 34.1800544556]}, "type": "Feature", "properties": {"collection_times": [{"days": "Mon-Sat", "time": "10:00am"}, {"days": "Sun", "time": "Closed"}], "id": "9132000033", "name": "USPS COLLECTION BOX - BLUE BOX", "address": {"city": "NEWBURY PARK", "state": "CA", "street": "100 GREENMEADOW AVE", "postcode": "91320"}}},
{"geometry": {"type": "Point", "coordinates": [-118.9102268428, 34.1830569657]}, "type": "Feature", "properties": {"collection_times": [{"days": "Mon-Fri", "time": "3:00pm"}, {"days": "Sat", "time": "10:00am"}, {"days": "Sun", "time": "Closed"}], "id": "9132000035", "name": "USPS COLLECTION BOX - BLUE BOX", "address": {"city": "NEWBURY PARK", "state": "CA", "street": "1323 NEWBURY RD", "postcode": "91320"}}},
{"geometry": {"type": "Point", "coordinates": [-118.9557790437, 34.1693583009]}, "type": "Feature", "properties": {"collection_times": [{"days": "Mon-Fri", "time": "3:00pm"}, {"days": "Sat", "time": "10:00am"}, {"days": "Sun", "time": "Closed"}], "id": "9132000040", "name": "USPS COLLECTION BOX - BLUE BOX", "address": {"city": "NEWBURY PARK", "state": "CA", "street": "541 S REINO RD", "postcode": "91320"}}},
{"geometry": {"type": "Point", "coordinates": [-118.9353892232, 34.1813711557]}, "type": "Feature", "properties": {"collection_times": [{"days": "Mon-Fri", "time": "3:00pm"}, {"days": "Sat", "time": "10:00am"}, {"days": "Sun", "time": "Closed"}], "id": "9132000041", "name": "USPS COLLECTION BOX - BLUE BOX", "address": {"city": "NEWBURY PARK", "state": "CA", "street": "OLD CONEJO RD", "postcode": "91320"}}},
{"geometry": {"type": "Point", "coordinates": [-118.9484056605, 34.1912832624]}, "type": "Feature", "properties": {"collection_times": [{"days": "Mon-Fri", "time": "3:00pm"}, {"days": "Sat", "time": "10:00am"}, {"days": "Sun", "time": "Closed"}], "id": "9132000043", "name": "USPS COLLECTION BOX - BLUE BOX", "address": {"city": "NEWBURY PARK", "state": "CA", "street": "3425 OLD CONEJO RD", "postcode": "91320"}}},
{"geometry": {"type": "Point", "coordinates": [-118.9299625405, 34.1891105654]}, "type": "Feature", "properties": {"collection_times": [{"days": "Mon-Fri", "time": "3:00pm"}, {"days": "Sat", "time": "10:00am"}, {"days": "Sun", "time": "Closed"}], "id": "9132000045", "name": "USPS COLLECTION BOX - BLUE BOX", "address": {"city": "NEWBURY PARK", "state": "CA", "street": "851 LAWRENCE DR", "postcode": "91320"}}},
{"geometry": {"type": "Point", "coordinates": [-119.2702268805, 36.3741071704]}, "type": "Feature", "properties": {"collection_times": [{"days": "Mon-Fri", "time": "5:30pm"}, {"days": "Sat", "time": "3:00pm"}, {"days": "Sun", "time": "Closed"}], "id": "9132000046", "name": "USPS COLLECTION BOX - PO LOBBY", "address": {"city": "NEWBURY PARK", "state": "CA", "street": "3401 GRANDE VISTA DR", "postcode": "91320"}}},
{"geometry": {"type": "Point", "coordinates": [-118.9134210323, 34.1838342609]}, "type": "Feature", "properties": {"collection_times": [{"days": "Mon-Fri", "time": "3:00pm"}, {"days": "Sat", "time": "10:00am"}, {"days": "Sun", "time": "Closed"}], "id": "9132000047", "name": "USPS COLLECTION BOX - BLUE BOX", "address": {"city": "NEWBURY PARK", "state": "CA", "street": "1602 NEWBURY RD", "postcode": "91320"}}},
{"geometry": {"type": "Point", "coordinates": [-118.9353892232, 34.1813711557]}, "type": "Feature", "properties": {"collection_times": [{"days": "Mon-Sat", "time": "3:00pm"}, {"days": "Sun", "time": "Closed"}], "id": "9132000048", "name": "USPS COLLECTION BOX - BLUE BOX", "address": {"city": "NEWBURY PARK", "state": "CA", "street": "3401 GRANDE VISTA DR", "postcode": "91320"}}},
{"geometry": {"type": "Point", "coordinates": [-118.9134210323, 34.1838342609]}, "type": "Feature", "properties": {"collection_times": [{"days": "Mon-Fri", "time": "3:00pm"}, {"days": "Sat", "time": "10:00am"}, {"days": "Sun", "time": "Closed"}], "id": "9132000049", "name": "USPS COLLECTION BOX - BLUE BOX", "address": {"city": "NEWBURY PARK", "state": "CA", "street": "1602 NEWBURY RD", "postcode": "91320"}}},
{"geometry": {"type": "Point", "coordinates": [-118.977115875, 34.1722309849]}, "type": "Feature", "properties": {"collection_times": [{"days": "Mon-Sat", "time": "1:00pm"}, {"days": "Sun", "time": "Closed"}], "id": "9132000050", "name": "USPS COLLECTION BOX - BLUE BOX", "address": {"city": "NEWBURY PARK", "state": "CA", "street": "330 VIA LAS BRISAS", "postcode": "91320"}}},
{"geometry": {"type": "Point", "coordinates": [-118.5533470504, 34.3789987398]}, "type": "Feature", "properties": {"collection_times": [{"days": "Mon-Sat", "time": "3:00pm"}, {"days": "Sun", "time": "Closed"}], "id": "9132100003", "name": "USPS COLLECTION BOX - BLUE BOX", "address": {"city": "NEWHALL", "state": "CA", "street": "23928 LYONS AVE", "postcode": "91321"}}},
{"geometry": {"type": "Point", "coordinates": [-118.5394342701, 34.3797948712]}, "type": "Feature", "properties": {"collection_times": [{"days": "Mon-Sat", "time": "3:00pm"}, {"days": "Sun", "time": "Closed"}], "id": "9132100004", "name": "USPS COLLECTION BOX - BLUE BOX", "address": {"city": "NEWHALL", "state": "CA", "street": "23236 LYONS AVE", "postcode": "91321"}}},
{"geometry": {"type": "Point", "coordinates": [-118.4723816085, 34.4057255041]}, "type": "Feature", "properties": {"collection_times": [{"days": "Mon-Sat", "time": "10:00am"}, {"days": "Sun", "time": "Closed"}], "id": "9132100006", "name": "USPS COLLECTION BOX - BLUE BOX", "address": {"city": "NEWHALL", "state": "CA", "street": "19300 OAK CROSSING RD", "postcode": "91321"}}},
{"geometry": {"type": "Point", "coordinates": [-118.4683620954, 34.4011295361]}, "type": "Feature", "properties": {"collection_times": [{"days": "Mon-Sat", "time": "10:00am"}, {"days": "Sun", "time": "Closed"}], "id": "9132100007", "name": "USPS COLLECTION BOX - BLUE BOX", "address": {"city": "NEWHALL", "state": "CA", "street": "26500 WHISPERING LEAVES DR", "postcode": "91321"}}},
{"geometry": {"type": "Point", "coordinates": [-118.487901244, 34.3708459966]}, "type": "Feature", "properties": {"collection_times": [{"days": "Mon-Sat", "time": "10:00am"}, {"days": "Sun", "time": "Closed"}], "id": "9132100008", "name": "USPS COLLECTION BOX - BLUE BOX", "address": {"city": "NEWHALL", "state": "CA", "street": "19345 AVENUE OF OAKS", "postcode": "91321"}}},
{"geometry": {"type": "Point", "coordinates": [-118.487901244, 34.3708459966]}, "type": "Feature", "properties": {"collection_times": [{"days": "Mon-Sat", "time": "10:00am"}, {"days": "Sun", "time": "Closed"}], "id": "9132100009", "name": "USPS COLLECTION BOX - BLUE BOX", "address": {"city": "NEWHALL", "state": "CA", "street": "19139 AVENUE OF OAKS", "postcode": "91321"}}},
{"geometry": {"type": "Point", "coordinates": [-118.5366172165, 34.3848535968]}, "type": "Feature", "properties": {"collection_times": [{"days": "Mon-Sat", "time": "10:00am"}, {"days": "Sun", "time": "Closed"}], "id": "9132100011", "name": "USPS COLLECTION BOX - BLUE BOX", "address": {"city": "NEWHALL", "state": "CA", "street": "24500 MAIN ST", "postcode": "91321"}}},
{"geometry": {"type": "Point", "coordinates": [-118.5274028967, 34.3782649466]}, "type": "Feature", "properties": {"collection_times": [{"days": "Mon-Sat", "time": "3:00pm"}, {"days": "Sun", "time": "Closed"}], "id": "9132100013", "name": "USPS COLLECTION BOX - BLUE BOX", "address": {"city": "NEWHALL", "state": "CA", "street": "24274 MAIN ST", "postcode": "91321"}}},
{"geometry": {"type": "Point", "coordinates": [-118.487901244, 34.3708459966]}, "type": "Feature", "properties": {"collection_times": [{"days": "Mon-Sat", "time": "10:00am"}, {"days": "Sun", "time": "Closed"}], "id": "9132100025", "name": "USPS COLLECTION BOX - BLUE BOX", "address": {"city": "NEWHALL", "state": "CA", "street": "19000 SANDPIPER PL", "postcode": "91321"}}},
{"geometry": {"type": "Point", "coordinates": [-118.5817404084, 34.3842583179]}, "type": "Feature", "properties": {"collection_times": [{"days": "Mon-Sat", "time": "10:00am"}, {"days": "Sun", "time": "Closed"}], "id": "9132100026", "name": "USPS COLLECTION BOX - BLUE BOX", "address": {"city": "NEWHALL", "state": "CA", "street": "25600 STEVENSON RANCH PKWY", "postcode": "91321"}}},
{"geometry": {"type": "Point", "coordinates": [-118.5289155322, 34.3796262931]}, "type": "Feature", "properties": {"collection_times": [{"days": "Mon-Sat", "time": "3:00pm"}, {"days": "Sun", "time": "Closed"}], "id": "9132100031", "name": "USPS COLLECTION BOX - BLUE BOX", "address": {"city": "NEWHALL", "state": "CA", "street": "22621 8TH ST", "postcode": "91321"}}},
{"geometry": {"type": "Point", "coordinates": [-118.487901244, 34.3708459966]}, "type": "Feature", "properties": {"collection_times": [{"days": "Mon-Sat", "time": "10:00am"}, {"days": "Sun", "time": "Closed"}], "id": "9132100043", "name": "USPS COLLECTION BOX - BLUE BOX", "address": {"city": "NEWHALL", "state": "CA", "street": "24965 PICO CANYON RD", "postcode": "91321"}}},
{"geometry": {"type": "Point", "coordinates": [-118.5250382657, 34.3421390249]}, "type": "Feature", "properties": {"collection_times": [{"days": "Mon-Sat", "time": "5:00pm"}, {"days": "Sun", "time": "Closed"}], "id": "9132100044", "name": "USPS COLLECTION BOX - APC", "address": {"city": "NEWHALL", "state": "CA", "street": "25548 THE OLD RD", "postcode": "91321"}}},
{"geometry": {"type": "Point", "coordinates": [-118.487901244, 34.3708459966]}, "type": "Feature", "properties": {"collection_times": [{"days": "Mon-Sat", "time": "10:00am"}, {"days": "Sun", "time": "Closed"}], "id": "9132100046", "name": "USPS COLLECTION BOX - BLUE BOX", "address": {"city": "NEWHALL", "state": "CA", "street": "25255 PICO CANYON RD", "postcode": "91321"}}},
{"geometry": {"type": "Point", "coordinates": [-118.5361006917, 34.2567482115]}, "type": "Feature", "properties": {"collection_times": [{"days": "Mon-Fri", "time": "3:00pm"}, {"days": "Sat", "time": "10:00am"}, {"days": "Sun", "time": "Closed"}], "id": "9132400002", "name": "USPS COLLECTION BOX - BLUE BOX", "address": {"city": "NORTHRIDGE", "state": "CA", "street": "10240 RESEDA BLVD", "postcode": "91324"}}},
{"geometry": {"type": "Point", "coordinates": [-118.5360959599, 34.2431311708]}, "type": "Feature", "properties": {"collection_times": [{"days": "Mon-Fri", "time": "3:00pm"}, {"days": "Sat", "time": "10:00am"}, {"days": "Sun", "time": "Closed"}], "id": "9132400003", "name": "USPS COLLECTION BOX - BLUE BOX", "address": {"city": "NORTHRIDGE", "state": "CA", "street": "9535 RESEDA BLVD", "postcode": "91324"}}},
{"geometry": {"type": "Point", "coordinates": [-118.5360817644, 34.2269802321]}, "type": "Feature", "properties": {"collection_times": [{"days": "Mon-Fri", "time": "3:00pm"}, {"days": "Sat", "time": "10:00am"}, {"days": "Sun", "time": "Closed"}], "id": "9132400010", "name": "USPS COLLECTION BOX - BLUE BOX", "address": {"city": "NORTHRIDGE", "state": "CA", "street": "8619 RESEDA BLVD", "postcode": "91324"}}},
{"geometry": {"type": "Point", "coordinates": [-118.5563505833, 34.2314092305]}, "type": "Feature", "properties": {"collection_times": [{"days": "Mon-Fri", "time": "3:00pm"}, {"days": "Sat", "time": "10:00am"}, {"days": "Sun", "time": "Closed"}], "id": "9132400013", "name": "USPS COLLECTION BOX - BLUE BOX", "address": {"city": "NORTHRIDGE", "state": "CA", "street": "19401 BUSINESS CENTER DR", "postcode": "91324"}}},
{"geometry": {"type": "Point", "coordinates": [-118.5360171448, 34.2237850136]}, "type": "Feature", "properties": {"collection_times": [{"days": "Mon-Sat", "time": "10:00am"}, {"days": "Sun", "time": "Closed"}], "id": "9132400020", "name": "USPS COLLECTION BOX - BLUE BOX", "address": {"city": "NORTHRIDGE", "state": "CA", "street": "8458 RESEDA BLVD", "postcode": "91324"}}},
{"geometry": {"type": "Point", "coordinates": [-118.5359446115, 34.2312601569]}, "type": "Feature", "properties": {"collection_times": [{"days": "Mon-Fri", "time": "3:00pm"}, {"days": "Sat", "time": "10:00am"}, {"days": "Sun", "time": "Closed"}], "id": "9132400022", "name": "USPS COLLECTION BOX - BLUE BOX", "address": {"city": "NORTHRIDGE", "state": "CA", "street": "8832 RESEDA BLVD", "postcode": "91324"}}},
{"geometry": {"type": "Point", "coordinates": [-118.5532394012, 34.2463772102]}, "type": "Feature", "properties": {"collection_times": [{"days": "Mon-Sat", "time": "10:00am"}, {"days": "Sun", "time": "Closed"}], "id": "9132400030", "name": "USPS COLLECTION BOX - BLUE BOX", "address": {"city": "NORTHRIDGE", "state": "CA", "street": "19253 SUPERIOR ST", "postcode": "91324"}}},
{"geometry": {"type": "Point", "coordinates": [-118.5404409681, 34.2215575482]}, "type": "Feature", "properties": {"collection_times": [{"days": "Mon-Sat", "time": "10:00am"}, {"days": "Sun", "time": "Closed"}], "id": "9132400038", "name": "USPS COLLECTION BOX - BLUE BOX", "address": {"city": "NORTHRIDGE", "state": "CA", "street": "8324 YOLANDA AVE", "postcode": "91324"}}},
{"geometry": {"type": "Point", "coordinates": [-118.5535015273, 34.2325409187]}, "type": "Feature", "properties": {"collection_times": [{"days": "Mon-Sat", "time": "10:00am"}, {"days": "Sun", "time": "Closed"}], "id": "9132400040", "name": "USPS COLLECTION BOX - BLUE BOX", "address": {"city": "NORTHRIDGE", "state": "CA", "street": "8992 TAMPA AVE", "postcode": "91324"}}},
{"geometry": {"type": "Point", "coordinates": [-118.54578996, 34.2355229593]}, "type": "Feature", "properties": {"collection_times": [{"days": "Mon-Fri", "time": "5:30pm"}, {"days": "Sat", "time": "5:00pm"}, {"days": "Sun", "time": "Closed"}], "id": "9132400050", "name": "USPS COLLECTION BOX - EXPRESS", "address": {"city": "NORTHRIDGE", "state": "CA", "street": "9534 RESEDA BLVD", "postcode": "91324"}}},
{"geometry": {"type": "Point", "coordinates": [-118.5369602734, 34.2207854746]}, "type": "Feature", "properties": {"collection_times": [{"days": "Mon-Sat", "time": "10:00am"}, {"days": "Sun", "time": "Closed"}], "id": "9132400051", "name": "USPS COLLECTION BOX - BLUE BOX", "address": {"city": "NORTHRIDGE", "state": "CA", "street": "18519 ROSCOE BLVD", "postcode": "91324"}}},
{"geometry": {"type": "Point", "coordinates": [-118.5360888621, 34.2332723908]}, "type": "Feature", "properties": {"collection_times": [{"days": "Mon-Fri", "time": "3:00pm"}, {"days": "Sat", "time": "10:00am"}, {"days": "Sun", "time": "Closed"}], "id": "9132400055", "name": "USPS COLLECTION BOX - BLUE BOX", "address": {"city": "NORTHRIDGE", "state": "CA", "street": "8949 RESEDA BLVD", "postcode": "91324"}}},
{"geometry": {"type": "Point", "coordinates": [-118.5361586796, 34.2363753469]}, "type": "Feature", "properties": {"collection_times": [{"days": "Mon-Fri", "time": "3:00pm"}, {"days": "Sat", "time": "10:00am"}, {"days": "Sun", "time": "Closed"}], "id": "9132400062", "name": "USPS COLLECTION BOX - BLUE BOX", "address": {"city": "NORTHRIDGE", "state": "CA", "street": "9149 RESEDA BLVD", "postcode": "91324"}}},
{"geometry": {"type": "Point", "coordinates": [-118.5360935939, 34.2401808712]}, "type": "Feature", "properties": {"collection_times": [{"days": "Mon-Fri", "time": "3:00pm"}, {"days": "Sat", "time": "10:00am"}, {"days": "Sun", "time": "Closed"}], "id": "9132400063", "name": "USPS COLLECTION BOX - BLUE BOX", "address": {"city": "NORTHRIDGE", "state": "CA", "street": "9338 RESEDA BLVD", "postcode": "91324"}}},
{"geometry": {"type": "Point", "coordinates": [-118.561864355, 34.2282318027]}, "type": "Feature", "properties": {"collection_times": [{"days": "Mon-Fri", "time": "3:00pm"}, {"days": "Sat", "time": "10:00am"}, {"days": "Sun", "time": "Closed"}], "id": "9132400066", "name": "USPS COLLECTION BOX - BLUE BOX", "address": {"city": "NORTHRIDGE", "state": "CA", "street": "19655 PARTHENIA ST", "postcode": "91324"}}},
{"geometry": {"type": "Point", "coordinates": [-118.536091228, 34.2466067043]}, "type": "Feature", "properties": {"collection_times": [{"days": "Mon-Fri", "time": "3:00pm"}, {"days": "Sat", "time": "10:00am"}, {"days": "Sun", "time": "Closed"}], "id": "9132400068", "name": "USPS COLLECTION BOX - BLUE BOX", "address": {"city": "NORTHRIDGE", "state": "CA", "street": "9700 RESEDA BLVD", "postcode": "91324"}}},
{"geometry": {"type": "Point", "coordinates": [-118.5494728598, 34.2282459982]}, "type": "Feature", "properties": {"collection_times": [{"days": "Mon-Sat", "time": "10:00am"}, {"days": "Sun", "time": "Closed"}], "id": "9132400072", "name": "USPS COLLECTION BOX - BLUE BOX", "address": {"city": "NORTHRIDGE", "state": "CA", "street": "19100 PARTHENIA ST", "postcode": "91324"}}},
{"geometry": {"type": "Point", "coordinates": [-118.5580161746, 34.2415348914]}, "type": "Feature", "properties": {"collection_times": [{"days": "Mon-Fri", "time": "3:00pm"}, {"days": "Sat", "time": "10:00am"}, {"days": "Sun", "time": "Closed"}], "id": "9132400075", "name": "USPS COLLECTION BOX - BLUE BOX", "address": {"city": "NORTHRIDGE", "state": "CA", "street": "9435 SHIRLEY AVE", "postcode": "91324"}}},
{"geometry": {"type": "Point", "coordinates": [-118.536092411, 34.2437498584]}, "type": "Feature", "properties": {"collection_times": [{"days": "Mon-Fri", "time": "5:30pm"}, {"days": "Sat", "time": "5:00pm"}, {"days": "Sun", "time": "Closed"}], "id": "9132400076", "name": "USPS COLLECTION BOX - PO LOBBY", "address": {"city": "NORTHRIDGE", "state": "CA", "street": "9534 RESEDA BLVD", "postcode": "91324"}}},
{"geometry": {"type": "Point", "coordinates": [-118.536092411, 34.2437498584]}, "type": "Feature", "properties": {"collection_times": [{"days": "Mon-Fri", "time": "5:30pm"}, {"days": "Sat", "time": "5:00pm"}, {"days": "Sun", "time": "Closed"}], "id": "9132400077", "name": "USPS COLLECTION BOX - APC", "address": {"city": "NORTHRIDGE", "state": "CA", "street": "9534 RESEDA BLVD", "postcode": "91324"}}},
{"geometry": {"type": "Point", "coordinates": [-118.536092411, 34.2437498584]}, "type": "Feature", "properties": {"collection_times": [{"days": "Mon-Fri", "time": "5:30pm"}, {"days": "Sat", "time": "5:00pm"}, {"days": "Sun", "time": "Closed"}], "id": "9132400080", "name": "USPS COLLECTION BOX - BLUE BOX", "address": {"city": "NORTHRIDGE", "state": "CA", "street": "9534 RESEDA BLVD", "postcode": "91324"}}},
{"geometry": {"type": "Point", "coordinates": [-118.536092411, 34.2437498584]}, "type": "Feature", "properties": {"collection_times": [{"days": "Mon-Fri", "time": "5:30pm"}, {"days": "Sat", "time": "5:00pm"}, {"days": "Sun", "time": "Closed"}], "id": "9132400082", "name": "USPS COLLECTION BOX - BLUE BOX", "address": {"city": "NORTHRIDGE", "state": "CA", "street": "9534 RESEDA BLVD", "postcode": "91324"}}},
{"geometry": {"type": "Point", "coordinates": [-118.536092411, 34.2437498584]}, "type": "Feature", "properties": {"collection_times": [{"days": "Mon-Fri", "time": "5:30pm"}, {"days": "Sat", "time": "5:00pm"}, {"days": "Sun", "time": "Closed"}], "id": "9132400083", "name": "USPS COLLECTION BOX - BLUE BOX", "address": {"city": "NORTHRIDGE", "state": "CA", "street": "9534 RESEDA BLVD", "postcode": "91324"}}},
{"geometry": {"type": "Point", "coordinates": [-118.536092411, 34.2437498584]}, "type": "Feature", "properties": {"collection_times": [{"days": "Mon-Fri", "time": "5:30pm"}, {"days": "Sat", "time": "5:00pm"}, {"days": "Sun", "time": "Closed"}], "id": "9132400084", "name": "USPS COLLECTION BOX - BLUE BOX", "address": {"city": "NORTHRIDGE", "state": "CA", "street": "9534 RESEDA BLVD", "postcode": "91324"}}},
{"geometry": {"type": "Point", "coordinates": [-118.5026312337, 34.2256908068]}, "type": "Feature", "properties": {"collection_times": [{"days": "Mon-Fri", "time": "3:00pm"}, {"days": "Sat", "time": "10:00am"}, {"days": "Sun", "time": "Closed"}], "id": "9132500003", "name": "USPS COLLECTION BOX - BLUE BOX", "address": {"city": "NORTHRIDGE", "state": "CA", "street": "8550 BALBOA BLVD", "postcode": "91325"}}},
{"geometry": {"type": "Point", "coordinates": [-118.5317059991, 34.2262976648]}, "type": "Feature", "properties": {"collection_times": [{"days": "Mon-Sat", "time": "10:00am"}, {"days": "Sun", "time": "Closed"}], "id": "9132500018", "name": "USPS COLLECTION BOX - BLUE BOX", "address": {"city": "NORTHRIDGE", "state": "CA", "street": "8558 ETIWANDA AVE", "postcode": "91325"}}},
{"geometry": {"type": "Point", "coordinates": [-118.5041662556, 34.2574741956]}, "type": "Feature", "properties": {"collection_times": [{"days": "Mon-Fri", "time": "3:00pm"}, {"days": "Sat", "time": "10:00am"}, {"days": "Sun", "time": "Closed"}], "id": "9132500023", "name": "USPS COLLECTION BOX - BLUE BOX", "address": {"city": "NORTHRIDGE", "state": "CA", "street": "17056 DEVONSHIRE ST", "postcode": "91325"}}},
{"geometry": {"type": "Point", "coordinates": [-118.5026631736, 34.2215480845]}, "type": "Feature", "properties": {"collection_times": [{"days": "Mon-Fri", "time": "3:00pm"}, {"days": "Sat", "time": "10:00am"}, {"days": "Sun", "time": "Closed"}], "id": "9132500024", "name": "USPS COLLECTION BOX - BLUE BOX", "address": {"city": "NORTHRIDGE", "state": "CA", "street": "8305 BALBOA BLVD", "postcode": "91325"}}},
{"geometry": {"type": "Point", "coordinates": [-118.5274274568, 34.2543142102]}, "type": "Feature", "properties": {"collection_times": [{"days": "Mon-Sat", "time": "10:00am"}, {"days": "Sun", "time": "Closed"}], "id": "9132500025", "name": "USPS COLLECTION BOX - BLUE BOX", "address": {"city": "NORTHRIDGE", "state": "CA", "street": "10101 LINDLEY AVE", "postcode": "91325"}}},
{"geometry": {"type": "Point", "coordinates": [-118.5113023229, 34.2392297722]}, "type": "Feature", "properties": {"collection_times": [{"days": "Mon-Sat", "time": "10:00am"}, {"days": "Sun", "time": "Closed"}], "id": "9132500031", "name": "USPS COLLECTION BOX - BLUE BOX", "address": {"city": "NORTHRIDGE", "state": "CA", "street": "9259 LOUISE AVE", "postcode": "91325"}}},
{"geometry": {"type": "Point", "coordinates": [-118.5186106434, 34.215827295]}, "type": "Feature", "properties": {"collection_times": [{"days": "Mon-Sat", "time": "10:00am"}, {"days": "Sun", "time": "Closed"}], "id": "9132500034", "name": "USPS COLLECTION BOX - BLUE BOX", "address": {"city": "NORTHRIDGE", "state": "CA", "street": "8002 WHITE OAK AVE", "postcode": "91325"}}},
{"geometry": {"type": "Point", "coordinates": [-118.5026312337, 34.2256908068]}, "type": "Feature", "properties": {"collection_times": [{"days": "Mon-Fri", "time": "3:00pm"}, {"days": "Sat", "time": "10:00am"}, {"days": "Sun", "time": "Closed"}], "id": "9132500042", "name": "USPS COLLECTION BOX - BLUE BOX", "address": {"city": "NORTHRIDGE", "state": "CA", "street": "8550 BALBOA BLVD", "postcode": "91325"}}},
{"geometry": {"type": "Point", "coordinates": [-118.5341192354, 34.2207756123]}, "type": "Feature", "properties": {"collection_times": [{"days": "Mon-Fri", "time": "3:00pm"}, {"days": "Sat", "time": "10:00am"}, {"days": "Sun", "time": "Closed"}], "id": "9132500043", "name": "USPS COLLECTION BOX - BLUE BOX", "address": {"city": "NORTHRIDGE", "state": "CA", "street": "18350 ROSCOE BLVD", "postcode": "91325"}}},
{"geometry": {"type": "Point", "coordinates": [-118.5447741129, 34.2615603947]}, "type": "Feature", "properties": {"collection_times": [{"days": "Mon-Fri", "time": "3:00pm"}, {"days": "Sat", "time": "10:00am"}, {"days": "Sun", "time": "Closed"}], "id": "9132600003", "name": "USPS COLLECTION BOX - BLUE BOX", "address": {"city": "PORTER RANCH", "state": "CA", "street": "10500 WILBUR AVE", "postcode": "91326"}}},
{"geometry": {"type": "Point", "coordinates": [-118.5546695986, 34.2749468522]}, "type": "Feature", "properties": {"collection_times": [{"days": "Mon-Fri", "time": "5:00pm"}, {"days": "Sat", "time": "3:00pm"}, {"days": "Sun", "time": "Closed"}], "id": "9132600004", "name": "USPS COLLECTION BOX - BLUE BOX", "address": {"city": "PORTER RANCH", "state": "CA", "street": "19300 RINALDI ST", "postcode": "91326"}}},
{"geometry": {"type": "Point", "coordinates": [-118.535153913, 34.2763448267]}, "type": "Feature", "properties": {"collection_times": [{"days": "Mon-Fri", "time": "3:00pm"}, {"days": "Sat", "time": "10:00am"}, {"days": "Sun", "time": "Closed"}], "id": "9132600005", "name": "USPS COLLECTION BOX - BLUE BOX", "address": {"city": "PORTER RANCH", "state": "CA", "street": "18501 RINALDI ST", "postcode": "91326"}}},
{"geometry": {"type": "Point", "coordinates": [-118.5570125763, 34.2746157174]}, "type": "Feature", "properties": {"collection_times": [{"days": "Mon-Sat", "time": "10:00am"}, {"days": "Sun", "time": "Closed"}], "id": "9132600019", "name": "USPS COLLECTION BOX - BLUE BOX", "address": {"city": "PORTER RANCH", "state": "CA", "street": "19410 RINALDI ST", "postcode": "91326"}}},
{"geometry": {"type": "Point", "coordinates": [-118.5601265883, 34.2640920207]}, "type": "Feature", "properties": {"collection_times": [{"days": "Mon-Fri", "time": "3:00pm"}, {"days": "Sat", "time": "10:00am"}, {"days": "Sun", "time": "Closed"}], "id": "9132600020", "name": "USPS COLLECTION BOX - BLUE BOX", "address": {"city": "PORTER RANCH", "state": "CA", "street": "10660 MELVIN AVE", "postcode": "91326"}}},
{"geometry": {"type": "Point", "coordinates": [-118.5546695986, 34.2749468522]}, "type": "Feature", "properties": {"collection_times": [{"days": "Mon-Fri", "time": "5:00pm"}, {"days": "Sat", "time": "3:00pm"}, {"days": "Sun", "time": "Closed"}], "id": "9132600021", "name": "USPS COLLECTION BOX - PO LOBBY", "address": {"city": "PORTER RANCH", "state": "CA", "street": "19300 RINALDI ST", "postcode": "91326"}}},
{"geometry": {"type": "Point", "coordinates": [-118.5546695986, 34.2749468522]}, "type": "Feature", "properties": {"collection_times": [{"days": "Mon-Fri", "time": "5:00pm"}, {"days": "Sat", "time": "3:00pm"}, {"days": "Sun", "time": "Closed"}], "id": "9132600022", "name": "USPS COLLECTION BOX - BLUE BOX", "address": {"city": "PORTER RANCH", "state": "CA", "street": "19300 RINALDI ST", "postcode": "91326"}}},
{"geometry": {"type": "Point", "coordinates": [-118.5546695986, 34.2749468522]}, "type": "Feature", "properties": {"collection_times": [{"days": "Mon-Fri", "time": "5:00pm"}, {"days": "Sat", "time": "3:00pm"}, {"days": "Sun", "time": "Closed"}], "id": "9132600023", "name": "USPS COLLECTION BOX - APC", "address": {"city": "PORTER RANCH", "state": "CA", "street": "19300 RINALDI ST", "postcode": "91326"}}},
{"geometry": {"type": "Point", "coordinates": [-118.4490959137, 34.2486002905]}, "type": "Feature", "properties": {"collection_times": [{"days": "Mon-Sat", "time": "3:00pm"}, {"days": "Sun", "time": "Closed"}], "id": "9133100003", "name": "USPS COLLECTION BOX - BLUE BOX", "address": {"city": "ARLETA", "state": "CA", "street": "9800 WOODMAN AVE", "postcode": "91331"}}},
{"geometry": {"type": "Point", "coordinates": [-118.4383409628, 34.2542356066]}, "type": "Feature", "properties": {"collection_times": [{"days": "Mon-Sat", "time": "3:00pm"}, {"days": "Sun", "time": "Closed"}], "id": "9133100047", "name": "USPS COLLECTION BOX - BLUE BOX", "address": {"city": "ARLETA", "state": "CA", "street": "14015 VAN NUYS BLVD", "postcode": "91331"}}},
{"geometry": {"type": "Point", "coordinates": [-118.4302909271, 34.2601172786]}, "type": "Feature", "properties": {"collection_times": [{"days": "Mon-Sat", "time": "3:00pm"}, {"days": "Sun", "time": "Closed"}], "id": "9133100056", "name": "USPS COLLECTION BOX - BLUE BOX", "address": {"city": "ARLETA", "state": "CA", "street": "13657 VAN NUYS BLVD", "postcode": "91331"}}},
{"geometry": {"type": "Point", "coordinates": [-118.4126241205, 34.2746660908]}, "type": "Feature", "properties": {"collection_times": [{"days": "Mon-Sat", "time": "3:00pm"}, {"days": "Sun", "time": "Closed"}], "id": "9133100057", "name": "USPS COLLECTION BOX - BLUE BOX", "address": {"city": "ARLETA", "state": "CA", "street": "11240 GLENOAKS BLVD", "postcode": "91331"}}},
{"geometry": {"type": "Point", "coordinates": [-118.4273855799, 34.2621555169]}, "type": "Feature", "properties": {"collection_times": [{"days": "Mon-Sat", "time": "5:00pm"}, {"days": "Sun", "time": "Closed"}], "id": "9133100064", "name": "USPS COLLECTION BOX - BLUE BOX", "address": {"city": "ARLETA", "state": "CA", "street": "13507 VAN NUYS BLVD", "postcode": "91331"}}},
{"geometry": {"type": "Point", "coordinates": [-118.4199270236, 34.2465605689]}, "type": "Feature", "properties": {"collection_times": [{"days": "Mon-Sat", "time": "3:00pm"}, {"days": "Sun", "time": "Closed"}], "id": "9133100068", "name": "USPS COLLECTION BOX - BLUE BOX", "address": {"city": "ARLETA", "state": "CA", "street": "13173 OSBORNE ST", "postcode": "91331"}}},
{"geometry": {"type": "Point", "coordinates": [-118.426243461, 34.2762968498]}, "type": "Feature", "properties": {"collection_times": [{"days": "Mon-Sat", "time": "3:00pm"}, {"days": "Sun", "time": "Closed"}], "id": "9133100071", "name": "USPS COLLECTION BOX - BLUE BOX", "address": {"city": "ARLETA", "state": "CA", "street": "13500 DESMOND ST", "postcode": "91331"}}},
{"geometry": {"type": "Point", "coordinates": [-118.4100329381, 34.2378669244]}, "type": "Feature", "properties": {"collection_times": [{"days": "Mon-Sat", "time": "3:00pm"}, {"days": "Sun", "time": "Closed"}], "id": "9133100072", "name": "USPS COLLECTION BOX - BLUE BOX", "address": {"city": "ARLETA", "state": "CA", "street": "12700 WENTWORTH ST", "postcode": "91331"}}},
{"geometry": {"type": "Point", "coordinates": [-118.4100329381, 34.2378669244]}, "type": "Feature", "properties": {"collection_times": [{"days": "Mon-Sat", "time": "3:00pm"}, {"days": "Sun", "time": "Closed"}], "id": "9133100073", "name": "USPS COLLECTION BOX - BLUE BOX", "address": {"city": "ARLETA", "state": "CA", "street": "12700 WENTWORTH ST", "postcode": "91331"}}},
{"geometry": {"type": "Point", "coordinates": [-118.4256371665, 34.2416477403]}, "type": "Feature", "properties": {"collection_times": [{"days": "Mon-Fri", "time": "5:00pm"}, {"days": "Sat", "time": "4:00pm"}, {"days": "Sun", "time": "Closed"}], "id": "9133100075", "name": "USPS COLLECTION BOX - BLUE BOX", "address": {"city": "ARLETA", "state": "CA", "street": "9454 ARLETA AVE", "postcode": "91331"}}},
{"geometry": {"type": "Point", "coordinates": [-118.4273855799, 34.2621555169]}, "type": "Feature", "properties": {"collection_times": [{"days": "Mon-Sat", "time": "5:00pm"}, {"days": "Sun", "time": "Closed"}], "id": "9133100076", "name": "USPS COLLECTION BOX - PO LOBBY", "address": {"city": "ARLETA", "state": "CA", "street": "13507 VAN NUYS BLVD", "postcode": "91331"}}},
{"geometry": {"type": "Point", "coordinates": [-118.5403282881, 34.2001937196]}, "type": "Feature", "properties": {"collection_times": [{"days": "Mon-Sat", "time": "10:00am"}, {"days": "Sun", "time": "Closed"}], "id": "9133500004", "name": "USPS COLLECTION BOX - BLUE BOX", "address": {"city": "RESEDA", "state": "CA", "street": "19500 VICTORY BLVD", "postcode": "91335"}}},
{"geometry": {"type": "Point", "coordinates": [-118.5403282881, 34.2001937196]}, "type": "Feature", "properties": {"collection_times": [{"days": "Mon-Sat", "time": "3:00pm"}, {"days": "Sun", "time": "Closed"}], "id": "9133500006", "name": "USPS COLLECTION BOX - BLUE BOX", "address": {"city": "RESEDA", "state": "CA", "street": "6914 CANBY AVE", "postcode": "91335"}}},
{"geometry": {"type": "Point", "coordinates": [-118.5403282881, 34.2001937196]}, "type": "Feature", "properties": {"collection_times": [{"days": "Mon-Sat", "time": "10:00am"}, {"days": "Sun", "time": "Closed"}], "id": "9133500011", "name": "USPS COLLECTION BOX - BLUE BOX", "address": {"city": "RESEDA", "state": "CA", "street": "18300 ERWIN ST", "postcode": "91335"}}},
{"geometry": {"type": "Point", "coordinates": [-118.5403282881, 34.2001937196]}, "type": "Feature", "properties": {"collection_times": [{"days": "Mon-Fri", "time": "2:45pm"}, {"days": "Sat", "time": "3:00pm"}, {"days": "Sun", "time": "Closed"}], "id": "9133500020", "name": "USPS COLLECTION BOX - BLUE BOX", "address": {"city": "RESEDA", "state": "CA", "street": "7000 RESEDA BLVD", "postcode": "91335"}}},
{"geometry": {"type": "Point", "coordinates": [-118.5403282881, 34.2001937196]}, "type": "Feature", "properties": {"collection_times": [{"days": "Mon-Sat", "time": "10:00am"}, {"days": "Sun", "time": "Closed"}], "id": "9133500022", "name": "USPS COLLECTION BOX - BLUE BOX", "address": {"city": "RESEDA", "state": "CA", "street": "17800 HART ST", "postcode": "91335"}}},
{"geometry": {"type": "Point", "coordinates": [-118.5403282881, 34.2001937196]}, "type": "Feature", "properties": {"collection_times": [{"days": "Mon-Sat", "time": "10:00am"}, {"days": "Sun", "time": "Closed"}], "id": "9133500025", "name": "USPS COLLECTION BOX - BLUE BOX", "address": {"city": "RESEDA", "state": "CA", "street": "19061 KITTRIDGE ST", "postcode": "91335"}}},
{"geometry": {"type": "Point", "coordinates": [-118.5403282881, 34.2001937196]}, "type": "Feature", "properties": {"collection_times": [{"days": "Mon-Sat", "time": "3:00pm"}, {"days": "Sun", "time": "Closed"}], "id": "9133500031", "name": "USPS COLLECTION BOX - BLUE BOX", "address": {"city": "RESEDA", "state": "CA", "street": "18464 SHERMAN WAY", "postcode": "91335"}}},
{"geometry": {"type": "Point", "coordinates": [-118.5403282881, 34.2001937196]}, "type": "Feature", "properties": {"collection_times": [{"days": "Mon-Sat", "time": "3:00pm"}, {"days": "Sun", "time": "Closed"}], "id": "9133500038", "name": "USPS COLLECTION BOX - BLUE BOX", "address": {"city": "RESEDA", "state": "CA", "street": "18040 SHERMAN WAY", "postcode": "91335"}}},
{"geometry": {"type": "Point", "coordinates": [-118.5403282881, 34.2001937196]}, "type": "Feature", "properties": {"collection_times": [{"days": "Mon-Sat", "time": "10:00am"}, {"days": "Sun", "time": "Closed"}], "id": "9133500045", "name": "USPS COLLECTION BOX - BLUE BOX", "address": {"city": "RESEDA", "state": "CA", "street": "7999 SHIRLEY AVE", "postcode": "91335"}}},
{"geometry": {"type": "Point", "coordinates": [-118.5403282881, 34.2001937196]}, "type": "Feature", "properties": {"collection_times": [{"days": "Mon-Fri", "time": "2:30pm"}, {"days": "Sat", "time": "3:00pm"}, {"days": "Sun", "time": "Closed"}], "id": "9133500048", "name": "USPS COLLECTION BOX - BLUE BOX", "address": {"city": "RESEDA", "state": "CA", "street": "19333 VICTORY BLVD", "postcode": "91335"}}},
{"geometry": {"type": "Point", "coordinates": [-118.5403282881, 34.2001937196]}, "type": "Feature", "properties": {"collection_times": [{"days": "Mon-Sat", "time": "10:00am"}, {"days": "Sun", "time": "Closed"}], "id": "9133500054", "name": "USPS COLLECTION BOX - BLUE BOX", "address": {"city": "RESEDA", "state": "CA", "street": "19036 VANOWEN ST", "postcode": "91335"}}},
{"geometry": {"type": "Point", "coordinates": [-118.5403282881, 34.2001937196]}, "type": "Feature", "properties": {"collection_times": [{"days": "Mon-Sat", "time": "5:00pm"}, {"days": "Sun", "time": "Closed"}], "id": "9133500062", "name": "USPS COLLECTION BOX - EXPRESS", "address": {"city": "RESEDA", "state": "CA", "street": "7320 RESEDA BLVD", "postcode": "91335"}}},
{"geometry": {"type": "Point", "coordinates": [-118.5403282881, 34.2001937196]}, "type": "Feature", "properties": {"collection_times": [{"days": "Mon-Sat", "time": "5:00pm"}, {"days": "Sun", "time": "Closed"}], "id": "9133500066", "name": "USPS COLLECTION BOX - PO LOBBY", "address": {"city": "RESEDA", "state": "CA", "street": "7320 RESEDA BLVD", "postcode": "91335"}}},
{"geometry": {"type": "Point", "coordinates": [-118.5403282881, 34.2001937196]}, "type": "Feature", "properties": {"collection_times": [{"days": "Mon-Sat", "time": "5:00pm"}, {"days": "Sun", "time": "Closed"}], "id": "9133500067", "name": "USPS COLLECTION BOX - BLUE BOX", "address": {"city": "RESEDA", "state": "CA", "street": "7320 RESEDA BLVD", "postcode": "91335"}}},
{"geometry": {"type": "Point", "coordinates": [-118.5403282881, 34.2001937196]}, "type": "Feature", "properties": {"collection_times": [{"days": "Mon-Sat", "time": "5:00pm"}, {"days": "Sun", "time": "Closed"}], "id": "9133500068", "name": "USPS COLLECTION BOX - BLUE BOX", "address": {"city": "RESEDA", "state": "CA", "street": "7320 RESEDA BLVD", "postcode": "91335"}}},
{"geometry": {"type": "Point", "coordinates": [-118.5403282881, 34.2001937196]}, "type": "Feature", "properties": {"collection_times": [{"days": "Mon-Sat", "time": "5:00pm"}, {"days": "Sun", "time": "Closed"}], "id": "9133500069", "name": "USPS COLLECTION BOX - BLUE BOX", "address": {"city": "RESEDA", "state": "CA", "street": "7320 RESEDA BLVD", "postcode": "91335"}}},
{"geometry": {"type": "Point", "coordinates": [-118.5403282881, 34.2001937196]}, "type": "Feature", "properties": {"collection_times": [{"days": "Mon-Sat", "time": "5:00pm"}, {"days": "Sun", "time": "Closed"}], "id": "9133500072", "name": "USPS COLLECTION BOX - APC", "address": {"city": "RESEDA", "state": "CA", "street": "7320 RESEDA BLVD", "postcode": "91335"}}},
{"geometry": {"type": "Point", "coordinates": [-118.5403282881, 34.2001937196]}, "type": "Feature", "properties": {"collection_times": [{"days": "Mon-Fri", "time": "2:30pm"}, {"days": "Sat", "time": "3:00pm"}, {"days": "Sun", "time": "Closed"}], "id": "9133500077", "name": "USPS COLLECTION BOX - BLUE BOX", "address": {"city": "RESEDA", "state": "CA", "street": "18618 SHERMAN WAY", "postcode": "91335"}}},
{"geometry": {"type": "Point", "coordinates": [-118.5521894125, 34.186597704]}, "type": "Feature", "properties": {"collection_times": [{"days": "Mon-Sat", "time": "10:00am"}, {"days": "Sun", "time": "Closed"}], "id": "9133500081", "name": "USPS COLLECTION BOX - BLUE BOX", "address": {"city": "RESEDA", "state": "CA", "street": "19231 VICTORY BLVD", "postcode": "91335"}}},
{"geometry": {"type": "Point", "coordinates": [-118.4427368383, 34.2822539897]}, "type": "Feature", "properties": {"collection_times": [{"days": "Mon-Fri", "time": "5:00pm"}, {"days": "Sat", "time": "2:00pm"}, {"days": "Sun", "time": "Closed"}], "id": "9134000001", "name": "USPS COLLECTION BOX - BLUE BOX", "address": {"city": "SAN FERNANDO", "state": "CA", "street": "308 S MACLAY AVE", "postcode": "91340"}}},
{"geometry": {"type": "Point", "coordinates": [-118.4442569406, 34.2784957291]}, "type": "Feature", "properties": {"collection_times": [{"days": "Mon-Fri", "time": "3:00pm"}, {"days": "Sat", "time": "10:00am"}, {"days": "Sun", "time": "Closed"}], "id": "9134000006", "name": "USPS COLLECTION BOX - BLUE BOX", "address": {"city": "SAN FERNANDO", "state": "CA", "street": "601 S BRAND BLVD", "postcode": "91340"}}},
{"geometry": {"type": "Point", "coordinates": [-118.4386781061, 34.2838947538]}, "type": "Feature", "properties": {"collection_times": [{"days": "Mon-Fri", "time": "3:00pm"}, {"days": "Sat", "time": "10:00am"}, {"days": "Sun", "time": "Closed"}], "id": "9134000012", "name": "USPS COLLECTION BOX - BLUE BOX", "address": {"city": "SAN FERNANDO", "state": "CA", "street": "117 N MACNEIL ST", "postcode": "91340"}}},
{"geometry": {"type": "Point", "coordinates": [-118.4350653495, 34.2852196679]}, "type": "Feature", "properties": {"collection_times": [{"days": "Mon-Sat", "time": "10:00am"}, {"days": "Sun", "time": "Closed"}], "id": "9134000014", "name": "USPS COLLECTION BOX - BLUE BOX", "address": {"city": "SAN FERNANDO", "state": "CA", "street": "400 S BRAND BLVD", "postcode": "91340"}}},
{"geometry": {"type": "Point", "coordinates": [-118.4427368383, 34.2822539897]}, "type": "Feature", "properties": {"collection_times": [{"days": "Mon-Fri", "time": "5:00pm"}, {"days": "Sat", "time": "2:00pm"}, {"days": "Sun", "time": "Closed"}], "id": "9134000048", "name": "USPS COLLECTION BOX - PO LOBBY", "address": {"city": "SAN FERNANDO", "state": "CA", "street": "308 S MACLAY AVE", "postcode": "91340"}}},
{"geometry": {"type": "Point", "coordinates": [-118.4314892645, 34.2813987104]}, "type": "Feature", "properties": {"collection_times": [{"days": "Mon-Fri", "time": "3:00pm"}, {"days": "Sat", "time": "10:00am"}, {"days": "Sun", "time": "Closed"}], "id": "9134000050", "name": "USPS COLLECTION BOX - BLUE BOX", "address": {"city": "SAN FERNANDO", "state": "CA", "street": "555 4TH ST", "postcode": "91340"}}},
{"geometry": {"type": "Point", "coordinates": [-118.3965269123, 34.2758482669]}, "type": "Feature", "properties": {"collection_times": [{"days": "Mon-Sat", "time": "10:00am"}, {"days": "Sun", "time": "Closed"}], "id": "9134200002", "name": "USPS COLLECTION BOX - BLUE BOX", "address": {"city": "SYLMAR", "state": "CA", "street": "11950 FOOTHILL BLVD", "postcode": "91342"}}},
{"geometry": {"type": "Point", "coordinates": [-118.4480454597, 34.3242422815]}, "type": "Feature", "properties": {"collection_times": [{"days": "Mon-Sat", "time": "10:00am"}, {"days": "Sun", "time": "Closed"}], "id": "9134200038", "name": "USPS COLLECTION BOX - BLUE BOX", "address": {"city": "SYLMAR", "state": "CA", "street": "14445 OLIVE VIEW DR", "postcode": "91342"}}},
{"geometry": {"type": "Point", "coordinates": [-118.4318329933, 34.3085729305]}, "type": "Feature", "properties": {"collection_times": [{"days": "Mon-Sat", "time": "5:00pm"}, {"days": "Sun", "time": "Closed"}], "id": "9134200039", "name": "USPS COLLECTION BOX - PO LOBBY", "address": {"city": "SYLMAR", "state": "CA", "street": "13700 FOOTHILL BLVD", "postcode": "91342"}}},
{"geometry": {"type": "Point", "coordinates": [-118.4318329933, 34.3085729305]}, "type": "Feature", "properties": {"collection_times": [{"days": "Mon-Sat", "time": "5:00pm"}, {"days": "Sun", "time": "Closed"}], "id": "9134200040", "name": "USPS COLLECTION BOX - PO LOBBY", "address": {"city": "SYLMAR", "state": "CA", "street": "13700 FOOTHILL BLVD", "postcode": "91342"}}},
{"geometry": {"type": "Point", "coordinates": [-118.4318329933, 34.3085729305]}, "type": "Feature", "properties": {"collection_times": [{"days": "Mon-Sat", "time": "5:00pm"}, {"days": "Sun", "time": "Closed"}], "id": "9134200043", "name": "USPS COLLECTION BOX - APC", "address": {"city": "SYLMAR", "state": "CA", "street": "13700 FOOTHILL BLVD", "postcode": "91342"}}},
{"geometry": {"type": "Point", "coordinates": [-118.4318329933, 34.3085729305]}, "type": "Feature", "properties": {"collection_times": [{"days": "Mon-Sat", "time": "5:00pm"}, {"days": "Sun", "time": "Closed"}], "id": "9134200045", "name": "USPS COLLECTION BOX - BLUE BOX", "address": {"city": "SYLMAR", "state": "CA", "street": "13700 FOOTHILL BLVD", "postcode": "91342"}}},
{"geometry": {"type": "Point", "coordinates": [-118.4319974546, 34.3087372463]}, "type": "Feature", "properties": {"collection_times": [{"days": "Mon-Sat", "time": "5:00pm"}, {"days": "Sun", "time": "Closed"}], "id": "9134200048", "name": "USPS COLLECTION BOX - BLUE BOX", "address": {"city": "SYLMAR", "state": "CA", "street": "13700 FOOTHILL BLVD", "postcode": "91342"}}},
{"geometry": {"type": "Point", "coordinates": [-118.4319974546, 34.3087372463]}, "type": "Feature", "properties": {"collection_times": [{"days": "Mon-Sat", "time": "5:00pm"}, {"days": "Sun", "time": "Closed"}], "id": "9134200049", "name": "USPS COLLECTION BOX - BLUE BOX", "address": {"city": "SYLMAR", "state": "CA", "street": "13700 FOOTHILL BLVD", "postcode": "91342"}}},
{"geometry": {"type": "Point", "coordinates": [-118.431997455, 34.308737246]}, "type": "Feature", "properties": {"collection_times": [{"days": "Mon-Sat", "time": "5:00pm"}, {"days": "Sun", "time": "Closed"}], "id": "9134200050", "name": "USPS COLLECTION BOX - BLUE BOX", "address": {"city": "SYLMAR", "state": "CA", "street": "13700 FOOTHILL BLVD", "postcode": "91342"}}},
{"geometry": {"type": "Point", "coordinates": [-118.5006521433, 34.2284873218]}, "type": "Feature", "properties": {"collection_times": [{"days": "Mon-Fri", "time": "3:00pm"}, {"days": "Sat", "time": "10:00am"}, {"days": "Sun", "time": "Closed"}], "id": "9134300007", "name": "USPS COLLECTION BOX - BLUE BOX", "address": {"city": "NORTHRIDGE", "state": "CA", "street": "16908 PARTHENIA ST", "postcode": "91343"}}},
{"geometry": {"type": "Point", "coordinates": [-118.5006166546, 34.2284873218]}, "type": "Feature", "properties": {"collection_times": [{"days": "Mon-Fri", "time": "3:00pm"}, {"days": "Sat", "time": "10:00am"}, {"days": "Sun", "time": "Closed"}], "id": "9134300008", "name": "USPS COLLECTION BOX - BLUE BOX", "address": {"city": "NORTHRIDGE", "state": "CA", "street": "16909 PARTHENIA ST", "postcode": "91343"}}},
{"geometry": {"type": "Point", "coordinates": [-118.4839262865, 34.2356418576]}, "type": "Feature", "properties": {"collection_times": [{"days": "Mon-Fri", "time": "3:00pm"}, {"days": "Sat", "time": "10:00am"}, {"days": "Sun", "time": "Closed"}], "id": "9134300010", "name": "USPS COLLECTION BOX - BLUE BOX", "address": {"city": "NORTHRIDGE", "state": "CA", "street": "16130 NORDHOFF ST", "postcode": "91343"}}},
{"geometry": {"type": "Point", "coordinates": [-118.4806730921, 34.2301934586]}, "type": "Feature", "properties": {"collection_times": [{"days": "Mon-Sat", "time": "10:00am"}, {"days": "Sun", "time": "Closed"}], "id": "9134300016", "name": "USPS COLLECTION BOX - BLUE BOX", "address": {"city": "NORTHRIDGE", "state": "CA", "street": "8757 GLORIA AVE", "postcode": "91343"}}},
{"geometry": {"type": "Point", "coordinates": [-118.4940843552, 34.2320693216]}, "type": "Feature", "properties": {"collection_times": [{"days": "Mon-Sat", "time": "10:00am"}, {"days": "Sun", "time": "Closed"}], "id": "9134300020", "name": "USPS COLLECTION BOX - BLUE BOX", "address": {"city": "NORTHRIDGE", "state": "CA", "street": "16601 RAYEN ST", "postcode": "91343"}}},
{"geometry": {"type": "Point", "coordinates": [-118.4807348044, 34.2384416205]}, "type": "Feature", "properties": {"collection_times": [{"days": "Mon-Sat", "time": "10:00am"}, {"days": "Sun", "time": "Closed"}], "id": "9134300022", "name": "USPS COLLECTION BOX - BLUE BOX", "address": {"city": "NORTHRIDGE", "state": "CA", "street": "9500 ODDESSA AVE", "postcode": "91343"}}},
{"geometry": {"type": "Point", "coordinates": [-118.4937685051, 34.2391860027]}, "type": "Feature", "properties": {"collection_times": [{"days": "Mon-Sat", "time": "10:00am"}, {"days": "Sun", "time": "Closed"}], "id": "9134300025", "name": "USPS COLLECTION BOX - BLUE BOX", "address": {"city": "NORTHRIDGE", "state": "CA", "street": "9258 HAYVENHURST AVE", "postcode": "91343"}}},
{"geometry": {"type": "Point", "coordinates": [-118.4980596203, 34.2393808887]}, "type": "Feature", "properties": {"collection_times": [{"days": "Mon-Sat", "time": "10:00am"}, {"days": "Sun", "time": "Closed"}], "id": "9134300026", "name": "USPS COLLECTION BOX - BLUE BOX", "address": {"city": "NORTHRIDGE", "state": "CA", "street": "9300 PETIT AVE", "postcode": "91343"}}},
{"geometry": {"type": "Point", "coordinates": [-118.4653899712, 34.2247560407]}, "type": "Feature", "properties": {"collection_times": [{"days": "Mon-Sat", "time": "10:00am"}, {"days": "Sun", "time": "Closed"}], "id": "9134300027", "name": "USPS COLLECTION BOX - BLUE BOX", "address": {"city": "NORTHRIDGE", "state": "CA", "street": "8500 COLUMBUS AVE", "postcode": "91343"}}},
{"geometry": {"type": "Point", "coordinates": [-118.4673761099, 34.2363052128]}, "type": "Feature", "properties": {"collection_times": [{"days": "Mon-Sat", "time": "10:00am"}, {"days": "Sun", "time": "Closed"}], "id": "9134300028", "name": "USPS COLLECTION BOX - BLUE BOX", "address": {"city": "NORTHRIDGE", "state": "CA", "street": "9154 SEPULVEDA BLVD", "postcode": "91343"}}},
{"geometry": {"type": "Point", "coordinates": [-118.5006166546, 34.2284873218]}, "type": "Feature", "properties": {"collection_times": [{"days": "Mon-Fri", "time": "3:00pm"}, {"days": "Sat", "time": "10:00am"}, {"days": "Sun", "time": "Closed"}], "id": "9134300039", "name": "USPS COLLECTION BOX - BLUE BOX", "address": {"city": "NORTHRIDGE", "state": "CA", "street": "16909 PARTHENIA ST", "postcode": "91343"}}},
{"geometry": {"type": "Point", "coordinates": [-118.52605898, 34.2646556016]}, "type": "Feature", "properties": {"collection_times": [{"days": "Mon-Sat", "time": "5:00pm"}, {"days": "Sun", "time": "Closed"}], "id": "9134400000", "name": "USPS COLLECTION BOX - BLUE BOX", "address": {"city": "GRANADA HILLS", "state": "CA", "street": "18039 CHATSWORTH ST", "postcode": "91344"}}},
{"geometry": {"type": "Point", "coordinates": [-118.4851193814, 34.2573544046]}, "type": "Feature", "properties": {"collection_times": [{"days": "Mon-Sat", "time": "3:00pm"}, {"days": "Sun", "time": "Closed"}], "id": "9134400004", "name": "USPS COLLECTION BOX - BLUE BOX", "address": {"city": "GRANADA HILLS", "state": "CA", "street": "16210 DEVONSHIRE ST", "postcode": "91344"}}},
{"geometry": {"type": "Point", "coordinates": [-118.4982649322, 34.2574887438]}, "type": "Feature", "properties": {"collection_times": [{"days": "Mon-Sat", "time": "3:00pm"}, {"days": "Sun", "time": "Closed"}], "id": "9134400005", "name": "USPS COLLECTION BOX - BLUE BOX", "address": {"city": "GRANADA HILLS", "state": "CA", "street": "16800 DEVONSHIRE ST", "postcode": "91344"}}},
{"geometry": {"type": "Point", "coordinates": [-118.4982649322, 34.2574887438]}, "type": "Feature", "properties": {"collection_times": [{"days": "Mon-Sat", "time": "3:00pm"}, {"days": "Sun", "time": "Closed"}], "id": "9134400006", "name": "USPS COLLECTION BOX - BLUE BOX", "address": {"city": "GRANADA HILLS", "state": "CA", "street": "16800 DEVONSHIRE ST", "postcode": "91344"}}},
{"geometry": {"type": "Point", "coordinates": [-118.5023388798, 34.2647349692]}, "type": "Feature", "properties": {"collection_times": [{"days": "Mon-Sat", "time": "3:00pm"}, {"days": "Sun", "time": "Closed"}], "id": "9134400007", "name": "USPS COLLECTION BOX - BLUE BOX", "address": {"city": "GRANADA HILLS", "state": "CA", "street": "10699 BALBOA BLVD", "postcode": "91344"}}},
{"geometry": {"type": "Point", "coordinates": [-118.5022627916, 34.257321406]}, "type": "Feature", "properties": {"collection_times": [{"days": "Mon-Sat", "time": "3:00pm"}, {"days": "Sun", "time": "Closed"}], "id": "9134400008", "name": "USPS COLLECTION BOX - BLUE BOX", "address": {"city": "GRANADA HILLS", "state": "CA", "street": "10290 BALBOA BLVD", "postcode": "91344"}}},
{"geometry": {"type": "Point", "coordinates": [-118.5234879865, 34.2657268605]}, "type": "Feature", "properties": {"collection_times": [{"days": "Mon-Sat", "time": "3:00pm"}, {"days": "Sun", "time": "Closed"}], "id": "9134400010", "name": "USPS COLLECTION BOX - BLUE BOX", "address": {"city": "GRANADA HILLS", "state": "CA", "street": "10751 ZELZAH AVE", "postcode": "91344"}}},
{"geometry": {"type": "Point", "coordinates": [-118.5197403692, 34.2659125946]}, "type": "Feature", "properties": {"collection_times": [{"days": "Mon-Sat", "time": "3:00pm"}, {"days": "Sun", "time": "Closed"}], "id": "9134400012", "name": "USPS COLLECTION BOX - BLUE BOX", "address": {"city": "GRANADA HILLS", "state": "CA", "street": "10734 WHITE OAK AVE", "postcode": "91344"}}},
{"geometry": {"type": "Point", "coordinates": [-118.5197403692, 34.2659125946]}, "type": "Feature", "properties": {"collection_times": [{"days": "Mon-Sat", "time": "3:00pm"}, {"days": "Sun", "time": "Closed"}], "id": "9134400013", "name": "USPS COLLECTION BOX - BLUE BOX", "address": {"city": "GRANADA HILLS", "state": "CA", "street": "10734 WHITE OAK AVE", "postcode": "91344"}}},
{"geometry": {"type": "Point", "coordinates": [-118.5042483386, 34.2647828688]}, "type": "Feature", "properties": {"collection_times": [{"days": "Mon-Sat", "time": "3:00pm"}, {"days": "Sun", "time": "Closed"}], "id": "9134400015", "name": "USPS COLLECTION BOX - BLUE BOX", "address": {"city": "GRANADA HILLS", "state": "CA", "street": "17057 CHATSWORTH ST", "postcode": "91344"}}},
{"geometry": {"type": "Point", "coordinates": [-118.5042483386, 34.2647828688]}, "type": "Feature", "properties": {"collection_times": [{"days": "Mon-Sat", "time": "3:00pm"}, {"days": "Sun", "time": "Closed"}], "id": "9134400016", "name": "USPS COLLECTION BOX - BLUE BOX", "address": {"city": "GRANADA HILLS", "state": "CA", "street": "17057 CHATSWORTH ST", "postcode": "91344"}}},
{"geometry": {"type": "Point", "coordinates": [-118.4740783012, 34.2790633276]}, "type": "Feature", "properties": {"collection_times": [{"days": "Mon-Sat", "time": "10:00am"}, {"days": "Sun", "time": "Closed"}], "id": "9134400028", "name": "USPS COLLECTION BOX - BLUE BOX", "address": {"city": "GRANADA HILLS", "state": "CA", "street": "15700 RINALDI ST", "postcode": "91344"}}},
{"geometry": {"type": "Point", "coordinates": [-118.4964326313, 34.293613184]}, "type": "Feature", "properties": {"collection_times": [{"days": "Mon-Sat", "time": "10:00am"}, {"days": "Sun", "time": "Closed"}], "id": "9134400029", "name": "USPS COLLECTION BOX - BLUE BOX", "address": {"city": "GRANADA HILLS", "state": "CA", "street": "16699 PINERIDGE DR", "postcode": "91344"}}},
{"geometry": {"type": "Point", "coordinates": [-118.5106056549, 34.2720282727]}, "type": "Feature", "properties": {"collection_times": [{"days": "Mon-Sat", "time": "10:00am"}, {"days": "Sun", "time": "Closed"}], "id": "9134400033", "name": "USPS COLLECTION BOX - BLUE BOX", "address": {"city": "GRANADA HILLS", "state": "CA", "street": "17290 SAN FERNANDO MISSION BLVD", "postcode": "91344"}}},
{"geometry": {"type": "Point", "coordinates": [-118.4853848749, 34.264662207]}, "type": "Feature", "properties": {"collection_times": [{"days": "Mon-Sat", "time": "10:00am"}, {"days": "Sun", "time": "Closed"}], "id": "9134400040", "name": "USPS COLLECTION BOX - BLUE BOX", "address": {"city": "GRANADA HILLS", "state": "CA", "street": "16200 CHATSWORTH ST", "postcode": "91344"}}},
{"geometry": {"type": "Point", "coordinates": [-118.5023769664, 34.260444939]}, "type": "Feature", "properties": {"collection_times": [{"days": "Mon-Sat", "time": "3:00pm"}, {"days": "Sun", "time": "Closed"}], "id": "9134400041", "name": "USPS COLLECTION BOX - BLUE BOX", "address": {"city": "GRANADA HILLS", "state": "CA", "street": "10455 BALBOA BLVD", "postcode": "91344"}}},
{"geometry": {"type": "Point", "coordinates": [-118.5201189161, 34.2852480589]}, "type": "Feature", "properties": {"collection_times": [{"days": "Mon-Sat", "time": "10:00am"}, {"days": "Sun", "time": "Closed"}], "id": "9134400042", "name": "USPS COLLECTION BOX - BLUE BOX", "address": {"city": "GRANADA HILLS", "state": "CA", "street": "17761 MAYERLING ST", "postcode": "91344"}}},
{"geometry": {"type": "Point", "coordinates": [-118.52605898, 34.2646556016]}, "type": "Feature", "properties": {"collection_times": [{"days": "Mon-Sat", "time": "5:00pm"}, {"days": "Sun", "time": "Closed"}], "id": "9134400043", "name": "USPS COLLECTION BOX - PO LOBBY", "address": {"city": "GRANADA HILLS", "state": "CA", "street": "18039 CHATSWORTH ST", "postcode": "91344"}}},
{"geometry": {"type": "Point", "coordinates": [-118.52605898, 34.2646556016]}, "type": "Feature", "properties": {"collection_times": [{"days": "Mon-Sat", "time": "5:00pm"}, {"days": "Sun", "time": "Closed"}], "id": "9134400045", "name": "USPS COLLECTION BOX - APC", "address": {"city": "GRANADA HILLS", "state": "CA", "street": "18039 CHATSWORTH ST", "postcode": "91344"}}},
{"geometry": {"type": "Point", "coordinates": [-118.5022053685, 34.2716783366]}, "type": "Feature", "properties": {"collection_times": [{"days": "Mon-Sat", "time": "3:00pm"}, {"days": "Sun", "time": "Closed"}], "id": "9134400046", "name": "USPS COLLECTION BOX - BLUE BOX", "address": {"city": "GRANADA HILLS", "state": "CA", "street": "11057 BALBOA BLVD", "postcode": "91344"}}},
{"geometry": {"type": "Point", "coordinates": [-118.467192149, 34.2684346631]}, "type": "Feature", "properties": {"collection_times": [{"days": "Mon-Sat", "time": "5:00pm"}, {"days": "Sun", "time": "Closed"}], "id": "9134500001", "name": "USPS COLLECTION BOX - BLUE BOX", "address": {"city": "SAN FERNANDO", "state": "CA", "street": "10919 SEPULVEDA BLVD", "postcode": "91345"}}},
{"geometry": {"type": "Point", "coordinates": [-118.4654472846, 34.2572829089]}, "type": "Feature", "properties": {"collection_times": [{"days": "Mon-Fri", "time": "5:00pm"}, {"days": "Sat", "time": "4:00pm"}, {"days": "Sun", "time": "Closed"}], "id": "9134500002", "name": "USPS COLLECTION BOX - BLUE BOX", "address": {"city": "SAN FERNANDO", "state": "CA", "street": "15305 DEVONSHIRE ST", "postcode": "91345"}}},
{"geometry": {"type": "Point", "coordinates": [-118.4603152822, 34.2664111942]}, "type": "Feature", "properties": {"collection_times": [{"days": "Mon-Sat", "time": "3:00pm"}, {"days": "Sun", "time": "Closed"}], "id": "9134500003", "name": "USPS COLLECTION BOX - BLUE BOX", "address": {"city": "SAN FERNANDO", "state": "CA", "street": "15600 DEVONSHIRE ST", "postcode": "91345"}}},
{"geometry": {"type": "Point", "coordinates": [-118.4672458813, 34.2629206462]}, "type": "Feature", "properties": {"collection_times": [{"days": "Mon-Sat", "time": "3:00pm"}, {"days": "Sun", "time": "Closed"}], "id": "9134500004", "name": "USPS COLLECTION BOX - BLUE BOX", "address": {"city": "SAN FERNANDO", "state": "CA", "street": "10600 SEPULVEDA BLVD", "postcode": "91345"}}},
{"geometry": {"type": "Point", "coordinates": [-118.4616576185, 34.2621230829]}, "type": "Feature", "properties": {"collection_times": [{"days": "Mon-Sat", "time": "5:00pm"}, {"days": "Sun", "time": "Closed"}], "id": "9134500005", "name": "USPS COLLECTION BOX - EXPRESS", "address": {"city": "SAN FERNANDO", "state": "CA", "street": "10919 SEPULVEDA BLVD", "postcode": "91345"}}},
{"geometry": {"type": "Point", "coordinates": [-118.467192149, 34.2684346631]}, "type": "Feature", "properties": {"collection_times": [{"days": "Mon-Sat", "time": "5:00pm"}, {"days": "Sun", "time": "Closed"}], "id": "9134500016", "name": "USPS COLLECTION BOX - BLUE BOX", "address": {"city": "SAN FERNANDO", "state": "CA", "street": "10919 SEPULVEDA BLVD", "postcode": "91345"}}},
{"geometry": {"type": "Point", "coordinates": [-118.467192149, 34.2684346631]}, "type": "Feature", "properties": {"collection_times": [{"days": "Mon-Sat", "time": "5:00pm"}, {"days": "Sun", "time": "Closed"}], "id": "9134500017", "name": "USPS COLLECTION BOX - BLUE BOX", "address": {"city": "SAN FERNANDO", "state": "CA", "street": "10919 SEPULVEDA BLVD", "postcode": "91345"}}},
{"geometry": {"type": "Point", "coordinates": [-118.4695220781, 34.2719553399]}, "type": "Feature", "properties": {"collection_times": [{"days": "Mon-Fri", "time": "3:00pm"}, {"days": "Sat", "time": "10:00am"}, {"days": "Sun", "time": "Closed"}], "id": "9134500029", "name": "USPS COLLECTION BOX - BLUE BOX", "address": {"city": "SAN FERNANDO", "state": "CA", "street": "15501 SAN FERNANDO MISSION BLVD", "postcode": "91345"}}},
{"geometry": {"type": "Point", "coordinates": [-118.4695220781, 34.2719553399]}, "type": "Feature", "properties": {"collection_times": [{"days": "Mon-Fri", "time": "3:00pm"}, {"days": "Sat", "time": "10:00am"}, {"days": "Sun", "time": "Closed"}], "id": "9134500030", "name": "USPS COLLECTION BOX - BLUE BOX", "address": {"city": "SAN FERNANDO", "state": "CA", "street": "15501 SAN FERNANDO MISSION BLVD", "postcode": "91345"}}},
{"geometry": {"type": "Point", "coordinates": [-118.5063504567, 34.4455236202]}, "type": "Feature", "properties": {"collection_times": [{"days": "Mon-Sat", "time": "10:00am"}, {"days": "Sun", "time": "Closed"}], "id": "9135000003", "name": "USPS COLLECTION BOX - BLUE BOX", "address": {"city": "SANTA CLARITA", "state": "CA", "street": "27761 BOUQUET CANYON RD", "postcode": "91350"}}},
{"geometry": {"type": "Point", "coordinates": [-118.5304919758, 34.4336050985]}, "type": "Feature", "properties": {"collection_times": [{"days": "Mon-Sat", "time": "3:00pm"}, {"days": "Sun", "time": "Closed"}], "id": "9135000005", "name": "USPS COLLECTION BOX - BLUE BOX", "address": {"city": "SANTA CLARITA", "state": "CA", "street": "26811 BOUQUET CANYON RD", "postcode": "91350"}}},
{"geometry": {"type": "Point", "coordinates": [-118.5301510686, 34.4376209213]}, "type": "Feature", "properties": {"collection_times": [{"days": "Mon-Sat", "time": "10:00am"}, {"days": "Sun", "time": "Closed"}], "id": "9135000008", "name": "USPS COLLECTION BOX - BLUE BOX", "address": {"city": "SANTA CLARITA", "state": "CA", "street": "22600 GARZOTA DR", "postcode": "91350"}}},
{"geometry": {"type": "Point", "coordinates": [-118.5365332653, 34.4277427467]}, "type": "Feature", "properties": {"collection_times": [{"days": "Mon-Sat", "time": "3:00pm"}, {"days": "Sun", "time": "Closed"}], "id": "9135000018", "name": "USPS COLLECTION BOX - BLUE BOX", "address": {"city": "SANTA CLARITA", "state": "CA", "street": "26504 BOUQUET CANYON RD", "postcode": "91350"}}},
{"geometry": {"type": "Point", "coordinates": [-118.5315396246, 34.4577731361]}, "type": "Feature", "properties": {"collection_times": [{"days": "Mon-Sat", "time": "10:00am"}, {"days": "Sun", "time": "Closed"}], "id": "9135000021", "name": "USPS COLLECTION BOX - BLUE BOX", "address": {"city": "SANTA CLARITA", "state": "CA", "street": "22627 PARAGON DR", "postcode": "91350"}}},
{"geometry": {"type": "Point", "coordinates": [-118.4713369648, 34.4155911401]}, "type": "Feature", "properties": {"collection_times": [{"days": "Mon-Sat", "time": "3:00pm"}, {"days": "Sun", "time": "Closed"}], "id": "9135100004", "name": "USPS COLLECTION BOX - BLUE BOX", "address": {"city": "CANYON COUNTRY", "state": "CA", "street": "19242 SOLEDAD CANYON RD", "postcode": "91351"}}},
{"geometry": {"type": "Point", "coordinates": [-118.4563600988, 34.4165793871]}, "type": "Feature", "properties": {"collection_times": [{"days": "Mon-Sat", "time": "3:00pm"}, {"days": "Sun", "time": "Closed"}], "id": "9135100005", "name": "USPS COLLECTION BOX - BLUE BOX", "address": {"city": "CANYON COUNTRY", "state": "CA", "street": "18523 SOLEDAD CANYON RD", "postcode": "91351"}}},
{"geometry": {"type": "Point", "coordinates": [-118.4750501195, 34.4158401966]}, "type": "Feature", "properties": {"collection_times": [{"days": "Mon-Sat", "time": "3:00pm"}, {"days": "Sun", "time": "Closed"}], "id": "9135100006", "name": "USPS COLLECTION BOX - BLUE BOX", "address": {"city": "CANYON COUNTRY", "state": "CA", "street": "19425 SOLEDAD CANYON RD", "postcode": "91351"}}},
{"geometry": {"type": "Point", "coordinates": [-118.4671185839, 34.4282647498]}, "type": "Feature", "properties": {"collection_times": [{"days": "Mon-Sat", "time": "10:00am"}, {"days": "Sun", "time": "Closed"}], "id": "9135100008", "name": "USPS COLLECTION BOX - BLUE BOX", "address": {"city": "CANYON COUNTRY", "state": "CA", "street": "27961 FOXLANE DR", "postcode": "91351"}}},
{"geometry": {"type": "Point", "coordinates": [-118.4914941563, 34.4180251768]}, "type": "Feature", "properties": {"collection_times": [{"days": "Mon-Sat", "time": "10:00am"}, {"days": "Sun", "time": "Closed"}], "id": "9135100015", "name": "USPS COLLECTION BOX - BLUE BOX", "address": {"city": "CANYON COUNTRY", "state": "CA", "street": "26860 CLAUDETTE ST", "postcode": "91351"}}},
{"geometry": {"type": "Point", "coordinates": [-118.4645165434, 34.4317479462]}, "type": "Feature", "properties": {"collection_times": [{"days": "Mon-Sat", "time": "10:00am"}, {"days": "Sun", "time": "Closed"}], "id": "9135100029", "name": "USPS COLLECTION BOX - BLUE BOX", "address": {"city": "CANYON COUNTRY", "state": "CA", "street": "20000 VIA PRINCESSA", "postcode": "91351"}}},
{"geometry": {"type": "Point", "coordinates": [-118.3758508412, 34.2360588922]}, "type": "Feature", "properties": {"collection_times": [{"days": "Mon-Sat", "time": "12:00pm"}, {"days": "Sun", "time": "Closed"}], "id": "9135200026", "name": "USPS COLLECTION BOX - BLUE BOX", "address": {"city": "SUN VALLEY", "state": "CA", "street": "9189 DE GARMO AVE", "postcode": "91352"}}},
{"geometry": {"type": "Point", "coordinates": [-118.3703160905, 34.2016033964]}, "type": "Feature", "properties": {"collection_times": [{"days": "Mon-Fri", "time": "12:00pm"}, {"days": "Sat", "time": "2:30pm"}, {"days": "Sun", "time": "Closed"}], "id": "9135200051", "name": "USPS COLLECTION BOX - BLUE BOX", "address": {"city": "SUN VALLEY", "state": "CA", "street": "7200 VINELAND AVE", "postcode": "91352"}}},
{"geometry": {"type": "Point", "coordinates": [-118.3688261856, 34.2173914936]}, "type": "Feature", "properties": {"collection_times": [{"days": "Mon-Fri", "time": "5:00pm"}, {"days": "Sat", "time": "3:00pm"}, {"days": "Sun", "time": "Closed"}], "id": "9135200067", "name": "USPS COLLECTION BOX - PO LOBBY", "address": {"city": "SUN VALLEY", "state": "CA", "street": "10946 RATNER ST", "postcode": "91352"}}},
{"geometry": {"type": "Point", "coordinates": [-118.3673232043, 34.2354939878]}, "type": "Feature", "properties": {"collection_times": [{"days": "Mon-Sat", "time": "12:00pm"}, {"days": "Sun", "time": "Closed"}], "id": "9135200073", "name": "USPS COLLECTION BOX - BLUE BOX", "address": {"city": "SUN VALLEY", "state": "CA", "street": "9116 SUNLAND BLVD", "postcode": "91352"}}},
{"geometry": {"type": "Point", "coordinates": [-118.3965451721, 34.2224370524]}, "type": "Feature", "properties": {"collection_times": [{"days": "Mon-Sat", "time": "12:00pm"}, {"days": "Sun", "time": "Closed"}], "id": "9135200074", "name": "USPS COLLECTION BOX - BLUE BOX", "address": {"city": "SUN VALLEY", "state": "CA", "street": "8343 LAUREL CANYON BLVD", "postcode": "91352"}}},
{"geometry": {"type": "Point", "coordinates": [-118.5618482437, 34.4217181927]}, "type": "Feature", "properties": {"collection_times": [{"days": "Mon-Fri", "time": "5:00pm"}, {"days": "Sat", "time": "4:00pm"}, {"days": "Sun", "time": "Closed"}], "id": "9135500010", "name": "USPS COLLECTION BOX - BLUE BOX", "address": {"city": "SANTA CLARITA", "state": "CA", "street": "24355 CREEKSIDE RD", "postcode": "91355"}}},
{"geometry": {"type": "Point", "coordinates": [-118.5869217255, 34.4366364572]}, "type": "Feature", "properties": {"collection_times": [{"days": "Mon-Sat", "time": "10:00am"}, {"days": "Sun", "time": "Closed"}], "id": "9135500011", "name": "USPS COLLECTION BOX - BLUE BOX", "address": {"city": "SANTA CLARITA", "state": "CA", "street": "28245 AVENUE CROCKER", "postcode": "91355"}}},
{"geometry": {"type": "Point", "coordinates": [-118.5527851449, 34.3966425728]}, "type": "Feature", "properties": {"collection_times": [{"days": "Mon-Sat", "time": "3:00pm"}, {"days": "Sun", "time": "Closed"}], "id": "9135500016", "name": "USPS COLLECTION BOX - BLUE BOX", "address": {"city": "SANTA CLARITA", "state": "CA", "street": "23845 MC BEAN PKWY", "postcode": "91355"}}},
{"geometry": {"type": "Point", "coordinates": [-118.547173141, 34.389285473]}, "type": "Feature", "properties": {"collection_times": [{"days": "Mon-Sat", "time": "3:00pm"}, {"days": "Sun", "time": "Closed"}], "id": "9135500017", "name": "USPS COLLECTION BOX - BLUE BOX", "address": {"city": "SANTA CLARITA", "state": "CA", "street": "25373 ORCHARD VILLAGE RD", "postcode": "91355"}}},
{"geometry": {"type": "Point", "coordinates": [-118.5507457237, 34.4141988668]}, "type": "Feature", "properties": {"collection_times": [{"days": "Mon-Sat", "time": "3:00pm"}, {"days": "Sun", "time": "Closed"}], "id": "9135500023", "name": "USPS COLLECTION BOX - BLUE BOX", "address": {"city": "SANTA CLARITA", "state": "CA", "street": "23770 VALENCIA BLVD", "postcode": "91355"}}},
{"geometry": {"type": "Point", "coordinates": [-118.5481583837, 34.4154298761]}, "type": "Feature", "properties": {"collection_times": [{"days": "Mon-Sat", "time": "3:00pm"}, {"days": "Sun", "time": "Closed"}], "id": "9135500028", "name": "USPS COLLECTION BOX - BLUE BOX", "address": {"city": "SANTA CLARITA", "state": "CA", "street": "23740 MAGIC MOUNTAIN PKWY", "postcode": "91355"}}},
{"geometry": {"type": "Point", "coordinates": [-118.5647776341, 34.4183043056]}, "type": "Feature", "properties": {"collection_times": [{"days": "Mon-Sat", "time": "4:00pm"}, {"days": "Sun", "time": "Closed"}], "id": "9135500032", "name": "USPS COLLECTION BOX - EXPRESS", "address": {"city": "SANTA CLARITA", "state": "CA", "street": "24355 CREEKSIDE RD", "postcode": "91355"}}},
{"geometry": {"type": "Point", "coordinates": [-118.5706927777, 34.4327819691]}, "type": "Feature", "properties": {"collection_times": [{"days": "Mon-Sat", "time": "3:00pm"}, {"days": "Sun", "time": "Closed"}], "id": "9135500034", "name": "USPS COLLECTION BOX - BLUE BOX", "address": {"city": "SANTA CLARITA", "state": "CA", "street": "27641 AVENUE SCOTT", "postcode": "91355"}}},
{"geometry": {"type": "Point", "coordinates": [-118.5873038875, 34.4328008965]}, "type": "Feature", "properties": {"collection_times": [{"days": "Mon-Sat", "time": "3:00pm"}, {"days": "Sun", "time": "Closed"}], "id": "9135500036", "name": "USPS COLLECTION BOX - BLUE BOX", "address": {"city": "SANTA CLARITA", "state": "CA", "street": "28020 AVENUE STANFORD", "postcode": "91355"}}},
{"geometry": {"type": "Point", "coordinates": [-118.5619986807, 34.3913861808]}, "type": "Feature", "properties": {"collection_times": [{"days": "Mon-Fri", "time": "4:00pm"}, {"days": "Sat", "time": "3:00pm"}, {"days": "Sun", "time": "Closed"}], "id": "9135500040", "name": "USPS COLLECTION BOX - BLUE BOX", "address": {"city": "SANTA CLARITA", "state": "CA", "street": "25842 TOURNAMENT RD", "postcode": "91355"}}},
{"geometry": {"type": "Point", "coordinates": [-118.5510958795, 34.4006835606]}, "type": "Feature", "properties": {"collection_times": [{"days": "Mon-Sat", "time": "10:00am"}, {"days": "Sun", "time": "Closed"}], "id": "9135500043", "name": "USPS COLLECTION BOX - BLUE BOX", "address": {"city": "SANTA CLARITA", "state": "CA", "street": "25775 MC BEAN PKWY", "postcode": "91355"}}},
{"geometry": {"type": "Point", "coordinates": [-118.5619986807, 34.3913861808]}, "type": "Feature", "properties": {"collection_times": [{"days": "Mon-Fri", "time": "4:00pm"}, {"days": "Sat-Sun", "time": "Closed"}], "id": "9135500044", "name": "USPS COLLECTION BOX - PO LOBBY", "address": {"city": "SANTA CLARITA", "state": "CA", "street": "25842 TOURNAMENT RD", "postcode": "91355"}}},
{"geometry": {"type": "Point", "coordinates": [-118.5616105314, 34.4217754758]}, "type": "Feature", "properties": {"collection_times": [{"days": "Mon-Sat", "time": "5:00pm"}, {"days": "Sun", "time": "Closed"}], "id": "9135500045", "name": "USPS COLLECTION BOX - BLUE BOX", "address": {"city": "SANTA CLARITA", "state": "CA", "street": "24355 CREEKSIDE RD", "postcode": "91355"}}},
{"geometry": {"type": "Point", "coordinates": [-118.5616105314, 34.4217754758]}, "type": "Feature", "properties": {"collection_times": [{"days": "Mon-Sat", "time": "5:00pm"}, {"days": "Sun", "time": "Closed"}], "id": "9135500054", "name": "USPS COLLECTION BOX - APC", "address": {"city": "SANTA CLARITA", "state": "CA", "street": "24355 CREEKSIDE RD", "postcode": "91355"}}},
{"geometry": {"type": "Point", "coordinates": [-118.5654037682, 34.4403611872]}, "type": "Feature", "properties": {"collection_times": [{"days": "Mon-Sat", "time": "10:00am"}, {"days": "Sun", "time": "Closed"}], "id": "9135500058", "name": "USPS COLLECTION BOX - BLUE BOX", "address": {"city": "SANTA CLARITA", "state": "CA", "street": "27819 SMYTH DR", "postcode": "91355"}}},
{"geometry": {"type": "Point", "coordinates": [-118.5706927777, 34.4327819691]}, "type": "Feature", "properties": {"collection_times": [{"days": "Mon-Sat", "time": "3:00pm"}, {"days": "Sun", "time": "Closed"}], "id": "9135500060", "name": "USPS COLLECTION BOX - BLUE BOX", "address": {"city": "SANTA CLARITA", "state": "CA", "street": "27641 AVENUE SCOTT", "postcode": "91355"}}},
{"geometry": {"type": "Point", "coordinates": [-118.5967486319, 34.4391924238]}, "type": "Feature", "properties": {"collection_times": [{"days": "Mon-Sat", "time": "3:00pm"}, {"days": "Sun", "time": "Closed"}], "id": "9135500061", "name": "USPS COLLECTION BOX - BLUE BOX", "address": {"city": "SANTA CLARITA", "state": "CA", "street": "28460 AVENUE STANFORD", "postcode": "91355"}}},
{"geometry": {"type": "Point", "coordinates": [-118.5763508705, 34.4167043739]}, "type": "Feature", "properties": {"collection_times": [{"days": "Mon-Sat", "time": "3:00pm"}, {"days": "Sun", "time": "Closed"}], "id": "9135500062", "name": "USPS COLLECTION BOX - BLUE BOX", "address": {"city": "SANTA CLARITA", "state": "CA", "street": "27200 TOURNEY RD", "postcode": "91355"}}},
{"geometry": {"type": "Point", "coordinates": [-118.5561826031, 34.1477763975]}, "type": "Feature", "properties": {"collection_times": [{"days": "Mon-Sat", "time": "3:00pm"}, {"days": "Sun", "time": "Closed"}], "id": "9135600003", "name": "USPS COLLECTION BOX - BLUE BOX", "address": {"city": "TARZANA", "state": "CA", "street": "4300 VANALDEN AVE", "postcode": "91356"}}},
{"geometry": {"type": "Point", "coordinates": [-118.5328014513, 34.1697269122]}, "type": "Feature", "properties": {"collection_times": [{"days": "Mon-Sat", "time": "3:00pm"}, {"days": "Sun", "time": "Closed"}], "id": "9135600009", "name": "USPS COLLECTION BOX - BLUE BOX", "address": {"city": "TARZANA", "state": "CA", "street": "18372 CLARK ST", "postcode": "91356"}}},
{"geometry": {"type": "Point", "coordinates": [-118.534794705, 34.1722837584]}, "type": "Feature", "properties": {"collection_times": [{"days": "Mon-Sat", "time": "3:00pm"}, {"days": "Sun", "time": "Closed"}], "id": "9135600011", "name": "USPS COLLECTION BOX - BLUE BOX", "address": {"city": "TARZANA", "state": "CA", "street": "18425 BURBANK BLVD", "postcode": "91356"}}},
{"geometry": {"type": "Point", "coordinates": [-118.5310222489, 34.1723369916]}, "type": "Feature", "properties": {"collection_times": [{"days": "Mon-Sat", "time": "3:00pm"}, {"days": "Sun", "time": "Closed"}], "id": "9135600013", "name": "USPS COLLECTION BOX - BLUE BOX", "address": {"city": "TARZANA", "state": "CA", "street": "18307 BURBANK BLVD", "postcode": "91356"}}},
{"geometry": {"type": "Point", "coordinates": [-118.5585130322, 34.1727900649]}, "type": "Feature", "properties": {"collection_times": [{"days": "Mon-Sat", "time": "3:00pm"}, {"days": "Sun", "time": "Closed"}], "id": "9135600016", "name": "USPS COLLECTION BOX - BLUE BOX", "address": {"city": "TARZANA", "state": "CA", "street": "19510 VENTURA BLVD", "postcode": "91356"}}},
{"geometry": {"type": "Point", "coordinates": [-118.5613295217, 34.1726232864]}, "type": "Feature", "properties": {"collection_times": [{"days": "Mon-Sat", "time": "3:00pm"}, {"days": "Sun", "time": "Closed"}], "id": "9135600018", "name": "USPS COLLECTION BOX - BLUE BOX", "address": {"city": "TARZANA", "state": "CA", "street": "19660 VENTURA BLVD", "postcode": "91356"}}},
{"geometry": {"type": "Point", "coordinates": [-118.5534783589, 34.1808554791]}, "type": "Feature", "properties": {"collection_times": [{"days": "Mon-Sat", "time": "3:00pm"}, {"days": "Sun", "time": "Closed"}], "id": "9135600019", "name": "USPS COLLECTION BOX - BLUE BOX", "address": {"city": "TARZANA", "state": "CA", "street": "6047 TAMPA AVE", "postcode": "91356"}}},
{"geometry": {"type": "Point", "coordinates": [-118.5513850853, 34.1725535819]}, "type": "Feature", "properties": {"collection_times": [{"days": "Mon-Sat", "time": "3:00pm"}, {"days": "Sun", "time": "Closed"}], "id": "9135600021", "name": "USPS COLLECTION BOX - BLUE BOX", "address": {"city": "TARZANA", "state": "CA", "street": "19204 VENTURA BLVD", "postcode": "91356"}}},
{"geometry": {"type": "Point", "coordinates": [-118.5465824828, 34.1724372509]}, "type": "Feature", "properties": {"collection_times": [{"days": "Mon-Sat", "time": "3:00pm"}, {"days": "Sun", "time": "Closed"}], "id": "9135600026", "name": "USPS COLLECTION BOX - BLUE BOX", "address": {"city": "TARZANA", "state": "CA", "street": "18954 VENTURA BLVD", "postcode": "91356"}}},
{"geometry": {"type": "Point", "coordinates": [-118.5328014513, 34.1697269122]}, "type": "Feature", "properties": {"collection_times": [{"days": "Mon-Sat", "time": "3:00pm"}, {"days": "Sun", "time": "Closed"}], "id": "9135600043", "name": "USPS COLLECTION BOX - BLUE BOX", "address": {"city": "TARZANA", "state": "CA", "street": "18372 CLARK ST", "postcode": "91356"}}},
{"geometry": {"type": "Point", "coordinates": [-118.5308839585, 34.1705232083]}, "type": "Feature", "properties": {"collection_times": [{"days": "Mon-Sat", "time": "3:00pm"}, {"days": "Sun", "time": "Closed"}], "id": "9135600044", "name": "USPS COLLECTION BOX - BLUE BOX", "address": {"city": "TARZANA", "state": "CA", "street": "5525 ETIWANDA AVE", "postcode": "91356"}}},
{"geometry": {"type": "Point", "coordinates": [-118.534794705, 34.1722837584]}, "type": "Feature", "properties": {"collection_times": [{"days": "Mon-Sat", "time": "3:00pm"}, {"days": "Sun", "time": "Closed"}], "id": "9135600045", "name": "USPS COLLECTION BOX - BLUE BOX", "address": {"city": "TARZANA", "state": "CA", "street": "18425 BURBANK BLVD", "postcode": "91356"}}},
{"geometry": {"type": "Point", "coordinates": [-118.5407378908, 34.1727226362]}, "type": "Feature", "properties": {"collection_times": [{"days": "Mon-Sat", "time": "5:00pm"}, {"days": "Sun", "time": "Closed"}], "id": "9135600064", "name": "USPS COLLECTION BOX - BLUE BOX", "address": {"city": "TARZANA", "state": "CA", "street": "5609 YOLANDA AVE", "postcode": "91356"}}},
{"geometry": {"type": "Point", "coordinates": [-118.5407378908, 34.1727226362]}, "type": "Feature", "properties": {"collection_times": [{"days": "Mon-Sat", "time": "5:00pm"}, {"days": "Sun", "time": "Closed"}], "id": "9135600065", "name": "USPS COLLECTION BOX - BLUE BOX", "address": {"city": "TARZANA", "state": "CA", "street": "5609 YOLANDA AVE", "postcode": "91356"}}},
{"geometry": {"type": "Point", "coordinates": [-118.5613295217, 34.1726232864]}, "type": "Feature", "properties": {"collection_times": [{"days": "Mon-Sat", "time": "3:00pm"}, {"days": "Sun", "time": "Closed"}], "id": "9135600072", "name": "USPS COLLECTION BOX - BLUE BOX", "address": {"city": "TARZANA", "state": "CA", "street": "19660 VENTURA BLVD", "postcode": "91356"}}},
{"geometry": {"type": "Point", "coordinates": [-118.5585130322, 34.1727900649]}, "type": "Feature", "properties": {"collection_times": [{"days": "Mon-Sat", "time": "3:00pm"}, {"days": "Sun", "time": "Closed"}], "id": "9135600075", "name": "USPS COLLECTION BOX - BLUE BOX", "address": {"city": "TARZANA", "state": "CA", "street": "19510 VENTURA BLVD", "postcode": "91356"}}},
{"geometry": {"type": "Point", "coordinates": [-118.5336271245, 34.1718365999]}, "type": "Feature", "properties": {"collection_times": [{"days": "Mon-Sat", "time": "3:00pm"}, {"days": "Sun", "time": "Closed"}], "id": "9135600079", "name": "USPS COLLECTION BOX - BLUE BOX", "address": {"city": "TARZANA", "state": "CA", "street": "18401 BURBANK BLVD", "postcode": "91356"}}},
{"geometry": {"type": "Point", "coordinates": [-118.5308839585, 34.1705232083]}, "type": "Feature", "properties": {"collection_times": [{"days": "Mon-Sat", "time": "3:00pm"}, {"days": "Sun", "time": "Closed"}], "id": "9135600082", "name": "USPS COLLECTION BOX - BLUE BOX", "address": {"city": "TARZANA", "state": "CA", "street": "5525 ETIWANDA AVE", "postcode": "91356"}}},
{"geometry": {"type": "Point", "coordinates": [-118.5379573417, 34.1467269212]}, "type": "Feature", "properties": {"collection_times": [{"days": "Mon-Sat", "time": "3:00pm"}, {"days": "Sun", "time": "Closed"}], "id": "9135600083", "name": "USPS COLLECTION BOX - BLUE BOX", "address": {"city": "TARZANA", "state": "CA", "street": "4200 RESEDA BLVD", "postcode": "91356"}}},
{"geometry": {"type": "Point", "coordinates": [-118.5407378908, 34.1727226362]}, "type": "Feature", "properties": {"collection_times": [{"days": "Mon-Sat", "time": "5:00pm"}, {"days": "Sun", "time": "Closed"}], "id": "9135600092", "name": "USPS COLLECTION BOX - BLUE BOX", "address": {"city": "TARZANA", "state": "CA", "street": "5609 YOLANDA AVE", "postcode": "91356"}}},
{"geometry": {"type": "Point", "coordinates": [-118.5407378908, 34.1727226362]}, "type": "Feature", "properties": {"collection_times": [{"days": "Mon-Fri", "time": "5:30pm"}, {"days": "Sat", "time": "5:00pm"}, {"days": "Sun", "time": "Closed"}], "id": "9135600096", "name": "USPS COLLECTION BOX - APC", "address": {"city": "TARZANA", "state": "CA", "street": "5609 YOLANDA AVE", "postcode": "91356"}}},
{"geometry": {"type": "Point", "coordinates": [-118.5407626509, 34.1725496866]}, "type": "Feature", "properties": {"collection_times": [{"days": "Mon-Sat", "time": "5:00pm"}, {"days": "Sun", "time": "Closed"}], "id": "9135600098", "name": "USPS COLLECTION BOX - BLUE BOX", "address": {"city": "TARZANA", "state": "CA", "street": "5609 YOLANDA AVE", "postcode": "91356"}}},
{"geometry": {"type": "Point", "coordinates": [-118.5407626509, 34.1725496866]}, "type": "Feature", "properties": {"collection_times": [{"days": "Mon-Sat", "time": "5:00pm"}, {"days": "Sun", "time": "Closed"}], "id": "9135600099", "name": "USPS COLLECTION BOX - BLUE BOX", "address": {"city": "TARZANA", "state": "CA", "street": "5609 YOLANDA AVE", "postcode": "91356"}}},
{"geometry": {"type": "Point", "coordinates": [-118.872466255, 34.179228119]}, "type": "Feature", "properties": {"collection_times": [{"days": "Mon-Fri", "time": "3:00pm"}, {"days": "Sat", "time": "10:00am"}, {"days": "Sun", "time": "Closed"}], "id": "9136000002", "name": "USPS COLLECTION BOX - BLUE BOX", "address": {"city": "THOUSAND OAKS", "state": "CA", "street": "223 E THOUSAND OAKS BLVD", "postcode": "91360"}}},
{"geometry": {"type": "Point", "coordinates": [-118.8831365842, 34.1893225029]}, "type": "Feature", "properties": {"collection_times": [{"days": "Mon-Sat", "time": "10:00am"}, {"days": "Sun", "time": "Closed"}], "id": "9136000005", "name": "USPS COLLECTION BOX - BLUE BOX", "address": {"city": "THOUSAND OAKS", "state": "CA", "street": "300 MC CLOUD AVE", "postcode": "91360"}}},
{"geometry": {"type": "Point", "coordinates": [-118.885228554, 34.208445631]}, "type": "Feature", "properties": {"collection_times": [{"days": "Mon-Fri", "time": "3:00pm"}, {"days": "Sat", "time": "10:00am"}, {"days": "Sun", "time": "Closed"}], "id": "9136000006", "name": "USPS COLLECTION BOX - BLUE BOX", "address": {"city": "THOUSAND OAKS", "state": "CA", "street": "2220 LYNN RD", "postcode": "91360"}}},
{"geometry": {"type": "Point", "coordinates": [-118.8697968543, 34.1977363035]}, "type": "Feature", "properties": {"collection_times": [{"days": "Mon-Fri", "time": "3:00pm"}, {"days": "Sat", "time": "10:00am"}, {"days": "Sun", "time": "Closed"}], "id": "9136000007", "name": "USPS COLLECTION BOX - BLUE BOX", "address": {"city": "THOUSAND OAKS", "state": "CA", "street": "1382 N MOORPARK RD", "postcode": "91360"}}},
{"geometry": {"type": "Point", "coordinates": [-118.8816667102, 34.2063162952]}, "type": "Feature", "properties": {"collection_times": [{"days": "Mon-Sat", "time": "10:00am"}, {"days": "Sun", "time": "Closed"}], "id": "9136000008", "name": "USPS COLLECTION BOX - BLUE BOX", "address": {"city": "THOUSAND OAKS", "state": "CA", "street": "200 W JANSS RD", "postcode": "91360"}}},
{"geometry": {"type": "Point", "coordinates": [-118.8758191978, 34.2003718648]}, "type": "Feature", "properties": {"collection_times": [{"days": "Mon-Sat", "time": "10:00am"}, {"days": "Sun", "time": "Closed"}], "id": "9136000009", "name": "USPS COLLECTION BOX - BLUE BOX", "address": {"city": "THOUSAND OAKS", "state": "CA", "street": "500 W AVENIDA DE LOS ARBOLES", "postcode": "91360"}}},
{"geometry": {"type": "Point", "coordinates": [-118.8901023492, 34.1874315399]}, "type": "Feature", "properties": {"collection_times": [{"days": "Mon-Sat", "time": "10:00am"}, {"days": "Sun", "time": "Closed"}], "id": "9136000011", "name": "USPS COLLECTION BOX - BLUE BOX", "address": {"city": "THOUSAND OAKS", "state": "CA", "street": "500 W HILLCREST DR", "postcode": "91360"}}},
{"geometry": {"type": "Point", "coordinates": [-118.8745121791, 34.1880129273]}, "type": "Feature", "properties": {"collection_times": [{"days": "Mon-Fri", "time": "3:00pm"}, {"days": "Sat", "time": "10:00am"}, {"days": "Sun", "time": "Closed"}], "id": "9136000016", "name": "USPS COLLECTION BOX - BLUE BOX", "address": {"city": "THOUSAND OAKS", "state": "CA", "street": "708 N MOORPARK RD", "postcode": "91360"}}},
{"geometry": {"type": "Point", "coordinates": [-118.8781520935, 34.1856381822]}, "type": "Feature", "properties": {"collection_times": [{"days": "Mon-Fri", "time": "3:00pm"}, {"days": "Sat", "time": "10:00am"}, {"days": "Sun", "time": "Closed"}], "id": "9136000017", "name": "USPS COLLECTION BOX - BLUE BOX", "address": {"city": "THOUSAND OAKS", "state": "CA", "street": "555 SAINT CHARLES DR", "postcode": "91360"}}},
{"geometry": {"type": "Point", "coordinates": [-118.8715028853, 34.1812911545]}, "type": "Feature", "properties": {"collection_times": [{"days": "Mon-Fri", "time": "3:00pm"}, {"days": "Sat", "time": "10:00am"}, {"days": "Sun", "time": "Closed"}], "id": "9136000021", "name": "USPS COLLECTION BOX - BLUE BOX", "address": {"city": "THOUSAND OAKS", "state": "CA", "street": "275 E HILLCREST DR", "postcode": "91360"}}},
{"geometry": {"type": "Point", "coordinates": [-118.8589122268, 34.225138894]}, "type": "Feature", "properties": {"collection_times": [{"days": "Mon-Sat", "time": "10:00am"}, {"days": "Sun", "time": "Closed"}], "id": "9136000025", "name": "USPS COLLECTION BOX - BLUE BOX", "address": {"city": "THOUSAND OAKS", "state": "CA", "street": "1100 PEDERSON RD", "postcode": "91360"}}},
{"geometry": {"type": "Point", "coordinates": [-118.8703568, 34.2177011599]}, "type": "Feature", "properties": {"collection_times": [{"days": "Mon-Sat", "time": "10:00am"}, {"days": "Sun", "time": "Closed"}], "id": "9136000026", "name": "USPS COLLECTION BOX - BLUE BOX", "address": {"city": "THOUSAND OAKS", "state": "CA", "street": "365 E AVENIDA DE LOS ARBOLES", "postcode": "91360"}}},
{"geometry": {"type": "Point", "coordinates": [-118.882258144, 34.2064156734]}, "type": "Feature", "properties": {"collection_times": [{"days": "Mon-Sat", "time": "10:00am"}, {"days": "Sun", "time": "Closed"}], "id": "9136000027", "name": "USPS COLLECTION BOX - BLUE BOX", "address": {"city": "THOUSAND OAKS", "state": "CA", "street": "215 W JANSS RD", "postcode": "91360"}}},
{"geometry": {"type": "Point", "coordinates": [-118.8842360514, 34.205938941]}, "type": "Feature", "properties": {"collection_times": [{"days": "Mon-Fri", "time": "3:00pm"}, {"days": "Sat", "time": "10:00am"}, {"days": "Sun", "time": "Closed"}], "id": "9136000029", "name": "USPS COLLECTION BOX - BLUE BOX", "address": {"city": "THOUSAND OAKS", "state": "CA", "street": "227 W JANSS RD", "postcode": "91360"}}},
{"geometry": {"type": "Point", "coordinates": [-118.8686576648, 34.1796157381]}, "type": "Feature", "properties": {"collection_times": [{"days": "Mon-Fri", "time": "3:00pm"}, {"days": "Sat", "time": "10:00am"}, {"days": "Sun", "time": "Closed"}], "id": "9136000030", "name": "USPS COLLECTION BOX - BLUE BOX", "address": {"city": "THOUSAND OAKS", "state": "CA", "street": "101 HODENCAMP RD", "postcode": "91360"}}},
{"geometry": {"type": "Point", "coordinates": [-118.8715028853, 34.1812911545]}, "type": "Feature", "properties": {"collection_times": [{"days": "Mon-Fri", "time": "3:00pm"}, {"days": "Sat", "time": "10:00am"}, {"days": "Sun", "time": "Closed"}], "id": "9136000046", "name": "USPS COLLECTION BOX - BLUE BOX", "address": {"city": "THOUSAND OAKS", "state": "CA", "street": "275 E HILLCREST DR", "postcode": "91360"}}},
{"geometry": {"type": "Point", "coordinates": [-118.8842360514, 34.205938941]}, "type": "Feature", "properties": {"collection_times": [{"days": "Mon-Fri", "time": "3:00pm"}, {"days": "Sat", "time": "10:00am"}, {"days": "Sun", "time": "Closed"}], "id": "9136000057", "name": "USPS COLLECTION BOX - BLUE BOX", "address": {"city": "THOUSAND OAKS", "state": "CA", "street": "227 W JANSS RD", "postcode": "91360"}}},
{"geometry": {"type": "Point", "coordinates": [-118.885228554, 34.208445631]}, "type": "Feature", "properties": {"collection_times": [{"days": "Mon-Fri", "time": "3:00pm"}, {"days": "Sat", "time": "10:00am"}, {"days": "Sun", "time": "Closed"}], "id": "9136000058", "name": "USPS COLLECTION BOX - BLUE BOX", "address": {"city": "THOUSAND OAKS", "state": "CA", "street": "2220 LYNN RD", "postcode": "91360"}}},
{"geometry": {"type": "Point", "coordinates": [-118.882258144, 34.2064156734]}, "type": "Feature", "properties": {"collection_times": [{"days": "Mon-Sat", "time": "10:00am"}, {"days": "Sun", "time": "Closed"}], "id": "9136000060", "name": "USPS COLLECTION BOX - BLUE BOX", "address": {"city": "THOUSAND OAKS", "state": "CA", "street": "215 W JANSS RD", "postcode": "91360"}}},
{"geometry": {"type": "Point", "coordinates": [-118.8757829255, 34.1829789392]}, "type": "Feature", "properties": {"collection_times": [{"days": "Mon-Fri", "time": "5:00pm"}, {"days": "Sat", "time": "3:00pm"}, {"days": "Sun", "time": "Closed"}], "id": "9136000062", "name": "USPS COLLECTION BOX - PO LOBBY", "address": {"city": "THOUSAND OAKS", "state": "CA", "street": "235 N MOORPARK RD", "postcode": "91360"}}},
{"geometry": {"type": "Point", "coordinates": [-118.8830554584, 34.1893893451]}, "type": "Feature", "properties": {"collection_times": [{"days": "Mon-Fri", "time": "3:00pm"}, {"days": "Sat", "time": "10:00am"}, {"days": "Sun", "time": "Closed"}], "id": "9136000066", "name": "USPS COLLECTION BOX - BLUE BOX", "address": {"city": "THOUSAND OAKS", "state": "CA", "street": "250 MCCLOUD AVE", "postcode": "91360"}}},
{"geometry": {"type": "Point", "coordinates": [-118.8667885896, 34.1777182719]}, "type": "Feature", "properties": {"collection_times": [{"days": "Mon-Fri", "time": "3:00pm"}, {"days": "Sat", "time": "10:00am"}, {"days": "Sun", "time": "Closed"}], "id": "9136000069", "name": "USPS COLLECTION BOX - BLUE BOX", "address": {"city": "THOUSAND OAKS", "state": "CA", "street": "88 LONG CT", "postcode": "91360"}}},
{"geometry": {"type": "Point", "coordinates": [-118.8724662552, 34.1792281187]}, "type": "Feature", "properties": {"collection_times": [{"days": "Mon-Fri", "time": "3:00pm"}, {"days": "Sat", "time": "10:00am"}, {"days": "Sun", "time": "Closed"}], "id": "9136000072", "name": "USPS COLLECTION BOX - BLUE BOX", "address": {"city": "THOUSAND OAKS", "state": "CA", "street": "223 E THOUSAND OAKS BLVD", "postcode": "91360"}}},
{"geometry": {"type": "Point", "coordinates": [-118.8681386148, 34.2012977854]}, "type": "Feature", "properties": {"collection_times": [{"days": "Mon-Sat", "time": "10:00am"}, {"days": "Sun", "time": "Closed"}], "id": "9136000073", "name": "USPS COLLECTION BOX - BLUE BOX", "address": {"city": "THOUSAND OAKS", "state": "CA", "street": "1764 N MOORPARK RD", "postcode": "91360"}}},
{"geometry": {"type": "Point", "coordinates": [-118.8757829255, 34.1829789392]}, "type": "Feature", "properties": {"collection_times": [{"days": "Mon-Fri", "time": "5:00pm"}, {"days": "Sat", "time": "3:00pm"}, {"days": "Sun", "time": "Closed"}], "id": "9136000074", "name": "USPS COLLECTION BOX - APC", "address": {"city": "THOUSAND OAKS", "state": "CA", "street": "235 N MOORPARK RD", "postcode": "91360"}}},
{"geometry": {"type": "Point", "coordinates": [-118.8667885896, 34.1777182719]}, "type": "Feature", "properties": {"collection_times": [{"days": "Mon-Fri", "time": "3:00pm"}, {"days": "Sat", "time": "10:00am"}, {"days": "Sun", "time": "Closed"}], "id": "9136000075", "name": "USPS COLLECTION BOX - BLUE BOX", "address": {"city": "THOUSAND OAKS", "state": "CA", "street": "88 LONG CT", "postcode": "91360"}}},
{"geometry": {"type": "Point", "coordinates": [-118.8667885896, 34.1777182719]}, "type": "Feature", "properties": {"collection_times": [{"days": "Mon-Fri", "time": "3:00pm"}, {"days": "Sat", "time": "10:00am"}, {"days": "Sun", "time": "Closed"}], "id": "9136000076", "name": "USPS COLLECTION BOX - BLUE BOX", "address": {"city": "THOUSAND OAKS", "state": "CA", "street": "88 LONG CT", "postcode": "91360"}}},
{"geometry": {"type": "Point", "coordinates": [-118.8739041932, 34.1786613923]}, "type": "Feature", "properties": {"collection_times": [{"days": "Mon-Fri", "time": "3:00pm"}, {"days": "Sat", "time": "10:00am"}, {"days": "Sun", "time": "Closed"}], "id": "9136000078", "name": "USPS COLLECTION BOX - BLUE BOX", "address": {"city": "THOUSAND OAKS", "state": "CA", "street": "50 BAKER ST", "postcode": "91360"}}},
{"geometry": {"type": "Point", "coordinates": [-118.8739041932, 34.1786613923]}, "type": "Feature", "properties": {"collection_times": [{"days": "Mon-Fri", "time": "3:00pm"}, {"days": "Sat", "time": "10:00am"}, {"days": "Sun", "time": "Closed"}], "id": "9136000079", "name": "USPS COLLECTION BOX - BLUE BOX", "address": {"city": "THOUSAND OAKS", "state": "CA", "street": "50 BAKER ST", "postcode": "91360"}}},
{"geometry": {"type": "Point", "coordinates": [-118.8842360514, 34.205938941]}, "type": "Feature", "properties": {"collection_times": [{"days": "Mon-Fri", "time": "3:00pm"}, {"days": "Sat", "time": "10:00am"}, {"days": "Sun", "time": "Closed"}], "id": "9136000081", "name": "USPS COLLECTION BOX - BLUE BOX", "address": {"city": "THOUSAND OAKS", "state": "CA", "street": "227 W JANSS RD", "postcode": "91360"}}},
{"geometry": {"type": "Point", "coordinates": [-118.86943026, 34.2271388388]}, "type": "Feature", "properties": {"collection_times": [{"days": "Mon-Sat", "time": "10:00am"}, {"days": "Sun", "time": "Closed"}], "id": "9136000084", "name": "USPS COLLECTION BOX - BLUE BOX", "address": {"city": "THOUSAND OAKS", "state": "CA", "street": "3505 N MOORPARK RD", "postcode": "91360"}}},
{"geometry": {"type": "Point", "coordinates": [-118.8065402287, 34.1454793853]}, "type": "Feature", "properties": {"collection_times": [{"days": "Mon-Sat", "time": "10:00am"}, {"days": "Sun", "time": "Closed"}], "id": "9136100002", "name": "USPS COLLECTION BOX - BLUE BOX", "address": {"city": "THOUSAND OAKS", "state": "CA", "street": "31525 LINDERO CANYON RD", "postcode": "91361"}}},
{"geometry": {"type": "Point", "coordinates": [-118.8222206106, 34.1381861492]}, "type": "Feature", "properties": {"collection_times": [{"days": "Mon-Fri", "time": "3:00pm"}, {"days": "Sat", "time": "10:00am"}, {"days": "Sun", "time": "Closed"}], "id": "9136100003", "name": "USPS COLLECTION BOX - BLUE BOX", "address": {"city": "THOUSAND OAKS", "state": "CA", "street": "32121 LINDERO CANYON RD", "postcode": "91361"}}},
{"geometry": {"type": "Point", "coordinates": [-118.835706107, 34.1513124077]}, "type": "Feature", "properties": {"collection_times": [{"days": "Mon-Sat", "time": "10:00am"}, {"days": "Sun", "time": "Closed"}], "id": "9136100004", "name": "USPS COLLECTION BOX - BLUE BOX", "address": {"city": "THOUSAND OAKS", "state": "CA", "street": "1240 S WESTLAKE BLVD", "postcode": "91361"}}},
{"geometry": {"type": "Point", "coordinates": [-118.828006533, 34.153437035]}, "type": "Feature", "properties": {"collection_times": [{"days": "Mon-Fri", "time": "3:00pm"}, {"days": "Sat", "time": "10:00am"}, {"days": "Sun", "time": "Closed"}], "id": "9136100006", "name": "USPS COLLECTION BOX - BLUE BOX", "address": {"city": "THOUSAND OAKS", "state": "CA", "street": "968 S WESTLAKE BLVD", "postcode": "91361"}}},
{"geometry": {"type": "Point", "coordinates": [-118.8285079408, 34.1531528061]}, "type": "Feature", "properties": {"collection_times": [{"days": "Mon-Fri", "time": "3:00pm"}, {"days": "Sat", "time": "10:00am"}, {"days": "Sun", "time": "Closed"}], "id": "9136100007", "name": "USPS COLLECTION BOX - BLUE BOX", "address": {"city": "THOUSAND OAKS", "state": "CA", "street": "971 S WESTLAKE BLVD", "postcode": "91361"}}},
{"geometry": {"type": "Point", "coordinates": [-118.815136199, 34.1466634205]}, "type": "Feature", "properties": {"collection_times": [{"days": "Mon-Sat", "time": "10:00am"}, {"days": "Sun", "time": "Closed"}], "id": "9136100008", "name": "USPS COLLECTION BOX - BLUE BOX", "address": {"city": "THOUSAND OAKS", "state": "CA", "street": "31850 VILLAGE CENTER RD", "postcode": "91361"}}},
{"geometry": {"type": "Point", "coordinates": [-118.7959979593, 34.1449006243]}, "type": "Feature", "properties": {"collection_times": [{"days": "Mon-Fri", "time": "3:00pm"}, {"days": "Sat", "time": "10:00am"}, {"days": "Sun", "time": "Closed"}], "id": "9136100011", "name": "USPS COLLECTION BOX - BLUE BOX", "address": {"city": "THOUSAND OAKS", "state": "CA", "street": "30961 AGOURA RD", "postcode": "91361"}}},
{"geometry": {"type": "Point", "coordinates": [-118.8226618444, 34.1486477013]}, "type": "Feature", "properties": {"collection_times": [{"days": "Mon-Fri", "time": "3:00pm"}, {"days": "Sat", "time": "10:00am"}, {"days": "Sun", "time": "Closed"}], "id": "9136100014", "name": "USPS COLLECTION BOX - BLUE BOX", "address": {"city": "THOUSAND OAKS", "state": "CA", "street": "1220 LA VENTA DR", "postcode": "91361"}}},
{"geometry": {"type": "Point", "coordinates": [-118.8431033853, 34.1474853896]}, "type": "Feature", "properties": {"collection_times": [{"days": "Mon-Sat", "time": "10:00am"}, {"days": "Sun", "time": "Closed"}], "id": "9136100015", "name": "USPS COLLECTION BOX - BLUE BOX", "address": {"city": "THOUSAND OAKS", "state": "CA", "street": "1860 BRIDGEGATE ST", "postcode": "91361"}}},
{"geometry": {"type": "Point", "coordinates": [-118.8210057118, 34.1485500527]}, "type": "Feature", "properties": {"collection_times": [{"days": "Mon-Fri", "time": "3:00pm"}, {"days": "Sat", "time": "10:00am"}, {"days": "Sun", "time": "Closed"}], "id": "9136100016", "name": "USPS COLLECTION BOX - BLUE BOX", "address": {"city": "THOUSAND OAKS", "state": "CA", "street": "32144 AGOURA RD", "postcode": "91361"}}},
{"geometry": {"type": "Point", "coordinates": [-118.8765278908, 34.1736619056]}, "type": "Feature", "properties": {"collection_times": [{"days": "Mon-Fri", "time": "3:00pm"}, {"days": "Sat", "time": "10:00am"}, {"days": "Sun", "time": "Closed"}], "id": "9136100017", "name": "USPS COLLECTION BOX - BLUE BOX", "address": {"city": "THOUSAND OAKS", "state": "CA", "street": "301 S MOORPARK RD", "postcode": "91361"}}},
{"geometry": {"type": "Point", "coordinates": [-118.886543682, 34.1471533419]}, "type": "Feature", "properties": {"collection_times": [{"days": "Mon-Sat", "time": "10:00am"}, {"days": "Sun", "time": "Closed"}], "id": "9136100019", "name": "USPS COLLECTION BOX - BLUE BOX", "address": {"city": "THOUSAND OAKS", "state": "CA", "street": "32800 TRIUNFO CANYON RD", "postcode": "91361"}}},
{"geometry": {"type": "Point", "coordinates": [-118.8308027629, 34.1573951538]}, "type": "Feature", "properties": {"collection_times": [{"days": "Mon-Fri", "time": "3:00pm"}, {"days": "Sat", "time": "10:00am"}, {"days": "Sun", "time": "Closed"}], "id": "9136100021", "name": "USPS COLLECTION BOX - BLUE BOX", "address": {"city": "THOUSAND OAKS", "state": "CA", "street": "756 LAKEFIELD RD", "postcode": "91361"}}},
{"geometry": {"type": "Point", "coordinates": [-118.835706107, 34.1513124077]}, "type": "Feature", "properties": {"collection_times": [{"days": "Mon-Fri", "time": "3:00pm"}, {"days": "Sat", "time": "10:00am"}, {"days": "Sun", "time": "Closed"}], "id": "9136100022", "name": "USPS COLLECTION BOX - BLUE BOX", "address": {"city": "THOUSAND OAKS", "state": "CA", "street": "390 HAMPSHIRE RD", "postcode": "91361"}}},
{"geometry": {"type": "Point", "coordinates": [-118.8237241515, 34.1530157228]}, "type": "Feature", "properties": {"collection_times": [{"days": "Mon-Fri", "time": "3:00pm"}, {"days": "Sat", "time": "10:00am"}, {"days": "Sun", "time": "Closed"}], "id": "9136100024", "name": "USPS COLLECTION BOX - BLUE BOX", "address": {"city": "THOUSAND OAKS", "state": "CA", "street": "2829 TOWNSGATE RD", "postcode": "91361"}}},
{"geometry": {"type": "Point", "coordinates": [-118.8313802619, 34.1550492293]}, "type": "Feature", "properties": {"collection_times": [{"days": "Mon-Fri", "time": "3:00pm"}, {"days": "Sat", "time": "10:00am"}, {"days": "Sun", "time": "Closed"}], "id": "9136100025", "name": "USPS COLLECTION BOX - BLUE BOX", "address": {"city": "THOUSAND OAKS", "state": "CA", "street": "850 HAMPSHIRE RD", "postcode": "91361"}}},
{"geometry": {"type": "Point", "coordinates": [-118.8710709011, 34.1743385581]}, "type": "Feature", "properties": {"collection_times": [{"days": "Mon-Fri", "time": "3:00pm"}, {"days": "Sat", "time": "10:00am"}, {"days": "Sun", "time": "Closed"}], "id": "9136100026", "name": "USPS COLLECTION BOX - BLUE BOX", "address": {"city": "THOUSAND OAKS", "state": "CA", "street": "351 ROLLING OAKS DR", "postcode": "91361"}}},
{"geometry": {"type": "Point", "coordinates": [-118.8222206106, 34.1381861492]}, "type": "Feature", "properties": {"collection_times": [{"days": "Mon-Fri", "time": "3:00pm"}, {"days": "Sat", "time": "10:00am"}, {"days": "Sun", "time": "Closed"}], "id": "9136100029", "name": "USPS COLLECTION BOX - BLUE BOX", "address": {"city": "THOUSAND OAKS", "state": "CA", "street": "32121 LINDERO CANYON RD", "postcode": "91361"}}},
{"geometry": {"type": "Point", "coordinates": [-118.828006533, 34.153437035]}, "type": "Feature", "properties": {"collection_times": [{"days": "Mon-Fri", "time": "3:00pm"}, {"days": "Sat", "time": "10:00am"}, {"days": "Sun", "time": "Closed"}], "id": "9136100031", "name": "USPS COLLECTION BOX - BLUE BOX", "address": {"city": "THOUSAND OAKS", "state": "CA", "street": "968 S WESTLAKE BLVD", "postcode": "91361"}}},
{"geometry": {"type": "Point", "coordinates": [-118.8313802619, 34.1550492293]}, "type": "Feature", "properties": {"collection_times": [{"days": "Mon-Fri", "time": "3:00pm"}, {"days": "Sat", "time": "10:00am"}, {"days": "Sun", "time": "Closed"}], "id": "9136100034", "name": "USPS COLLECTION BOX - BLUE BOX", "address": {"city": "THOUSAND OAKS", "state": "CA", "street": "850 HAMPSHIRE RD", "postcode": "91361"}}},
{"geometry": {"type": "Point", "coordinates": [-118.8726497358, 34.1751225328]}, "type": "Feature", "properties": {"collection_times": [{"days": "Mon-Fri", "time": "3:00pm"}, {"days": "Sat", "time": "10:00am"}, {"days": "Sun", "time": "Closed"}], "id": "9136100036", "name": "USPS COLLECTION BOX - BLUE BOX", "address": {"city": "THOUSAND OAKS", "state": "CA", "street": "351 ROLLING OAKS DR", "postcode": "91361"}}},
{"geometry": {"type": "Point", "coordinates": [-118.8308027629, 34.1573951538]}, "type": "Feature", "properties": {"collection_times": [{"days": "Mon-Fri", "time": "3:00pm"}, {"days": "Sat", "time": "10:00am"}, {"days": "Sun", "time": "Closed"}], "id": "9136100037", "name": "USPS COLLECTION BOX - BLUE BOX", "address": {"city": "THOUSAND OAKS", "state": "CA", "street": "756 LAKEFIELD RD", "postcode": "91361"}}},
{"geometry": {"type": "Point", "coordinates": [-118.8237241515, 34.1530157228]}, "type": "Feature", "properties": {"collection_times": [{"days": "Mon-Fri", "time": "3:00pm"}, {"days": "Sat", "time": "10:00am"}, {"days": "Sun", "time": "Closed"}], "id": "9136100040", "name": "USPS COLLECTION BOX - BLUE BOX", "address": {"city": "THOUSAND OAKS", "state": "CA", "street": "2829 TOWNSGATE RD", "postcode": "91361"}}},
{"geometry": {"type": "Point", "coordinates": [-118.835706107, 34.1513124077]}, "type": "Feature", "properties": {"collection_times": [{"days": "Mon-Fri", "time": "3:00pm"}, {"days": "Sat", "time": "10:00am"}, {"days": "Sun", "time": "Closed"}], "id": "9136100043", "name": "USPS COLLECTION BOX - EXPRESS", "address": {"city": "THOUSAND OAKS", "state": "CA", "street": "30961 AGOURA RD", "postcode": "91361"}}},
{"geometry": {"type": "Point", "coordinates": [-118.8285352456, 34.1557353455]}, "type": "Feature", "properties": {"collection_times": [{"days": "Mon-Fri", "time": "3:00pm"}, {"days": "Sat", "time": "10:00am"}, {"days": "Sun", "time": "Closed"}], "id": "9136100047", "name": "USPS COLLECTION BOX - BLUE BOX", "address": {"city": "THOUSAND OAKS", "state": "CA", "street": "2663 TOWNSGATE RD", "postcode": "91361"}}},
{"geometry": {"type": "Point", "coordinates": [-118.835706107, 34.1513124077]}, "type": "Feature", "properties": {"collection_times": [{"days": "Mon-Fri", "time": "3:00pm"}, {"days": "Sat", "time": "10:00am"}, {"days": "Sun", "time": "Closed"}], "id": "9136100052", "name": "USPS COLLECTION BOX - BLUE BOX", "address": {"city": "THOUSAND OAKS", "state": "CA", "street": "390 HAMPSHIRE RD", "postcode": "91361"}}},
{"geometry": {"type": "Point", "coordinates": [-118.835706107, 34.1513124077]}, "type": "Feature", "properties": {"collection_times": [{"days": "Mon-Fri", "time": "3:00pm"}, {"days": "Sat", "time": "10:00am"}, {"days": "Sun", "time": "Closed"}], "id": "9136100053", "name": "USPS COLLECTION BOX - BLUE BOX", "address": {"city": "THOUSAND OAKS", "state": "CA", "street": "390 HAMPSHIRE RD", "postcode": "91361"}}},
{"geometry": {"type": "Point", "coordinates": [-118.8256274191, 34.1507264222]}, "type": "Feature", "properties": {"collection_times": [{"days": "Mon-Fri", "time": "3:00pm"}, {"days": "Sat", "time": "10:00am"}, {"days": "Sun", "time": "Closed"}], "id": "9136100056", "name": "USPS COLLECTION BOX - BLUE BOX", "address": {"city": "THOUSAND OAKS", "state": "CA", "street": "2791 AGOURA RD", "postcode": "91361"}}},
{"geometry": {"type": "Point", "coordinates": [-118.7994266993, 34.1449818654]}, "type": "Feature", "properties": {"collection_times": [{"days": "Mon-Sat", "time": "10:00am"}, {"days": "Sun", "time": "Closed"}], "id": "9136100058", "name": "USPS COLLECTION BOX - BLUE BOX", "address": {"city": "THOUSAND OAKS", "state": "CA", "street": "31200 OAKCREST DR", "postcode": "91361"}}},
{"geometry": {"type": "Point", "coordinates": [-118.8017224278, 34.1445577684]}, "type": "Feature", "properties": {"collection_times": [{"days": "Mon-Fri", "time": "3:00pm"}, {"days": "Sat", "time": "10:00am"}, {"days": "Sun", "time": "Closed"}], "id": "9136100059", "name": "USPS COLLECTION BOX - BLUE BOX", "address": {"city": "THOUSAND OAKS", "state": "CA", "street": "4371 PARK TERRACE DR", "postcode": "91361"}}},
{"geometry": {"type": "Point", "coordinates": [-118.8313802619, 34.1550492293]}, "type": "Feature", "properties": {"collection_times": [{"days": "Mon-Fri", "time": "3:00pm"}, {"days": "Sat", "time": "10:00am"}, {"days": "Sun", "time": "Closed"}], "id": "9136100061", "name": "USPS COLLECTION BOX - BLUE BOX", "address": {"city": "THOUSAND OAKS", "state": "CA", "street": "850 HAMPSHIRE RD", "postcode": "91361"}}},
{"geometry": {"type": "Point", "coordinates": [-118.886543682, 34.1471533419]}, "type": "Feature", "properties": {"collection_times": [{"days": "Mon-Sat", "time": "10:00am"}, {"days": "Sun", "time": "Closed"}], "id": "9136100062", "name": "USPS COLLECTION BOX - BLUE BOX", "address": {"city": "THOUSAND OAKS", "state": "CA", "street": "1 HASSET AVE", "postcode": "91361"}}},
{"geometry": {"type": "Point", "coordinates": [-118.8285079408, 34.1531528061]}, "type": "Feature", "properties": {"collection_times": [{"days": "Mon-Fri", "time": "3:00pm"}, {"days": "Sat", "time": "10:00am"}, {"days": "Sun", "time": "Closed"}], "id": "9136100063", "name": "USPS COLLECTION BOX - BLUE BOX", "address": {"city": "THOUSAND OAKS", "state": "CA", "street": "971 S WESTLAKE BLVD", "postcode": "91361"}}},
{"geometry": {"type": "Point", "coordinates": [-118.8237241515, 34.1530157228]}, "type": "Feature", "properties": {"collection_times": [{"days": "Mon-Fri", "time": "3:00pm"}, {"days": "Sat", "time": "10:00am"}, {"days": "Sun", "time": "Closed"}], "id": "9136100067", "name": "USPS COLLECTION BOX - BLUE BOX", "address": {"city": "THOUSAND OAKS", "state": "CA", "street": "2829 TOWNSGATE RD", "postcode": "91361"}}},
{"geometry": {"type": "Point", "coordinates": [-118.8286334312, 34.1561446493]}, "type": "Feature", "properties": {"collection_times": [{"days": "Mon-Fri", "time": "3:00pm"}, {"days": "Sat", "time": "10:00am"}, {"days": "Sun", "time": "Closed"}], "id": "9136100068", "name": "USPS COLLECTION BOX - BLUE BOX", "address": {"city": "THOUSAND OAKS", "state": "CA", "street": "2660 TOWNSGATE RD", "postcode": "91361"}}},
{"geometry": {"type": "Point", "coordinates": [-118.8285352456, 34.1557353455]}, "type": "Feature", "properties": {"collection_times": [{"days": "Mon-Fri", "time": "3:00pm"}, {"days": "Sat", "time": "10:00am"}, {"days": "Sun", "time": "Closed"}], "id": "9136100069", "name": "USPS COLLECTION BOX - BLUE BOX", "address": {"city": "THOUSAND OAKS", "state": "CA", "street": "2663 TOWNSGATE RD", "postcode": "91361"}}},
{"geometry": {"type": "Point", "coordinates": [-118.8226618444, 34.1486477013]}, "type": "Feature", "properties": {"collection_times": [{"days": "Mon-Fri", "time": "3:00pm"}, {"days": "Sat", "time": "10:00am"}, {"days": "Sun", "time": "Closed"}], "id": "9136100070", "name": "USPS COLLECTION BOX - BLUE BOX", "address": {"city": "THOUSAND OAKS", "state": "CA", "street": "1220 LA VENTA DR", "postcode": "91361"}}},
{"geometry": {"type": "Point", "coordinates": [-118.7861864976, 34.1839394531]}, "type": "Feature", "properties": {"collection_times": [{"days": "Mon-Sat", "time": "10:00am"}, {"days": "Sun", "time": "Closed"}], "id": "9136200002", "name": "USPS COLLECTION BOX - BLUE BOX", "address": {"city": "WESTLAKE VLG", "state": "CA", "street": "1135 LINDERO CANYON RD", "postcode": "91362"}}},
{"geometry": {"type": "Point", "coordinates": [-118.8529866591, 34.1996014994]}, "type": "Feature", "properties": {"collection_times": [{"days": "Mon-Sat", "time": "10:00am"}, {"days": "Sun", "time": "Closed"}], "id": "9136200006", "name": "USPS COLLECTION BOX - BLUE BOX", "address": {"city": "WESTLAKE VLG", "state": "CA", "street": "1385 E JANSS RD", "postcode": "91362"}}},
{"geometry": {"type": "Point", "coordinates": [-118.7999123705, 34.1531304698]}, "type": "Feature", "properties": {"collection_times": [{"days": "Mon-Fri", "time": "3:00pm"}, {"days": "Sat", "time": "10:00am"}, {"days": "Sun", "time": "Closed"}], "id": "9136200007", "name": "USPS COLLECTION BOX - BLUE BOX", "address": {"city": "WESTLAKE VLG", "state": "CA", "street": "5655 LINDERO CANYON RD", "postcode": "91362"}}},
{"geometry": {"type": "Point", "coordinates": [-118.8063593924, 34.1564974475]}, "type": "Feature", "properties": {"collection_times": [{"days": "Mon-Fri", "time": "3:00pm"}, {"days": "Sat", "time": "10:00am"}, {"days": "Sun", "time": "Closed"}], "id": "9136200008", "name": "USPS COLLECTION BOX - BLUE BOX", "address": {"city": "WESTLAKE VLG", "state": "CA", "street": "31368 VIA COLINAS", "postcode": "91362"}}},
{"geometry": {"type": "Point", "coordinates": [-118.8412425908, 34.2113119406]}, "type": "Feature", "properties": {"collection_times": [{"days": "Mon-Sat", "time": "10:00am"}, {"days": "Sun", "time": "Closed"}], "id": "9136200009", "name": "USPS COLLECTION BOX - BLUE BOX", "address": {"city": "WESTLAKE VLG", "state": "CA", "street": "2048 AVE DE LOS ARBOLES", "postcode": "91362"}}},
{"geometry": {"type": "Point", "coordinates": [-118.8180233909, 34.1589676242]}, "type": "Feature", "properties": {"collection_times": [{"days": "Mon-Fri", "time": "3:00pm"}, {"days": "Sat", "time": "10:00am"}, {"days": "Sun", "time": "Closed"}], "id": "9136200011", "name": "USPS COLLECTION BOX - BLUE BOX", "address": {"city": "WESTLAKE VLG", "state": "CA", "street": "4195 E THOUSAND OAKS BLVD", "postcode": "91362"}}},
{"geometry": {"type": "Point", "coordinates": [-118.799406064, 34.1568473269]}, "type": "Feature", "properties": {"collection_times": [{"days": "Mon-Fri", "time": "3:00pm"}, {"days": "Sat", "time": "10:00am"}, {"days": "Sun", "time": "Closed"}], "id": "9136200012", "name": "USPS COLLECTION BOX - BLUE BOX", "address": {"city": "WESTLAKE VLG", "state": "CA", "street": "5743 CORSA AVE", "postcode": "91362"}}},
{"geometry": {"type": "Point", "coordinates": [-118.793619004, 34.1556221875]}, "type": "Feature", "properties": {"collection_times": [{"days": "Mon-Sat", "time": "10:00am"}, {"days": "Sun", "time": "Closed"}], "id": "9136200013", "name": "USPS COLLECTION BOX - BLUE BOX", "address": {"city": "WESTLAKE VLG", "state": "CA", "street": "30855 E THOUSAND OAKS BLVD", "postcode": "91362"}}},
{"geometry": {"type": "Point", "coordinates": [-118.8547330548, 34.1779939013]}, "type": "Feature", "properties": {"collection_times": [{"days": "Mon-Fri", "time": "3:00pm"}, {"days": "Sat", "time": "10:00am"}, {"days": "Sun", "time": "Closed"}], "id": "9136200014", "name": "USPS COLLECTION BOX - BLUE BOX", "address": {"city": "WESTLAKE VLG", "state": "CA", "street": "1429 E THOUSAND OAKS BLVD", "postcode": "91362"}}},
{"geometry": {"type": "Point", "coordinates": [-118.8397079514, 34.2030822494]}, "type": "Feature", "properties": {"collection_times": [{"days": "Mon-Sat", "time": "10:00am"}, {"days": "Sun", "time": "Closed"}], "id": "9136200015", "name": "USPS COLLECTION BOX - BLUE BOX", "address": {"city": "WESTLAKE VLG", "state": "CA", "street": "1891 ERBES RD", "postcode": "91362"}}},
{"geometry": {"type": "Point", "coordinates": [-118.8224665962, 34.1618676922]}, "type": "Feature", "properties": {"collection_times": [{"days": "Mon-Fri", "time": "3:00pm"}, {"days": "Sat", "time": "10:00am"}, {"days": "Sun", "time": "Closed"}], "id": "9136200016", "name": "USPS COLLECTION BOX - BLUE BOX", "address": {"city": "WESTLAKE VLG", "state": "CA", "street": "200 N WESTLAKE BLVD", "postcode": "91362"}}},
{"geometry": {"type": "Point", "coordinates": [-118.8254004043, 34.1623421713]}, "type": "Feature", "properties": {"collection_times": [{"days": "Mon-Sat", "time": "10:00am"}, {"days": "Sun", "time": "Closed"}], "id": "9136200021", "name": "USPS COLLECTION BOX - BLUE BOX", "address": {"city": "WESTLAKE VLG", "state": "CA", "street": "3825 E THOUSAND OAKS BLVD", "postcode": "91362"}}},
{"geometry": {"type": "Point", "coordinates": [-118.8192785917, 34.1592794905]}, "type": "Feature", "properties": {"collection_times": [{"days": "Mon-Fri", "time": "3:00pm"}, {"days": "Sat", "time": "10:00am"}, {"days": "Sun", "time": "Closed"}], "id": "9136200025", "name": "USPS COLLECTION BOX - BLUE BOX", "address": {"city": "WESTLAKE VLG", "state": "CA", "street": "4165 E THOUSAND OAKS BLVD", "postcode": "91362"}}},
{"geometry": {"type": "Point", "coordinates": [-118.822466596, 34.161867692]}, "type": "Feature", "properties": {"collection_times": [{"days": "Mon-Fri", "time": "3:00pm"}, {"days": "Sat", "time": "10:00am"}, {"days": "Sun", "time": "Closed"}], "id": "9136200029", "name": "USPS COLLECTION BOX - BLUE BOX", "address": {"city": "WESTLAKE VLG", "state": "CA", "street": "200 N WESTLAKE BLVD", "postcode": "91362"}}},
{"geometry": {"type": "Point", "coordinates": [-118.7999123705, 34.1531304698]}, "type": "Feature", "properties": {"collection_times": [{"days": "Mon-Fri", "time": "3:00pm"}, {"days": "Sat", "time": "10:00am"}, {"days": "Sun", "time": "Closed"}], "id": "9136200031", "name": "USPS COLLECTION BOX - BLUE BOX", "address": {"city": "WESTLAKE VLG", "state": "CA", "street": "5655 LINDERO CANYON RD", "postcode": "91362"}}},
{"geometry": {"type": "Point", "coordinates": [-118.8063593924, 34.1564974475]}, "type": "Feature", "properties": {"collection_times": [{"days": "Mon-Fri", "time": "3:00pm"}, {"days": "Sat", "time": "10:00am"}, {"days": "Sun", "time": "Closed"}], "id": "9136200033", "name": "USPS COLLECTION BOX - BLUE BOX", "address": {"city": "WESTLAKE VLG", "state": "CA", "street": "31368 VIA COLINAS", "postcode": "91362"}}},
{"geometry": {"type": "Point", "coordinates": [-118.8063593924, 34.1564974475]}, "type": "Feature", "properties": {"collection_times": [{"days": "Mon-Fri", "time": "3:00pm"}, {"days": "Sat", "time": "10:00am"}, {"days": "Sun", "time": "Closed"}], "id": "9136200034", "name": "USPS COLLECTION BOX - BLUE BOX", "address": {"city": "WESTLAKE VLG", "state": "CA", "street": "31368 VIA COLINAS", "postcode": "91362"}}},
{"geometry": {"type": "Point", "coordinates": [-118.799406064, 34.1568473269]}, "type": "Feature", "properties": {"collection_times": [{"days": "Mon-Fri", "time": "3:00pm"}, {"days": "Sat", "time": "10:00am"}, {"days": "Sun", "time": "Closed"}], "id": "9136200036", "name": "USPS COLLECTION BOX - BLUE BOX", "address": {"city": "WESTLAKE VLG", "state": "CA", "street": "5743 CORSA AVE", "postcode": "91362"}}},
{"geometry": {"type": "Point", "coordinates": [-118.8464993055, 34.1749510251]}, "type": "Feature", "properties": {"collection_times": [{"days": "Mon-Sat", "time": "10:00am"}, {"days": "Sun", "time": "Closed"}], "id": "9136200038", "name": "USPS COLLECTION BOX - BLUE BOX", "address": {"city": "WESTLAKE VLG", "state": "CA", "street": "2100 E THOUSAND OAKS BLVD", "postcode": "91362"}}},
{"geometry": {"type": "Point", "coordinates": [-118.8238876921, 34.1818708314]}, "type": "Feature", "properties": {"collection_times": [{"days": "Mon-Sat", "time": "5:00pm"}, {"days": "Sun", "time": "Closed"}], "id": "9136200043", "name": "USPS COLLECTION BOX - BLUE BOX", "address": {"city": "WESTLAKE VLG", "state": "CA", "street": "3435 E THOUSAND OAKS BLVD", "postcode": "91362"}}},
{"geometry": {"type": "Point", "coordinates": [-118.8238876921, 34.1818708314]}, "type": "Feature", "properties": {"collection_times": [{"days": "Mon-Sat", "time": "5:00pm"}, {"days": "Sun", "time": "Closed"}], "id": "9136200044", "name": "USPS COLLECTION BOX - BLUE BOX", "address": {"city": "WESTLAKE VLG", "state": "CA", "street": "3435 E THOUSAND OAKS BLVD", "postcode": "91362"}}},
{"geometry": {"type": "Point", "coordinates": [-118.8238876921, 34.1818708314]}, "type": "Feature", "properties": {"collection_times": [{"days": "Mon-Sat", "time": "5:00pm"}, {"days": "Sun", "time": "Closed"}], "id": "9136200045", "name": "USPS COLLECTION BOX - BLUE BOX", "address": {"city": "WESTLAKE VLG", "state": "CA", "street": "3435 E THOUSAND OAKS BLVD", "postcode": "91362"}}},
{"geometry": {"type": "Point", "coordinates": [-118.8238876921, 34.1818708314]}, "type": "Feature", "properties": {"collection_times": [{"days": "Mon-Sat", "time": "5:00pm"}, {"days": "Sun", "time": "Closed"}], "id": "9136200046", "name": "USPS COLLECTION BOX - EXPRESS", "address": {"city": "WESTLAKE VLG", "state": "CA", "street": "3435 E THOUSAND OAKS BLVD", "postcode": "91362"}}},
{"geometry": {"type": "Point", "coordinates": [-118.8238876921, 34.1818708314]}, "type": "Feature", "properties": {"collection_times": [{"days": "Mon-Sat", "time": "5:00pm"}, {"days": "Sun", "time": "Closed"}], "id": "9136200048", "name": "USPS COLLECTION BOX - PO LOBBY", "address": {"city": "WESTLAKE VLG", "state": "CA", "street": "3435 E THOUSAND OAKS BLVD", "postcode": "91362"}}},
{"geometry": {"type": "Point", "coordinates": [-118.8238876921, 34.1818708314]}, "type": "Feature", "properties": {"collection_times": [{"days": "Mon-Sat", "time": "5:00pm"}, {"days": "Sun", "time": "Closed"}], "id": "9136200049", "name": "USPS COLLECTION BOX - PO LOBBY", "address": {"city": "WESTLAKE VLG", "state": "CA", "street": "3435 E THOUSAND OAKS BLVD", "postcode": "91362"}}},
{"geometry": {"type": "Point", "coordinates": [-118.8335717561, 34.1725552895]}, "type": "Feature", "properties": {"collection_times": [{"days": "Mon-Sat", "time": "10:00am"}, {"days": "Sun", "time": "Closed"}], "id": "9136200050", "name": "USPS COLLECTION BOX - BLUE BOX", "address": {"city": "WESTLAKE VLG", "state": "CA", "street": "2985 E HILLCREST DR", "postcode": "91362"}}},
{"geometry": {"type": "Point", "coordinates": [-118.8077613032, 34.1538508918]}, "type": "Feature", "properties": {"collection_times": [{"days": "Mon-Fri", "time": "3:00pm"}, {"days": "Sat", "time": "10:00am"}, {"days": "Sun", "time": "Closed"}], "id": "9136200051", "name": "USPS COLLECTION BOX - BLUE BOX", "address": {"city": "WESTLAKE VLG", "state": "CA", "street": "31255 CEDAR VALLEY DR", "postcode": "91362"}}},
{"geometry": {"type": "Point", "coordinates": [-118.8238876921, 34.1818708314]}, "type": "Feature", "properties": {"collection_times": [{"days": "Mon-Sat", "time": "5:00pm"}, {"days": "Sun", "time": "Closed"}], "id": "9136200053", "name": "USPS COLLECTION BOX - APC", "address": {"city": "WESTLAKE VLG", "state": "CA", "street": "3435 E THOUSAND OAKS BLVD", "postcode": "91362"}}},
{"geometry": {"type": "Point", "coordinates": [-118.8459874392, 34.211329685]}, "type": "Feature", "properties": {"collection_times": [{"days": "Mon-Sat", "time": "10:00am"}, {"days": "Sun", "time": "Closed"}], "id": "9136200055", "name": "USPS COLLECTION BOX - BLUE BOX", "address": {"city": "WESTLAKE VLG", "state": "CA", "street": "1822 E AVENIDA DE LOS ARBOLES", "postcode": "91362"}}},
{"geometry": {"type": "Point", "coordinates": [-118.8123736602, 34.1570874676]}, "type": "Feature", "properties": {"collection_times": [{"days": "Mon-Fri", "time": "3:00pm"}, {"days": "Sat", "time": "10:00am"}, {"days": "Sun", "time": "Closed"}], "id": "9136200056", "name": "USPS COLLECTION BOX - BLUE BOX", "address": {"city": "WESTLAKE VLG", "state": "CA", "street": "4500 E THOUSAND OAKS BLVD", "postcode": "91362"}}},
{"geometry": {"type": "Point", "coordinates": [-118.8077613032, 34.1538508918]}, "type": "Feature", "properties": {"collection_times": [{"days": "Mon-Fri", "time": "3:00pm"}, {"days": "Sat", "time": "10:00am"}, {"days": "Sun", "time": "Closed"}], "id": "9136200057", "name": "USPS COLLECTION BOX - BLUE BOX", "address": {"city": "WESTLAKE VLG", "state": "CA", "street": "31255 CEDAR VALLEY DR", "postcode": "91362"}}},
{"geometry": {"type": "Point", "coordinates": [-118.8238876921, 34.1818708314]}, "type": "Feature", "properties": {"collection_times": [{"days": "Mon-Sat", "time": "5:00pm"}, {"days": "Sun", "time": "Closed"}], "id": "9136200058", "name": "USPS COLLECTION BOX - APC", "address": {"city": "WESTLAKE VLG", "state": "CA", "street": "3435 E THOUSAND OAKS BLVD", "postcode": "91362"}}},
{"geometry": {"type": "Point", "coordinates": [-118.6043706842, 34.1683888276]}, "type": "Feature", "properties": {"collection_times": [{"days": "Mon-Sat", "time": "10:00am"}, {"days": "Sun", "time": "Closed"}], "id": "9136400010", "name": "USPS COLLECTION BOX - BLUE BOX", "address": {"city": "WOODLAND HILLS", "state": "CA", "street": "21928 VENTURA BLVD", "postcode": "91364"}}},
{"geometry": {"type": "Point", "coordinates": [-118.6058836537, 34.1562808795]}, "type": "Feature", "properties": {"collection_times": [{"days": "Mon-Sat", "time": "10:00am"}, {"days": "Sun", "time": "Closed"}], "id": "9136400014", "name": "USPS COLLECTION BOX - BLUE BOX", "address": {"city": "WOODLAND HILLS", "state": "CA", "street": "4869 TOPANGA CANYON BLVD", "postcode": "91364"}}},
{"geometry": {"type": "Point", "coordinates": [-118.5762905396, 34.169010511]}, "type": "Feature", "properties": {"collection_times": [{"days": "Mon-Fri", "time": "3:00pm"}, {"days": "Sat", "time": "10:00am"}, {"days": "Sun", "time": "Closed"}], "id": "9136400018", "name": "USPS COLLECTION BOX - BLUE BOX", "address": {"city": "WOODLAND HILLS", "state": "CA", "street": "20335 VENTURA BLVD", "postcode": "91364"}}},
{"geometry": {"type": "Point", "coordinates": [-118.5762905396, 34.169010511]}, "type": "Feature", "properties": {"collection_times": [{"days": "Mon-Fri", "time": "3:00pm"}, {"days": "Sat", "time": "10:00am"}, {"days": "Sun", "time": "Closed"}], "id": "9136400019", "name": "USPS COLLECTION BOX - BLUE BOX", "address": {"city": "WOODLAND HILLS", "state": "CA", "street": "20335 VENTURA BLVD", "postcode": "91364"}}},
{"geometry": {"type": "Point", "coordinates": [-118.5795708848, 34.1680404846]}, "type": "Feature", "properties": {"collection_times": [{"days": "Mon-Fri", "time": "3:00pm"}, {"days": "Sat", "time": "10:00am"}, {"days": "Sun", "time": "Closed"}], "id": "9136400024", "name": "USPS COLLECTION BOX - BLUE BOX", "address": {"city": "WOODLAND HILLS", "state": "CA", "street": "20501 VENTURA BLVD", "postcode": "91364"}}},
{"geometry": {"type": "Point", "coordinates": [-118.5845830819, 34.1667498764]}, "type": "Feature", "properties": {"collection_times": [{"days": "Mon-Fri", "time": "3:00pm"}, {"days": "Sat", "time": "10:00am"}, {"days": "Sun", "time": "Closed"}], "id": "9136400028", "name": "USPS COLLECTION BOX - BLUE BOX", "address": {"city": "WOODLAND HILLS", "state": "CA", "street": "20720 VENTURA BLVD", "postcode": "91364"}}},
{"geometry": {"type": "Point", "coordinates": [-118.5845830819, 34.1667498764]}, "type": "Feature", "properties": {"collection_times": [{"days": "Mon-Fri", "time": "3:00pm"}, {"days": "Sat", "time": "10:00am"}, {"days": "Sun", "time": "Closed"}], "id": "9136400029", "name": "USPS COLLECTION BOX - BLUE BOX", "address": {"city": "WOODLAND HILLS", "state": "CA", "street": "20720 VENTURA BLVD", "postcode": "91364"}}},
{"geometry": {"type": "Point", "coordinates": [-118.5845830819, 34.1667498764]}, "type": "Feature", "properties": {"collection_times": [{"days": "Mon-Fri", "time": "3:00pm"}, {"days": "Sat", "time": "10:00am"}, {"days": "Sun", "time": "Closed"}], "id": "9136400030", "name": "USPS COLLECTION BOX - BLUE BOX", "address": {"city": "WOODLAND HILLS", "state": "CA", "street": "20720 VENTURA BLVD", "postcode": "91364"}}},
{"geometry": {"type": "Point", "coordinates": [-118.5912481537, 34.1667547759]}, "type": "Feature", "properties": {"collection_times": [{"days": "Mon-Fri", "time": "3:00pm"}, {"days": "Sat", "time": "10:00am"}, {"days": "Sun", "time": "Closed"}], "id": "9136400034", "name": "USPS COLLECTION BOX - BLUE BOX", "address": {"city": "WOODLAND HILLS", "state": "CA", "street": "21021 VENTURA BLVD", "postcode": "91364"}}},
{"geometry": {"type": "Point", "coordinates": [-118.5912481537, 34.1667547759]}, "type": "Feature", "properties": {"collection_times": [{"days": "Mon-Fri", "time": "3:00pm"}, {"days": "Sat", "time": "10:00am"}, {"days": "Sun", "time": "Closed"}], "id": "9136400035", "name": "USPS COLLECTION BOX - BLUE BOX", "address": {"city": "WOODLAND HILLS", "state": "CA", "street": "21021 VENTURA BLVD", "postcode": "91364"}}},
{"geometry": {"type": "Point", "coordinates": [-118.5912481537, 34.1667547759]}, "type": "Feature", "properties": {"collection_times": [{"days": "Mon-Fri", "time": "3:00pm"}, {"days": "Sat", "time": "10:00am"}, {"days": "Sun", "time": "Closed"}], "id": "9136400036", "name": "USPS COLLECTION BOX - BLUE BOX", "address": {"city": "WOODLAND HILLS", "state": "CA", "street": "21021 VENTURA BLVD", "postcode": "91364"}}},
{"geometry": {"type": "Point", "coordinates": [-118.5950019903, 34.1674127096]}, "type": "Feature", "properties": {"collection_times": [{"days": "Mon-Fri", "time": "3:00pm"}, {"days": "Sat", "time": "10:00am"}, {"days": "Sun", "time": "Closed"}], "id": "9136400040", "name": "USPS COLLECTION BOX - BLUE BOX", "address": {"city": "WOODLAND HILLS", "state": "CA", "street": "21243 VENTURA BLVD", "postcode": "91364"}}},
{"geometry": {"type": "Point", "coordinates": [-118.5950019903, 34.1674127096]}, "type": "Feature", "properties": {"collection_times": [{"days": "Mon-Fri", "time": "3:00pm"}, {"days": "Sat", "time": "10:00am"}, {"days": "Sun", "time": "Closed"}], "id": "9136400041", "name": "USPS COLLECTION BOX - BLUE BOX", "address": {"city": "WOODLAND HILLS", "state": "CA", "street": "21243 VENTURA BLVD", "postcode": "91364"}}},
{"geometry": {"type": "Point", "coordinates": [-118.6240536907, 34.165781033]}, "type": "Feature", "properties": {"collection_times": [{"days": "Mon-Fri", "time": "3:00pm"}, {"days": "Sat", "time": "10:00am"}, {"days": "Sun", "time": "Closed"}], "id": "9136400045", "name": "USPS COLLECTION BOX - BLUE BOX", "address": {"city": "WOODLAND HILLS", "state": "CA", "street": "22822 VENTURA BLVD", "postcode": "91364"}}},
{"geometry": {"type": "Point", "coordinates": [-118.5708705712, 34.1709581518]}, "type": "Feature", "properties": {"collection_times": [{"days": "Mon-Fri", "time": "3:00pm"}, {"days": "Sat", "time": "10:00am"}, {"days": "Sun", "time": "Closed"}], "id": "9136400050", "name": "USPS COLLECTION BOX - BLUE BOX", "address": {"city": "WOODLAND HILLS", "state": "CA", "street": "5548 WINNETKA AVE", "postcode": "91364"}}},
{"geometry": {"type": "Point", "coordinates": [-118.6351763923, 34.1575011776]}, "type": "Feature", "properties": {"collection_times": [{"days": "Mon-Sat", "time": "10:00am"}, {"days": "Sun", "time": "Closed"}], "id": "9136400056", "name": "USPS COLLECTION BOX - BLUE BOX", "address": {"city": "WOODLAND HILLS", "state": "CA", "street": "23347 MULHOLLAND DR", "postcode": "91364"}}},
{"geometry": {"type": "Point", "coordinates": [-118.6085124273, 34.169705435]}, "type": "Feature", "properties": {"collection_times": [{"days": "Mon-Fri", "time": "6:00pm"}, {"days": "Sat", "time": "5:00pm"}, {"days": "Sun", "time": "Closed"}], "id": "9136700001", "name": "USPS COLLECTION BOX - BLUE BOX", "address": {"city": "WOODLAND HILLS", "state": "CA", "street": "22121 CLARENDON ST", "postcode": "91367"}}},
{"geometry": {"type": "Point", "coordinates": [-118.6044922813, 34.1719915676]}, "type": "Feature", "properties": {"collection_times": [{"days": "Mon-Fri", "time": "3:00pm"}, {"days": "Sat", "time": "10:00am"}, {"days": "Sun", "time": "Closed"}], "id": "9136700007", "name": "USPS COLLECTION BOX - BLUE BOX", "address": {"city": "WOODLAND HILLS", "state": "CA", "street": "21900 BURBANK BLVD", "postcode": "91367"}}},
{"geometry": {"type": "Point", "coordinates": [-118.5959960505, 34.1773365124]}, "type": "Feature", "properties": {"collection_times": [{"days": "Mon-Fri", "time": "3:00pm"}, {"days": "Sat", "time": "10:00am"}, {"days": "Sun", "time": "Closed"}], "id": "9136700010", "name": "USPS COLLECTION BOX - BLUE BOX", "address": {"city": "WOODLAND HILLS", "state": "CA", "street": "21321 CALIFA ST", "postcode": "91367"}}},
{"geometry": {"type": "Point", "coordinates": [-118.5959960505, 34.1773365124]}, "type": "Feature", "properties": {"collection_times": [{"days": "Mon-Fri", "time": "3:00pm"}, {"days": "Sat", "time": "10:00am"}, {"days": "Sun", "time": "Closed"}], "id": "9136700013", "name": "USPS COLLECTION BOX - BLUE BOX", "address": {"city": "WOODLAND HILLS", "state": "CA", "street": "21321 CALIFA ST", "postcode": "91367"}}},
{"geometry": {"type": "Point", "coordinates": [-118.5916655881, 34.1772875265]}, "type": "Feature", "properties": {"collection_times": [{"days": "Mon-Fri", "time": "3:00pm"}, {"days": "Sat", "time": "10:00am"}, {"days": "Sun", "time": "Closed"}], "id": "9136700017", "name": "USPS COLLECTION BOX - BLUE BOX", "address": {"city": "WOODLAND HILLS", "state": "CA", "street": "21045 CALIFA ST", "postcode": "91367"}}},
{"geometry": {"type": "Point", "coordinates": [-118.5973838809, 34.185556558]}, "type": "Feature", "properties": {"collection_times": [{"days": "Mon-Fri", "time": "3:00pm"}, {"days": "Sat", "time": "10:00am"}, {"days": "Sun", "time": "Closed"}], "id": "9136700023", "name": "USPS COLLECTION BOX - BLUE BOX", "address": {"city": "WOODLAND HILLS", "state": "CA", "street": "6320 CANOGA AVE", "postcode": "91367"}}},
{"geometry": {"type": "Point", "coordinates": [-118.6099178962, 34.1783513769]}, "type": "Feature", "properties": {"collection_times": [{"days": "Mon-Fri", "time": "3:00pm"}, {"days": "Sat", "time": "10:00am"}, {"days": "Sun", "time": "Closed"}], "id": "9136700024", "name": "USPS COLLECTION BOX - EXPRESS", "address": {"city": "WOODLAND HILLS", "state": "CA", "street": "6320 CANOGA AVE", "postcode": "91367"}}},
{"geometry": {"type": "Point", "coordinates": [-118.5973187959, 34.1869485903]}, "type": "Feature", "properties": {"collection_times": [{"days": "Mon-Fri", "time": "3:00pm"}, {"days": "Sat", "time": "10:00am"}, {"days": "Sun", "time": "Closed"}], "id": "9136700025", "name": "USPS COLLECTION BOX - BLUE BOX", "address": {"city": "WOODLAND HILLS", "state": "CA", "street": "23622 SUMMIT VIEW", "postcode": "91367"}}},
{"geometry": {"type": "Point", "coordinates": [-118.5973187959, 34.1869485903]}, "type": "Feature", "properties": {"collection_times": [{"days": "Mon-Fri", "time": "3:00pm"}, {"days": "Sat", "time": "10:00am"}, {"days": "Sun", "time": "Closed"}], "id": "9136700027", "name": "USPS COLLECTION BOX - BLUE BOX", "address": {"city": "WOODLAND HILLS", "state": "CA", "street": "6400 CANOGA AVE", "postcode": "91367"}}},
{"geometry": {"type": "Point", "coordinates": [-118.597380332, 34.1823874109]}, "type": "Feature", "properties": {"collection_times": [{"days": "Mon-Fri", "time": "3:00pm"}, {"days": "Sat", "time": "10:00am"}, {"days": "Sun", "time": "Closed"}], "id": "9136700029", "name": "USPS COLLECTION BOX - BLUE BOX", "address": {"city": "WOODLAND HILLS", "state": "CA", "street": "6150 CANOGA AVE", "postcode": "91367"}}},
{"geometry": {"type": "Point", "coordinates": [-118.5932754159, 34.1733588498]}, "type": "Feature", "properties": {"collection_times": [{"days": "Mon-Fri", "time": "3:00pm"}, {"days": "Sat", "time": "10:00am"}, {"days": "Sun", "time": "Closed"}], "id": "9136700031", "name": "USPS COLLECTION BOX - BLUE BOX", "address": {"city": "WOODLAND HILLS", "state": "CA", "street": "21271 BURBANK BLVD", "postcode": "91367"}}},
{"geometry": {"type": "Point", "coordinates": [-118.6019241331, 34.1717159106]}, "type": "Feature", "properties": {"collection_times": [{"days": "Mon-Fri", "time": "3:00pm"}, {"days": "Sat", "time": "10:00am"}, {"days": "Sun", "time": "Closed"}], "id": "9136700042", "name": "USPS COLLECTION BOX - BLUE BOX", "address": {"city": "WOODLAND HILLS", "state": "CA", "street": "5505 OWENSMOUTH AVE", "postcode": "91367"}}},
{"geometry": {"type": "Point", "coordinates": [-118.601531335, 34.1845368474]}, "type": "Feature", "properties": {"collection_times": [{"days": "Mon-Fri", "time": "3:00pm"}, {"days": "Sat", "time": "10:00am"}, {"days": "Sun", "time": "Closed"}], "id": "9136700047", "name": "USPS COLLECTION BOX - BLUE BOX", "address": {"city": "WOODLAND HILLS", "state": "CA", "street": "6301 OWENSMOUTH AVE", "postcode": "91367"}}},
{"geometry": {"type": "Point", "coordinates": [-118.5992068206, 34.179186324]}, "type": "Feature", "properties": {"collection_times": [{"days": "Mon-Fri", "time": "3:00pm"}, {"days": "Sat", "time": "10:00am"}, {"days": "Sun", "time": "Closed"}], "id": "9136700051", "name": "USPS COLLECTION BOX - BLUE BOX", "address": {"city": "WOODLAND HILLS", "state": "CA", "street": "21600 OXNARD ST", "postcode": "91367"}}},
{"geometry": {"type": "Point", "coordinates": [-118.5992068206, 34.179186324]}, "type": "Feature", "properties": {"collection_times": [{"days": "Mon-Fri", "time": "3:00pm"}, {"days": "Sat", "time": "10:00am"}, {"days": "Sun", "time": "Closed"}], "id": "9136700052", "name": "USPS COLLECTION BOX - BLUE BOX", "address": {"city": "WOODLAND HILLS", "state": "CA", "street": "21600 OXNARD ST", "postcode": "91367"}}},
{"geometry": {"type": "Point", "coordinates": [-118.5992068206, 34.179186324]}, "type": "Feature", "properties": {"collection_times": [{"days": "Mon-Fri", "time": "3:00pm"}, {"days": "Sat", "time": "10:00am"}, {"days": "Sun", "time": "Closed"}], "id": "9136700054", "name": "USPS COLLECTION BOX - BLUE BOX", "address": {"city": "WOODLAND HILLS", "state": "CA", "street": "21600 OXNARD ST", "postcode": "91367"}}},
{"geometry": {"type": "Point", "coordinates": [-118.6027568805, 34.1791697626]}, "type": "Feature", "properties": {"collection_times": [{"days": "Mon-Fri", "time": "3:00pm"}, {"days": "Sat", "time": "10:00am"}, {"days": "Sun", "time": "Closed"}], "id": "9136700057", "name": "USPS COLLECTION BOX - BLUE BOX", "address": {"city": "WOODLAND HILLS", "state": "CA", "street": "21800 OXNARD ST", "postcode": "91367"}}},
{"geometry": {"type": "Point", "coordinates": [-118.6027568805, 34.1791697626]}, "type": "Feature", "properties": {"collection_times": [{"days": "Mon-Fri", "time": "3:00pm"}, {"days": "Sat", "time": "10:00am"}, {"days": "Sun", "time": "Closed"}], "id": "9136700059", "name": "USPS COLLECTION BOX - BLUE BOX", "address": {"city": "WOODLAND HILLS", "state": "CA", "street": "21800 OXNARD ST", "postcode": "91367"}}},
{"geometry": {"type": "Point", "coordinates": [-118.6027568805, 34.1791697626]}, "type": "Feature", "properties": {"collection_times": [{"days": "Mon-Fri", "time": "3:00pm"}, {"days": "Sat", "time": "10:00am"}, {"days": "Sun", "time": "Closed"}], "id": "9136700062", "name": "USPS COLLECTION BOX - BLUE BOX", "address": {"city": "WOODLAND HILLS", "state": "CA", "street": "21800 OXNARD ST", "postcode": "91367"}}},
{"geometry": {"type": "Point", "coordinates": [-118.605878183, 34.1792629141]}, "type": "Feature", "properties": {"collection_times": [{"days": "Mon-Sat", "time": "10:00am"}, {"days": "Sun", "time": "Closed"}], "id": "9136700064", "name": "USPS COLLECTION BOX - BLUE BOX", "address": {"city": "WOODLAND HILLS", "state": "CA", "street": "22001 OXNARD ST", "postcode": "91367"}}},
{"geometry": {"type": "Point", "coordinates": [-118.5923110933, 34.1782837975]}, "type": "Feature", "properties": {"collection_times": [{"days": "Mon-Fri", "time": "3:00pm"}, {"days": "Sat", "time": "10:00am"}, {"days": "Sun", "time": "Closed"}], "id": "9136700065", "name": "USPS COLLECTION BOX - BLUE BOX", "address": {"city": "WOODLAND HILLS", "state": "CA", "street": "5900 VARIEL AVE", "postcode": "91367"}}},
{"geometry": {"type": "Point", "coordinates": [-118.5923110933, 34.1782837975]}, "type": "Feature", "properties": {"collection_times": [{"days": "Mon-Fri", "time": "3:00pm"}, {"days": "Sat", "time": "10:00am"}, {"days": "Sun", "time": "Closed"}], "id": "9136700066", "name": "USPS COLLECTION BOX - BLUE BOX", "address": {"city": "WOODLAND HILLS", "state": "CA", "street": "5900 VARIEL AVE", "postcode": "91367"}}},
{"geometry": {"type": "Point", "coordinates": [-118.6059662482, 34.1859930699]}, "type": "Feature", "properties": {"collection_times": [{"days": "Mon-Fri", "time": "3:00pm"}, {"days": "Sat", "time": "10:00am"}, {"days": "Sun", "time": "Closed"}], "id": "9136700073", "name": "USPS COLLECTION BOX - BLUE BOX", "address": {"city": "WOODLAND HILLS", "state": "CA", "street": "6355 TOPANGA CANYON BLVD", "postcode": "91367"}}},
{"geometry": {"type": "Point", "coordinates": [-118.6059662482, 34.1859930699]}, "type": "Feature", "properties": {"collection_times": [{"days": "Mon-Fri", "time": "3:00pm"}, {"days": "Sat", "time": "10:00am"}, {"days": "Sun", "time": "Closed"}], "id": "9136700074", "name": "USPS COLLECTION BOX - BLUE BOX", "address": {"city": "WOODLAND HILLS", "state": "CA", "street": "6355 TOPANGA CANYON BLVD", "postcode": "91367"}}},
{"geometry": {"type": "Point", "coordinates": [-118.6050825778, 34.1771256095]}, "type": "Feature", "properties": {"collection_times": [{"days": "Mon-Fri", "time": "3:00pm"}, {"days": "Sat", "time": "10:00am"}, {"days": "Sun", "time": "Closed"}], "id": "9136700076", "name": "USPS COLLECTION BOX - BLUE BOX", "address": {"city": "WOODLAND HILLS", "state": "CA", "street": "5855 TOPANGA CANYON BLVD", "postcode": "91367"}}},
{"geometry": {"type": "Point", "coordinates": [-118.6050825778, 34.1771256095]}, "type": "Feature", "properties": {"collection_times": [{"days": "Mon-Fri", "time": "3:00pm"}, {"days": "Sat", "time": "10:00am"}, {"days": "Sun", "time": "Closed"}], "id": "9136700077", "name": "USPS COLLECTION BOX - BLUE BOX", "address": {"city": "WOODLAND HILLS", "state": "CA", "street": "5855 TOPANGA CANYON BLVD", "postcode": "91367"}}},
{"geometry": {"type": "Point", "coordinates": [-118.5914510415, 34.1746210033]}, "type": "Feature", "properties": {"collection_times": [{"days": "Mon-Fri", "time": "3:00pm"}, {"days": "Sat", "time": "10:00am"}, {"days": "Sun", "time": "Closed"}], "id": "9136700079", "name": "USPS COLLECTION BOX - BLUE BOX", "address": {"city": "WOODLAND HILLS", "state": "CA", "street": "21041 WARNER CENTER LN", "postcode": "91367"}}},
{"geometry": {"type": "Point", "coordinates": [-118.5914510415, 34.1746210033]}, "type": "Feature", "properties": {"collection_times": [{"days": "Mon-Fri", "time": "3:00pm"}, {"days": "Sat", "time": "10:00am"}, {"days": "Sun", "time": "Closed"}], "id": "9136700080", "name": "USPS COLLECTION BOX - BLUE BOX", "address": {"city": "WOODLAND HILLS", "state": "CA", "street": "21041 WARNER CENTER LN", "postcode": "91367"}}},
{"geometry": {"type": "Point", "coordinates": [-118.6099178962, 34.1783513769]}, "type": "Feature", "properties": {"collection_times": [{"days": "Mon-Fri", "time": "3:00pm"}, {"days": "Sat", "time": "10:00am"}, {"days": "Sun", "time": "Closed"}], "id": "9136700085", "name": "USPS COLLECTION BOX - EXPRESS", "address": {"city": "WOODLAND HILLS", "state": "CA", "street": "21045 CALIFA ST", "postcode": "91367"}}},
{"geometry": {"type": "Point", "coordinates": [-118.6019241331, 34.1717159106]}, "type": "Feature", "properties": {"collection_times": [{"days": "Mon-Fri", "time": "3:00pm"}, {"days": "Sat", "time": "10:00am"}, {"days": "Sun", "time": "Closed"}], "id": "9136700090", "name": "USPS COLLECTION BOX - BLUE BOX", "address": {"city": "WOODLAND HILLS", "state": "CA", "street": "5505 OWENSMOUTH AVE", "postcode": "91367"}}},
{"geometry": {"type": "Point", "coordinates": [-118.601531335, 34.1860202779]}, "type": "Feature", "properties": {"collection_times": [{"days": "Mon-Sat", "time": "10:00am"}, {"days": "Sun", "time": "Closed"}], "id": "9136700091", "name": "USPS COLLECTION BOX - BLUE BOX", "address": {"city": "WOODLAND HILLS", "state": "CA", "street": "6351 OWENSMOUTH AVE", "postcode": "91367"}}},
{"geometry": {"type": "Point", "coordinates": [-118.6085124273, 34.169705435]}, "type": "Feature", "properties": {"collection_times": [{"days": "Mon-Fri", "time": "6:00pm"}, {"days": "Sat", "time": "5:00pm"}, {"days": "Sun", "time": "Closed"}], "id": "9136700095", "name": "USPS COLLECTION BOX - PO LOBBY", "address": {"city": "WOODLAND HILLS", "state": "CA", "street": "22121 CLARENDON ST", "postcode": "91367"}}},
{"geometry": {"type": "Point", "coordinates": [-118.623355745, 34.1853116855]}, "type": "Feature", "properties": {"collection_times": [{"days": "Mon-Fri", "time": "3:00pm"}, {"days": "Sat-Sun", "time": "Closed"}], "id": "9136700096", "name": "USPS COLLECTION BOX - BLUE BOX", "address": {"city": "WOODLAND HILLS", "state": "CA", "street": "6322 FALLBROOK AVE", "postcode": "91367"}}},
{"geometry": {"type": "Point", "coordinates": [-118.6085124273, 34.169705435]}, "type": "Feature", "properties": {"collection_times": [{"days": "Mon-Fri", "time": "6:00pm"}, {"days": "Sat", "time": "5:00pm"}, {"days": "Sun", "time": "Closed"}], "id": "9136700097", "name": "USPS COLLECTION BOX - APC", "address": {"city": "WOODLAND HILLS", "state": "CA", "street": "22121 CLARENDON ST", "postcode": "91367"}}},
{"geometry": {"type": "Point", "coordinates": [-118.6085124273, 34.169705435]}, "type": "Feature", "properties": {"collection_times": [{"days": "Mon-Fri", "time": "6:00pm"}, {"days": "Sat", "time": "5:00pm"}, {"days": "Sun", "time": "Closed"}], "id": "9136700105", "name": "USPS COLLECTION BOX - BLUE BOX", "address": {"city": "WOODLAND HILLS", "state": "CA", "street": "22121 CLARENDON ST", "postcode": "91367"}}},
{"geometry": {"type": "Point", "coordinates": [-118.5708831103, 34.1831080008]}, "type": "Feature", "properties": {"collection_times": [{"days": "Mon-Sat", "time": "10:00am"}, {"days": "Sun", "time": "Closed"}], "id": "9136700106", "name": "USPS COLLECTION BOX - BLUE BOX", "address": {"city": "WOODLAND HILLS", "state": "CA", "street": "6201 WINNETKA AVE", "postcode": "91367"}}},
{"geometry": {"type": "Point", "coordinates": [-118.6085124273, 34.169705435]}, "type": "Feature", "properties": {"collection_times": [{"days": "Mon-Fri", "time": "6:00pm"}, {"days": "Sat", "time": "5:00pm"}, {"days": "Sun", "time": "Closed"}], "id": "9136700107", "name": "USPS COLLECTION BOX - BLUE BOX", "address": {"city": "WOODLAND HILLS", "state": "CA", "street": "22121 CLARENDON ST", "postcode": "91367"}}},
{"geometry": {"type": "Point", "coordinates": [-118.6027568805, 34.1791697626]}, "type": "Feature", "properties": {"collection_times": [{"days": "Mon-Fri", "time": "3:00pm"}, {"days": "Sat", "time": "10:00am"}, {"days": "Sun", "time": "Closed"}], "id": "9136700108", "name": "USPS COLLECTION BOX - BLUE BOX", "address": {"city": "WOODLAND HILLS", "state": "CA", "street": "21800 OXNARD ST", "postcode": "91367"}}},
{"geometry": {"type": "Point", "coordinates": [-118.5973838809, 34.185556558]}, "type": "Feature", "properties": {"collection_times": [{"days": "Mon-Fri", "time": "3:00pm"}, {"days": "Sat", "time": "10:00am"}, {"days": "Sun", "time": "Closed"}], "id": "9136700109", "name": "USPS COLLECTION BOX - BLUE BOX", "address": {"city": "WOODLAND HILLS", "state": "CA", "street": "6320 CANOGA AVE", "postcode": "91367"}}},
{"geometry": {"type": "Point", "coordinates": [-118.5973838809, 34.185556558]}, "type": "Feature", "properties": {"collection_times": [{"days": "Mon-Fri", "time": "3:00pm"}, {"days": "Sat", "time": "10:00am"}, {"days": "Sun", "time": "Closed"}], "id": "9136700110", "name": "USPS COLLECTION BOX - BLUE BOX", "address": {"city": "WOODLAND HILLS", "state": "CA", "street": "6320 CANOGA AVE", "postcode": "91367"}}},
{"geometry": {"type": "Point", "coordinates": [-118.6085493819, 34.169673965]}, "type": "Feature", "properties": {"collection_times": [{"days": "Mon-Fri", "time": "6:00pm"}, {"days": "Sat-Sun", "time": "Closed"}], "id": "9136700114", "name": "USPS COLLECTION BOX - PO LOBBY", "address": {"city": "WOODLAND HILLS", "state": "CA", "street": "22121 CLARENDON ST", "postcode": "91367"}}},
{"geometry": {"type": "Point", "coordinates": [-118.7652384784, 34.1859379311]}, "type": "Feature", "properties": {"collection_times": [{"days": "Mon-Sat", "time": "10:00am"}, {"days": "Sun", "time": "Closed"}], "id": "9137700002", "name": "USPS COLLECTION BOX - BLUE BOX", "address": {"city": "OAK PARK", "state": "CA", "street": "5000 DEERHILL RD", "postcode": "91377"}}},
{"geometry": {"type": "Point", "coordinates": [-119.2702268805, 36.3741071704]}, "type": "Feature", "properties": {"collection_times": [{"days": "Mon-Fri", "time": "7:00pm"}, {"days": "Sat", "time": "6:00pm"}, {"days": "Sun", "time": "Closed"}], "id": "9138300000", "name": "USPS COLLECTION BOX - BLUE BOX", "address": {"city": "SANTA CLARITA", "state": "CA", "street": "28201 FRANKLIN PKWY", "postcode": "91383"}}},
{"geometry": {"type": "Point", "coordinates": [-118.6202339162, 34.4937883459]}, "type": "Feature", "properties": {"collection_times": [{"days": "Mon-Sat", "time": "10:00am"}, {"days": "Sun", "time": "Closed"}], "id": "9138400003", "name": "USPS COLLECTION BOX - BLUE BOX", "address": {"city": "SANTA CLARITA", "state": "CA", "street": "31642 CASTAIC RD", "postcode": "91384"}}},
{"geometry": {"type": "Point", "coordinates": [-118.6163845678, 34.4532779162]}, "type": "Feature", "properties": {"collection_times": [{"days": "Mon-Sat", "time": "10:00am"}, {"days": "Sun", "time": "Closed"}], "id": "9138400004", "name": "USPS COLLECTION BOX - BLUE BOX", "address": {"city": "SANTA CLARITA", "state": "CA", "street": "27305 LIVE OAK RD", "postcode": "91384"}}},
{"geometry": {"type": "Point", "coordinates": [-118.6442515307, 34.5550465111]}, "type": "Feature", "properties": {"collection_times": [{"days": "Mon-Sat", "time": "10:00am"}, {"days": "Sun", "time": "Closed"}], "id": "9138400010", "name": "USPS COLLECTION BOX - BLUE BOX", "address": {"city": "SANTA CLARITA", "state": "CA", "street": "31786 OLD RD", "postcode": "91384"}}},
{"geometry": {"type": "Point", "coordinates": [-118.6442515307, 34.5550465111]}, "type": "Feature", "properties": {"collection_times": [{"days": "Mon-Fri", "time": "5:00pm"}, {"days": "Sat", "time": "1:00pm"}, {"days": "Sun", "time": "Closed"}], "id": "9138400013", "name": "USPS COLLECTION BOX - PO LOBBY", "address": {"city": "SANTA CLARITA", "state": "CA", "street": "28201 FRANKLIN PKWY", "postcode": "91384"}}},
{"geometry": {"type": "Point", "coordinates": [-118.6187623153, 34.4920091756]}, "type": "Feature", "properties": {"collection_times": [{"days": "Mon-Sat", "time": "10:00am"}, {"days": "Sun", "time": "Closed"}], "id": "9138400014", "name": "USPS COLLECTION BOX - BLUE BOX", "address": {"city": "SANTA CLARITA", "state": "CA", "street": "31537 CASTAIC RD", "postcode": "91384"}}},
{"geometry": {"type": "Point", "coordinates": [-118.6442515307, 34.5550465111]}, "type": "Feature", "properties": {"collection_times": [{"days": "Mon-Fri", "time": "5:00pm"}, {"days": "Sat", "time": "1:00pm"}, {"days": "Sun", "time": "Closed"}], "id": "9138400015", "name": "USPS COLLECTION BOX - PO LOBBY", "address": {"city": "SANTA CLARITA", "state": "CA", "street": "28201 FRANKLIN PKWY", "postcode": "91384"}}},
{"geometry": {"type": "Point", "coordinates": [-118.4536697451, 34.4163979875]}, "type": "Feature", "properties": {"collection_times": [{"days": "Mon-Fri", "time": "4:30pm"}, {"days": "Sat", "time": "3:00pm"}, {"days": "Sun", "time": "Closed"}], "id": "9138700001", "name": "USPS COLLECTION BOX - BLUE BOX", "address": {"city": "CANYON COUNTRY", "state": "CA", "street": "18336 SOLEDAD CANYON RD", "postcode": "91387"}}},
{"geometry": {"type": "Point", "coordinates": [-118.4065900507, 34.4284463795]}, "type": "Feature", "properties": {"collection_times": [{"days": "Mon-Sat", "time": "10:00am"}, {"days": "Sun", "time": "Closed"}], "id": "9138700002", "name": "USPS COLLECTION BOX - BLUE BOX", "address": {"city": "CANYON COUNTRY", "state": "CA", "street": "15501 SOLEDAD CANYON RD", "postcode": "91387"}}},
{"geometry": {"type": "Point", "coordinates": [-118.4536697451, 34.4163979875]}, "type": "Feature", "properties": {"collection_times": [{"days": "Mon-Fri", "time": "4:30pm"}, {"days": "Sat", "time": "3:00pm"}, {"days": "Sun", "time": "Closed"}], "id": "9138700003", "name": "USPS COLLECTION BOX - BLUE BOX", "address": {"city": "CANYON COUNTRY", "state": "CA", "street": "18336 SOLEDAD CANYON RD", "postcode": "91387"}}},
{"geometry": {"type": "Point", "coordinates": [-118.4536697451, 34.4163979875]}, "type": "Feature", "properties": {"collection_times": [{"days": "Mon-Fri", "time": "4:30pm"}, {"days": "Sat", "time": "3:00pm"}, {"days": "Sun", "time": "Closed"}], "id": "9138700004", "name": "USPS COLLECTION BOX - BLUE BOX", "address": {"city": "CANYON COUNTRY", "state": "CA", "street": "18336 SOLEDAD CANYON RD", "postcode": "91387"}}},
{"geometry": {"type": "Point", "coordinates": [-118.4265324967, 34.4265364702]}, "type": "Feature", "properties": {"collection_times": [{"days": "Mon-Sat", "time": "10:00am"}, {"days": "Sun", "time": "Closed"}], "id": "9138700006", "name": "USPS COLLECTION BOX - BLUE BOX", "address": {"city": "CANYON COUNTRY", "state": "CA", "street": "16654 SOLEDAD CANYON RD", "postcode": "91387"}}},
{"geometry": {"type": "Point", "coordinates": [-118.4265324967, 34.4265364702]}, "type": "Feature", "properties": {"collection_times": [{"days": "Mon-Sat", "time": "10:00am"}, {"days": "Sun", "time": "Closed"}], "id": "9138700007", "name": "USPS COLLECTION BOX - BLUE BOX", "address": {"city": "CANYON COUNTRY", "state": "CA", "street": "16654 SOLEDAD CANYON RD", "postcode": "91387"}}},
{"geometry": {"type": "Point", "coordinates": [-118.4552334996, 34.4098710899]}, "type": "Feature", "properties": {"collection_times": [{"days": "Mon-Sat", "time": "10:00am"}, {"days": "Sun", "time": "Closed"}], "id": "9138700010", "name": "USPS COLLECTION BOX - BLUE BOX", "address": {"city": "CANYON COUNTRY", "state": "CA", "street": "18355 JAKES WAY", "postcode": "91387"}}},
{"geometry": {"type": "Point", "coordinates": [-118.45409, 34.406296]}, "type": "Feature", "properties": {"collection_times": [{"days": "Mon-Sat", "time": "10:00am"}, {"days": "Sun", "time": "Closed"}], "id": "9138700011", "name": "USPS COLLECTION BOX - BLUE BOX", "address": {"city": "CANYON COUNTRY", "state": "CA", "street": "18286 FLYNN DR", "postcode": "91387"}}},
{"geometry": {"type": "Point", "coordinates": [-118.4536697451, 34.4163979875]}, "type": "Feature", "properties": {"collection_times": [{"days": "Mon-Fri", "time": "4:30pm"}, {"days": "Sat", "time": "3:00pm"}, {"days": "Sun", "time": "Closed"}], "id": "9138700012", "name": "USPS COLLECTION BOX - APC", "address": {"city": "CANYON COUNTRY", "state": "CA", "street": "18336 SOLEDAD CANYON RD", "postcode": "91387"}}},
{"geometry": {"type": "Point", "coordinates": [-118.4021298735, 34.4032228455]}, "type": "Feature", "properties": {"collection_times": [{"days": "Mon-Sat", "time": "10:00am"}, {"days": "Sun", "time": "Closed"}], "id": "9138700013", "name": "USPS COLLECTION BOX - BLUE BOX", "address": {"city": "CANYON COUNTRY", "state": "CA", "street": "16101 S0LEDAD CANYON RD", "postcode": "91387"}}},
{"geometry": {"type": "Point", "coordinates": [-118.3263054257, 34.4939514762]}, "type": "Feature", "properties": {"collection_times": [{"days": "Mon-Sat", "time": "10:00am"}, {"days": "Sun", "time": "Closed"}], "id": "9139000002", "name": "USPS COLLECTION BOX - BLUE BOX", "address": {"city": "SAUGUS", "state": "CA", "street": "33301 AGUA DULCE CYN", "postcode": "91390"}}},
{"geometry": {"type": "Point", "coordinates": [-118.5344339311, 34.4606760648]}, "type": "Feature", "properties": {"collection_times": [{"days": "Mon-Sat", "time": "10:00am"}, {"days": "Sun", "time": "Closed"}], "id": "9139000003", "name": "USPS COLLECTION BOX - BLUE BOX", "address": {"city": "SAUGUS", "state": "CA", "street": "28041 SECO CYN", "postcode": "91390"}}}
]}
