{"type": "FeatureCollection", "features": [
{"geometry": {"type": "Point", "coordinates": [-118.431289147, 34.1866267277]}, "type": "Feature", "properties": {"collection_times": [{"days": "Mon-Sat", "time": "10:00am"}, {"days": "Sun", "time": "Closed"}], "id": "9140100001", "name": "USPS COLLECTION BOX - BLUE BOX", "address": {"city": "VAN NUYS", "state": "CA", "street": "13700 VICTORY BLVD", "postcode": "91401"}}},
{"geometry": {"type": "Point", "coordinates": [-118.4486471047, 34.1826762903]}, "type": "Feature", "properties": {"collection_times": [{"days": "Mon-Sat", "time": "3:00pm"}, {"days": "Sun", "time": "Closed"}], "id": "9140100004", "name": "USPS COLLECTION BOX - BLUE BOX", "address": {"city": "VAN NUYS", "state": "CA", "street": "6200 VAN NUYS BLVD", "postcode": "91401"}}},
{"geometry": {"type": "Point", "coordinates": [-118.4399978122, 34.1793404264]}, "type": "Feature", "properties": {"collection_times": [{"days": "Mon-Sat", "time": "10:00am"}, {"days": "Sun", "time": "Closed"}], "id": "9140100012", "name": "USPS COLLECTION BOX - BLUE BOX", "address": {"city": "VAN NUYS", "state": "CA", "street": "14100 OXNARD ST", "postcode": "91401"}}},
{"geometry": {"type": "Point", "coordinates": [-118.4312831407, 34.1720808773]}, "type": "Feature", "properties": {"collection_times": [{"days": "Mon-Sat", "time": "10:00am"}, {"days": "Sun", "time": "Closed"}], "id": "9140100021", "name": "USPS COLLECTION BOX - BLUE BOX", "address": {"city": "VAN NUYS", "state": "CA", "street": "13700 BURBANK BLVD", "postcode": "91401"}}},
{"geometry": {"type": "Point", "coordinates": [-118.446768469, 34.1685603541]}, "type": "Feature", "properties": {"collection_times": [{"days": "Mon-Sat", "time": "10:00am"}, {"days": "Sun", "time": "Closed"}], "id": "9140100023", "name": "USPS COLLECTION BOX - BLUE BOX", "address": {"city": "VAN NUYS", "state": "CA", "street": "14400 CHANDLER BLVD", "postcode": "91401"}}},
{"geometry": {"type": "Point", "coordinates": [-118.418136246, 34.183133625]}, "type": "Feature", "properties": {"collection_times": [{"days": "Mon-Sat", "time": "10:00am"}, {"days": "Sun", "time": "Closed"}], "id": "9140100026", "name": "USPS COLLECTION BOX - BLUE BOX", "address": {"city": "VAN NUYS", "state": "CA", "street": "6200 ETHEL AVE", "postcode": "91401"}}},
{"geometry": {"type": "Point", "coordinates": [-118.4269061299, 34.1876220939]}, "type": "Feature", "properties": {"collection_times": [{"days": "Mon-Sat", "time": "10:00am"}, {"days": "Sun", "time": "Closed"}], "id": "9140100028", "name": "USPS COLLECTION BOX - BLUE BOX", "address": {"city": "VAN NUYS", "state": "CA", "street": "14400 GILMORE ST", "postcode": "91401"}}},
{"geometry": {"type": "Point", "coordinates": [-118.4225117889, 34.1757711214]}, "type": "Feature", "properties": {"collection_times": [{"days": "Mon-Fri", "time": "12:00pm"}, {"days": "Sat-Sun", "time": "Closed"}], "id": "9140100036", "name": "USPS COLLECTION BOX - BLUE BOX", "address": {"city": "VAN NUYS", "state": "CA", "street": "5800 FULTON AVE", "postcode": "91401"}}},
{"geometry": {"type": "Point", "coordinates": [-118.446450407, 34.1827101913]}, "type": "Feature", "properties": {"collection_times": [{"days": "Mon-Sat", "time": "12:00pm"}, {"days": "Sun", "time": "Closed"}], "id": "9140100039", "name": "USPS COLLECTION BOX - BLUE BOX", "address": {"city": "VAN NUYS", "state": "CA", "street": "14399 DELANO ST", "postcode": "91401"}}},
{"geometry": {"type": "Point", "coordinates": [-118.446450407, 34.1827101913]}, "type": "Feature", "properties": {"collection_times": [{"days": "Mon-Sat", "time": "12:00pm"}, {"days": "Sun", "time": "Closed"}], "id": "9140100040", "name": "USPS COLLECTION BOX - BLUE BOX", "address": {"city": "VAN NUYS", "state": "CA", "street": "14399 DELANO ST", "postcode": "91401"}}},
{"geometry": {"type": "Point", "coordinates": [-118.4487166959, 34.1848976499]}, "type": "Feature", "properties": {"collection_times": [{"days": "Mon-Sat", "time": "12:00pm"}, {"days": "Sun", "time": "Closed"}], "id": "9140100041", "name": "USPS COLLECTION BOX - BLUE BOX", "address": {"city": "VAN NUYS", "state": "CA", "street": "6300 VAN NUYS BLVD", "postcode": "91401"}}},
{"geometry": {"type": "Point", "coordinates": [-118.448713147, 34.1771835745]}, "type": "Feature", "properties": {"collection_times": [{"days": "Mon-Fri", "time": "12:00pm"}, {"days": "Sat-Sun", "time": "Closed"}], "id": "9140100043", "name": "USPS COLLECTION BOX - BLUE BOX", "address": {"city": "VAN NUYS", "state": "CA", "street": "5855 VAN NUYS BLVD", "postcode": "91401"}}},
{"geometry": {"type": "Point", "coordinates": [-118.4508141666, 34.1886885016]}, "type": "Feature", "properties": {"collection_times": [{"days": "Mon-Sat", "time": "12:00pm"}, {"days": "Sun", "time": "Closed"}], "id": "9140100044", "name": "USPS COLLECTION BOX - BLUE BOX", "address": {"city": "VAN NUYS", "state": "CA", "street": "6500 VESPER AVE", "postcode": "91401"}}},
{"geometry": {"type": "Point", "coordinates": [-118.4487249766, 34.1899500676]}, "type": "Feature", "properties": {"collection_times": [{"days": "Mon-Sat", "time": "12:00pm"}, {"days": "Sun", "time": "Closed"}], "id": "9140100045", "name": "USPS COLLECTION BOX - BLUE BOX", "address": {"city": "VAN NUYS", "state": "CA", "street": "6551 VAN NUYS BLVD", "postcode": "91401"}}},
{"geometry": {"type": "Point", "coordinates": [-118.4508141666, 34.1886885016]}, "type": "Feature", "properties": {"collection_times": [{"days": "Mon-Sat", "time": "12:00pm"}, {"days": "Sun", "time": "Closed"}], "id": "9140100080", "name": "USPS COLLECTION BOX - BLUE BOX", "address": {"city": "VAN NUYS", "state": "CA", "street": "6500 VESPER AVE", "postcode": "91401"}}},
{"geometry": {"type": "Point", "coordinates": [-118.4348272096, 34.1811539055]}, "type": "Feature", "properties": {"collection_times": [{"days": "Mon-Sat", "time": "5:00pm"}, {"days": "Sun", "time": "Closed"}], "id": "9140100092", "name": "USPS COLLECTION BOX - PO LOBBY", "address": {"city": "VAN NUYS", "state": "CA", "street": "6531 VAN NUYS BLVD", "postcode": "91401"}}},
{"geometry": {"type": "Point", "coordinates": [-118.4486529077, 34.1839617327]}, "type": "Feature", "properties": {"collection_times": [{"days": "Mon-Fri", "time": "12:00pm"}, {"days": "Sat-Sun", "time": "Closed"}], "id": "9140100093", "name": "USPS COLLECTION BOX - BLUE BOX", "address": {"city": "VAN NUYS", "state": "CA", "street": "6262 VAN NUYS BLVD", "postcode": "91401"}}},
{"geometry": {"type": "Point", "coordinates": [-118.4472048744, 34.2247751966]}, "type": "Feature", "properties": {"collection_times": [{"days": "Mon-Sat", "time": "5:00pm"}, {"days": "Sun", "time": "Closed"}], "id": "9140200060", "name": "USPS COLLECTION BOX - PO LOBBY", "address": {"city": "PANORAMA CITY", "state": "CA", "street": "14416 CHASE ST", "postcode": "91402"}}},
{"geometry": {"type": "Point", "coordinates": [-118.4324616568, 34.2203438323]}, "type": "Feature", "properties": {"collection_times": [{"days": "Mon-Sat", "time": "10:00am"}, {"days": "Sun", "time": "Closed"}], "id": "9140200065", "name": "USPS COLLECTION BOX - BLUE BOX", "address": {"city": "PANORAMA CITY", "state": "CA", "street": "8231 WOODMAN AVE", "postcode": "91402"}}},
{"geometry": {"type": "Point", "coordinates": [-118.4493342005, 34.2215315231]}, "type": "Feature", "properties": {"collection_times": [{"days": "Mon-Sat", "time": "10:00am"}, {"days": "Sun", "time": "Closed"}], "id": "9140200066", "name": "USPS COLLECTION BOX - BLUE BOX", "address": {"city": "PANORAMA CITY", "state": "CA", "street": "14500 ROSCOE BLVD", "postcode": "91402"}}},
{"geometry": {"type": "Point", "coordinates": [-118.4489267524, 34.2257510877]}, "type": "Feature", "properties": {"collection_times": [{"days": "Mon-Fri", "time": "5:00pm"}, {"days": "Sat", "time": "4:00pm"}, {"days": "Sun", "time": "Closed"}], "id": "9140200068", "name": "USPS COLLECTION BOX - BLUE BOX", "address": {"city": "PANORAMA CITY", "state": "CA", "street": "14416 CHASE ST", "postcode": "91402"}}},
{"geometry": {"type": "Point", "coordinates": [-118.4487659809, 34.1584968211]}, "type": "Feature", "properties": {"collection_times": [{"days": "Mon-Sat", "time": "12:00pm"}, {"days": "Sun", "time": "Closed"}], "id": "9140300005", "name": "USPS COLLECTION BOX - BLUE BOX", "address": {"city": "SHERMAN OAKS", "state": "CA", "street": "4849 VAN NUYS BLVD", "postcode": "91403"}}},
{"geometry": {"type": "Point", "coordinates": [-118.4487562248, 34.1509555513]}, "type": "Feature", "properties": {"collection_times": [{"days": "Mon-Sat", "time": "12:00pm"}, {"days": "Sun", "time": "Closed"}], "id": "9140300017", "name": "USPS COLLECTION BOX - BLUE BOX", "address": {"city": "SHERMAN OAKS", "state": "CA", "street": "4400 VAN NUYS BLVD", "postcode": "91403"}}},
{"geometry": {"type": "Point", "coordinates": [-118.448685939, 34.1539538093]}, "type": "Feature", "properties": {"collection_times": [{"days": "Mon-Sat", "time": "12:00pm"}, {"days": "Sun", "time": "Closed"}], "id": "9140300018", "name": "USPS COLLECTION BOX - BLUE BOX", "address": {"city": "SHERMAN OAKS", "state": "CA", "street": "4520 VAN NUYS BLVD", "postcode": "91403"}}},
{"geometry": {"type": "Point", "coordinates": [-118.4702098773, 34.1545027022]}, "type": "Feature", "properties": {"collection_times": [{"days": "Mon-Fri", "time": "12:00pm"}, {"days": "Sat-Sun", "time": "Closed"}], "id": "9140300020", "name": "USPS COLLECTION BOX - BLUE BOX", "address": {"city": "SHERMAN OAKS", "state": "CA", "street": "15445 VENTURA BLVD", "postcode": "91403"}}},
{"geometry": {"type": "Point", "coordinates": [-118.4582560388, 34.1525732971]}, "type": "Feature", "properties": {"collection_times": [{"days": "Mon-Sat", "time": "12:00pm"}, {"days": "Sun", "time": "Closed"}], "id": "9140300021", "name": "USPS COLLECTION BOX - BLUE BOX", "address": {"city": "SHERMAN OAKS", "state": "CA", "street": "14937 VENTURA BLVD", "postcode": "91403"}}},
{"geometry": {"type": "Point", "coordinates": [-118.4487659809, 34.1584968211]}, "type": "Feature", "properties": {"collection_times": [{"days": "Mon-Sat", "time": "12:00pm"}, {"days": "Sun", "time": "Closed"}], "id": "9140300023", "name": "USPS COLLECTION BOX - BLUE BOX", "address": {"city": "SHERMAN OAKS", "state": "CA", "street": "4849 VAN NUYS BLVD", "postcode": "91403"}}},
{"geometry": {"type": "Point", "coordinates": [-118.4486894879, 34.1521722731]}, "type": "Feature", "properties": {"collection_times": [{"days": "Mon-Sat", "time": "12:00pm"}, {"days": "Sun", "time": "Closed"}], "id": "9140300024", "name": "USPS COLLECTION BOX - BLUE BOX", "address": {"city": "SHERMAN OAKS", "state": "CA", "street": "4441 VAN NUYS BLVD", "postcode": "91403"}}},
{"geometry": {"type": "Point", "coordinates": [-118.4531311358, 34.1517277034]}, "type": "Feature", "properties": {"collection_times": [{"days": "Mon-Sat", "time": "12:00pm"}, {"days": "Sun", "time": "Closed"}], "id": "9140300027", "name": "USPS COLLECTION BOX - BLUE BOX", "address": {"city": "SHERMAN OAKS", "state": "CA", "street": "14701 VENTURA BLVD", "postcode": "91403"}}},
{"geometry": {"type": "Point", "coordinates": [-118.4666361583, 34.1539088568]}, "type": "Feature", "properties": {"collection_times": [{"days": "Mon-Sat", "time": "12:00pm"}, {"days": "Sun", "time": "Closed"}], "id": "9140300029", "name": "USPS COLLECTION BOX - BLUE BOX", "address": {"city": "SHERMAN OAKS", "state": "CA", "street": "15300 VENTURA BLVD", "postcode": "91403"}}},
{"geometry": {"type": "Point", "coordinates": [-118.4490156785, 34.1499649937]}, "type": "Feature", "properties": {"collection_times": [{"days": "Mon-Sat", "time": "10:00am"}, {"days": "Sun", "time": "Closed"}], "id": "9140300033", "name": "USPS COLLECTION BOX - BLUE BOX", "address": {"city": "SHERMAN OAKS", "state": "CA", "street": "14500 DICKENS ST", "postcode": "91403"}}},
{"geometry": {"type": "Point", "coordinates": [-118.4673456836, 34.1500310757]}, "type": "Feature", "properties": {"collection_times": [{"days": "Mon-Sat", "time": "10:00am"}, {"days": "Sun", "time": "Closed"}], "id": "9140300047", "name": "USPS COLLECTION BOX - BLUE BOX", "address": {"city": "SHERMAN OAKS", "state": "CA", "street": "15299 SUTTON ST", "postcode": "91403"}}},
{"geometry": {"type": "Point", "coordinates": [-118.4654023321, 34.1536900094]}, "type": "Feature", "properties": {"collection_times": [{"days": "Mon-Sat", "time": "12:00pm"}, {"days": "Sun", "time": "Closed"}], "id": "9140300050", "name": "USPS COLLECTION BOX - BLUE BOX", "address": {"city": "SHERMAN OAKS", "state": "CA", "street": "15250 VENTURA BLVD", "postcode": "91403"}}},
{"geometry": {"type": "Point", "coordinates": [-118.431230373, 34.1479770785]}, "type": "Feature", "properties": {"collection_times": [{"days": "Mon-Fri", "time": "12:00pm"}, {"days": "Sat-Sun", "time": "Closed"}], "id": "9140300053", "name": "USPS COLLECTION BOX - BLUE BOX", "address": {"city": "SHERMAN OAKS", "state": "CA", "street": "13700 VENTURA BLVD", "postcode": "91403"}}},
{"geometry": {"type": "Point", "coordinates": [-118.4487013174, 34.1614549521]}, "type": "Feature", "properties": {"collection_times": [{"days": "Mon-Fri", "time": "12:00pm"}, {"days": "Sat-Sun", "time": "Closed"}], "id": "9140300055", "name": "USPS COLLECTION BOX - BLUE BOX", "address": {"city": "SHERMAN OAKS", "state": "CA", "street": "5005 VAN NUYS BLVD", "postcode": "91403"}}},
{"geometry": {"type": "Point", "coordinates": [-118.4487013174, 34.1614549521]}, "type": "Feature", "properties": {"collection_times": [{"days": "Mon-Fri", "time": "12:00pm"}, {"days": "Sat-Sun", "time": "Closed"}], "id": "9140300056", "name": "USPS COLLECTION BOX - BLUE BOX", "address": {"city": "SHERMAN OAKS", "state": "CA", "street": "5005 VAN NUYS BLVD", "postcode": "91403"}}},
{"geometry": {"type": "Point", "coordinates": [-118.4627359426, 34.1532534976]}, "type": "Feature", "properties": {"collection_times": [{"days": "Mon-Sat", "time": "12:00pm"}, {"days": "Sun", "time": "Closed"}], "id": "9140300063", "name": "USPS COLLECTION BOX - BLUE BOX", "address": {"city": "SHERMAN OAKS", "state": "CA", "street": "15130 VENTURA BLVD", "postcode": "91403"}}},
{"geometry": {"type": "Point", "coordinates": [-118.459676296, 34.1535935356]}, "type": "Feature", "properties": {"collection_times": [{"days": "Mon-Fri", "time": "12:00pm"}, {"days": "Sat-Sun", "time": "Closed"}], "id": "9140300068", "name": "USPS COLLECTION BOX - EXPRESS", "address": {"city": "SHERMAN OAKS", "state": "CA", "street": "5200 VAN NUYS BLVD", "postcode": "91403"}}},
{"geometry": {"type": "Point", "coordinates": [-118.448685939, 34.1539538093]}, "type": "Feature", "properties": {"collection_times": [{"days": "Mon-Sat", "time": "12:00pm"}, {"days": "Sun", "time": "Closed"}], "id": "9140300083", "name": "USPS COLLECTION BOX - BLUE BOX", "address": {"city": "SHERMAN OAKS", "state": "CA", "street": "4520 VAN NUYS BLVD", "postcode": "91403"}}},
{"geometry": {"type": "Point", "coordinates": [-118.4666361583, 34.1539088568]}, "type": "Feature", "properties": {"collection_times": [{"days": "Mon-Sat", "time": "12:00pm"}, {"days": "Sun", "time": "Closed"}], "id": "9140300094", "name": "USPS COLLECTION BOX - BLUE BOX", "address": {"city": "SHERMAN OAKS", "state": "CA", "street": "15300 VENTURA BLVD", "postcode": "91403"}}},
{"geometry": {"type": "Point", "coordinates": [-118.4666361583, 34.1539088568]}, "type": "Feature", "properties": {"collection_times": [{"days": "Mon-Sat", "time": "12:00pm"}, {"days": "Sun", "time": "Closed"}], "id": "9140300095", "name": "USPS COLLECTION BOX - BLUE BOX", "address": {"city": "SHERMAN OAKS", "state": "CA", "street": "15300 VENTURA BLVD", "postcode": "91403"}}},
{"geometry": {"type": "Point", "coordinates": [-118.4654023321, 34.1536900094]}, "type": "Feature", "properties": {"collection_times": [{"days": "Mon-Sat", "time": "12:00pm"}, {"days": "Sun", "time": "Closed"}], "id": "9140300097", "name": "USPS COLLECTION BOX - BLUE BOX", "address": {"city": "SHERMAN OAKS", "state": "CA", "street": "15250 VENTURA BLVD", "postcode": "91403"}}},
{"geometry": {"type": "Point", "coordinates": [-118.4580689797, 34.1648234517]}, "type": "Feature", "properties": {"collection_times": [{"days": "Mon-Fri", "time": "5:00pm"}, {"days": "Sat", "time": "4:00pm"}, {"days": "Sun", "time": "Closed"}], "id": "9140300106", "name": "USPS COLLECTION BOX - BLUE BOX", "address": {"city": "SHERMAN OAKS", "state": "CA", "street": "14900 MAGNOLIA BLVD", "postcode": "91403"}}},
{"geometry": {"type": "Point", "coordinates": [-118.4597065301, 34.1526985116]}, "type": "Feature", "properties": {"collection_times": [{"days": "Mon-Sat", "time": "12:00pm"}, {"days": "Sun", "time": "Closed"}], "id": "9140300112", "name": "USPS COLLECTION BOX - BLUE BOX", "address": {"city": "SHERMAN OAKS", "state": "CA", "street": "15000 VENTURA BLVD", "postcode": "91403"}}},
{"geometry": {"type": "Point", "coordinates": [-118.4636929564, 34.1534108311]}, "type": "Feature", "properties": {"collection_times": [{"days": "Mon-Fri", "time": "12:00pm"}, {"days": "Sat", "time": "10:00am"}, {"days": "Sun", "time": "Closed"}], "id": "9140300123", "name": "USPS COLLECTION BOX - BLUE BOX", "address": {"city": "SHERMAN OAKS", "state": "CA", "street": "15165 VENTURA BLVD", "postcode": "91403"}}},
{"geometry": {"type": "Point", "coordinates": [-118.466267056, 34.1538574168]}, "type": "Feature", "properties": {"collection_times": [{"days": "Mon-Fri", "time": "12:00pm"}, {"days": "Sat-Sun", "time": "Closed"}], "id": "9140300124", "name": "USPS COLLECTION BOX - BLUE BOX", "address": {"city": "SHERMAN OAKS", "state": "CA", "street": "4601 SEPULVEDA BLVD", "postcode": "91403"}}},
{"geometry": {"type": "Point", "coordinates": [-118.466267056, 34.1538574168]}, "type": "Feature", "properties": {"collection_times": [{"days": "Mon-Fri", "time": "12:00pm"}, {"days": "Sat-Sun", "time": "Closed"}], "id": "9140300125", "name": "USPS COLLECTION BOX - BLUE BOX", "address": {"city": "SHERMAN OAKS", "state": "CA", "street": "4601 SEPULVEDA BLVD", "postcode": "91403"}}},
{"geometry": {"type": "Point", "coordinates": [-118.459676296, 34.1535935356]}, "type": "Feature", "properties": {"collection_times": [{"days": "Mon-Fri", "time": "12:00pm"}, {"days": "Sat-Sun", "time": "Closed"}], "id": "9140300126", "name": "USPS COLLECTION BOX - EXPRESS", "address": {"city": "SHERMAN OAKS", "state": "CA", "street": "4601 SEPULVEDA BLVD", "postcode": "91403"}}},
{"geometry": {"type": "Point", "coordinates": [-118.459676296, 34.1535935356]}, "type": "Feature", "properties": {"collection_times": [{"days": "Mon-Fri", "time": "5:00pm"}, {"days": "Sat", "time": "4:00pm"}, {"days": "Sun", "time": "Closed"}], "id": "9140300130", "name": "USPS COLLECTION BOX - APC", "address": {"city": "SHERMAN OAKS", "state": "CA", "street": "14900 MAGNOLIA BLVD", "postcode": "91403"}}},
{"geometry": {"type": "Point", "coordinates": [-118.4658163677, 34.1537574381]}, "type": "Feature", "properties": {"collection_times": [{"days": "Mon-Fri", "time": "12:00pm"}, {"days": "Sat-Sun", "time": "Closed"}], "id": "9140300132", "name": "USPS COLLECTION BOX - BLUE BOX", "address": {"city": "SHERMAN OAKS", "state": "CA", "street": "15233 VENTURA BLVD", "postcode": "91403"}}},
{"geometry": {"type": "Point", "coordinates": [-118.4658163677, 34.1537574381]}, "type": "Feature", "properties": {"collection_times": [{"days": "Mon-Fri", "time": "12:00pm"}, {"days": "Sat-Sun", "time": "Closed"}], "id": "9140300133", "name": "USPS COLLECTION BOX - BLUE BOX", "address": {"city": "SHERMAN OAKS", "state": "CA", "street": "15233 VENTURA BLVD", "postcode": "91403"}}},
{"geometry": {"type": "Point", "coordinates": [-118.4691274699, 34.1534581495]}, "type": "Feature", "properties": {"collection_times": [{"days": "Mon-Sat", "time": "12:00pm"}, {"days": "Sun", "time": "Closed"}], "id": "9140300134", "name": "USPS COLLECTION BOX - BLUE BOX", "address": {"city": "SHERMAN OAKS", "state": "CA", "street": "4554 SHERMAN OAKS AVE", "postcode": "91403"}}},
{"geometry": {"type": "Point", "coordinates": [-118.4691274699, 34.1534581495]}, "type": "Feature", "properties": {"collection_times": [{"days": "Mon-Sat", "time": "12:00pm"}, {"days": "Sun", "time": "Closed"}], "id": "9140300135", "name": "USPS COLLECTION BOX - BLUE BOX", "address": {"city": "SHERMAN OAKS", "state": "CA", "street": "4554 SHERMAN OAKS AVE", "postcode": "91403"}}},
{"geometry": {"type": "Point", "coordinates": [-118.466237757, 34.1648988816]}, "type": "Feature", "properties": {"collection_times": [{"days": "Mon-Fri", "time": "12:00pm"}, {"days": "Sat", "time": "10:00am"}, {"days": "Sun", "time": "Closed"}], "id": "9140300136", "name": "USPS COLLECTION BOX - BLUE BOX", "address": {"city": "SHERMAN OAKS", "state": "CA", "street": "15301 MAGNOLIA BLVD", "postcode": "91403"}}},
{"geometry": {"type": "Point", "coordinates": [-118.466237757, 34.1648988816]}, "type": "Feature", "properties": {"collection_times": [{"days": "Mon-Fri", "time": "12:00pm"}, {"days": "Sat", "time": "10:00am"}, {"days": "Sun", "time": "Closed"}], "id": "9140300137", "name": "USPS COLLECTION BOX - BLUE BOX", "address": {"city": "SHERMAN OAKS", "state": "CA", "street": "15301 MAGNOLIA BLVD", "postcode": "91403"}}},
{"geometry": {"type": "Point", "coordinates": [-118.459676296, 34.1535935356]}, "type": "Feature", "properties": {"collection_times": [{"days": "Mon-Fri", "time": "5:00pm"}, {"days": "Sat", "time": "4:00pm"}, {"days": "Sun", "time": "Closed"}], "id": "9140300139", "name": "USPS COLLECTION BOX - PO LOBBY", "address": {"city": "SHERMAN OAKS", "state": "CA", "street": "14900 MAGNOLIA BLVD", "postcode": "91403"}}},
{"geometry": {"type": "Point", "coordinates": [-118.4580689797, 34.1648234517]}, "type": "Feature", "properties": {"collection_times": [{"days": "Mon-Fri", "time": "5:00pm"}, {"days": "Sat", "time": "4:00pm"}, {"days": "Sun", "time": "Closed"}], "id": "9140300141", "name": "USPS COLLECTION BOX - BLUE BOX", "address": {"city": "SHERMAN OAKS", "state": "CA", "street": "14900 MAGNOLIA BLVD", "postcode": "91403"}}},
{"geometry": {"type": "Point", "coordinates": [-118.4580689797, 34.1648234517]}, "type": "Feature", "properties": {"collection_times": [{"days": "Mon-Fri", "time": "5:00pm"}, {"days": "Sat", "time": "4:00pm"}, {"days": "Sun", "time": "Closed"}], "id": "9140300142", "name": "USPS COLLECTION BOX - BLUE BOX", "address": {"city": "SHERMAN OAKS", "state": "CA", "street": "14900 MAGNOLIA BLVD", "postcode": "91403"}}},
{"geometry": {"type": "Point", "coordinates": [-118.4486770109, 34.2020374745]}, "type": "Feature", "properties": {"collection_times": [{"days": "Mon-Sat", "time": "10:00am"}, {"days": "Sun", "time": "Closed"}], "id": "9140500003", "name": "USPS COLLECTION BOX - BLUE BOX", "address": {"city": "VAN NUYS", "state": "CA", "street": "7232 VAN NUYS BLVD", "postcode": "91405"}}},
{"geometry": {"type": "Point", "coordinates": [-118.466174545, 34.1985088229]}, "type": "Feature", "properties": {"collection_times": [{"days": "Mon-Sat", "time": "10:00am"}, {"days": "Sun", "time": "Closed"}], "id": "9140500007", "name": "USPS COLLECTION BOX - BLUE BOX", "address": {"city": "VAN NUYS", "state": "CA", "street": "15299 VOSE ST", "postcode": "91405"}}},
{"geometry": {"type": "Point", "coordinates": [-118.435537679, 34.1903798603]}, "type": "Feature", "properties": {"collection_times": [{"days": "Mon-Sat", "time": "10:00am"}, {"days": "Sun", "time": "Closed"}], "id": "9140500012", "name": "USPS COLLECTION BOX - BLUE BOX", "address": {"city": "VAN NUYS", "state": "CA", "street": "6600 RANCHITO AVE", "postcode": "91405"}}},
{"geometry": {"type": "Point", "coordinates": [-118.4530957962, 34.1929229112]}, "type": "Feature", "properties": {"collection_times": [{"days": "Mon-Sat", "time": "10:00am"}, {"days": "Sun", "time": "Closed"}], "id": "9140500013", "name": "USPS COLLECTION BOX - BLUE BOX", "address": {"city": "VAN NUYS", "state": "CA", "street": "14549 ARCHWOOD ST", "postcode": "91405"}}},
{"geometry": {"type": "Point", "coordinates": [-118.4441244492, 34.1906740385]}, "type": "Feature", "properties": {"collection_times": [{"days": "Mon-Sat", "time": "10:00am"}, {"days": "Sun", "time": "Closed"}], "id": "9140500014", "name": "USPS COLLECTION BOX - BLUE BOX", "address": {"city": "VAN NUYS", "state": "CA", "street": "14263 KITTRIDGE ST", "postcode": "91405"}}},
{"geometry": {"type": "Point", "coordinates": [-118.4661994859, 34.2011243415]}, "type": "Feature", "properties": {"collection_times": [{"days": "Mon-Sat", "time": "10:00am"}, {"days": "Sun", "time": "Closed"}], "id": "9140500017", "name": "USPS COLLECTION BOX - BLUE BOX", "address": {"city": "VAN NUYS", "state": "CA", "street": "13600 SHERMAN WAY", "postcode": "91405"}}},
{"geometry": {"type": "Point", "coordinates": [-118.4661773446, 34.1939237334]}, "type": "Feature", "properties": {"collection_times": [{"days": "Mon-Sat", "time": "10:00am"}, {"days": "Sun", "time": "Closed"}], "id": "9140500018", "name": "USPS COLLECTION BOX - BLUE BOX", "address": {"city": "VAN NUYS", "state": "CA", "street": "13300 VANOWEN ST", "postcode": "91405"}}},
{"geometry": {"type": "Point", "coordinates": [-118.4312645023, 34.1944606901]}, "type": "Feature", "properties": {"collection_times": [{"days": "Mon-Sat", "time": "10:00am"}, {"days": "Sun", "time": "Closed"}], "id": "9140500019", "name": "USPS COLLECTION BOX - BLUE BOX", "address": {"city": "VAN NUYS", "state": "CA", "street": "6812 WOODMAN AVE", "postcode": "91405"}}},
{"geometry": {"type": "Point", "coordinates": [-118.4466224384, 34.2012725713]}, "type": "Feature", "properties": {"collection_times": [{"days": "Mon-Sat", "time": "10:00am"}, {"days": "Sun", "time": "Closed"}], "id": "9140500023", "name": "USPS COLLECTION BOX - BLUE BOX", "address": {"city": "VAN NUYS", "state": "CA", "street": "14401 SHERMAN WAY", "postcode": "91405"}}},
{"geometry": {"type": "Point", "coordinates": [-118.4308149779, 34.2071372784]}, "type": "Feature", "properties": {"collection_times": [{"days": "Mon-Sat", "time": "10:00am"}, {"days": "Sun", "time": "Closed"}], "id": "9140500025", "name": "USPS COLLECTION BOX - BLUE BOX", "address": {"city": "VAN NUYS", "state": "CA", "street": "7510 WOODMAN AVE", "postcode": "91405"}}},
{"geometry": {"type": "Point", "coordinates": [-118.4487273425, 34.1959949879]}, "type": "Feature", "properties": {"collection_times": [{"days": "Mon-Sat", "time": "10:00am"}, {"days": "Sun", "time": "Closed"}], "id": "9140500028", "name": "USPS COLLECTION BOX - BLUE BOX", "address": {"city": "VAN NUYS", "state": "CA", "street": "6911 VAN NUYS BLVD", "postcode": "91405"}}},
{"geometry": {"type": "Point", "coordinates": [-118.4399200476, 34.1940506735]}, "type": "Feature", "properties": {"collection_times": [{"days": "Mon-Sat", "time": "10:00am"}, {"days": "Sun", "time": "Closed"}], "id": "9140500030", "name": "USPS COLLECTION BOX - BLUE BOX", "address": {"city": "VAN NUYS", "state": "CA", "street": "6800 HAZELTINE AVE", "postcode": "91405"}}},
{"geometry": {"type": "Point", "coordinates": [-118.4411008061, 34.2071372784]}, "type": "Feature", "properties": {"collection_times": [{"days": "Mon-Fri", "time": "10:00am"}, {"days": "Sat-Sun", "time": "Closed"}], "id": "9140500044", "name": "USPS COLLECTION BOX - BLUE BOX", "address": {"city": "VAN NUYS", "state": "CA", "street": "14141 COVELLO ST", "postcode": "91405"}}},
{"geometry": {"type": "Point", "coordinates": [-118.4685395393, 34.2011278469]}, "type": "Feature", "properties": {"collection_times": [{"days": "Mon-Sat", "time": "12:00pm"}, {"days": "Sun", "time": "Closed"}], "id": "9140600002", "name": "USPS COLLECTION BOX - BLUE BOX", "address": {"city": "VAN NUYS", "state": "CA", "street": "15400 SHERMAN WAY", "postcode": "91406"}}},
{"geometry": {"type": "Point", "coordinates": [-118.4854546695, 34.2011124684]}, "type": "Feature", "properties": {"collection_times": [{"days": "Mon-Fri", "time": "12:00pm"}, {"days": "Sat", "time": "2:30pm"}, {"days": "Sun", "time": "Closed"}], "id": "9140600009", "name": "USPS COLLECTION BOX - BLUE BOX", "address": {"city": "VAN NUYS", "state": "CA", "street": "16150 SHERMAN WAY", "postcode": "91406"}}},
{"geometry": {"type": "Point", "coordinates": [-118.5011407054, 34.2088868747]}, "type": "Feature", "properties": {"collection_times": [{"days": "Mon-Sat", "time": "10:00am"}, {"days": "Sun", "time": "Closed"}], "id": "9140600015", "name": "USPS COLLECTION BOX - BLUE BOX", "address": {"city": "VAN NUYS", "state": "CA", "street": "7603 BALBOA BLVD", "postcode": "91406"}}},
{"geometry": {"type": "Point", "coordinates": [-118.5076745812, 34.2119956078]}, "type": "Feature", "properties": {"collection_times": [{"days": "Mon-Sat", "time": "10:00am"}, {"days": "Sun", "time": "Closed"}], "id": "9140600017", "name": "USPS COLLECTION BOX - BLUE BOX", "address": {"city": "VAN NUYS", "state": "CA", "street": "17200 STAGG ST", "postcode": "91406"}}},
{"geometry": {"type": "Point", "coordinates": [-118.4951442864, 34.2011065536]}, "type": "Feature", "properties": {"collection_times": [{"days": "Mon-Sat", "time": "10:00am"}, {"days": "Sun", "time": "Closed"}], "id": "9140600018", "name": "USPS COLLECTION BOX - BLUE BOX", "address": {"city": "VAN NUYS", "state": "CA", "street": "16600 SHERMAN WAY", "postcode": "91406"}}},
{"geometry": {"type": "Point", "coordinates": [-118.5032387775, 34.2156805532]}, "type": "Feature", "properties": {"collection_times": [{"days": "Mon-Sat", "time": "10:00am"}, {"days": "Sun", "time": "Closed"}], "id": "9140600024", "name": "USPS COLLECTION BOX - BLUE BOX", "address": {"city": "VAN NUYS", "state": "CA", "street": "8195 LESNER AVE", "postcode": "91406"}}},
{"geometry": {"type": "Point", "coordinates": [-118.486889065, 34.1998114051]}, "type": "Feature", "properties": {"collection_times": [{"days": "Mon-Sat", "time": "10:00am"}, {"days": "Sun", "time": "Closed"}], "id": "9140600025", "name": "USPS COLLECTION BOX - BLUE BOX", "address": {"city": "VAN NUYS", "state": "CA", "street": "8000 ALDEA AVE", "postcode": "91406"}}},
{"geometry": {"type": "Point", "coordinates": [-118.4837223049, 34.193888405]}, "type": "Feature", "properties": {"collection_times": [{"days": "Mon-Sat", "time": "10:00am"}, {"days": "Sun", "time": "Closed"}], "id": "9140600026", "name": "USPS COLLECTION BOX - BLUE BOX", "address": {"city": "VAN NUYS", "state": "CA", "street": "6799 WOODLEY AVE", "postcode": "91406"}}},
{"geometry": {"type": "Point", "coordinates": [-118.5058669514, 34.2038464447]}, "type": "Feature", "properties": {"collection_times": [{"days": "Mon-Sat", "time": "10:00am"}, {"days": "Sun", "time": "Closed"}], "id": "9140600027", "name": "USPS COLLECTION BOX - BLUE BOX", "address": {"city": "VAN NUYS", "state": "CA", "street": "7350 AMESTOY AVE", "postcode": "91406"}}},
{"geometry": {"type": "Point", "coordinates": [-118.5015026908, 34.2010935411]}, "type": "Feature", "properties": {"collection_times": [{"days": "Mon-Sat", "time": "10:00am"}, {"days": "Sun", "time": "Closed"}], "id": "9140600047", "name": "USPS COLLECTION BOX - BLUE BOX", "address": {"city": "VAN NUYS", "state": "CA", "street": "16900 SHERMAN WAY", "postcode": "91406"}}},
{"geometry": {"type": "Point", "coordinates": [-118.4662552384, 34.1939060898]}, "type": "Feature", "properties": {"collection_times": [{"days": "Mon-Sat", "time": "10:00am"}, {"days": "Sun", "time": "Closed"}], "id": "9140600049", "name": "USPS COLLECTION BOX - BLUE BOX", "address": {"city": "VAN NUYS", "state": "CA", "street": "6799 SEPULVEDA BLVD", "postcode": "91406"}}},
{"geometry": {"type": "Point", "coordinates": [-118.4903381328, 34.221247366]}, "type": "Feature", "properties": {"collection_times": [{"days": "Mon-Sat", "time": "10:00am"}, {"days": "Sun", "time": "Closed"}], "id": "9140600051", "name": "USPS COLLECTION BOX - BLUE BOX", "address": {"city": "VAN NUYS", "state": "CA", "street": "16380 ROSCOE BLVD", "postcode": "91406"}}},
{"geometry": {"type": "Point", "coordinates": [-118.4685395393, 34.2011278469]}, "type": "Feature", "properties": {"collection_times": [{"days": "Mon-Sat", "time": "12:00pm"}, {"days": "Sun", "time": "Closed"}], "id": "9140600052", "name": "USPS COLLECTION BOX - BLUE BOX", "address": {"city": "VAN NUYS", "state": "CA", "street": "15400 SHERMAN WAY", "postcode": "91406"}}},
{"geometry": {"type": "Point", "coordinates": [-118.4924630252, 34.2012872141]}, "type": "Feature", "properties": {"collection_times": [{"days": "Mon-Sat", "time": "12:00pm"}, {"days": "Sun", "time": "Closed"}], "id": "9140600060", "name": "USPS COLLECTION BOX - BLUE BOX", "address": {"city": "VAN NUYS", "state": "CA", "street": "16501 SHERMAN WAY", "postcode": "91406"}}},
{"geometry": {"type": "Point", "coordinates": [-118.4923927234, 34.1990316434]}, "type": "Feature", "properties": {"collection_times": [{"days": "Mon-Sat", "time": "12:00pm"}, {"days": "Sun", "time": "Closed"}], "id": "9140600061", "name": "USPS COLLECTION BOX - BLUE BOX", "address": {"city": "VAN NUYS", "state": "CA", "street": "7100 HAYVENHURST AVE", "postcode": "91406"}}},
{"geometry": {"type": "Point", "coordinates": [-118.4923927234, 34.1990316434]}, "type": "Feature", "properties": {"collection_times": [{"days": "Mon-Sat", "time": "12:00pm"}, {"days": "Sun", "time": "Closed"}], "id": "9140600062", "name": "USPS COLLECTION BOX - BLUE BOX", "address": {"city": "VAN NUYS", "state": "CA", "street": "7100 HAYVENHURST AVE", "postcode": "91406"}}},
{"geometry": {"type": "Point", "coordinates": [-118.4749973516, 34.2013051849]}, "type": "Feature", "properties": {"collection_times": [{"days": "Mon-Fri", "time": "7:00pm"}, {"days": "Sat", "time": "6:00pm"}, {"days": "Sun", "time": "Closed"}], "id": "9140900001", "name": "USPS COLLECTION BOX - BLUE BOX", "address": {"city": "VAN NUYS", "state": "CA", "street": "15701 SHERMAN WAY", "postcode": "91409"}}},
{"geometry": {"type": "Point", "coordinates": [-118.4749973516, 34.2013051849]}, "type": "Feature", "properties": {"collection_times": [{"days": "Mon-Fri", "time": "7:00pm"}, {"days": "Sat", "time": "6:00pm"}, {"days": "Sun", "time": "Closed"}], "id": "9140900002", "name": "USPS COLLECTION BOX - BLUE BOX", "address": {"city": "VAN NUYS", "state": "CA", "street": "15701 SHERMAN WAY", "postcode": "91409"}}},
{"geometry": {"type": "Point", "coordinates": [-118.4749967792, 34.2012891854]}, "type": "Feature", "properties": {"collection_times": [{"days": "Mon-Fri", "time": "7:00pm"}, {"days": "Sat", "time": "6:00pm"}, {"days": "Sun", "time": "Closed"}], "id": "9140900003", "name": "USPS COLLECTION BOX - BLUE BOX", "address": {"city": "VAN NUYS", "state": "CA", "street": "15701 SHERMAN WAY", "postcode": "91409"}}},
{"geometry": {"type": "Point", "coordinates": [-118.4749973516, 34.2013051849]}, "type": "Feature", "properties": {"collection_times": [{"days": "Mon-Fri", "time": "7:00pm"}, {"days": "Sat", "time": "6:00pm"}, {"days": "Sun", "time": "Closed"}], "id": "9140900008", "name": "USPS COLLECTION BOX - PO LOBBY", "address": {"city": "VAN NUYS", "state": "CA", "street": "15701 SHERMAN WAY", "postcode": "91409"}}},
{"geometry": {"type": "Point", "coordinates": [-118.4749967792, 34.2012891854]}, "type": "Feature", "properties": {"collection_times": [{"days": "Mon-Fri", "time": "7:00pm"}, {"days": "Sat", "time": "6:00pm"}, {"days": "Sun", "time": "Closed"}], "id": "9140900010", "name": "USPS COLLECTION BOX - APC", "address": {"city": "VAN NUYS", "state": "CA", "street": "15701 SHERMAN WAY", "postcode": "91409"}}},
{"geometry": {"type": "Point", "coordinates": [-118.4661759873, 34.1788704739]}, "type": "Feature", "properties": {"collection_times": [{"days": "Mon-Sat", "time": "12:00pm"}, {"days": "Sun", "time": "Closed"}], "id": "9141100000", "name": "USPS COLLECTION BOX - BLUE BOX", "address": {"city": "SHERMAN OAKS", "state": "CA", "street": "5990 SEPULVEDA BLVD", "postcode": "91411"}}},
{"geometry": {"type": "Point", "coordinates": [-118.4661759873, 34.1788704739]}, "type": "Feature", "properties": {"collection_times": [{"days": "Mon-Sat", "time": "12:00pm"}, {"days": "Sun", "time": "Closed"}], "id": "9141100002", "name": "USPS COLLECTION BOX - BLUE BOX", "address": {"city": "SHERMAN OAKS", "state": "CA", "street": "5990 SEPULVEDA BLVD", "postcode": "91411"}}},
{"geometry": {"type": "Point", "coordinates": [-118.4661926574, 34.1664202151]}, "type": "Feature", "properties": {"collection_times": [{"days": "Mon-Sat", "time": "10:00am"}, {"days": "Sun", "time": "Closed"}], "id": "9141100005", "name": "USPS COLLECTION BOX - BLUE BOX", "address": {"city": "SHERMAN OAKS", "state": "CA", "street": "5259 SEPULVEDA BLVD", "postcode": "91411"}}},
{"geometry": {"type": "Point", "coordinates": [-118.4579296038, 34.1793420382]}, "type": "Feature", "properties": {"collection_times": [{"days": "Mon-Sat", "time": "10:00am"}, {"days": "Sun", "time": "Closed"}], "id": "9141100014", "name": "USPS COLLECTION BOX - BLUE BOX", "address": {"city": "SHERMAN OAKS", "state": "CA", "street": "15500 ERWIN ST", "postcode": "91411"}}},
{"geometry": {"type": "Point", "coordinates": [-118.4570707521, 34.1866614417]}, "type": "Feature", "properties": {"collection_times": [{"days": "Mon-Sat", "time": "10:00am"}, {"days": "Sun", "time": "Closed"}], "id": "9141100027", "name": "USPS COLLECTION BOX - BLUE BOX", "address": {"city": "SHERMAN OAKS", "state": "CA", "street": "14850 VICTORY BLVD", "postcode": "91411"}}},
{"geometry": {"type": "Point", "coordinates": [-118.4417230425, 34.1497791471]}, "type": "Feature", "properties": {"collection_times": [{"days": "Mon-Sat", "time": "12:00pm"}, {"days": "Sun", "time": "Closed"}], "id": "9142300002", "name": "USPS COLLECTION BOX - BLUE BOX", "address": {"city": "SHERMAN OAKS", "state": "CA", "street": "14144 VENTURA BLVD", "postcode": "91423"}}},
{"geometry": {"type": "Point", "coordinates": [-118.4417230425, 34.1497791471]}, "type": "Feature", "properties": {"collection_times": [{"days": "Mon-Sat", "time": "12:00pm"}, {"days": "Sun", "time": "Closed"}], "id": "9142300003", "name": "USPS COLLECTION BOX - BLUE BOX", "address": {"city": "SHERMAN OAKS", "state": "CA", "street": "14144 VENTURA BLVD", "postcode": "91423"}}},
{"geometry": {"type": "Point", "coordinates": [-118.4417230425, 34.1497791471]}, "type": "Feature", "properties": {"collection_times": [{"days": "Mon-Sat", "time": "12:00pm"}, {"days": "Sun", "time": "Closed"}], "id": "9142300004", "name": "USPS COLLECTION BOX - BLUE BOX", "address": {"city": "SHERMAN OAKS", "state": "CA", "street": "14144 VENTURA BLVD", "postcode": "91423"}}},
{"geometry": {"type": "Point", "coordinates": [-118.4227341852, 34.1466170978]}, "type": "Feature", "properties": {"collection_times": [{"days": "Mon-Fri", "time": "12:00pm"}, {"days": "Sat-Sun", "time": "Closed"}], "id": "9142300006", "name": "USPS COLLECTION BOX - BLUE BOX", "address": {"city": "SHERMAN OAKS", "state": "CA", "street": "13300 VENTURA BLVD", "postcode": "91423"}}},
{"geometry": {"type": "Point", "coordinates": [-118.4437042834, 34.1510340311]}, "type": "Feature", "properties": {"collection_times": [{"days": "Mon-Sat", "time": "10:00am"}, {"days": "Sun", "time": "Closed"}], "id": "9142300008", "name": "USPS COLLECTION BOX - BLUE BOX", "address": {"city": "SHERMAN OAKS", "state": "CA", "street": "14245 MOORPARK ST", "postcode": "91423"}}},
{"geometry": {"type": "Point", "coordinates": [-118.431767008, 34.1575559586]}, "type": "Feature", "properties": {"collection_times": [{"days": "Mon-Sat", "time": "12:00pm"}, {"days": "Sun", "time": "Closed"}], "id": "9142300010", "name": "USPS COLLECTION BOX - BLUE BOX", "address": {"city": "SHERMAN OAKS", "state": "CA", "street": "13720 RIVERSIDE DR", "postcode": "91423"}}},
{"geometry": {"type": "Point", "coordinates": [-118.4329675472, 34.1530721349]}, "type": "Feature", "properties": {"collection_times": [{"days": "Mon-Sat", "time": "12:00pm"}, {"days": "Sun", "time": "Closed"}], "id": "9142300011", "name": "USPS COLLECTION BOX - EXPRESS", "address": {"city": "SHERMAN OAKS", "state": "CA", "street": "13720 RIVERSIDE DR", "postcode": "91423"}}},
{"geometry": {"type": "Point", "coordinates": [-118.4249790321, 34.1575836521]}, "type": "Feature", "properties": {"collection_times": [{"days": "Mon-Fri", "time": "12:00pm"}, {"days": "Sat-Sun", "time": "Closed"}], "id": "9142300014", "name": "USPS COLLECTION BOX - BLUE BOX", "address": {"city": "SHERMAN OAKS", "state": "CA", "street": "13400 RIVERSIDE DR", "postcode": "91423"}}},
{"geometry": {"type": "Point", "coordinates": [-118.4398937182, 34.1649081066]}, "type": "Feature", "properties": {"collection_times": [{"days": "Mon-Fri", "time": "12:00pm"}, {"days": "Sat", "time": "10:00am"}, {"days": "Sun", "time": "Closed"}], "id": "9142300016", "name": "USPS COLLECTION BOX - BLUE BOX", "address": {"city": "SHERMAN OAKS", "state": "CA", "street": "5200 HAZELTINE AVE", "postcode": "91423"}}},
{"geometry": {"type": "Point", "coordinates": [-118.4381966864, 34.1492455183]}, "type": "Feature", "properties": {"collection_times": [{"days": "Mon-Sat", "time": "12:00pm"}, {"days": "Sun", "time": "Closed"}], "id": "9142300017", "name": "USPS COLLECTION BOX - BLUE BOX", "address": {"city": "SHERMAN OAKS", "state": "CA", "street": "14025 VENTURA BLVD", "postcode": "91423"}}},
{"geometry": {"type": "Point", "coordinates": [-118.413789168, 34.1612536693]}, "type": "Feature", "properties": {"collection_times": [{"days": "Mon-Sat", "time": "10:00am"}, {"days": "Sun", "time": "Closed"}], "id": "9142300018", "name": "USPS COLLECTION BOX - BLUE BOX", "address": {"city": "SHERMAN OAKS", "state": "CA", "street": "5200 COLDWATER CANYON AVE", "postcode": "91423"}}},
{"geometry": {"type": "Point", "coordinates": [-118.4381966864, 34.1492455183]}, "type": "Feature", "properties": {"collection_times": [{"days": "Mon-Sat", "time": "12:00pm"}, {"days": "Sun", "time": "Closed"}], "id": "9142300019", "name": "USPS COLLECTION BOX - BLUE BOX", "address": {"city": "SHERMAN OAKS", "state": "CA", "street": "14025 VENTURA BLVD", "postcode": "91423"}}},
{"geometry": {"type": "Point", "coordinates": [-118.443188583, 34.1576795943]}, "type": "Feature", "properties": {"collection_times": [{"days": "Mon-Sat", "time": "10:00am"}, {"days": "Sun", "time": "Closed"}], "id": "9142300024", "name": "USPS COLLECTION BOX - BLUE BOX", "address": {"city": "SHERMAN OAKS", "state": "CA", "street": "4800 KATHERINE AVE", "postcode": "91423"}}},
{"geometry": {"type": "Point", "coordinates": [-118.4312859054, 34.1503062958]}, "type": "Feature", "properties": {"collection_times": [{"days": "Mon-Sat", "time": "10:00am"}, {"days": "Sun", "time": "Closed"}], "id": "9142300028", "name": "USPS COLLECTION BOX - BLUE BOX", "address": {"city": "SHERMAN OAKS", "state": "CA", "street": "13700 MOORPARK ST", "postcode": "91423"}}},
{"geometry": {"type": "Point", "coordinates": [-118.4138104548, 34.1575659761]}, "type": "Feature", "properties": {"collection_times": [{"days": "Mon-Fri", "time": "12:00pm"}, {"days": "Sat-Sun", "time": "Closed"}], "id": "9142300030", "name": "USPS COLLECTION BOX - BLUE BOX", "address": {"city": "SHERMAN OAKS", "state": "CA", "street": "12900 RIVERSIDE DR", "postcode": "91423"}}},
{"geometry": {"type": "Point", "coordinates": [-118.438911149, 34.1493118783]}, "type": "Feature", "properties": {"collection_times": [{"days": "Mon-Fri", "time": "12:00pm"}, {"days": "Sat-Sun", "time": "Closed"}], "id": "9142300031", "name": "USPS COLLECTION BOX - BLUE BOX", "address": {"city": "SHERMAN OAKS", "state": "CA", "street": "14050 VENTURA BLVD", "postcode": "91423"}}},
{"geometry": {"type": "Point", "coordinates": [-118.4267692582, 34.1503635288]}, "type": "Feature", "properties": {"collection_times": [{"days": "Mon-Sat", "time": "10:00am"}, {"days": "Sun", "time": "Closed"}], "id": "9142300032", "name": "USPS COLLECTION BOX - BLUE BOX", "address": {"city": "SHERMAN OAKS", "state": "CA", "street": "13454 MOORPARK ST", "postcode": "91423"}}},
{"geometry": {"type": "Point", "coordinates": [-118.4273358956, 34.1473860211]}, "type": "Feature", "properties": {"collection_times": [{"days": "Mon-Fri", "time": "12:00pm"}, {"days": "Sat", "time": "10:00am"}, {"days": "Sun", "time": "Closed"}], "id": "9142300035", "name": "USPS COLLECTION BOX - BLUE BOX", "address": {"city": "SHERMAN OAKS", "state": "CA", "street": "13501 VENTURA BLVD", "postcode": "91423"}}},
{"geometry": {"type": "Point", "coordinates": [-118.4382152108, 34.152825561]}, "type": "Feature", "properties": {"collection_times": [{"days": "Mon-Sat", "time": "10:00am"}, {"days": "Sun", "time": "Closed"}], "id": "9142300036", "name": "USPS COLLECTION BOX - BLUE BOX", "address": {"city": "SHERMAN OAKS", "state": "CA", "street": "4488 MURIETTA AVE", "postcode": "91423"}}},
{"geometry": {"type": "Point", "coordinates": [-118.4138104548, 34.1575659761]}, "type": "Feature", "properties": {"collection_times": [{"days": "Mon-Fri", "time": "12:00pm"}, {"days": "Sat-Sun", "time": "Closed"}], "id": "9142300038", "name": "USPS COLLECTION BOX - BLUE BOX", "address": {"city": "SHERMAN OAKS", "state": "CA", "street": "12900 RIVERSIDE DR", "postcode": "91423"}}},
{"geometry": {"type": "Point", "coordinates": [-118.4398979172, 34.1576387022]}, "type": "Feature", "properties": {"collection_times": [{"days": "Mon-Sat", "time": "12:00pm"}, {"days": "Sun", "time": "Closed"}], "id": "9142300040", "name": "USPS COLLECTION BOX - BLUE BOX", "address": {"city": "SHERMAN OAKS", "state": "CA", "street": "4800 HAZELTINE AVE", "postcode": "91423"}}},
{"geometry": {"type": "Point", "coordinates": [-118.4411185505, 34.146695173]}, "type": "Feature", "properties": {"collection_times": [{"days": "Mon-Sat", "time": "10:00am"}, {"days": "Sun", "time": "Closed"}], "id": "9142300042", "name": "USPS COLLECTION BOX - BLUE BOX", "address": {"city": "SHERMAN OAKS", "state": "CA", "street": "4175 STANSBURY AVE", "postcode": "91423"}}},
{"geometry": {"type": "Point", "coordinates": [-118.4293823316, 34.1445369502]}, "type": "Feature", "properties": {"collection_times": [{"days": "Mon-Sat", "time": "10:00am"}, {"days": "Sun", "time": "Closed"}], "id": "9142300043", "name": "USPS COLLECTION BOX - BLUE BOX", "address": {"city": "SHERMAN OAKS", "state": "CA", "street": "13599 VALLEY VISTA BLVD", "postcode": "91423"}}},
{"geometry": {"type": "Point", "coordinates": [-118.4329588569, 34.1530634913]}, "type": "Feature", "properties": {"collection_times": [{"days": "Mon-Sat", "time": "10:00am"}, {"days": "Sun", "time": "Closed"}], "id": "9142300050", "name": "USPS COLLECTION BOX - BLUE BOX", "address": {"city": "SHERMAN OAKS", "state": "CA", "street": "4800 ETHEL AVE", "postcode": "91423"}}},
{"geometry": {"type": "Point", "coordinates": [-118.4933367251, 34.1577037892]}, "type": "Feature", "properties": {"collection_times": [{"days": "Mon-Sat", "time": "12:00pm"}, {"days": "Sun", "time": "Closed"}], "id": "9143600006", "name": "USPS COLLECTION BOX - BLUE BOX", "address": {"city": "ENCINO", "state": "CA", "street": "16530 VENTURA BLVD", "postcode": "91436"}}},
{"geometry": {"type": "Point", "coordinates": [-118.4903379241, 34.1573027661]}, "type": "Feature", "properties": {"collection_times": [{"days": "Mon-Sat", "time": "3:00pm"}, {"days": "Sun", "time": "Closed"}], "id": "9143600009", "name": "USPS COLLECTION BOX - BLUE BOX", "address": {"city": "ENCINO", "state": "CA", "street": "16400 VENTURA BLVD", "postcode": "91436"}}},
{"geometry": {"type": "Point", "coordinates": [-118.4854818776, 34.1566178328]}, "type": "Feature", "properties": {"collection_times": [{"days": "Mon-Sat", "time": "12:00pm"}, {"days": "Sun", "time": "Closed"}], "id": "9143600013", "name": "USPS COLLECTION BOX - BLUE BOX", "address": {"city": "ENCINO", "state": "CA", "street": "16200 VENTURA BLVD", "postcode": "91436"}}},
{"geometry": {"type": "Point", "coordinates": [-118.4817733012, 34.1561056116]}, "type": "Feature", "properties": {"collection_times": [{"days": "Mon-Sat", "time": "12:00pm"}, {"days": "Sun", "time": "Closed"}], "id": "9143600014", "name": "USPS COLLECTION BOX - BLUE BOX", "address": {"city": "ENCINO", "state": "CA", "street": "16000 VENTURA BLVD", "postcode": "91436"}}},
{"geometry": {"type": "Point", "coordinates": [-118.4933367251, 34.1577037892]}, "type": "Feature", "properties": {"collection_times": [{"days": "Mon-Sat", "time": "12:00pm"}, {"days": "Sun", "time": "Closed"}], "id": "9143600015", "name": "USPS COLLECTION BOX - BLUE BOX", "address": {"city": "ENCINO", "state": "CA", "street": "16530 VENTURA BLVD", "postcode": "91436"}}},
{"geometry": {"type": "Point", "coordinates": [-118.4850453657, 34.1565575019]}, "type": "Feature", "properties": {"collection_times": [{"days": "Mon-Sat", "time": "12:00pm"}, {"days": "Sun", "time": "Closed"}], "id": "9143600016", "name": "USPS COLLECTION BOX - BLUE BOX", "address": {"city": "ENCINO", "state": "CA", "street": "16133 VENTURA BLVD", "postcode": "91436"}}},
{"geometry": {"type": "Point", "coordinates": [-118.4766002217, 34.1554254102]}, "type": "Feature", "properties": {"collection_times": [{"days": "Mon-Sat", "time": "12:00pm"}, {"days": "Sun", "time": "Closed"}], "id": "9143600017", "name": "USPS COLLECTION BOX - BLUE BOX", "address": {"city": "ENCINO", "state": "CA", "street": "15760 VENTURA BLVD", "postcode": "91436"}}},
{"geometry": {"type": "Point", "coordinates": [-118.4928150402, 34.1576387264]}, "type": "Feature", "properties": {"collection_times": [{"days": "Mon-Sat", "time": "12:00pm"}, {"days": "Sun", "time": "Closed"}], "id": "9143600024", "name": "USPS COLLECTION BOX - BLUE BOX", "address": {"city": "ENCINO", "state": "CA", "street": "16501 VENTURA BLVD", "postcode": "91436"}}},
{"geometry": {"type": "Point", "coordinates": [-118.4928150402, 34.1576387264]}, "type": "Feature", "properties": {"collection_times": [{"days": "Mon-Sat", "time": "12:00pm"}, {"days": "Sun", "time": "Closed"}], "id": "9143600025", "name": "USPS COLLECTION BOX - BLUE BOX", "address": {"city": "ENCINO", "state": "CA", "street": "16501 VENTURA BLVD", "postcode": "91436"}}},
{"geometry": {"type": "Point", "coordinates": [-118.4928150402, 34.1576387264]}, "type": "Feature", "properties": {"collection_times": [{"days": "Mon-Sat", "time": "12:00pm"}, {"days": "Sun", "time": "Closed"}], "id": "9143600026", "name": "USPS COLLECTION BOX - BLUE BOX", "address": {"city": "ENCINO", "state": "CA", "street": "16501 VENTURA BLVD", "postcode": "91436"}}},
{"geometry": {"type": "Point", "coordinates": [-118.487336601, 34.1538412009]}, "type": "Feature", "properties": {"collection_times": [{"days": "Mon-Sat", "time": "12:00pm"}, {"days": "Sun", "time": "Closed"}], "id": "9143600027", "name": "USPS COLLECTION BOX - EXPRESS", "address": {"city": "ENCINO", "state": "CA", "street": "16501 VENTURA BLVD", "postcode": "91436"}}},
{"geometry": {"type": "Point", "coordinates": [-118.4850453657, 34.1565575019]}, "type": "Feature", "properties": {"collection_times": [{"days": "Mon-Sat", "time": "12:00pm"}, {"days": "Sun", "time": "Closed"}], "id": "9143600029", "name": "USPS COLLECTION BOX - BLUE BOX", "address": {"city": "ENCINO", "state": "CA", "street": "16133 VENTURA BLVD", "postcode": "91436"}}},
{"geometry": {"type": "Point", "coordinates": [-118.4946616391, 34.1578694034]}, "type": "Feature", "properties": {"collection_times": [{"days": "Mon-Fri", "time": "3:00pm"}, {"days": "Sat-Sun", "time": "Closed"}], "id": "9143600032", "name": "USPS COLLECTION BOX - BLUE BOX", "address": {"city": "ENCINO", "state": "CA", "street": "16640 VENTURA BLVD", "postcode": "91436"}}},
{"geometry": {"type": "Point", "coordinates": [-118.4872518426, 34.1569283781]}, "type": "Feature", "properties": {"collection_times": [{"days": "Mon-Sat", "time": "12:00pm"}, {"days": "Sun", "time": "Closed"}], "id": "9143600034", "name": "USPS COLLECTION BOX - BLUE BOX", "address": {"city": "ENCINO", "state": "CA", "street": "16255 VENTURA BLVD", "postcode": "91436"}}},
{"geometry": {"type": "Point", "coordinates": [-118.4872518426, 34.1569283781]}, "type": "Feature", "properties": {"collection_times": [{"days": "Mon-Sat", "time": "12:00pm"}, {"days": "Sun", "time": "Closed"}], "id": "9143600035", "name": "USPS COLLECTION BOX - BLUE BOX", "address": {"city": "ENCINO", "state": "CA", "street": "16255 VENTURA BLVD", "postcode": "91436"}}},
{"geometry": {"type": "Point", "coordinates": [-118.4872518426, 34.1569283781]}, "type": "Feature", "properties": {"collection_times": [{"days": "Mon-Sat", "time": "12:00pm"}, {"days": "Sun", "time": "Closed"}], "id": "9143600037", "name": "USPS COLLECTION BOX - BLUE BOX", "address": {"city": "ENCINO", "state": "CA", "street": "16255 VENTURA BLVD", "postcode": "91436"}}},
{"geometry": {"type": "Point", "coordinates": [-118.4832449022, 34.1563078976]}, "type": "Feature", "properties": {"collection_times": [{"days": "Mon-Sat", "time": "12:00pm"}, {"days": "Sun", "time": "Closed"}], "id": "9143600038", "name": "USPS COLLECTION BOX - BLUE BOX", "address": {"city": "ENCINO", "state": "CA", "street": "16055 VENTURA BLVD", "postcode": "91436"}}},
{"geometry": {"type": "Point", "coordinates": [-118.4832449022, 34.1563078976]}, "type": "Feature", "properties": {"collection_times": [{"days": "Mon-Sat", "time": "12:00pm"}, {"days": "Sun", "time": "Closed"}], "id": "9143600040", "name": "USPS COLLECTION BOX - BLUE BOX", "address": {"city": "ENCINO", "state": "CA", "street": "16055 VENTURA BLVD", "postcode": "91436"}}},
{"geometry": {"type": "Point", "coordinates": [-118.4933367251, 34.1577037892]}, "type": "Feature", "properties": {"collection_times": [{"days": "Mon-Sat", "time": "12:00pm"}, {"days": "Sun", "time": "Closed"}], "id": "9143600043", "name": "USPS COLLECTION BOX - BLUE BOX", "address": {"city": "ENCINO", "state": "CA", "street": "16530 VENTURA BLVD", "postcode": "91436"}}},
{"geometry": {"type": "Point", "coordinates": [-118.4942976181, 34.1500858421]}, "type": "Feature", "properties": {"collection_times": [{"days": "Mon-Fri", "time": "12:00pm"}, {"days": "Sat-Sun", "time": "Closed"}], "id": "9143600044", "name": "USPS COLLECTION BOX - BLUE BOX", "address": {"city": "ENCINO", "state": "CA", "street": "15490 VENTURA BLVD", "postcode": "91436"}}},
{"geometry": {"type": "Point", "coordinates": [-118.4885847789, 34.1570590765]}, "type": "Feature", "properties": {"collection_times": [{"days": "Mon-Sat", "time": "12:00pm"}, {"days": "Sun", "time": "Closed"}], "id": "9143600052", "name": "USPS COLLECTION BOX - BLUE BOX", "address": {"city": "ENCINO", "state": "CA", "street": "16311 VENTURA BLVD", "postcode": "91436"}}},
{"geometry": {"type": "Point", "coordinates": [-118.4885847789, 34.1570590765]}, "type": "Feature", "properties": {"collection_times": [{"days": "Mon-Sat", "time": "12:00pm"}, {"days": "Sun", "time": "Closed"}], "id": "9143600053", "name": "USPS COLLECTION BOX - BLUE BOX", "address": {"city": "ENCINO", "state": "CA", "street": "16311 VENTURA BLVD", "postcode": "91436"}}},
{"geometry": {"type": "Point", "coordinates": [-118.4854818776, 34.1566178328]}, "type": "Feature", "properties": {"collection_times": [{"days": "Mon-Fri", "time": "12:00pm"}, {"days": "Sat", "time": "3:00pm"}, {"days": "Sun", "time": "Closed"}], "id": "9143600054", "name": "USPS COLLECTION BOX - BLUE BOX", "address": {"city": "ENCINO", "state": "CA", "street": "16200 VENTURA BLVD", "postcode": "91436"}}},
{"geometry": {"type": "Point", "coordinates": [-118.487336601, 34.1538412009]}, "type": "Feature", "properties": {"collection_times": [{"days": "Mon-Sat", "time": "12:00pm"}, {"days": "Sun", "time": "Closed"}], "id": "9143600055", "name": "USPS COLLECTION BOX - EXPRESS", "address": {"city": "ENCINO", "state": "CA", "street": "16200 VENTURA BLVD", "postcode": "91436"}}},
{"geometry": {"type": "Point", "coordinates": [-118.4817733012, 34.1561056116]}, "type": "Feature", "properties": {"collection_times": [{"days": "Mon-Sat", "time": "12:00pm"}, {"days": "Sun", "time": "Closed"}], "id": "9143600056", "name": "USPS COLLECTION BOX - BLUE BOX", "address": {"city": "ENCINO", "state": "CA", "street": "16000 VENTURA BLVD", "postcode": "91436"}}},
{"geometry": {"type": "Point", "coordinates": [-118.4766002217, 34.1554254102]}, "type": "Feature", "properties": {"collection_times": [{"days": "Mon-Sat", "time": "12:00pm"}, {"days": "Sun", "time": "Closed"}], "id": "9143600060", "name": "USPS COLLECTION BOX - BLUE BOX", "address": {"city": "ENCINO", "state": "CA", "street": "15760 VENTURA BLVD", "postcode": "91436"}}},
{"geometry": {"type": "Point", "coordinates": [-118.4942976181, 34.1500858421]}, "type": "Feature", "properties": {"collection_times": [{"days": "Mon-Fri", "time": "12:00pm"}, {"days": "Sat-Sun", "time": "Closed"}], "id": "9143600063", "name": "USPS COLLECTION BOX - BLUE BOX", "address": {"city": "ENCINO", "state": "CA", "street": "15490 VENTURA BLVD", "postcode": "91436"}}},
{"geometry": {"type": "Point", "coordinates": [-118.4964975915, 34.1581793387]}, "type": "Feature", "properties": {"collection_times": [{"days": "Mon-Sat", "time": "12:00pm"}, {"days": "Sun", "time": "Closed"}], "id": "9143600070", "name": "USPS COLLECTION BOX - BLUE BOX", "address": {"city": "ENCINO", "state": "CA", "street": "16661 VENTURA BLVD", "postcode": "91436"}}},
{"geometry": {"type": "Point", "coordinates": [-118.4796605365, 34.1558169696]}, "type": "Feature", "properties": {"collection_times": [{"days": "Mon-Sat", "time": "12:00pm"}, {"days": "Sun", "time": "Closed"}], "id": "9143600072", "name": "USPS COLLECTION BOX - BLUE BOX", "address": {"city": "ENCINO", "state": "CA", "street": "15910 VENTURA BLVD", "postcode": "91436"}}},
{"geometry": {"type": "Point", "coordinates": [-118.4796605365, 34.1558169696]}, "type": "Feature", "properties": {"collection_times": [{"days": "Mon-Sat", "time": "12:00pm"}, {"days": "Sun", "time": "Closed"}], "id": "9143600074", "name": "USPS COLLECTION BOX - BLUE BOX", "address": {"city": "ENCINO", "state": "CA", "street": "15910 VENTURA BLVD", "postcode": "91436"}}},
{"geometry": {"type": "Point", "coordinates": [-118.4961181271, 34.1581555928]}, "type": "Feature", "properties": {"collection_times": [{"days": "Mon-Sat", "time": "12:00pm"}, {"days": "Sun", "time": "Closed"}], "id": "9143600078", "name": "USPS COLLECTION BOX - BLUE BOX", "address": {"city": "ENCINO", "state": "CA", "street": "16633 VENTURA BLVD", "postcode": "91436"}}},
{"geometry": {"type": "Point", "coordinates": [-118.487336601, 34.1538412009]}, "type": "Feature", "properties": {"collection_times": [{"days": "Mon-Sat", "time": "12:00pm"}, {"days": "Sun", "time": "Closed"}], "id": "9143600079", "name": "USPS COLLECTION BOX - EXPRESS", "address": {"city": "ENCINO", "state": "CA", "street": "16633 VENTURA BLVD", "postcode": "91436"}}},
{"geometry": {"type": "Point", "coordinates": [-118.4929191406, 34.146466862]}, "type": "Feature", "properties": {"collection_times": [{"days": "Mon-Sat", "time": "10:00am"}, {"days": "Sun", "time": "Closed"}], "id": "9143600101", "name": "USPS COLLECTION BOX - BLUE BOX", "address": {"city": "ENCINO", "state": "CA", "street": "4194 HAYVENHURST DR", "postcode": "91436"}}},
{"geometry": {"type": "Point", "coordinates": [-118.472238652, 34.1548362966]}, "type": "Feature", "properties": {"collection_times": [{"days": "Mon-Fri", "time": "3:00pm"}, {"days": "Sat", "time": "10:00am"}, {"days": "Sun", "time": "Closed"}], "id": "9143600102", "name": "USPS COLLECTION BOX - BLUE BOX", "address": {"city": "ENCINO", "state": "CA", "street": "15503 VENTURA BLVD", "postcode": "91436"}}},
{"geometry": {"type": "Point", "coordinates": [-118.472238652, 34.1548362966]}, "type": "Feature", "properties": {"collection_times": [{"days": "Mon-Fri", "time": "3:00pm"}, {"days": "Sat", "time": "10:00am"}, {"days": "Sun", "time": "Closed"}], "id": "9143600103", "name": "USPS COLLECTION BOX - BLUE BOX", "address": {"city": "ENCINO", "state": "CA", "street": "15503 VENTURA BLVD", "postcode": "91436"}}},
{"geometry": {"type": "Point", "coordinates": [-118.4875236648, 34.1569088408]}, "type": "Feature", "properties": {"collection_times": [{"days": "Mon-Sat", "time": "3:00pm"}, {"days": "Sun", "time": "Closed"}], "id": "9143600104", "name": "USPS COLLECTION BOX - BLUE BOX", "address": {"city": "ENCINO", "state": "CA", "street": "16260 VENTURA BLVD", "postcode": "91436"}}},
{"geometry": {"type": "Point", "coordinates": [-118.5010030613, 34.1598066378]}, "type": "Feature", "properties": {"collection_times": [{"days": "Mon-Fri", "time": "5:00pm"}, {"days": "Sat", "time": "3:00pm"}, {"days": "Sun", "time": "Closed"}], "id": "9143600105", "name": "USPS COLLECTION BOX - PO LOBBY", "address": {"city": "ENCINO", "state": "CA", "street": "4920 BALBOA BLVD", "postcode": "91436"}}},
{"geometry": {"type": "Point", "coordinates": [-118.5010030613, 34.1598066378]}, "type": "Feature", "properties": {"collection_times": [{"days": "Mon-Fri", "time": "5:00pm"}, {"days": "Sat", "time": "3:00pm"}, {"days": "Sun", "time": "Closed"}], "id": "9143600107", "name": "USPS COLLECTION BOX - APC", "address": {"city": "ENCINO", "state": "CA", "street": "4920 BALBOA BLVD", "postcode": "91436"}}},
{"geometry": {"type": "Point", "coordinates": [-118.487336601, 34.1538412009]}, "type": "Feature", "properties": {"collection_times": [{"days": "Mon-Fri", "time": "5:00pm"}, {"days": "Sat", "time": "3:00pm"}, {"days": "Sun", "time": "Closed"}], "id": "9143600108", "name": "USPS COLLECTION BOX - BLUE BOX", "address": {"city": "ENCINO", "state": "CA", "street": "4930 BALBOA BLVD", "postcode": "91436"}}}
]}
