{"type": "FeatureCollection", "features": [
{"geometry": {"type": "Point", "coordinates": [-118.3069591743, 34.1960056345]}, "type": "Feature", "properties": {"collection_times": [{"days": "Mon-Sat", "time": "10:00am"}, {"days": "Sun", "time": "Closed"}], "id": "9150100002", "name": "USPS COLLECTION BOX - BLUE BOX", "address": {"city": "BURBANK", "state": "CA", "street": "900 N BELAIRE DR", "postcode": "91501"}}},
{"geometry": {"type": "Point", "coordinates": [-118.2968294966, 34.180656742]}, "type": "Feature", "properties": {"collection_times": [{"days": "Mon-Sat", "time": "10:00am"}, {"days": "Sun", "time": "Closed"}], "id": "9150100004", "name": "USPS COLLECTION BOX - BLUE BOX", "address": {"city": "BURBANK", "state": "CA", "street": "600 E ELMWOOD AVE", "postcode": "91501"}}},
{"geometry": {"type": "Point", "coordinates": [-118.2973474086, 34.1849864142]}, "type": "Feature", "properties": {"collection_times": [{"days": "Mon-Sat", "time": "10:00am"}, {"days": "Sun", "time": "Closed"}], "id": "9150100006", "name": "USPS COLLECTION BOX - BLUE BOX", "address": {"city": "BURBANK", "state": "CA", "street": "500 S KENNETH RD", "postcode": "91501"}}},
{"geometry": {"type": "Point", "coordinates": [-118.3047620472, 34.1862872519]}, "type": "Feature", "properties": {"collection_times": [{"days": "Mon-Sat", "time": "10:00am"}, {"days": "Sun", "time": "Closed"}], "id": "9150100008", "name": "USPS COLLECTION BOX - BLUE BOX", "address": {"city": "BURBANK", "state": "CA", "street": "600 E ORANGE GROVE AVE", "postcode": "91501"}}},
{"geometry": {"type": "Point", "coordinates": [-118.3096019051, 34.1801338076]}, "type": "Feature", "properties": {"collection_times": [{"days": "Mon-Fri", "time": "5:00pm"}, {"days": "Sat", "time": "3:00pm"}, {"days": "Sun", "time": "Closed"}], "id": "9150100012", "name": "USPS COLLECTION BOX - BLUE BOX", "address": {"city": "BURBANK", "state": "CA", "street": "135 E OLIVE ST", "postcode": "91501"}}},
{"geometry": {"type": "Point", "coordinates": [-118.3096019051, 34.1801338076]}, "type": "Feature", "properties": {"collection_times": [{"days": "Mon-Fri", "time": "5:00pm"}, {"days": "Sat", "time": "3:00pm"}, {"days": "Sun", "time": "Closed"}], "id": "9150100013", "name": "USPS COLLECTION BOX - BLUE BOX", "address": {"city": "BURBANK", "state": "CA", "street": "135 E OLIVE ST", "postcode": "91501"}}},
{"geometry": {"type": "Point", "coordinates": [-118.3013766228, 34.1878455412]}, "type": "Feature", "properties": {"collection_times": [{"days": "Mon-Fri", "time": "5:00pm"}, {"days": "Sat", "time": "3:00pm"}, {"days": "Sun", "time": "Closed"}], "id": "9150100014", "name": "USPS COLLECTION BOX - BLUE BOX", "address": {"city": "BURBANK", "state": "CA", "street": "135 E OLIVE ST", "postcode": "91501"}}},
{"geometry": {"type": "Point", "coordinates": [-118.3096019051, 34.1801338076]}, "type": "Feature", "properties": {"collection_times": [{"days": "Mon-Fri", "time": "5:00pm"}, {"days": "Sat", "time": "3:00pm"}, {"days": "Sun", "time": "Closed"}], "id": "9150100015", "name": "USPS COLLECTION BOX - PO LOBBY", "address": {"city": "BURBANK", "state": "CA", "street": "135 E OLIVE ST", "postcode": "91501"}}},
{"geometry": {"type": "Point", "coordinates": [-118.3096019051, 34.1801338076]}, "type": "Feature", "properties": {"collection_times": [{"days": "Mon-Fri", "time": "5:00pm"}, {"days": "Sat", "time": "3:00pm"}, {"days": "Sun", "time": "Closed"}], "id": "9150100016", "name": "USPS COLLECTION BOX - PO LOBBY", "address": {"city": "BURBANK", "state": "CA", "street": "135 E OLIVE ST", "postcode": "91501"}}},
{"geometry": {"type": "Point", "coordinates": [-118.3096019051, 34.1801338076]}, "type": "Feature", "properties": {"collection_times": [{"days": "Mon-Fri", "time": "5:00pm"}, {"days": "Sat", "time": "3:00pm"}, {"days": "Sun", "time": "Closed"}], "id": "9150100017", "name": "USPS COLLECTION BOX - APC", "address": {"city": "BURBANK", "state": "CA", "street": "135 E OLIVE ST", "postcode": "91501"}}},
{"geometry": {"type": "Point", "coordinates": [-118.3057118391, 34.1689791613]}, "type": "Feature", "properties": {"collection_times": [{"days": "Mon-Fri", "time": "3:00pm"}, {"days": "Sat", "time": "10:00am"}, {"days": "Sun", "time": "Closed"}], "id": "9150200002", "name": "USPS COLLECTION BOX - BLUE BOX", "address": {"city": "BURBANK", "state": "CA", "street": "207 W ALAMEDA AVE", "postcode": "91502"}}},
{"geometry": {"type": "Point", "coordinates": [-118.3122798774, 34.1856110618]}, "type": "Feature", "properties": {"collection_times": [{"days": "Mon-Sat", "time": "10:00am"}, {"days": "Sun", "time": "Closed"}], "id": "9150200005", "name": "USPS COLLECTION BOX - BLUE BOX", "address": {"city": "BURBANK", "state": "CA", "street": "300 E CYPRESS AVE", "postcode": "91502"}}},
{"geometry": {"type": "Point", "coordinates": [-118.3003764037, 34.1771344008]}, "type": "Feature", "properties": {"collection_times": [{"days": "Mon-Sat", "time": "10:00am"}, {"days": "Sun", "time": "Closed"}], "id": "9150200006", "name": "USPS COLLECTION BOX - BLUE BOX", "address": {"city": "BURBANK", "state": "CA", "street": "300 W ELMWOOD AVE", "postcode": "91502"}}},
{"geometry": {"type": "Point", "coordinates": [-118.3175312785, 34.1777537607]}, "type": "Feature", "properties": {"collection_times": [{"days": "Mon-Sat", "time": "10:00am"}, {"days": "Sun", "time": "Closed"}], "id": "9150200013", "name": "USPS COLLECTION BOX - BLUE BOX", "address": {"city": "BURBANK", "state": "CA", "street": "200 W MAGNOLIA BLVD", "postcode": "91502"}}},
{"geometry": {"type": "Point", "coordinates": [-118.3072229741, 34.1822915913]}, "type": "Feature", "properties": {"collection_times": [{"days": "Mon-Fri", "time": "12:00pm"}, {"days": "Sat", "time": "10:00am"}, {"days": "Sun", "time": "Closed"}], "id": "9150200015", "name": "USPS COLLECTION BOX - BLUE BOX", "address": {"city": "BURBANK", "state": "CA", "street": "300 E OLIVE AVE", "postcode": "91502"}}},
{"geometry": {"type": "Point", "coordinates": [-118.309706005, 34.1836933976]}, "type": "Feature", "properties": {"collection_times": [{"days": "Mon-Sat", "time": "10:00am"}, {"days": "Sun", "time": "Closed"}], "id": "9150200016", "name": "USPS COLLECTION BOX - BLUE BOX", "address": {"city": "BURBANK", "state": "CA", "street": "300 N 3RD ST", "postcode": "91502"}}},
{"geometry": {"type": "Point", "coordinates": [-118.3056494826, 34.1787192655]}, "type": "Feature", "properties": {"collection_times": [{"days": "Mon-Sat", "time": "10:00am"}, {"days": "Sun", "time": "Closed"}], "id": "9150200019", "name": "USPS COLLECTION BOX - BLUE BOX", "address": {"city": "BURBANK", "state": "CA", "street": "400 S SAN FERNANDO BLVD", "postcode": "91502"}}},
{"geometry": {"type": "Point", "coordinates": [-118.3068598057, 34.1776378307]}, "type": "Feature", "properties": {"collection_times": [{"days": "Mon-Sat", "time": "10:00am"}, {"days": "Sun", "time": "Closed"}], "id": "9150200020", "name": "USPS COLLECTION BOX - BLUE BOX", "address": {"city": "BURBANK", "state": "CA", "street": "100 W VERDUGO AVE", "postcode": "91502"}}},
{"geometry": {"type": "Point", "coordinates": [-118.3057118391, 34.1689791613]}, "type": "Feature", "properties": {"collection_times": [{"days": "Mon-Fri", "time": "12:00pm"}, {"days": "Sat", "time": "10:00am"}, {"days": "Sun", "time": "Closed"}], "id": "9150200024", "name": "USPS COLLECTION BOX - BLUE BOX", "address": {"city": "BURBANK", "state": "CA", "street": "207 W ALAMEDA AVE", "postcode": "91502"}}},
{"geometry": {"type": "Point", "coordinates": [-118.3086281377, 34.1848644485]}, "type": "Feature", "properties": {"collection_times": [{"days": "Mon-Fri", "time": "12:00pm"}, {"days": "Sat", "time": "10:00am"}, {"days": "Sun", "time": "Closed"}], "id": "9150200025", "name": "USPS COLLECTION BOX - BLUE BOX", "address": {"city": "BURBANK", "state": "CA", "street": "333 N GLENOAKS BLVD", "postcode": "91502"}}},
{"geometry": {"type": "Point", "coordinates": [-118.3086281377, 34.1848644485]}, "type": "Feature", "properties": {"collection_times": [{"days": "Mon-Fri", "time": "12:00pm"}, {"days": "Sat", "time": "10:00am"}, {"days": "Sun", "time": "Closed"}], "id": "9150200034", "name": "USPS COLLECTION BOX - BLUE BOX", "address": {"city": "BURBANK", "state": "CA", "street": "333 N GLENOAKS BLVD", "postcode": "91502"}}},
{"geometry": {"type": "Point", "coordinates": [-118.3086281377, 34.1848644485]}, "type": "Feature", "properties": {"collection_times": [{"days": "Mon-Fri", "time": "12:00pm"}, {"days": "Sat", "time": "10:00am"}, {"days": "Sun", "time": "Closed"}], "id": "9150200035", "name": "USPS COLLECTION BOX - BLUE BOX", "address": {"city": "BURBANK", "state": "CA", "street": "333 N GLENOAKS BLVD", "postcode": "91502"}}},
{"geometry": {"type": "Point", "coordinates": [-118.3055583789, 34.1649396878]}, "type": "Feature", "properties": {"collection_times": [{"days": "Mon-Sat", "time": "10:00am"}, {"days": "Sun", "time": "Closed"}], "id": "9150200041", "name": "USPS COLLECTION BOX - BLUE BOX", "address": {"city": "BURBANK", "state": "CA", "street": "300 LUTGE AVE", "postcode": "91502"}}},
{"geometry": {"type": "Point", "coordinates": [-118.3210552655, 34.1940876264]}, "type": "Feature", "properties": {"collection_times": [{"days": "Mon-Sat", "time": "10:00am"}, {"days": "Sun", "time": "Closed"}], "id": "9150400003", "name": "USPS COLLECTION BOX - BLUE BOX", "address": {"city": "BURBANK", "state": "CA", "street": "1600 N GLENOAKS BLVD", "postcode": "91504"}}},
{"geometry": {"type": "Point", "coordinates": [-118.3375197362, 34.2051380778]}, "type": "Feature", "properties": {"collection_times": [{"days": "Mon-Sat", "time": "10:00am"}, {"days": "Sun", "time": "Closed"}], "id": "9150400006", "name": "USPS COLLECTION BOX - BLUE BOX", "address": {"city": "BURBANK", "state": "CA", "street": "2800 N BUENA VISTA ST", "postcode": "91504"}}},
{"geometry": {"type": "Point", "coordinates": [-118.3423636016, 34.2118543452]}, "type": "Feature", "properties": {"collection_times": [{"days": "Mon-Sat", "time": "10:00am"}, {"days": "Sun", "time": "Closed"}], "id": "9150400007", "name": "USPS COLLECTION BOX - BLUE BOX", "address": {"city": "BURBANK", "state": "CA", "street": "9700 CABRINI DR", "postcode": "91504"}}},
{"geometry": {"type": "Point", "coordinates": [-118.3433963276, 34.1954096068]}, "type": "Feature", "properties": {"collection_times": [{"days": "Mon-Sat", "time": "10:00am"}, {"days": "Sun", "time": "Closed"}], "id": "9150400013", "name": "USPS COLLECTION BOX - BLUE BOX", "address": {"city": "BURBANK", "state": "CA", "street": "2344 N FAIRVIEW ST", "postcode": "91504"}}},
{"geometry": {"type": "Point", "coordinates": [-118.3188644733, 34.1883128524]}, "type": "Feature", "properties": {"collection_times": [{"days": "Mon-Sat", "time": "10:00am"}, {"days": "Sun", "time": "Closed"}], "id": "9150400020", "name": "USPS COLLECTION BOX - BLUE BOX", "address": {"city": "BURBANK", "state": "CA", "street": "1100 N SAN FERNANDO BLVD", "postcode": "91504"}}},
{"geometry": {"type": "Point", "coordinates": [-118.3344323082, 34.2064691342]}, "type": "Feature", "properties": {"collection_times": [{"days": "Mon-Sat", "time": "10:00am"}, {"days": "Sun", "time": "Closed"}], "id": "9150400022", "name": "USPS COLLECTION BOX - BLUE BOX", "address": {"city": "BURBANK", "state": "CA", "street": "3300 W KENNETH RD", "postcode": "91504"}}},
{"geometry": {"type": "Point", "coordinates": [-118.3355889934, 34.199253865]}, "type": "Feature", "properties": {"collection_times": [{"days": "Mon-Sat", "time": "10:00am"}, {"days": "Sun", "time": "Closed"}], "id": "9150400024", "name": "USPS COLLECTION BOX - BLUE BOX", "address": {"city": "BURBANK", "state": "CA", "street": "2400 N LINCOLN ST", "postcode": "91504"}}},
{"geometry": {"type": "Point", "coordinates": [-118.3444392902, 34.1992245534]}, "type": "Feature", "properties": {"collection_times": [{"days": "Mon-Fri", "time": "12:00pm"}, {"days": "Sat", "time": "10:00am"}, {"days": "Sun", "time": "Closed"}], "id": "9150400028", "name": "USPS COLLECTION BOX - BLUE BOX", "address": {"city": "BURBANK", "state": "CA", "street": "3100 WINONA AVE", "postcode": "91504"}}},
{"geometry": {"type": "Point", "coordinates": [-118.3426999135, 34.2074886172]}, "type": "Feature", "properties": {"collection_times": [{"days": "Mon-Fri", "time": "12:00pm"}, {"days": "Sat", "time": "10:00am"}, {"days": "Sun", "time": "Closed"}], "id": "9150400036", "name": "USPS COLLECTION BOX - BLUE BOX", "address": {"city": "BURBANK", "state": "CA", "street": "7530 N GLENOAKS BLVD", "postcode": "91504"}}},
{"geometry": {"type": "Point", "coordinates": [-118.3357642251, 34.1938857721]}, "type": "Feature", "properties": {"collection_times": [{"days": "Mon-Sat", "time": "10:00am"}, {"days": "Sun", "time": "Closed"}], "id": "9150400039", "name": "USPS COLLECTION BOX - BLUE BOX", "address": {"city": "BURBANK", "state": "CA", "street": "2100 N LINCOLN ST", "postcode": "91504"}}},
{"geometry": {"type": "Point", "coordinates": [-118.3488693785, 34.2003874334]}, "type": "Feature", "properties": {"collection_times": [{"days": "Mon-Sat", "time": "10:00am"}, {"days": "Sun", "time": "Closed"}], "id": "9150500002", "name": "USPS COLLECTION BOX - BLUE BOX", "address": {"city": "BURBANK", "state": "CA", "street": "2627 N HOLLYWOOD WAY", "postcode": "91505"}}},
{"geometry": {"type": "Point", "coordinates": [-118.3294330287, 34.1577735838]}, "type": "Feature", "properties": {"collection_times": [{"days": "Mon-Fri", "time": "12:00pm"}, {"days": "Sat", "time": "10:00am"}, {"days": "Sun", "time": "Closed"}], "id": "9150500004", "name": "USPS COLLECTION BOX - BLUE BOX", "address": {"city": "BURBANK", "state": "CA", "street": "2601 W ALAMEDA AVE", "postcode": "91505"}}},
{"geometry": {"type": "Point", "coordinates": [-118.3449842072, 34.1525602836]}, "type": "Feature", "properties": {"collection_times": [{"days": "Mon-Fri", "time": "12:00pm"}, {"days": "Sat", "time": "10:00am"}, {"days": "Sun", "time": "Closed"}], "id": "9150500010", "name": "USPS COLLECTION BOX - BLUE BOX", "address": {"city": "BURBANK", "state": "CA", "street": "4111 W ALAMEDA AVE", "postcode": "91505"}}},
{"geometry": {"type": "Point", "coordinates": [-118.3493808255, 34.1755397558]}, "type": "Feature", "properties": {"collection_times": [{"days": "Mon-Fri", "time": "12:00pm"}, {"days": "Sat", "time": "10:00am"}, {"days": "Sun", "time": "Closed"}], "id": "9150500014", "name": "USPS COLLECTION BOX - BLUE BOX", "address": {"city": "BURBANK", "state": "CA", "street": "1411 N HOLLYWOOD WAY", "postcode": "91505"}}},
{"geometry": {"type": "Point", "coordinates": [-118.3514656394, 34.1742817761]}, "type": "Feature", "properties": {"collection_times": [{"days": "Mon-Sat", "time": "10:00am"}, {"days": "Sun", "time": "Closed"}], "id": "9150500015", "name": "USPS COLLECTION BOX - BLUE BOX", "address": {"city": "BURBANK", "state": "CA", "street": "3800 W BURBANK BLVD", "postcode": "91505"}}},
{"geometry": {"type": "Point", "coordinates": [-118.342868204, 34.1692641499]}, "type": "Feature", "properties": {"collection_times": [{"days": "Mon-Sat", "time": "10:00am"}, {"days": "Sun", "time": "Closed"}], "id": "9150500017", "name": "USPS COLLECTION BOX - BLUE BOX", "address": {"city": "BURBANK", "state": "CA", "street": "1000 N CALIFORNIA ST", "postcode": "91505"}}},
{"geometry": {"type": "Point", "coordinates": [-118.3371707633, 34.1572838387]}, "type": "Feature", "properties": {"collection_times": [{"days": "Mon-Sat", "time": "10:00am"}, {"days": "Sun", "time": "Closed"}], "id": "9150500018", "name": "USPS COLLECTION BOX - BLUE BOX", "address": {"city": "BURBANK", "state": "CA", "street": "300 N CALIFORNIA ST", "postcode": "91505"}}},
{"geometry": {"type": "Point", "coordinates": [-118.3381383086, 34.1668349106]}, "type": "Feature", "properties": {"collection_times": [{"days": "Mon-Sat", "time": "10:00am"}, {"days": "Sun", "time": "Closed"}], "id": "9150500022", "name": "USPS COLLECTION BOX - BLUE BOX", "address": {"city": "BURBANK", "state": "CA", "street": "700 N NIAGARA ST", "postcode": "91505"}}},
{"geometry": {"type": "Point", "coordinates": [-118.3457720579, 34.1555993052]}, "type": "Feature", "properties": {"collection_times": [{"days": "Mon-Sat", "time": "12:00pm"}, {"days": "Sun", "time": "Closed"}], "id": "9150500025", "name": "USPS COLLECTION BOX - BLUE BOX", "address": {"city": "BURBANK", "state": "CA", "street": "317 N PASS AVE", "postcode": "91505"}}},
{"geometry": {"type": "Point", "coordinates": [-118.3323215235, 34.152107552]}, "type": "Feature", "properties": {"collection_times": [{"days": "Mon-Sat", "time": "10:00am"}, {"days": "Sun", "time": "Closed"}], "id": "9150500027", "name": "USPS COLLECTION BOX - BLUE BOX", "address": {"city": "BURBANK", "state": "CA", "street": "300 FAIRVIEW ST", "postcode": "91505"}}},
{"geometry": {"type": "Point", "coordinates": [-118.334491284, 34.1640743945]}, "type": "Feature", "properties": {"collection_times": [{"days": "Mon-Sat", "time": "10:00am"}, {"days": "Sun", "time": "Closed"}], "id": "9150500030", "name": "USPS COLLECTION BOX - BLUE BOX", "address": {"city": "BURBANK", "state": "CA", "street": "400 N FLORENCE ST", "postcode": "91505"}}},
{"geometry": {"type": "Point", "coordinates": [-118.3371060811, 34.1712294872]}, "type": "Feature", "properties": {"collection_times": [{"days": "Mon-Fri", "time": "12:00pm"}, {"days": "Sat", "time": "10:00am"}, {"days": "Sun", "time": "Closed"}], "id": "9150500039", "name": "USPS COLLECTION BOX - BLUE BOX", "address": {"city": "BURBANK", "state": "CA", "street": "2721 W MAGNOLIA BLVD", "postcode": "91505"}}},
{"geometry": {"type": "Point", "coordinates": [-118.358682872, 34.1848633441]}, "type": "Feature", "properties": {"collection_times": [{"days": "Mon-Sat", "time": "10:00am"}, {"days": "Sun", "time": "Closed"}], "id": "9150500044", "name": "USPS COLLECTION BOX - BLUE BOX", "address": {"city": "BURBANK", "state": "CA", "street": "4400 W VICTORY BLVD", "postcode": "91505"}}},
{"geometry": {"type": "Point", "coordinates": [-118.3455915458, 34.1503137455]}, "type": "Feature", "properties": {"collection_times": [{"days": "Mon-Sat", "time": "10:00am"}, {"days": "Sun", "time": "Closed"}], "id": "9150500045", "name": "USPS COLLECTION BOX - BLUE BOX", "address": {"city": "BURBANK", "state": "CA", "street": "4200 W NATIONAL AVE", "postcode": "91505"}}},
{"geometry": {"type": "Point", "coordinates": [-118.3303858984, 34.1602526032]}, "type": "Feature", "properties": {"collection_times": [{"days": "Mon-Fri", "time": "12:00pm"}, {"days": "Sat", "time": "10:00am"}, {"days": "Sun", "time": "Closed"}], "id": "9150500047", "name": "USPS COLLECTION BOX - BLUE BOX", "address": {"city": "BURBANK", "state": "CA", "street": "2600 W OLIVE AVE", "postcode": "91505"}}},
{"geometry": {"type": "Point", "coordinates": [-118.3400255442, 34.1512622811]}, "type": "Feature", "properties": {"collection_times": [{"days": "Mon-Fri", "time": "12:00pm"}, {"days": "Sat", "time": "10:00am"}, {"days": "Sun", "time": "Closed"}], "id": "9150500052", "name": "USPS COLLECTION BOX - BLUE BOX", "address": {"city": "BURBANK", "state": "CA", "street": "100 N SCREENLAND DR", "postcode": "91505"}}},
{"geometry": {"type": "Point", "coordinates": [-118.354619408, 34.1653090324]}, "type": "Feature", "properties": {"collection_times": [{"days": "Mon-Sat", "time": "10:00am"}, {"days": "Sun", "time": "Closed"}], "id": "9150500060", "name": "USPS COLLECTION BOX - BLUE BOX", "address": {"city": "BURBANK", "state": "CA", "street": "4420 W MAGNOLIA BLVD", "postcode": "91505"}}},
{"geometry": {"type": "Point", "coordinates": [-118.3457720579, 34.1555993052]}, "type": "Feature", "properties": {"collection_times": [{"days": "Mon-Sat", "time": "12:00pm"}, {"days": "Sun", "time": "Closed"}], "id": "9150500061", "name": "USPS COLLECTION BOX - BLUE BOX", "address": {"city": "BURBANK", "state": "CA", "street": "317 N PASS AVE", "postcode": "91505"}}},
{"geometry": {"type": "Point", "coordinates": [-118.3444163351, 34.1675018982]}, "type": "Feature", "properties": {"collection_times": [{"days": "Mon-Fri", "time": "6:30pm"}, {"days": "Sat", "time": "5:00pm"}, {"days": "Sun", "time": "Closed"}], "id": "9150500065", "name": "USPS COLLECTION BOX - BLUE BOX", "address": {"city": "BURBANK", "state": "CA", "street": "2140 N HOLLYWOOD WAY", "postcode": "91505"}}},
{"geometry": {"type": "Point", "coordinates": [-118.3444163351, 34.1675018982]}, "type": "Feature", "properties": {"collection_times": [{"days": "Mon-Fri", "time": "6:30pm"}, {"days": "Sat", "time": "5:00pm"}, {"days": "Sun", "time": "Closed"}], "id": "9150500068", "name": "USPS COLLECTION BOX - BLUE BOX", "address": {"city": "BURBANK", "state": "CA", "street": "2140 N HOLLYWOOD WAY", "postcode": "91505"}}},
{"geometry": {"type": "Point", "coordinates": [-118.3454159872, 34.1646146355]}, "type": "Feature", "properties": {"collection_times": [{"days": "Mon-Fri", "time": "12:00pm"}, {"days": "Sat", "time": "10:00am"}, {"days": "Sun", "time": "Closed"}], "id": "9150500074", "name": "USPS COLLECTION BOX - BLUE BOX", "address": {"city": "BURBANK", "state": "CA", "street": "800 N HOLLYWOOD WAY", "postcode": "91505"}}},
{"geometry": {"type": "Point", "coordinates": [-118.3449842072, 34.1525602836]}, "type": "Feature", "properties": {"collection_times": [{"days": "Mon-Fri", "time": "12:00pm"}, {"days": "Sat", "time": "10:00am"}, {"days": "Sun", "time": "Closed"}], "id": "9150500078", "name": "USPS COLLECTION BOX - BLUE BOX", "address": {"city": "BURBANK", "state": "CA", "street": "4111 W ALAMEDA AVE", "postcode": "91505"}}},
{"geometry": {"type": "Point", "coordinates": [-118.3383146846, 34.1527720333]}, "type": "Feature", "properties": {"collection_times": [{"days": "Mon-Fri", "time": "12:00pm"}, {"days": "Sat", "time": "10:00am"}, {"days": "Sun", "time": "Closed"}], "id": "9150500082", "name": "USPS COLLECTION BOX - BLUE BOX", "address": {"city": "BURBANK", "state": "CA", "street": "3500 W OLIVE AVE", "postcode": "91505"}}},
{"geometry": {"type": "Point", "coordinates": [-118.3444163351, 34.1675018982]}, "type": "Feature", "properties": {"collection_times": [{"days": "Mon-Fri", "time": "6:30pm"}, {"days": "Sat", "time": "5:00pm"}, {"days": "Sun", "time": "Closed"}], "id": "9150500084", "name": "USPS COLLECTION BOX - PO LOBBY", "address": {"city": "BURBANK", "state": "CA", "street": "2140 N HOLLYWOOD WAY", "postcode": "91505"}}},
{"geometry": {"type": "Point", "coordinates": [-118.3444163351, 34.1675018982]}, "type": "Feature", "properties": {"collection_times": [{"days": "Mon-Fri", "time": "6:30pm"}, {"days": "Sat", "time": "5:00pm"}, {"days": "Sun", "time": "Closed"}], "id": "9150500091", "name": "USPS COLLECTION BOX - BLUE BOX", "address": {"city": "BURBANK", "state": "CA", "street": "2140 N HOLLYWOOD WAY", "postcode": "91505"}}},
{"geometry": {"type": "Point", "coordinates": [-118.3444163351, 34.1675018982]}, "type": "Feature", "properties": {"collection_times": [{"days": "Mon-Fri", "time": "6:30pm"}, {"days": "Sat", "time": "5:00pm"}, {"days": "Sun", "time": "Closed"}], "id": "9150500093", "name": "USPS COLLECTION BOX - APC", "address": {"city": "BURBANK", "state": "CA", "street": "2140 N HOLLYWOOD WAY", "postcode": "91505"}}},
{"geometry": {"type": "Point", "coordinates": [-118.3406864988, 34.1504063474]}, "type": "Feature", "properties": {"collection_times": [{"days": "Mon-Sat", "time": "10:00am"}, {"days": "Sun", "time": "Closed"}], "id": "9150500099", "name": "USPS COLLECTION BOX - BLUE BOX", "address": {"city": "BURBANK", "state": "CA", "street": "3900 W OLIVE AVE", "postcode": "91505"}}},
{"geometry": {"type": "Point", "coordinates": [-118.3431694087, 34.1769987996]}, "type": "Feature", "properties": {"collection_times": [{"days": "Mon-Sat", "time": "10:00am"}, {"days": "Sun", "time": "Closed"}], "id": "9150500100", "name": "USPS COLLECTION BOX - BLUE BOX", "address": {"city": "BURBANK", "state": "CA", "street": "3000 W BURBANK BLVD", "postcode": "91505"}}},
{"geometry": {"type": "Point", "coordinates": [-118.3323324611, 34.1669379669]}, "type": "Feature", "properties": {"collection_times": [{"days": "Mon-Fri", "time": "2:00pm"}, {"days": "Sat-Sun", "time": "Closed"}], "id": "9150500101", "name": "USPS COLLECTION BOX - BLUE BOX", "address": {"city": "BURBANK", "state": "CA", "street": "500 S BUENAVISTA ST", "postcode": "91505"}}},
{"geometry": {"type": "Point", "coordinates": [-118.3243758791, 34.1774426425]}, "type": "Feature", "properties": {"collection_times": [{"days": "Mon-Sat", "time": "10:00am"}, {"days": "Sun", "time": "Closed"}], "id": "9150600002", "name": "USPS COLLECTION BOX - BLUE BOX", "address": {"city": "BURBANK", "state": "CA", "street": "600 S GRIFFITH PARK DR", "postcode": "91506"}}},
{"geometry": {"type": "Point", "coordinates": [-118.3237122391, 34.1596958921]}, "type": "Feature", "properties": {"collection_times": [{"days": "Mon-Sat", "time": "10:00am"}, {"days": "Sun", "time": "Closed"}], "id": "9150600003", "name": "USPS COLLECTION BOX - BLUE BOX", "address": {"city": "BURBANK", "state": "CA", "street": "2031 W ALAMEDA AVE", "postcode": "91506"}}},
{"geometry": {"type": "Point", "coordinates": [-118.3141894194, 34.1628886983]}, "type": "Feature", "properties": {"collection_times": [{"days": "Mon-Fri", "time": "12:00pm"}, {"days": "Sat", "time": "10:00am"}, {"days": "Sun", "time": "Closed"}], "id": "9150600004", "name": "USPS COLLECTION BOX - BLUE BOX", "address": {"city": "BURBANK", "state": "CA", "street": "1111 W ALAMEDA AVE", "postcode": "91506"}}},
{"geometry": {"type": "Point", "coordinates": [-118.3336360057, 34.18018069]}, "type": "Feature", "properties": {"collection_times": [{"days": "Mon-Fri", "time": "12:00pm"}, {"days": "Sat", "time": "10:00am"}, {"days": "Sun", "time": "Closed"}], "id": "9150600007", "name": "USPS COLLECTION BOX - BLUE BOX", "address": {"city": "BURBANK", "state": "CA", "street": "2018 W BURBANK BLVD", "postcode": "91506"}}},
{"geometry": {"type": "Point", "coordinates": [-118.3235863902, 34.1676692449]}, "type": "Feature", "properties": {"collection_times": [{"days": "Mon-Sat", "time": "12:00pm"}, {"days": "Sun", "time": "Closed"}], "id": "9150600012", "name": "USPS COLLECTION BOX - BLUE BOX", "address": {"city": "BURBANK", "state": "CA", "street": "1730 W VERDUGO AVE", "postcode": "91506"}}},
{"geometry": {"type": "Point", "coordinates": [-118.3286039076, 34.1739609819]}, "type": "Feature", "properties": {"collection_times": [{"days": "Mon-Sat", "time": "10:00am"}, {"days": "Sun", "time": "Closed"}], "id": "9150600013", "name": "USPS COLLECTION BOX - BLUE BOX", "address": {"city": "BURBANK", "state": "CA", "street": "1900 W MAGNOLIA BLVD", "postcode": "91506"}}},
{"geometry": {"type": "Point", "coordinates": [-118.3275901697, 34.1623480183]}, "type": "Feature", "properties": {"collection_times": [{"days": "Mon-Sat", "time": "10:00am"}, {"days": "Sun", "time": "Closed"}], "id": "9150600016", "name": "USPS COLLECTION BOX - BLUE BOX", "address": {"city": "BURBANK", "state": "CA", "street": "200 S LINCOLN ST", "postcode": "91506"}}},
{"geometry": {"type": "Point", "coordinates": [-118.3361546015, 34.1845569577]}, "type": "Feature", "properties": {"collection_times": [{"days": "Mon-Sat", "time": "10:00am"}, {"days": "Sun", "time": "Closed"}], "id": "9150600017", "name": "USPS COLLECTION BOX - BLUE BOX", "address": {"city": "BURBANK", "state": "CA", "street": "2301 W VICTORY BLVD", "postcode": "91506"}}},
{"geometry": {"type": "Point", "coordinates": [-118.3227611401, 34.1759745904]}, "type": "Feature", "properties": {"collection_times": [{"days": "Mon-Sat", "time": "10:00am"}, {"days": "Sun", "time": "Closed"}], "id": "9150600018", "name": "USPS COLLECTION BOX - BLUE BOX", "address": {"city": "BURBANK", "state": "CA", "street": "1300 W MAGNOLIA BLVD", "postcode": "91506"}}},
{"geometry": {"type": "Point", "coordinates": [-118.3253802113, 34.1751015667]}, "type": "Feature", "properties": {"collection_times": [{"days": "Mon-Fri", "time": "12:00pm"}, {"days": "Sat", "time": "10:00am"}, {"days": "Sun", "time": "Closed"}], "id": "9150600019", "name": "USPS COLLECTION BOX - BLUE BOX", "address": {"city": "BURBANK", "state": "CA", "street": "1539 W MAGNOLIA BLVD", "postcode": "91506"}}},
{"geometry": {"type": "Point", "coordinates": [-118.3253802113, 34.1751015667]}, "type": "Feature", "properties": {"collection_times": [{"days": "Mon-Fri", "time": "12:00pm"}, {"days": "Sat", "time": "10:00am"}, {"days": "Sun", "time": "Closed"}], "id": "9150600020", "name": "USPS COLLECTION BOX - BLUE BOX", "address": {"city": "BURBANK", "state": "CA", "street": "1539 W MAGNOLIA BLVD", "postcode": "91506"}}},
{"geometry": {"type": "Point", "coordinates": [-118.3191046139, 34.1567124696]}, "type": "Feature", "properties": {"collection_times": [{"days": "Mon-Sat", "time": "10:00am"}, {"days": "Sun", "time": "Closed"}], "id": "9150600022", "name": "USPS COLLECTION BOX - BLUE BOX", "address": {"city": "BURBANK", "state": "CA", "street": "1800 W RIVERSIDE DR", "postcode": "91506"}}},
{"geometry": {"type": "Point", "coordinates": [-118.3205003563, 34.1697390243]}, "type": "Feature", "properties": {"collection_times": [{"days": "Mon-Sat", "time": "10:00am"}, {"days": "Sun", "time": "Closed"}], "id": "9150600023", "name": "USPS COLLECTION BOX - BLUE BOX", "address": {"city": "BURBANK", "state": "CA", "street": "100 S GRIFFITH PARK", "postcode": "91506"}}},
{"geometry": {"type": "Point", "coordinates": [-118.3215622413, 34.1723692329]}, "type": "Feature", "properties": {"collection_times": [{"days": "Mon-Sat", "time": "10:00am"}, {"days": "Sun", "time": "Closed"}], "id": "9150600025", "name": "USPS COLLECTION BOX - BLUE BOX", "address": {"city": "BURBANK", "state": "CA", "street": "1300 W CLARK AVE", "postcode": "91506"}}},
{"geometry": {"type": "Point", "coordinates": [-118.3235863902, 34.1676692449]}, "type": "Feature", "properties": {"collection_times": [{"days": "Mon-Sat", "time": "12:00pm"}, {"days": "Sun", "time": "Closed"}], "id": "9150600027", "name": "USPS COLLECTION BOX - BLUE BOX", "address": {"city": "BURBANK", "state": "CA", "street": "1730 W VERDUGO AVE", "postcode": "91506"}}},
{"geometry": {"type": "Point", "coordinates": [-118.3086598959, 34.1631255033]}, "type": "Feature", "properties": {"collection_times": [{"days": "Mon-Sat", "time": "10:00am"}, {"days": "Sun", "time": "Closed"}], "id": "9150600031", "name": "USPS COLLECTION BOX - BLUE BOX", "address": {"city": "BURBANK", "state": "CA", "street": "400 W ELM AVE", "postcode": "91506"}}},
{"geometry": {"type": "Point", "coordinates": [-118.3243088449, 34.1553324858]}, "type": "Feature", "properties": {"collection_times": [{"days": "Mon-Fri", "time": "10:00am"}, {"days": "Sat-Sun", "time": "Closed"}], "id": "9150600032", "name": "USPS COLLECTION BOX - BLUE BOX", "address": {"city": "BURBANK", "state": "CA", "street": "2300 RIVERSIDE DR", "postcode": "91506"}}},
{"geometry": {"type": "Point", "coordinates": [-118.331798544, 34.1730039529]}, "type": "Feature", "properties": {"collection_times": [{"days": "Mon-Fri", "time": "12:00pm"}, {"days": "Sat", "time": "10:00am"}, {"days": "Sun", "time": "Closed"}], "id": "9150600036", "name": "USPS COLLECTION BOX - BLUE BOX", "address": {"city": "BURBANK", "state": "CA", "street": "2211 W MAGNOLIA BLVD", "postcode": "91506"}}}
]}
