{"type": "FeatureCollection", "features": [
{"geometry": {"type": "Point", "coordinates": [-118.3645682654, 34.1649754352]}, "type": "Feature", "properties": {"collection_times": [{"days": "Mon-Sat", "time": "10:00am"}, {"days": "Sun", "time": "Closed"}], "id": "9160100004", "name": "USPS COLLECTION BOX - BLUE BOX", "address": {"city": "NORTH HOLLYWOOD", "state": "CA", "street": "10729 MAGNOLIA BLVD", "postcode": "91601"}}},
{"geometry": {"type": "Point", "coordinates": [-118.3807024702, 34.1749596116]}, "type": "Feature", "properties": {"collection_times": [{"days": "Mon-Sat", "time": "3:00pm"}, {"days": "Sun", "time": "Closed"}], "id": "9160100014", "name": "USPS COLLECTION BOX - BLUE BOX", "address": {"city": "NORTH HOLLYWOOD", "state": "CA", "street": "5740 LANKERSHIM BLVD", "postcode": "91601"}}},
{"geometry": {"type": "Point", "coordinates": [-118.3856393274, 34.1612310905]}, "type": "Feature", "properties": {"collection_times": [{"days": "Mon-Sat", "time": "10:00am"}, {"days": "Sun", "time": "Closed"}], "id": "9160100021", "name": "USPS COLLECTION BOX - BLUE BOX", "address": {"city": "NORTH HOLLYWOOD", "state": "CA", "street": "11600 ADDISON ST", "postcode": "91601"}}},
{"geometry": {"type": "Point", "coordinates": [-118.3664383332, 34.1517779971]}, "type": "Feature", "properties": {"collection_times": [{"days": "Mon-Sat", "time": "10:00am"}, {"days": "Sun", "time": "Closed"}], "id": "9160200003", "name": "USPS COLLECTION BOX - BLUE BOX", "address": {"city": "NORTH HOLLYWOOD", "state": "CA", "street": "11700 RIVERSIDE DR", "postcode": "91602"}}},
{"geometry": {"type": "Point", "coordinates": [-118.3701634182, 34.1512195069]}, "type": "Feature", "properties": {"collection_times": [{"days": "Mon-Sat", "time": "10:00am"}, {"days": "Sun", "time": "Closed"}], "id": "9160200008", "name": "USPS COLLECTION BOX - BLUE BOX", "address": {"city": "NORTH HOLLYWOOD", "state": "CA", "street": "4428 VINELAND AVE", "postcode": "91602"}}},
{"geometry": {"type": "Point", "coordinates": [-118.3646606959, 34.1522924221]}, "type": "Feature", "properties": {"collection_times": [{"days": "Mon-Sat", "time": "10:00am"}, {"days": "Sun", "time": "Closed"}], "id": "9160200009", "name": "USPS COLLECTION BOX - BLUE BOX", "address": {"city": "NORTH HOLLYWOOD", "state": "CA", "street": "10727 RIVERSIDE DR", "postcode": "91602"}}},
{"geometry": {"type": "Point", "coordinates": [-118.3529186935, 34.152258395]}, "type": "Feature", "properties": {"collection_times": [{"days": "Mon-Sat", "time": "3:00pm"}, {"days": "Sun", "time": "Closed"}], "id": "9160200010", "name": "USPS COLLECTION BOX - BLUE BOX", "address": {"city": "NORTH HOLLYWOOD", "state": "CA", "street": "10205 RIVERSIDE DR", "postcode": "91602"}}},
{"geometry": {"type": "Point", "coordinates": [-118.3701902532, 34.1555949748]}, "type": "Feature", "properties": {"collection_times": [{"days": "Mon-Sat", "time": "10:00am"}, {"days": "Sun", "time": "Closed"}], "id": "9160200015", "name": "USPS COLLECTION BOX - BLUE BOX", "address": {"city": "NORTH HOLLYWOOD", "state": "CA", "street": "4700 VINELAND AVE", "postcode": "91602"}}},
{"geometry": {"type": "Point", "coordinates": [-118.3521446578, 34.1581462158]}, "type": "Feature", "properties": {"collection_times": [{"days": "Mon-Sat", "time": "10:00am"}, {"days": "Sun", "time": "Closed"}], "id": "9160200018", "name": "USPS COLLECTION BOX - BLUE BOX", "address": {"city": "NORTH HOLLYWOOD", "state": "CA", "street": "10101 CAMARILLO ST", "postcode": "91602"}}},
{"geometry": {"type": "Point", "coordinates": [-118.3644054445, 34.1481115493]}, "type": "Feature", "properties": {"collection_times": [{"days": "Mon-Sat", "time": "10:00am"}, {"days": "Sun", "time": "Closed"}], "id": "9160200020", "name": "USPS COLLECTION BOX - BLUE BOX", "address": {"city": "NORTH HOLLYWOOD", "state": "CA", "street": "4300 LANKERSHIM BLVD", "postcode": "91602"}}},
{"geometry": {"type": "Point", "coordinates": [-118.3703929443, 34.1579425015]}, "type": "Feature", "properties": {"collection_times": [{"days": "Mon-Sat", "time": "10:00am"}, {"days": "Sun", "time": "Closed"}], "id": "9160200021", "name": "USPS COLLECTION BOX - BLUE BOX", "address": {"city": "NORTH HOLLYWOOD", "state": "CA", "street": "4800 LANKERSHIM BLVD", "postcode": "91602"}}},
{"geometry": {"type": "Point", "coordinates": [-118.3502553911, 34.1522637491]}, "type": "Feature", "properties": {"collection_times": [{"days": "Mon-Fri", "time": "5:00pm"}, {"days": "Sat", "time": "3:00pm"}, {"days": "Sun", "time": "Closed"}], "id": "9160200023", "name": "USPS COLLECTION BOX - BLUE BOX", "address": {"city": "NORTH HOLLYWOOD", "state": "CA", "street": "10063 RIVERSIDE DR", "postcode": "91602"}}},
{"geometry": {"type": "Point", "coordinates": [-118.3680802981, 34.1540354334]}, "type": "Feature", "properties": {"collection_times": [{"days": "Mon-Sat", "time": "3:00pm"}, {"days": "Sun", "time": "Closed"}], "id": "9160200031", "name": "USPS COLLECTION BOX - BLUE BOX", "address": {"city": "NORTH HOLLYWOOD", "state": "CA", "street": "4605 LANKERSHIM BLVD", "postcode": "91602"}}},
{"geometry": {"type": "Point", "coordinates": [-118.3680802981, 34.1540354334]}, "type": "Feature", "properties": {"collection_times": [{"days": "Mon-Sat", "time": "3:00pm"}, {"days": "Sun", "time": "Closed"}], "id": "9160200032", "name": "USPS COLLECTION BOX - BLUE BOX", "address": {"city": "NORTH HOLLYWOOD", "state": "CA", "street": "4605 LANKERSHIM BLVD", "postcode": "91602"}}},
{"geometry": {"type": "Point", "coordinates": [-118.3680802981, 34.1540354334]}, "type": "Feature", "properties": {"collection_times": [{"days": "Mon-Sat", "time": "3:00pm"}, {"days": "Sun", "time": "Closed"}], "id": "9160200033", "name": "USPS COLLECTION BOX - BLUE BOX", "address": {"city": "NORTH HOLLYWOOD", "state": "CA", "street": "4605 LANKERSHIM BLVD", "postcode": "91602"}}},
{"geometry": {"type": "Point", "coordinates": [-118.3502553911, 34.1522637491]}, "type": "Feature", "properties": {"collection_times": [{"days": "Mon-Fri", "time": "5:00pm"}, {"days": "Sat", "time": "3:00pm"}, {"days": "Sun", "time": "Closed"}], "id": "9160200038", "name": "USPS COLLECTION BOX - BLUE BOX", "address": {"city": "NORTH HOLLYWOOD", "state": "CA", "street": "10063 RIVERSIDE DR", "postcode": "91602"}}},
{"geometry": {"type": "Point", "coordinates": [-118.3502553911, 34.1522637491]}, "type": "Feature", "properties": {"collection_times": [{"days": "Mon-Fri", "time": "5:00pm"}, {"days": "Sat", "time": "3:00pm"}, {"days": "Sun", "time": "Closed"}], "id": "9160200039", "name": "USPS COLLECTION BOX - BLUE BOX", "address": {"city": "NORTH HOLLYWOOD", "state": "CA", "street": "10063 RIVERSIDE DR", "postcode": "91602"}}},
{"geometry": {"type": "Point", "coordinates": [-118.3502553911, 34.1522637491]}, "type": "Feature", "properties": {"collection_times": [{"days": "Mon-Fri", "time": "5:00pm"}, {"days": "Sat", "time": "2:30pm"}, {"days": "Sun", "time": "Closed"}], "id": "9160200051", "name": "USPS COLLECTION BOX - PO LOBBY", "address": {"city": "NORTH HOLLYWOOD", "state": "CA", "street": "10063 RIVERSIDE DR", "postcode": "91602"}}},
{"geometry": {"type": "Point", "coordinates": [-118.3502553911, 34.1522637491]}, "type": "Feature", "properties": {"collection_times": [{"days": "Mon-Fri", "time": "5:00pm"}, {"days": "Sat", "time": "3:00pm"}, {"days": "Sun", "time": "Closed"}], "id": "9160200053", "name": "USPS COLLECTION BOX - APC", "address": {"city": "NORTH HOLLYWOOD", "state": "CA", "street": "10063 RIVERSIDE DR", "postcode": "91602"}}},
{"geometry": {"type": "Point", "coordinates": [-118.3775772761, 34.1680740396]}, "type": "Feature", "properties": {"collection_times": [{"days": "Mon-Sat", "time": "4:00pm"}, {"days": "Sun", "time": "Closed"}], "id": "9160300001", "name": "USPS COLLECTION BOX - EXPRESS", "address": {"city": "NORTH HOLLYWOOD", "state": "CA", "street": "11304 CHANDLER BLVD", "postcode": "91603"}}},
{"geometry": {"type": "Point", "coordinates": [-118.3773822652, 34.1680865833]}, "type": "Feature", "properties": {"collection_times": [{"days": "Mon-Sat", "time": "5:00pm"}, {"days": "Sun", "time": "Closed"}], "id": "9160300002", "name": "USPS COLLECTION BOX - PO LOBBY", "address": {"city": "NORTH HOLLYWOOD", "state": "CA", "street": "11304 CHANDLER BLVD", "postcode": "91603"}}},
{"geometry": {"type": "Point", "coordinates": [-118.3946673008, 34.1419739838]}, "type": "Feature", "properties": {"collection_times": [{"days": "Mon-Sat", "time": "5:00pm"}, {"days": "Sun", "time": "Closed"}], "id": "9160400002", "name": "USPS COLLECTION BOX - BLUE BOX", "address": {"city": "STUDIO CITY", "state": "CA", "street": "3950 LAUREL CANYON BLVD", "postcode": "91604"}}},
{"geometry": {"type": "Point", "coordinates": [-118.3707774445, 34.1407200473]}, "type": "Feature", "properties": {"collection_times": [{"days": "Mon-Sat", "time": "3:00pm"}, {"days": "Sun", "time": "Closed"}], "id": "9160400003", "name": "USPS COLLECTION BOX - BLUE BOX", "address": {"city": "STUDIO CITY", "state": "CA", "street": "11001 VENTURA BLVD", "postcode": "91604"}}},
{"geometry": {"type": "Point", "coordinates": [-118.4027114218, 34.1429097044]}, "type": "Feature", "properties": {"collection_times": [{"days": "Mon-Fri", "time": "3:00pm"}, {"days": "Sat", "time": "10:00am"}, {"days": "Sun", "time": "Closed"}], "id": "9160400004", "name": "USPS COLLECTION BOX - BLUE BOX", "address": {"city": "STUDIO CITY", "state": "CA", "street": "12345 VENTURA BLVD", "postcode": "91604"}}},
{"geometry": {"type": "Point", "coordinates": [-118.3877814132, 34.1462349456]}, "type": "Feature", "properties": {"collection_times": [{"days": "Mon-Sat", "time": "10:00am"}, {"days": "Sun", "time": "Closed"}], "id": "9160400005", "name": "USPS COLLECTION BOX - BLUE BOX", "address": {"city": "STUDIO CITY", "state": "CA", "street": "4221 COLFAX AVE", "postcode": "91604"}}},
{"geometry": {"type": "Point", "coordinates": [-118.376458435, 34.1404220257]}, "type": "Feature", "properties": {"collection_times": [{"days": "Mon-Sat", "time": "10:00am"}, {"days": "Sun", "time": "Closed"}], "id": "9160400006", "name": "USPS COLLECTION BOX - BLUE BOX", "address": {"city": "STUDIO CITY", "state": "CA", "street": "11315 VENTURA BLVD", "postcode": "91604"}}},
{"geometry": {"type": "Point", "coordinates": [-118.3791159118, 34.139886908]}, "type": "Feature", "properties": {"collection_times": [{"days": "Mon-Sat", "time": "3:00pm"}, {"days": "Sun", "time": "Closed"}], "id": "9160400008", "name": "USPS COLLECTION BOX - BLUE BOX", "address": {"city": "STUDIO CITY", "state": "CA", "street": "11401 VENTURA BLVD", "postcode": "91604"}}},
{"geometry": {"type": "Point", "coordinates": [-118.4102953717, 34.1447586692]}, "type": "Feature", "properties": {"collection_times": [{"days": "Mon-Fri", "time": "3:00pm"}, {"days": "Sat", "time": "10:00am"}, {"days": "Sun", "time": "Closed"}], "id": "9160400009", "name": "USPS COLLECTION BOX - BLUE BOX", "address": {"city": "STUDIO CITY", "state": "CA", "street": "12711 VENTURA BLVD", "postcode": "91604"}}},
{"geometry": {"type": "Point", "coordinates": [-118.4209813252, 34.146345686]}, "type": "Feature", "properties": {"collection_times": [{"days": "Mon-Fri", "time": "3:00pm"}, {"days": "Sat", "time": "10:00am"}, {"days": "Sun", "time": "Closed"}], "id": "9160400012", "name": "USPS COLLECTION BOX - BLUE BOX", "address": {"city": "STUDIO CITY", "state": "CA", "street": "13241 VENTURA BLVD", "postcode": "91604"}}},
{"geometry": {"type": "Point", "coordinates": [-118.3942883083, 34.144460334]}, "type": "Feature", "properties": {"collection_times": [{"days": "Mon-Sat", "time": "10:00am"}, {"days": "Sun", "time": "Closed"}], "id": "9160400018", "name": "USPS COLLECTION BOX - BLUE BOX", "address": {"city": "STUDIO CITY", "state": "CA", "street": "12452 MOORPARK ST", "postcode": "91604"}}},
{"geometry": {"type": "Point", "coordinates": [-118.3790498512, 34.1434773493]}, "type": "Feature", "properties": {"collection_times": [{"days": "Mon-Sat", "time": "10:00am"}, {"days": "Sun", "time": "Closed"}], "id": "9160400019", "name": "USPS COLLECTION BOX - BLUE BOX", "address": {"city": "STUDIO CITY", "state": "CA", "street": "4135 TUJUNGA AVE", "postcode": "91604"}}},
{"geometry": {"type": "Point", "coordinates": [-118.3833298221, 34.1448119024]}, "type": "Feature", "properties": {"collection_times": [{"days": "Mon-Sat", "time": "10:00am"}, {"days": "Sun", "time": "Closed"}], "id": "9160400021", "name": "USPS COLLECTION BOX - BLUE BOX", "address": {"city": "STUDIO CITY", "state": "CA", "street": "4182 BECK AVE", "postcode": "91604"}}},
{"geometry": {"type": "Point", "coordinates": [-118.3932229723, 34.139631706]}, "type": "Feature", "properties": {"collection_times": [{"days": "Mon-Sat", "time": "10:00am"}, {"days": "Sun", "time": "Closed"}], "id": "9160400022", "name": "USPS COLLECTION BOX - BLUE BOX", "address": {"city": "STUDIO CITY", "state": "CA", "street": "11422 MOORPARK ST", "postcode": "91604"}}},
{"geometry": {"type": "Point", "coordinates": [-118.3879894974, 34.1503729925]}, "type": "Feature", "properties": {"collection_times": [{"days": "Mon-Sat", "time": "10:00am"}, {"days": "Sun", "time": "Closed"}], "id": "9160400024", "name": "USPS COLLECTION BOX - BLUE BOX", "address": {"city": "STUDIO CITY", "state": "CA", "street": "11700 MOORPARK ST", "postcode": "91604"}}},
{"geometry": {"type": "Point", "coordinates": [-118.3926113181, 34.1447290952]}, "type": "Feature", "properties": {"collection_times": [{"days": "Mon-Fri", "time": "3:00pm"}, {"days": "Sat", "time": "10:00am"}, {"days": "Sun", "time": "Closed"}], "id": "9160400026", "name": "USPS COLLECTION BOX - BLUE BOX", "address": {"city": "STUDIO CITY", "state": "CA", "street": "4024 RADFORD AVE", "postcode": "91604"}}},
{"geometry": {"type": "Point", "coordinates": [-118.4182519537, 34.1458777484]}, "type": "Feature", "properties": {"collection_times": [{"days": "Mon-Fri", "time": "3:00pm"}, {"days": "Sat", "time": "10:00am"}, {"days": "Sun", "time": "Closed"}], "id": "9160400027", "name": "USPS COLLECTION BOX - BLUE BOX", "address": {"city": "STUDIO CITY", "state": "CA", "street": "13063 VENTURA BLVD", "postcode": "91604"}}},
{"geometry": {"type": "Point", "coordinates": [-118.4031767083, 34.142833292]}, "type": "Feature", "properties": {"collection_times": [{"days": "Mon-Fri", "time": "3:00pm"}, {"days": "Sat", "time": "10:00am"}, {"days": "Sun", "time": "Closed"}], "id": "9160400028", "name": "USPS COLLECTION BOX - BLUE BOX", "address": {"city": "STUDIO CITY", "state": "CA", "street": "12400 VENTURA BLVD", "postcode": "91604"}}},
{"geometry": {"type": "Point", "coordinates": [-118.394978419, 34.1447148997]}, "type": "Feature", "properties": {"collection_times": [{"days": "Mon-Fri", "time": "3:00pm"}, {"days": "Sat", "time": "10:00am"}, {"days": "Sun", "time": "Closed"}], "id": "9160400029", "name": "USPS COLLECTION BOX - BLUE BOX", "address": {"city": "STUDIO CITY", "state": "CA", "street": "12080 VENTURA PL", "postcode": "91604"}}},
{"geometry": {"type": "Point", "coordinates": [-118.3991708256, 34.1432184567]}, "type": "Feature", "properties": {"collection_times": [{"days": "Mon-Fri", "time": "3:00pm"}, {"days": "Sat", "time": "10:00am"}, {"days": "Sun", "time": "Closed"}], "id": "9160400036", "name": "USPS COLLECTION BOX - BLUE BOX", "address": {"city": "STUDIO CITY", "state": "CA", "street": "12223 VENTURA BLVD", "postcode": "91604"}}},
{"geometry": {"type": "Point", "coordinates": [-118.4046704018, 34.1427369924]}, "type": "Feature", "properties": {"collection_times": [{"days": "Mon-Fri", "time": "3:00pm"}, {"days": "Sat", "time": "10:00am"}, {"days": "Sun", "time": "Closed"}], "id": "9160400037", "name": "USPS COLLECTION BOX - BLUE BOX", "address": {"city": "STUDIO CITY", "state": "CA", "street": "12449 VENTURA BLVD", "postcode": "91604"}}},
{"geometry": {"type": "Point", "coordinates": [-118.3974933898, 34.1433651436]}, "type": "Feature", "properties": {"collection_times": [{"days": "Mon-Fri", "time": "3:00pm"}, {"days": "Sat", "time": "10:00am"}, {"days": "Sun", "time": "Closed"}], "id": "9160400040", "name": "USPS COLLECTION BOX - BLUE BOX", "address": {"city": "STUDIO CITY", "state": "CA", "street": "12169 VENTURA BLVD", "postcode": "91604"}}},
{"geometry": {"type": "Point", "coordinates": [-118.4129475657, 34.1449857973]}, "type": "Feature", "properties": {"collection_times": [{"days": "Mon-Sat", "time": "10:00am"}, {"days": "Sun", "time": "Closed"}], "id": "9160400041", "name": "USPS COLLECTION BOX - BLUE BOX", "address": {"city": "STUDIO CITY", "state": "CA", "street": "12842 VENTURA BLVD", "postcode": "91604"}}},
{"geometry": {"type": "Point", "coordinates": [-118.3946673008, 34.1419739838]}, "type": "Feature", "properties": {"collection_times": [{"days": "Mon-Fri", "time": "5:30pm"}, {"days": "Sat", "time": "5:00pm"}, {"days": "Sun", "time": "Closed"}], "id": "9160400042", "name": "USPS COLLECTION BOX - PO LOBBY", "address": {"city": "STUDIO CITY", "state": "CA", "street": "3950 LAUREL CANYON BLVD", "postcode": "91604"}}},
{"geometry": {"type": "Point", "coordinates": [-118.3946673008, 34.1419739838]}, "type": "Feature", "properties": {"collection_times": [{"days": "Mon-Sat", "time": "5:00pm"}, {"days": "Sun", "time": "Closed"}], "id": "9160400043", "name": "USPS COLLECTION BOX - APC", "address": {"city": "STUDIO CITY", "state": "CA", "street": "3950 LAUREL CANYON BLVD", "postcode": "91604"}}},
{"geometry": {"type": "Point", "coordinates": [-118.4138411589, 34.1497249637]}, "type": "Feature", "properties": {"collection_times": [{"days": "Mon-Sat", "time": "10:00am"}, {"days": "Sun", "time": "Closed"}], "id": "9160400045", "name": "USPS COLLECTION BOX - BLUE BOX", "address": {"city": "STUDIO CITY", "state": "CA", "street": "4359 COLDWATER CANYON AVE", "postcode": "91604"}}},
{"geometry": {"type": "Point", "coordinates": [-118.414407015, 34.2197994512]}, "type": "Feature", "properties": {"collection_times": [{"days": "Mon-Sat", "time": "10:00am"}, {"days": "Sun", "time": "Closed"}], "id": "9160500003", "name": "USPS COLLECTION BOX - BLUE BOX", "address": {"city": "NORTH HOLLYWOOD", "state": "CA", "street": "12900 CANTARA ST", "postcode": "91605"}}},
{"geometry": {"type": "Point", "coordinates": [-118.4013847133, 34.2054682954]}, "type": "Feature", "properties": {"collection_times": [{"days": "Mon-Sat", "time": "10:00am"}, {"days": "Sun", "time": "Closed"}], "id": "9160500005", "name": "USPS COLLECTION BOX - BLUE BOX", "address": {"city": "NORTH HOLLYWOOD", "state": "CA", "street": "12300 RUNNYMEDE ST", "postcode": "91605"}}},
{"geometry": {"type": "Point", "coordinates": [-118.4137746102, 34.1985312535]}, "type": "Feature", "properties": {"collection_times": [{"days": "Mon-Sat", "time": "10:00am"}, {"days": "Sun", "time": "Closed"}], "id": "9160500010", "name": "USPS COLLECTION BOX - BLUE BOX", "address": {"city": "NORTH HOLLYWOOD", "state": "CA", "street": "12899 VOSE ST", "postcode": "91605"}}},
{"geometry": {"type": "Point", "coordinates": [-118.4117965466, 34.2135749411]}, "type": "Feature", "properties": {"collection_times": [{"days": "Mon-Sat", "time": "10:00am"}, {"days": "Sun", "time": "Closed"}], "id": "9160500011", "name": "USPS COLLECTION BOX - BLUE BOX", "address": {"city": "NORTH HOLLYWOOD", "state": "CA", "street": "7857 BELLAIRE AVE", "postcode": "91605"}}},
{"geometry": {"type": "Point", "coordinates": [-118.4009276715, 34.2192996186]}, "type": "Feature", "properties": {"collection_times": [{"days": "Mon-Sat", "time": "10:00am"}, {"days": "Sun", "time": "Closed"}], "id": "9160500016", "name": "USPS COLLECTION BOX - BLUE BOX", "address": {"city": "NORTH HOLLYWOOD", "state": "CA", "street": "12300 CANTARA ST", "postcode": "91605"}}},
{"geometry": {"type": "Point", "coordinates": [-118.4052650284, 34.2120580392]}, "type": "Feature", "properties": {"collection_times": [{"days": "Mon-Sat", "time": "10:00am"}, {"days": "Sun", "time": "Closed"}], "id": "9160500021", "name": "USPS COLLECTION BOX - BLUE BOX", "address": {"city": "NORTH HOLLYWOOD", "state": "CA", "street": "12500 STAGG ST", "postcode": "91605"}}},
{"geometry": {"type": "Point", "coordinates": [-118.3877836626, 34.2080824626]}, "type": "Feature", "properties": {"collection_times": [{"days": "Mon-Sat", "time": "3:00pm"}, {"days": "Sun", "time": "Closed"}], "id": "9160500026", "name": "USPS COLLECTION BOX - BLUE BOX", "address": {"city": "NORTH HOLLYWOOD", "state": "CA", "street": "7568 LANKERSHIM BLVD", "postcode": "91605"}}},
{"geometry": {"type": "Point", "coordinates": [-118.4190384968, 34.2011566232]}, "type": "Feature", "properties": {"collection_times": [{"days": "Mon-Sat", "time": "3:00pm"}, {"days": "Sun", "time": "Closed"}], "id": "9160500031", "name": "USPS COLLECTION BOX - BLUE BOX", "address": {"city": "NORTH HOLLYWOOD", "state": "CA", "street": "13136 SHERMAN WAY", "postcode": "91605"}}},
{"geometry": {"type": "Point", "coordinates": [-118.3965127168, 34.2161313154]}, "type": "Feature", "properties": {"collection_times": [{"days": "Mon-Sat", "time": "10:00am"}, {"days": "Sun", "time": "Closed"}], "id": "9160500034", "name": "USPS COLLECTION BOX - BLUE BOX", "address": {"city": "NORTH HOLLYWOOD", "state": "CA", "street": "8001 LAUREL CANYON BLVD", "postcode": "91605"}}},
{"geometry": {"type": "Point", "coordinates": [-118.3965174486, 34.1985359838]}, "type": "Feature", "properties": {"collection_times": [{"days": "Mon-Fri", "time": "5:00pm"}, {"days": "Sat", "time": "3:00pm"}, {"days": "Sun", "time": "Closed"}], "id": "9160500038", "name": "USPS COLLECTION BOX - BLUE BOX", "address": {"city": "NORTH HOLLYWOOD", "state": "CA", "street": "7035 LAUREL CANYON BLVD", "postcode": "91605"}}},
{"geometry": {"type": "Point", "coordinates": [-118.3965174486, 34.1985359838]}, "type": "Feature", "properties": {"collection_times": [{"days": "Mon-Sat", "time": "3:30pm"}, {"days": "Sun", "time": "Closed"}], "id": "9160500042", "name": "USPS COLLECTION BOX - PO LOBBY", "address": {"city": "NORTH HOLLYWOOD", "state": "CA", "street": "7035 LAUREL CANYON BLVD", "postcode": "91605"}}},
{"geometry": {"type": "Point", "coordinates": [-118.3965174486, 34.1985359838]}, "type": "Feature", "properties": {"collection_times": [{"days": "Mon-Fri", "time": "5:00pm"}, {"days": "Sat", "time": "3:00pm"}, {"days": "Sun", "time": "Closed"}], "id": "9160500045", "name": "USPS COLLECTION BOX - BLUE BOX", "address": {"city": "NORTH HOLLYWOOD", "state": "CA", "street": "7035 LAUREL CANYON BLVD", "postcode": "91605"}}},
{"geometry": {"type": "Point", "coordinates": [-118.3965174486, 34.1985359838]}, "type": "Feature", "properties": {"collection_times": [{"days": "Mon-Fri", "time": "5:00pm"}, {"days": "Sat", "time": "3:00pm"}, {"days": "Sun", "time": "Closed"}], "id": "9160500046", "name": "USPS COLLECTION BOX - BLUE BOX", "address": {"city": "NORTH HOLLYWOOD", "state": "CA", "street": "7035 LAUREL CANYON BLVD", "postcode": "91605"}}},
{"geometry": {"type": "Point", "coordinates": [-118.3791239023, 34.1903822451]}, "type": "Feature", "properties": {"collection_times": [{"days": "Mon-Sat", "time": "10:00am"}, {"days": "Sun", "time": "Closed"}], "id": "9160600003", "name": "USPS COLLECTION BOX - BLUE BOX", "address": {"city": "NORTH HOLLYWOOD", "state": "CA", "street": "6601 TUJUNGA AVE", "postcode": "91606"}}},
{"geometry": {"type": "Point", "coordinates": [-118.3856720808, 34.1832012867]}, "type": "Feature", "properties": {"collection_times": [{"days": "Mon-Sat", "time": "10:00am"}, {"days": "Sun", "time": "Closed"}], "id": "9160600005", "name": "USPS COLLECTION BOX - BLUE BOX", "address": {"city": "NORTH HOLLYWOOD", "state": "CA", "street": "6200 LANKERSHIM BLVD", "postcode": "91606"}}},
{"geometry": {"type": "Point", "coordinates": [-118.4052351216, 34.1921946408]}, "type": "Feature", "properties": {"collection_times": [{"days": "Mon-Sat", "time": "10:00am"}, {"days": "Sun", "time": "Closed"}], "id": "9160600006", "name": "USPS COLLECTION BOX - BLUE BOX", "address": {"city": "NORTH HOLLYWOOD", "state": "CA", "street": "12499 ARCHWOOD ST", "postcode": "91606"}}},
{"geometry": {"type": "Point", "coordinates": [-118.4092375989, 34.1921444577]}, "type": "Feature", "properties": {"collection_times": [{"days": "Mon-Sat", "time": "10:00am"}, {"days": "Sun", "time": "Closed"}], "id": "9160600007", "name": "USPS COLLECTION BOX - BLUE BOX", "address": {"city": "NORTH HOLLYWOOD", "state": "CA", "street": "6700 BELLAIRE AVE", "postcode": "91606"}}},
{"geometry": {"type": "Point", "coordinates": [-118.3964466937, 34.1935614918]}, "type": "Feature", "properties": {"collection_times": [{"days": "Mon-Sat", "time": "10:00am"}, {"days": "Sun", "time": "Closed"}], "id": "9160600012", "name": "USPS COLLECTION BOX - BLUE BOX", "address": {"city": "NORTH HOLLYWOOD", "state": "CA", "street": "6750 LAUREL CANYON BLVD", "postcode": "91606"}}},
{"geometry": {"type": "Point", "coordinates": [-118.3987504593, 34.1866315919]}, "type": "Feature", "properties": {"collection_times": [{"days": "Mon-Sat", "time": "10:00am"}, {"days": "Sun", "time": "Closed"}], "id": "9160600013", "name": "USPS COLLECTION BOX - BLUE BOX", "address": {"city": "NORTH HOLLYWOOD", "state": "CA", "street": "12200 VICTORY BLVD", "postcode": "91606"}}},
{"geometry": {"type": "Point", "coordinates": [-118.3834705972, 34.1794204502]}, "type": "Feature", "properties": {"collection_times": [{"days": "Mon-Sat", "time": "10:00am"}, {"days": "Sun", "time": "Closed"}], "id": "9160600015", "name": "USPS COLLECTION BOX - BLUE BOX", "address": {"city": "NORTH HOLLYWOOD", "state": "CA", "street": "6001 LANKERSHIM BLVD", "postcode": "91606"}}},
{"geometry": {"type": "Point", "coordinates": [-118.3889918745, 34.1868216594]}, "type": "Feature", "properties": {"collection_times": [{"days": "Mon-Sat", "time": "10:00am"}, {"days": "Sun", "time": "Closed"}], "id": "9160600017", "name": "USPS COLLECTION BOX - BLUE BOX", "address": {"city": "NORTH HOLLYWOOD", "state": "CA", "street": "6100 AMPERE AVE", "postcode": "91606"}}},
{"geometry": {"type": "Point", "coordinates": [-118.3965127168, 34.1797316681]}, "type": "Feature", "properties": {"collection_times": [{"days": "Mon-Sat", "time": "10:00am"}, {"days": "Sun", "time": "Closed"}], "id": "9160600019", "name": "USPS COLLECTION BOX - BLUE BOX", "address": {"city": "NORTH HOLLYWOOD", "state": "CA", "street": "6001 LAUREL CANYON BLVD", "postcode": "91606"}}},
{"geometry": {"type": "Point", "coordinates": [-118.3681265387, 34.17936718]}, "type": "Feature", "properties": {"collection_times": [{"days": "Mon-Sat", "time": "10:00am"}, {"days": "Sun", "time": "Closed"}], "id": "9160600026", "name": "USPS COLLECTION BOX - BLUE BOX", "address": {"city": "NORTH HOLLYWOOD", "state": "CA", "street": "10900 OXNARD ST", "postcode": "91606"}}},
{"geometry": {"type": "Point", "coordinates": [-118.4170637507, 34.1867455575]}, "type": "Feature", "properties": {"collection_times": [{"days": "Mon-Sat", "time": "10:00am"}, {"days": "Sun", "time": "Closed"}], "id": "9160600029", "name": "USPS COLLECTION BOX - BLUE BOX", "address": {"city": "NORTH HOLLYWOOD", "state": "CA", "street": "13031 VICTORY BLVD", "postcode": "91606"}}},
{"geometry": {"type": "Point", "coordinates": [-118.3963980736, 34.1826810721]}, "type": "Feature", "properties": {"collection_times": [{"days": "Mon-Sat", "time": "3:00pm"}, {"days": "Sun", "time": "Closed"}], "id": "9160600030", "name": "USPS COLLECTION BOX - BLUE BOX", "address": {"city": "NORTH HOLLYWOOD", "state": "CA", "street": "6180 LAUREL CANYON BLVD", "postcode": "91606"}}},
{"geometry": {"type": "Point", "coordinates": [-118.3963980736, 34.1826810721]}, "type": "Feature", "properties": {"collection_times": [{"days": "Mon-Sat", "time": "3:00pm"}, {"days": "Sun", "time": "Closed"}], "id": "9160600034", "name": "USPS COLLECTION BOX - BLUE BOX", "address": {"city": "NORTH HOLLYWOOD", "state": "CA", "street": "6180 LAUREL CANYON BLVD", "postcode": "91606"}}},
{"geometry": {"type": "Point", "coordinates": [-118.3963980736, 34.1826810721]}, "type": "Feature", "properties": {"collection_times": [{"days": "Mon-Sat", "time": "3:00pm"}, {"days": "Sun", "time": "Closed"}], "id": "9160600035", "name": "USPS COLLECTION BOX - BLUE BOX", "address": {"city": "NORTH HOLLYWOOD", "state": "CA", "street": "6180 LAUREL CANYON BLVD", "postcode": "91606"}}},
{"geometry": {"type": "Point", "coordinates": [-118.3877824796, 34.1894839818]}, "type": "Feature", "properties": {"collection_times": [{"days": "Mon-Fri", "time": "5:00pm"}, {"days": "Sat", "time": "10:00am"}, {"days": "Sun", "time": "Closed"}], "id": "9160600037", "name": "USPS COLLECTION BOX - BLUE BOX", "address": {"city": "NORTH HOLLYWOOD", "state": "CA", "street": "6535 LANKERSHIM BLVD", "postcode": "91606"}}},
{"geometry": {"type": "Point", "coordinates": [-118.3877824796, 34.1894839818]}, "type": "Feature", "properties": {"collection_times": [{"days": "Mon-Fri", "time": "5:00pm"}, {"days": "Sat", "time": "10:00am"}, {"days": "Sun", "time": "Closed"}], "id": "9160600038", "name": "USPS COLLECTION BOX - BLUE BOX", "address": {"city": "NORTH HOLLYWOOD", "state": "CA", "street": "6535 LANKERSHIM BLVD", "postcode": "91606"}}},
{"geometry": {"type": "Point", "coordinates": [-118.4051825358, 34.1794330596]}, "type": "Feature", "properties": {"collection_times": [{"days": "Mon-Sat", "time": "10:00am"}, {"days": "Sun", "time": "Closed"}], "id": "9160600041", "name": "USPS COLLECTION BOX - BLUE BOX", "address": {"city": "NORTH HOLLYWOOD", "state": "CA", "street": "6000 WHITSETT AVE", "postcode": "91606"}}},
{"geometry": {"type": "Point", "coordinates": [-118.3877824796, 34.1894839818]}, "type": "Feature", "properties": {"collection_times": [{"days": "Mon-Fri", "time": "5:00pm"}, {"days": "Sat-Sun", "time": "Closed"}], "id": "9160600044", "name": "USPS COLLECTION BOX - PO LOBBY", "address": {"city": "NORTH HOLLYWOOD", "state": "CA", "street": "6535 LANKERSHIM BLVD", "postcode": "91606"}}},
{"geometry": {"type": "Point", "coordinates": [-118.3987414115, 34.1873842296]}, "type": "Feature", "properties": {"collection_times": [{"days": "Mon-Fri", "time": "4:00pm"}, {"days": "Sat-Sun", "time": "Closed"}], "id": "9160600051", "name": "USPS COLLECTION BOX - PO LOBBY", "address": {"city": "NORTH HOLLYWOOD", "state": "CA", "street": "6418 BELLINGHAM AVE", "postcode": "91606"}}},
{"geometry": {"type": "Point", "coordinates": [-118.4042138733, 34.1637027435]}, "type": "Feature", "properties": {"collection_times": [{"days": "Mon-Fri", "time": "4:50pm"}, {"days": "Sat", "time": "2:50pm"}, {"days": "Sun", "time": "Closed"}], "id": "9160700001", "name": "USPS COLLECTION BOX - BLUE BOX", "address": {"city": "NORTH HOLLYWOOD", "state": "CA", "street": "5135 WILKINSON AVE", "postcode": "91607"}}},
{"geometry": {"type": "Point", "coordinates": [-118.3965658529, 34.1648892638]}, "type": "Feature", "properties": {"collection_times": [{"days": "Mon-Sat", "time": "3:00pm"}, {"days": "Sun", "time": "Closed"}], "id": "9160700003", "name": "USPS COLLECTION BOX - BLUE BOX", "address": {"city": "NORTH HOLLYWOOD", "state": "CA", "street": "5201 LAUREL CANYON BLVD", "postcode": "91607"}}},
{"geometry": {"type": "Point", "coordinates": [-118.3965680241, 34.1672857599]}, "type": "Feature", "properties": {"collection_times": [{"days": "Mon-Sat", "time": "3:00pm"}, {"days": "Sun", "time": "Closed"}], "id": "9160700004", "name": "USPS COLLECTION BOX - BLUE BOX", "address": {"city": "NORTH HOLLYWOOD", "state": "CA", "street": "5335 LAUREL CANYON BLVD", "postcode": "91607"}}},
{"geometry": {"type": "Point", "coordinates": [-118.4103001035, 34.1576245309]}, "type": "Feature", "properties": {"collection_times": [{"days": "Mon-Sat", "time": "3:00pm"}, {"days": "Sun", "time": "Closed"}], "id": "9160700008", "name": "USPS COLLECTION BOX - BLUE BOX", "address": {"city": "NORTH HOLLYWOOD", "state": "CA", "street": "12722 RIVERSIDE DR", "postcode": "91607"}}},
{"geometry": {"type": "Point", "coordinates": [-118.3964226336, 34.1568378416]}, "type": "Feature", "properties": {"collection_times": [{"days": "Mon-Sat", "time": "3:00pm"}, {"days": "Sun", "time": "Closed"}], "id": "9160700010", "name": "USPS COLLECTION BOX - BLUE BOX", "address": {"city": "NORTH HOLLYWOOD", "state": "CA", "street": "4758 LAUREL CANYON BLVD", "postcode": "91607"}}},
{"geometry": {"type": "Point", "coordinates": [-118.4052473766, 34.1722039006]}, "type": "Feature", "properties": {"collection_times": [{"days": "Mon-Sat", "time": "10:00am"}, {"days": "Sun", "time": "Closed"}], "id": "9160700012", "name": "USPS COLLECTION BOX - BLUE BOX", "address": {"city": "NORTH HOLLYWOOD", "state": "CA", "street": "12499 BURBANK BLVD", "postcode": "91607"}}},
{"geometry": {"type": "Point", "coordinates": [-118.4137898325, 34.1759083447]}, "type": "Feature", "properties": {"collection_times": [{"days": "Mon-Sat", "time": "10:00am"}, {"days": "Sun", "time": "Closed"}], "id": "9160700015", "name": "USPS COLLECTION BOX - BLUE BOX", "address": {"city": "NORTH HOLLYWOOD", "state": "CA", "street": "5800 COLDWATER CANYON AVE", "postcode": "91607"}}},
{"geometry": {"type": "Point", "coordinates": [-118.4089751895, 34.1576268968]}, "type": "Feature", "properties": {"collection_times": [{"days": "Mon-Sat", "time": "3:00pm"}, {"days": "Sun", "time": "Closed"}], "id": "9160700018", "name": "USPS COLLECTION BOX - BLUE BOX", "address": {"city": "NORTH HOLLYWOOD", "state": "CA", "street": "12650 RIVERSIDE DR", "postcode": "91607"}}},
{"geometry": {"type": "Point", "coordinates": [-118.4089751895, 34.1576268968]}, "type": "Feature", "properties": {"collection_times": [{"days": "Mon-Sat", "time": "3:00pm"}, {"days": "Sun", "time": "Closed"}], "id": "9160700019", "name": "USPS COLLECTION BOX - BLUE BOX", "address": {"city": "NORTH HOLLYWOOD", "state": "CA", "street": "12650 RIVERSIDE DR", "postcode": "91607"}}},
{"geometry": {"type": "Point", "coordinates": [-118.4089751895, 34.1576268968]}, "type": "Feature", "properties": {"collection_times": [{"days": "Mon-Sat", "time": "3:00pm"}, {"days": "Sun", "time": "Closed"}], "id": "9160700020", "name": "USPS COLLECTION BOX - BLUE BOX", "address": {"city": "NORTH HOLLYWOOD", "state": "CA", "street": "12650 RIVERSIDE DR", "postcode": "91607"}}},
{"geometry": {"type": "Point", "coordinates": [-118.4042138733, 34.1637027435]}, "type": "Feature", "properties": {"collection_times": [{"days": "Mon-Fri", "time": "4:50pm"}, {"days": "Sat", "time": "2:50pm"}, {"days": "Sun", "time": "Closed"}], "id": "9160700021", "name": "USPS COLLECTION BOX - BLUE BOX", "address": {"city": "NORTH HOLLYWOOD", "state": "CA", "street": "5135 WILKINSON AVE", "postcode": "91607"}}},
{"geometry": {"type": "Point", "coordinates": [-118.4056640873, 34.1576268968]}, "type": "Feature", "properties": {"collection_times": [{"days": "Mon-Sat", "time": "3:00pm"}, {"days": "Sun", "time": "Closed"}], "id": "9160700023", "name": "USPS COLLECTION BOX - BLUE BOX", "address": {"city": "NORTH HOLLYWOOD", "state": "CA", "street": "12500 RIVERSIDE DR", "postcode": "91607"}}},
{"geometry": {"type": "Point", "coordinates": [-118.4042138733, 34.1637027435]}, "type": "Feature", "properties": {"collection_times": [{"days": "Mon-Fri", "time": "4:50pm"}, {"days": "Sat", "time": "2:50pm"}, {"days": "Sun", "time": "Closed"}], "id": "9160700024", "name": "USPS COLLECTION BOX - BLUE BOX", "address": {"city": "NORTH HOLLYWOOD", "state": "CA", "street": "5135 WILKINSON AVE", "postcode": "91607"}}},
{"geometry": {"type": "Point", "coordinates": [-118.3964226336, 34.1568378416]}, "type": "Feature", "properties": {"collection_times": [{"days": "Mon-Sat", "time": "3:00pm"}, {"days": "Sun", "time": "Closed"}], "id": "9160700026", "name": "USPS COLLECTION BOX - BLUE BOX", "address": {"city": "NORTH HOLLYWOOD", "state": "CA", "street": "4758 LAUREL CANYON BLVD", "postcode": "91607"}}},
{"geometry": {"type": "Point", "coordinates": [-118.4046006072, 34.1648784353]}, "type": "Feature", "properties": {"collection_times": [{"days": "Mon-Fri", "time": "4:50pm"}, {"days": "Sat", "time": "2:50pm"}, {"days": "Sun", "time": "Closed"}], "id": "9160700030", "name": "USPS COLLECTION BOX - APC", "address": {"city": "NORTH HOLLYWOOD", "state": "CA", "street": "12450 MAGNOLIA BLVD", "postcode": "91607"}}},
{"geometry": {"type": "Point", "coordinates": [-118.4094908778, 34.1776086611]}, "type": "Feature", "properties": {"collection_times": [{"days": "Mon-Sat", "time": "10:00am"}, {"days": "Sun", "time": "Closed"}], "id": "9160700032", "name": "USPS COLLECTION BOX - BLUE BOX", "address": {"city": "NORTH HOLLYWOOD", "state": "CA", "street": "12701 CALIFA ST", "postcode": "91607"}}},
{"geometry": {"type": "Point", "coordinates": [-118.4045698166, 34.1648533974]}, "type": "Feature", "properties": {"collection_times": [{"days": "Mon-Fri", "time": "5:00pm"}, {"days": "Sat", "time": "4:00pm"}, {"days": "Sun", "time": "Closed"}], "id": "9160700033", "name": "USPS COLLECTION BOX - PO LOBBY", "address": {"city": "NORTH HOLLYWOOD", "state": "CA", "street": "12450 MAGNOLIA BLVD", "postcode": "91607"}}}
]}
