{"type": "FeatureCollection", "features": [
{"geometry": {"type": "Point", "coordinates": [-117.5946318214, 34.1215826111]}, "type": "Feature", "properties": {"collection_times": [{"days": "Mon-Sat", "time": "2:00pm"}, {"days": "Sun", "time": "Closed"}], "id": "9170100000", "name": "USPS COLLECTION BOX - BLUE BOX", "address": {"city": "RANCHO CUCAMONGA", "state": "CA", "street": "9640 BASELINE RD", "postcode": "91701"}}},
{"geometry": {"type": "Point", "coordinates": [-117.6143649732, 34.1326529548]}, "type": "Feature", "properties": {"collection_times": [{"days": "Mon-Sat", "time": "2:00pm"}, {"days": "Sun", "time": "Closed"}], "id": "9170100001", "name": "USPS COLLECTION BOX - BLUE BOX", "address": {"city": "RANCHO CUCAMONGA", "state": "CA", "street": "8784 19TH ST", "postcode": "91701"}}},
{"geometry": {"type": "Point", "coordinates": [-117.582389352, 34.1215778872]}, "type": "Feature", "properties": {"collection_times": [{"days": "Mon-Fri", "time": "3:00pm"}, {"days": "Sat", "time": "2:00pm"}, {"days": "Sun", "time": "Closed"}], "id": "9170100002", "name": "USPS COLLECTION BOX - BLUE BOX", "address": {"city": "RANCHO CUCAMONGA", "state": "CA", "street": "10210 BASELINE RD", "postcode": "91701"}}},
{"geometry": {"type": "Point", "coordinates": [-117.5740533986, 34.121557295]}, "type": "Feature", "properties": {"collection_times": [{"days": "Mon-Sat", "time": "2:00pm"}, {"days": "Sun", "time": "Closed"}], "id": "9170100003", "name": "USPS COLLECTION BOX - BLUE BOX", "address": {"city": "RANCHO CUCAMONGA", "state": "CA", "street": "10590 BASELINE RD", "postcode": "91701"}}},
{"geometry": {"type": "Point", "coordinates": [-117.9066505923, 34.1334791555]}, "type": "Feature", "properties": {"collection_times": [{"days": "Mon-Sat", "time": "3:00pm"}, {"days": "Sun", "time": "Closed"}], "id": "9170200001", "name": "USPS COLLECTION BOX - BLUE BOX", "address": {"city": "AZUSA", "state": "CA", "street": "152 E FOOTHILL BLVD", "postcode": "91702"}}},
{"geometry": {"type": "Point", "coordinates": [-117.9056098847, 34.1279623481]}, "type": "Feature", "properties": {"collection_times": [{"days": "Mon-Sat", "time": "3:00pm"}, {"days": "Sun", "time": "Closed"}], "id": "9170200011", "name": "USPS COLLECTION BOX - BLUE BOX", "address": {"city": "AZUSA", "state": "CA", "street": "1100 W HOLLYVALE ST", "postcode": "91702"}}},
{"geometry": {"type": "Point", "coordinates": [-117.9204001244, 34.1076362339]}, "type": "Feature", "properties": {"collection_times": [{"days": "Mon-Sat", "time": "11:00am"}, {"days": "Sun", "time": "Closed"}], "id": "9170200012", "name": "USPS COLLECTION BOX - BLUE BOX", "address": {"city": "AZUSA", "state": "CA", "street": "5210 N CLYDEBANK AVE", "postcode": "91702"}}},
{"geometry": {"type": "Point", "coordinates": [-117.8987699296, 34.1068233477]}, "type": "Feature", "properties": {"collection_times": [{"days": "Mon-Sat", "time": "11:30am"}, {"days": "Sun", "time": "Closed"}], "id": "9170200013", "name": "USPS COLLECTION BOX - BLUE BOX", "address": {"city": "AZUSA", "state": "CA", "street": "605 E ARROW HWY", "postcode": "91702"}}},
{"geometry": {"type": "Point", "coordinates": [-117.908821322, 34.1318147322]}, "type": "Feature", "properties": {"collection_times": [{"days": "Mon-Sat", "time": "3:00pm"}, {"days": "Sun", "time": "Closed"}], "id": "9170200018", "name": "USPS COLLECTION BOX - BLUE BOX", "address": {"city": "AZUSA", "state": "CA", "street": "600 N SAN GABRIEL AVE", "postcode": "91702"}}},
{"geometry": {"type": "Point", "coordinates": [-117.9075626537, 34.1299527548]}, "type": "Feature", "properties": {"collection_times": [{"days": "Mon-Sat", "time": "5:00pm"}, {"days": "Sun", "time": "Closed"}], "id": "9170200020", "name": "USPS COLLECTION BOX - BLUE BOX", "address": {"city": "AZUSA", "state": "CA", "street": "500 N AZUSA AVE", "postcode": "91702"}}},
{"geometry": {"type": "Point", "coordinates": [-117.8829074229, 34.1287851743]}, "type": "Feature", "properties": {"collection_times": [{"days": "Mon-Sat", "time": "3:00pm"}, {"days": "Sun", "time": "Closed"}], "id": "9170200022", "name": "USPS COLLECTION BOX - BLUE BOX", "address": {"city": "AZUSA", "state": "CA", "street": "1145 E ALOSTA AVE", "postcode": "91702"}}},
{"geometry": {"type": "Point", "coordinates": [-117.9161343744, 34.1216507488]}, "type": "Feature", "properties": {"collection_times": [{"days": "Mon-Sat", "time": "10:00am"}, {"days": "Sun", "time": "Closed"}], "id": "9170200027", "name": "USPS COLLECTION BOX - BLUE BOX", "address": {"city": "AZUSA", "state": "CA", "street": "777 W 1ST ST", "postcode": "91702"}}},
{"geometry": {"type": "Point", "coordinates": [-117.9040655385, 34.1142707904]}, "type": "Feature", "properties": {"collection_times": [{"days": "Mon-Sat", "time": "3:00pm"}, {"days": "Sun", "time": "Closed"}], "id": "9170200030", "name": "USPS COLLECTION BOX - BLUE BOX", "address": {"city": "AZUSA", "state": "CA", "street": "327 E GLADSTONE ST", "postcode": "91702"}}},
{"geometry": {"type": "Point", "coordinates": [-117.9056098847, 34.1279623481]}, "type": "Feature", "properties": {"collection_times": [{"days": "Mon-Sat", "time": "3:00pm"}, {"days": "Sun", "time": "Closed"}], "id": "9170200033", "name": "USPS COLLECTION BOX - EXPRESS", "address": {"city": "AZUSA", "state": "CA", "street": "500 N AZUSA AVE", "postcode": "91702"}}},
{"geometry": {"type": "Point", "coordinates": [-117.9075626537, 34.1299527548]}, "type": "Feature", "properties": {"collection_times": [{"days": "Mon-Sat", "time": "5:00pm"}, {"days": "Sun", "time": "Closed"}], "id": "9170200035", "name": "USPS COLLECTION BOX - BLUE BOX", "address": {"city": "AZUSA", "state": "CA", "street": "500 N AZUSA AVE", "postcode": "91702"}}},
{"geometry": {"type": "Point", "coordinates": [-117.9079057118, 34.1316704112]}, "type": "Feature", "properties": {"collection_times": [{"days": "Mon-Sat", "time": "5:00pm"}, {"days": "Sun", "time": "Closed"}], "id": "9170200036", "name": "USPS COLLECTION BOX - BLUE BOX", "address": {"city": "AZUSA", "state": "CA", "street": "110 W 6TH ST", "postcode": "91702"}}},
{"geometry": {"type": "Point", "coordinates": [-117.908821322, 34.1318147322]}, "type": "Feature", "properties": {"collection_times": [{"days": "Mon-Sat", "time": "3:00pm"}, {"days": "Sun", "time": "Closed"}], "id": "9170200039", "name": "USPS COLLECTION BOX - BLUE BOX", "address": {"city": "AZUSA", "state": "CA", "street": "600 N SAN GABRIEL AVE", "postcode": "91702"}}},
{"geometry": {"type": "Point", "coordinates": [-117.9604314558, 34.089413934]}, "type": "Feature", "properties": {"collection_times": [{"days": "Mon-Sat", "time": "5:00pm"}, {"days": "Sun", "time": "Closed"}], "id": "9170600002", "name": "USPS COLLECTION BOX - BLUE BOX", "address": {"city": "BALDWIN PARK", "state": "CA", "street": "4230 MAINE AVE", "postcode": "91706"}}},
{"geometry": {"type": "Point", "coordinates": [-117.9605154458, 34.09892729]}, "type": "Feature", "properties": {"collection_times": [{"days": "Mon-Fri", "time": "2:00pm"}, {"days": "Sat-Sun", "time": "Closed"}], "id": "9170600011", "name": "USPS COLLECTION BOX - BLUE BOX", "address": {"city": "BALDWIN PARK", "state": "CA", "street": "4741 MAINE AVE", "postcode": "91706"}}},
{"geometry": {"type": "Point", "coordinates": [-117.9658648167, 34.1066355761]}, "type": "Feature", "properties": {"collection_times": [{"days": "Mon-Fri", "time": "2:00pm"}, {"days": "Sat-Sun", "time": "Closed"}], "id": "9170600013", "name": "USPS COLLECTION BOX - BLUE BOX", "address": {"city": "BALDWIN PARK", "state": "CA", "street": "14140 LIVE OAK AVE", "postcode": "91706"}}},
{"geometry": {"type": "Point", "coordinates": [-117.9570043938, 34.0826471255]}, "type": "Feature", "properties": {"collection_times": [{"days": "Mon-Fri", "time": "2:00pm"}, {"days": "Sat-Sun", "time": "Closed"}], "id": "9170600021", "name": "USPS COLLECTION BOX - BLUE BOX", "address": {"city": "BALDWIN PARK", "state": "CA", "street": "14604 PACIFIC AVE", "postcode": "91706"}}},
{"geometry": {"type": "Point", "coordinates": [-117.9679867836, 34.0851205939]}, "type": "Feature", "properties": {"collection_times": [{"days": "Mon-Fri", "time": "2:30pm"}, {"days": "Sat", "time": "3:00pm"}, {"days": "Sun", "time": "Closed"}], "id": "9170600022", "name": "USPS COLLECTION BOX - EXPRESS", "address": {"city": "BALDWIN PARK", "state": "CA", "street": "16025 CALLE DEL NORTE", "postcode": "91706"}}},
{"geometry": {"type": "Point", "coordinates": [-117.9618249814, 34.0845389602]}, "type": "Feature", "properties": {"collection_times": [{"days": "Mon-Fri", "time": "2:00pm"}, {"days": "Sat-Sun", "time": "Closed"}], "id": "9170600027", "name": "USPS COLLECTION BOX - BLUE BOX", "address": {"city": "BALDWIN PARK", "state": "CA", "street": "3936 MAINE AVE", "postcode": "91706"}}},
{"geometry": {"type": "Point", "coordinates": [-117.9672145425, 34.0652200573]}, "type": "Feature", "properties": {"collection_times": [{"days": "Mon-Fri", "time": "2:00pm"}, {"days": "Sat-Sun", "time": "Closed"}], "id": "9170600032", "name": "USPS COLLECTION BOX - BLUE BOX", "address": {"city": "BALDWIN PARK", "state": "CA", "street": "1640 PUENTE AVE", "postcode": "91706"}}},
{"geometry": {"type": "Point", "coordinates": [-117.9670289188, 34.085823445]}, "type": "Feature", "properties": {"collection_times": [{"days": "Mon-Fri", "time": "2:00pm"}, {"days": "Sat-Sun", "time": "Closed"}], "id": "9170600040", "name": "USPS COLLECTION BOX - BLUE BOX", "address": {"city": "BALDWIN PARK", "state": "CA", "street": "4019 LA RICA AVE", "postcode": "91706"}}},
{"geometry": {"type": "Point", "coordinates": [-117.9889892221, 34.0796289897]}, "type": "Feature", "properties": {"collection_times": [{"days": "Mon-Fri", "time": "2:00pm"}, {"days": "Sat-Sun", "time": "Closed"}], "id": "9170600045", "name": "USPS COLLECTION BOX - BLUE BOX", "address": {"city": "BALDWIN PARK", "state": "CA", "street": "13001 FRANCISQUITO AVE", "postcode": "91706"}}},
{"geometry": {"type": "Point", "coordinates": [-117.9731249653, 34.0920982056]}, "type": "Feature", "properties": {"collection_times": [{"days": "Mon-Fri", "time": "2:00pm"}, {"days": "Sat-Sun", "time": "Closed"}], "id": "9170600049", "name": "USPS COLLECTION BOX - BLUE BOX", "address": {"city": "BALDWIN PARK", "state": "CA", "street": "13810 LOS ANGELES ST", "postcode": "91706"}}},
{"geometry": {"type": "Point", "coordinates": [-117.9677760042, 34.0984275199]}, "type": "Feature", "properties": {"collection_times": [{"days": "Mon-Fri", "time": "2:00pm"}, {"days": "Sat-Sun", "time": "Closed"}], "id": "9170600053", "name": "USPS COLLECTION BOX - BLUE BOX", "address": {"city": "BALDWIN PARK", "state": "CA", "street": "6020 IRWINDALE", "postcode": "91706"}}},
{"geometry": {"type": "Point", "coordinates": [-117.9824510539, 34.0975976442]}, "type": "Feature", "properties": {"collection_times": [{"days": "Mon-Fri", "time": "2:00pm"}, {"days": "Sat-Sun", "time": "Closed"}], "id": "9170600054", "name": "USPS COLLECTION BOX - BLUE BOX", "address": {"city": "BALDWIN PARK", "state": "CA", "street": "4800 LITTLEJOHN ST", "postcode": "91706"}}},
{"geometry": {"type": "Point", "coordinates": [-117.9823133995, 34.0984693345]}, "type": "Feature", "properties": {"collection_times": [{"days": "Mon-Fri", "time": "2:00pm"}, {"days": "Sat-Sun", "time": "Closed"}], "id": "9170600056", "name": "USPS COLLECTION BOX - BLUE BOX", "address": {"city": "BALDWIN PARK", "state": "CA", "street": "13311 BROOKS BRKS", "postcode": "91706"}}},
{"geometry": {"type": "Point", "coordinates": [-117.9679867836, 34.0851205939]}, "type": "Feature", "properties": {"collection_times": [{"days": "Mon-Sat", "time": "5:00pm"}, {"days": "Sun", "time": "Closed"}], "id": "9170600057", "name": "USPS COLLECTION BOX - EXPRESS", "address": {"city": "BALDWIN PARK", "state": "CA", "street": "4230 MAINE AVE", "postcode": "91706"}}},
{"geometry": {"type": "Point", "coordinates": [-117.9604314558, 34.089413934]}, "type": "Feature", "properties": {"collection_times": [{"days": "Mon-Sat", "time": "5:00pm"}, {"days": "Sun", "time": "Closed"}], "id": "9170600059", "name": "USPS COLLECTION BOX - BLUE BOX", "address": {"city": "BALDWIN PARK", "state": "CA", "street": "4230 MAINE AVE", "postcode": "91706"}}},
{"geometry": {"type": "Point", "coordinates": [-117.9333535251, 34.1053732334]}, "type": "Feature", "properties": {"collection_times": [{"days": "Mon-Fri", "time": "5:00pm"}, {"days": "Sat", "time": "3:00pm"}, {"days": "Sun", "time": "Closed"}], "id": "9170600061", "name": "USPS COLLECTION BOX - BLUE BOX", "address": {"city": "BALDWIN PARK", "state": "CA", "street": "16025 CALLE DEL NORTE", "postcode": "91706"}}},
{"geometry": {"type": "Point", "coordinates": [-117.9333535251, 34.1053732334]}, "type": "Feature", "properties": {"collection_times": [{"days": "Mon-Fri", "time": "5:00pm"}, {"days": "Sat", "time": "3:00pm"}, {"days": "Sun", "time": "Closed"}], "id": "9170600062", "name": "USPS COLLECTION BOX - BLUE BOX", "address": {"city": "BALDWIN PARK", "state": "CA", "street": "16025 CALLE DEL NORTE", "postcode": "91706"}}},
{"geometry": {"type": "Point", "coordinates": [-117.9677760042, 34.0984275199]}, "type": "Feature", "properties": {"collection_times": [{"days": "Mon-Fri", "time": "2:00pm"}, {"days": "Sat-Sun", "time": "Closed"}], "id": "9170600065", "name": "USPS COLLECTION BOX - BLUE BOX", "address": {"city": "BALDWIN PARK", "state": "CA", "street": "6020 IRWINDALE", "postcode": "91706"}}},
{"geometry": {"type": "Point", "coordinates": [-117.984813423, 34.0644653295]}, "type": "Feature", "properties": {"collection_times": [{"days": "Mon-Fri", "time": "2:00pm"}, {"days": "Sat-Sun", "time": "Closed"}], "id": "9170600067", "name": "USPS COLLECTION BOX - BLUE BOX", "address": {"city": "BALDWIN PARK", "state": "CA", "street": "1011 BALDWIN PARK BLVD", "postcode": "91706"}}},
{"geometry": {"type": "Point", "coordinates": [-117.9616049511, 34.086041318]}, "type": "Feature", "properties": {"collection_times": [{"days": "Mon-Fri", "time": "2:00pm"}, {"days": "Sat-Sun", "time": "Closed"}], "id": "9170600068", "name": "USPS COLLECTION BOX - BLUE BOX", "address": {"city": "BALDWIN PARK", "state": "CA", "street": "14330 RAMONA BLVD", "postcode": "91706"}}},
{"geometry": {"type": "Point", "coordinates": [-117.7128795385, 33.9825430579]}, "type": "Feature", "properties": {"collection_times": [{"days": "Mon-Fri", "time": "12:30pm"}, {"days": "Sat", "time": "12:00pm"}, {"days": "Sun", "time": "Closed"}], "id": "9170900001", "name": "USPS COLLECTION BOX - BLUE BOX", "address": {"city": "CHINO HILLS", "state": "CA", "street": "4195 CHINO HILLS PKWY", "postcode": "91709"}}},
{"geometry": {"type": "Point", "coordinates": [-117.7334094465, 33.9622488388]}, "type": "Feature", "properties": {"collection_times": [{"days": "Mon-Fri", "time": "12:30pm"}, {"days": "Sat", "time": "12:00pm"}, {"days": "Sun", "time": "Closed"}], "id": "9170900002", "name": "USPS COLLECTION BOX - BLUE BOX", "address": {"city": "CHINO HILLS", "state": "CA", "street": "3263 OAKCREEK RD", "postcode": "91709"}}},
{"geometry": {"type": "Point", "coordinates": [-117.6944123755, 33.9625758909]}, "type": "Feature", "properties": {"collection_times": [{"days": "Mon-Fri", "time": "1:00pm"}, {"days": "Sat", "time": "12:00pm"}, {"days": "Sun", "time": "Closed"}], "id": "9170900003", "name": "USPS COLLECTION BOX - BLUE BOX", "address": {"city": "CHINO HILLS", "state": "CA", "street": "15960 LOS SERRANOS COUNTRY CLUB DR", "postcode": "91709"}}},
{"geometry": {"type": "Point", "coordinates": [-117.7468322556, 33.9846082118]}, "type": "Feature", "properties": {"collection_times": [{"days": "Mon-Fri", "time": "12:30pm"}, {"days": "Sat", "time": "12:00pm"}, {"days": "Sun", "time": "Closed"}], "id": "9170900005", "name": "USPS COLLECTION BOX - BLUE BOX", "address": {"city": "CHINO HILLS", "state": "CA", "street": "2575 CHINO HILLS PKWY", "postcode": "91709"}}},
{"geometry": {"type": "Point", "coordinates": [-117.7487082914, 34.0200887767]}, "type": "Feature", "properties": {"collection_times": [{"days": "Mon-Fri", "time": "1:00pm"}, {"days": "Sat", "time": "11:30am"}, {"days": "Sun", "time": "Closed"}], "id": "9170900006", "name": "USPS COLLECTION BOX - BLUE BOX", "address": {"city": "CHINO HILLS", "state": "CA", "street": "2585 SCENIC RIDGE DR", "postcode": "91709"}}},
{"geometry": {"type": "Point", "coordinates": [-117.7417380129, 34.0105379121]}, "type": "Feature", "properties": {"collection_times": [{"days": "Mon-Fri", "time": "1:00pm"}, {"days": "Sat", "time": "11:30am"}, {"days": "Sun", "time": "Closed"}], "id": "9170900007", "name": "USPS COLLECTION BOX - BLUE BOX", "address": {"city": "CHINO HILLS", "state": "CA", "street": "2911 CHINO AVE # F-5", "postcode": "91709"}}},
{"geometry": {"type": "Point", "coordinates": [-117.732682281, 33.9991979345]}, "type": "Feature", "properties": {"collection_times": [{"days": "Mon-Fri", "time": "5:00pm"}, {"days": "Sat", "time": "4:00pm"}, {"days": "Sun", "time": "Closed"}], "id": "9170900009", "name": "USPS COLLECTION BOX - BLUE BOX", "address": {"city": "CHINO HILLS", "state": "CA", "street": "14071 PEYTON DR", "postcode": "91709"}}},
{"geometry": {"type": "Point", "coordinates": [-117.732682281, 33.9991979345]}, "type": "Feature", "properties": {"collection_times": [{"days": "Mon-Fri", "time": "5:00pm"}, {"days": "Sat", "time": "4:00pm"}, {"days": "Sun", "time": "Closed"}], "id": "9170900010", "name": "USPS COLLECTION BOX - PO LOBBY", "address": {"city": "CHINO HILLS", "state": "CA", "street": "14071 PEYTON DR", "postcode": "91709"}}},
{"geometry": {"type": "Point", "coordinates": [-117.732682281, 33.9991979345]}, "type": "Feature", "properties": {"collection_times": [{"days": "Mon-Fri", "time": "5:00pm"}, {"days": "Sat", "time": "4:00pm"}, {"days": "Sun", "time": "Closed"}], "id": "9170900011", "name": "USPS COLLECTION BOX - PO LOBBY", "address": {"city": "CHINO HILLS", "state": "CA", "street": "14071 PEYTON DR", "postcode": "91709"}}},
{"geometry": {"type": "Point", "coordinates": [-117.732682281, 33.9991979345]}, "type": "Feature", "properties": {"collection_times": [{"days": "Mon-Fri", "time": "5:00pm"}, {"days": "Sat", "time": "4:00pm"}, {"days": "Sun", "time": "Closed"}], "id": "9170900012", "name": "USPS COLLECTION BOX - APC", "address": {"city": "CHINO HILLS", "state": "CA", "street": "14071 PEYTON DR", "postcode": "91709"}}},
{"geometry": {"type": "Point", "coordinates": [-117.7156540057, 33.9900124931]}, "type": "Feature", "properties": {"collection_times": [{"days": "Mon-Fri", "time": "12:00pm"}, {"days": "Sat", "time": "11:45am"}, {"days": "Sun", "time": "Closed"}], "id": "9171000006", "name": "USPS COLLECTION BOX - BLUE BOX", "address": {"city": "CHINO", "state": "CA", "street": "14516 PIPELINE AVE # D-2", "postcode": "91710"}}},
{"geometry": {"type": "Point", "coordinates": [-117.6894078792, 34.014279637]}, "type": "Feature", "properties": {"collection_times": [{"days": "Mon-Sat", "time": "12:00pm"}, {"days": "Sun", "time": "Closed"}], "id": "9171000011", "name": "USPS COLLECTION BOX - BLUE BOX", "address": {"city": "CHINO", "state": "CA", "street": "13170 CENTRAL AVE", "postcode": "91710"}}},
{"geometry": {"type": "Point", "coordinates": [-117.6895788052, 34.0386271398]}, "type": "Feature", "properties": {"collection_times": [{"days": "Mon-Fri", "time": "12:00pm"}, {"days": "Sat", "time": "11:30am"}, {"days": "Sun", "time": "Closed"}], "id": "9171000019", "name": "USPS COLLECTION BOX - BLUE BOX", "address": {"city": "CHINO", "state": "CA", "street": "11838 CENTRAL AVE", "postcode": "91710"}}},
{"geometry": {"type": "Point", "coordinates": [-117.720270158, 34.0043230479]}, "type": "Feature", "properties": {"collection_times": [{"days": "Mon-Fri", "time": "12:00pm"}, {"days": "Sat", "time": "11:45am"}, {"days": "Sun", "time": "Closed"}], "id": "9171000020", "name": "USPS COLLECTION BOX - BLUE BOX", "address": {"city": "CHINO", "state": "CA", "street": "3873 SCHAEFER AVE", "postcode": "91710"}}},
{"geometry": {"type": "Point", "coordinates": [-117.6810839769, 34.0045981422]}, "type": "Feature", "properties": {"collection_times": [{"days": "Mon-Sat", "time": "12:00pm"}, {"days": "Sun", "time": "Closed"}], "id": "9171000021", "name": "USPS COLLECTION BOX - BLUE BOX", "address": {"city": "CHINO", "state": "CA", "street": "5670 SCHAEFER AVE", "postcode": "91710"}}},
{"geometry": {"type": "Point", "coordinates": [-117.6891778331, 34.0246874986]}, "type": "Feature", "properties": {"collection_times": [{"days": "Mon-Sat", "time": "5:00pm"}, {"days": "Sun", "time": "Closed"}], "id": "9171000026", "name": "USPS COLLECTION BOX - BLUE BOX", "address": {"city": "CHINO", "state": "CA", "street": "5300 JEFFERSON AVE", "postcode": "91710"}}},
{"geometry": {"type": "Point", "coordinates": [-117.6856442837, 34.0263373791]}, "type": "Feature", "properties": {"collection_times": [{"days": "Mon-Sat", "time": "12:00pm"}, {"days": "Sun", "time": "Closed"}], "id": "9171000035", "name": "USPS COLLECTION BOX - BLUE BOX", "address": {"city": "CHINO", "state": "CA", "street": "5451 WALNUT AVE", "postcode": "91710"}}},
{"geometry": {"type": "Point", "coordinates": [-117.6877428529, 34.0263361961]}, "type": "Feature", "properties": {"collection_times": [{"days": "Mon-Sat", "time": "5:00pm"}, {"days": "Sun", "time": "Closed"}], "id": "9171000039", "name": "USPS COLLECTION BOX - APC", "address": {"city": "CHINO", "state": "CA", "street": "5375 WALNUT AVE", "postcode": "91710"}}},
{"geometry": {"type": "Point", "coordinates": [-117.732617021, 34.1069265849]}, "type": "Feature", "properties": {"collection_times": [{"days": "Mon-Sat", "time": "12:30pm"}, {"days": "Sun", "time": "Closed"}], "id": "9171100010", "name": "USPS COLLECTION BOX - BLUE BOX", "address": {"city": "CLAREMONT", "state": "CA", "street": "938 W FOOTHILL BLVD", "postcode": "91711"}}},
{"geometry": {"type": "Point", "coordinates": [-117.7028054694, 34.109161068]}, "type": "Feature", "properties": {"collection_times": [{"days": "Mon-Fri", "time": "12:30pm"}, {"days": "Sat", "time": "12:15pm"}, {"days": "Sun", "time": "Closed"}], "id": "9171100015", "name": "USPS COLLECTION BOX - BLUE BOX", "address": {"city": "CLAREMONT", "state": "CA", "street": "1420 CLAREMONT BLVD", "postcode": "91711"}}},
{"geometry": {"type": "Point", "coordinates": [-117.7061918072, 34.1215549837]}, "type": "Feature", "properties": {"collection_times": [{"days": "Mon-Sat", "time": "12:30pm"}, {"days": "Sun", "time": "Closed"}], "id": "9171100016", "name": "USPS COLLECTION BOX - BLUE BOX", "address": {"city": "CLAREMONT", "state": "CA", "street": "554 E BASELINE RD", "postcode": "91711"}}},
{"geometry": {"type": "Point", "coordinates": [-117.7179641998, 34.0956705918]}, "type": "Feature", "properties": {"collection_times": [{"days": "Mon-Sat", "time": "12:30pm"}, {"days": "Sun", "time": "Closed"}], "id": "9171100017", "name": "USPS COLLECTION BOX - BLUE BOX", "address": {"city": "CLAREMONT", "state": "CA", "street": "201 YALE", "postcode": "91711"}}},
{"geometry": {"type": "Point", "coordinates": [-117.7178917451, 34.0973125511]}, "type": "Feature", "properties": {"collection_times": [{"days": "Mon-Fri", "time": "12:30pm"}, {"days": "Sat", "time": "12:15pm"}, {"days": "Sun", "time": "Closed"}], "id": "9171100021", "name": "USPS COLLECTION BOX - BLUE BOX", "address": {"city": "CLAREMONT", "state": "CA", "street": "339 YALE", "postcode": "91711"}}},
{"geometry": {"type": "Point", "coordinates": [-117.7200107983, 34.1069501006]}, "type": "Feature", "properties": {"collection_times": [{"days": "Mon-Fri", "time": "12:30pm"}, {"days": "Sat", "time": "12:00pm"}, {"days": "Sun", "time": "Closed"}], "id": "9171100022", "name": "USPS COLLECTION BOX - BLUE BOX", "address": {"city": "CLAREMONT", "state": "CA", "street": "390 W FOOTHILL BLVD", "postcode": "91711"}}},
{"geometry": {"type": "Point", "coordinates": [-117.7242566285, 34.0995743546]}, "type": "Feature", "properties": {"collection_times": [{"days": "Mon-Fri", "time": "12:30pm"}, {"days": "Sat", "time": "12:00pm"}, {"days": "Sun", "time": "Closed"}], "id": "9171100023", "name": "USPS COLLECTION BOX - BLUE BOX", "address": {"city": "CLAREMONT", "state": "CA", "street": "630 ALDEN RD", "postcode": "91711"}}},
{"geometry": {"type": "Point", "coordinates": [-117.7255960529, 34.107129875]}, "type": "Feature", "properties": {"collection_times": [{"days": "Mon-Fri", "time": "12:30pm"}, {"days": "Sat", "time": "12:00pm"}, {"days": "Sun", "time": "Closed"}], "id": "9171100025", "name": "USPS COLLECTION BOX - BLUE BOX", "address": {"city": "CLAREMONT", "state": "CA", "street": "675 W FOOTHILL BLVD", "postcode": "91711"}}},
{"geometry": {"type": "Point", "coordinates": [-117.71635974, 34.095059259]}, "type": "Feature", "properties": {"collection_times": [{"days": "Mon-Fri", "time": "5:00pm"}, {"days": "Sat", "time": "3:30pm"}, {"days": "Sun", "time": "Closed"}], "id": "9171100026", "name": "USPS COLLECTION BOX - BLUE BOX", "address": {"city": "CLAREMONT", "state": "CA", "street": "140 HARVARD AVE", "postcode": "91711"}}},
{"geometry": {"type": "Point", "coordinates": [-117.7163597403, 34.095059259]}, "type": "Feature", "properties": {"collection_times": [{"days": "Mon-Fri", "time": "5:00pm"}, {"days": "Sat", "time": "3:30pm"}, {"days": "Sun", "time": "Closed"}], "id": "9171100027", "name": "USPS COLLECTION BOX - BLUE BOX", "address": {"city": "CLAREMONT", "state": "CA", "street": "140 HARVARD AVE", "postcode": "91711"}}},
{"geometry": {"type": "Point", "coordinates": [-117.7163597403, 34.095059259]}, "type": "Feature", "properties": {"collection_times": [{"days": "Mon-Fri", "time": "5:00pm"}, {"days": "Sat", "time": "3:30pm"}, {"days": "Sun", "time": "Closed"}], "id": "9171100028", "name": "USPS COLLECTION BOX - BLUE BOX", "address": {"city": "CLAREMONT", "state": "CA", "street": "140 HARVARD AVE", "postcode": "91711"}}},
{"geometry": {"type": "Point", "coordinates": [-117.7163597403, 34.095059259]}, "type": "Feature", "properties": {"collection_times": [{"days": "Mon-Fri", "time": "5:00pm"}, {"days": "Sat", "time": "3:30pm"}, {"days": "Sun", "time": "Closed"}], "id": "9171100029", "name": "USPS COLLECTION BOX - BLUE BOX", "address": {"city": "CLAREMONT", "state": "CA", "street": "140 HARVARD AVE", "postcode": "91711"}}},
{"geometry": {"type": "Point", "coordinates": [-117.7163448819, 34.0951292845]}, "type": "Feature", "properties": {"collection_times": [{"days": "Mon-Fri", "time": "5:00pm"}, {"days": "Sat", "time": "3:30pm"}, {"days": "Sun", "time": "Closed"}], "id": "9171100031", "name": "USPS COLLECTION BOX - BLUE BOX", "address": {"city": "CLAREMONT", "state": "CA", "street": "140 N HARVARD", "postcode": "91711"}}},
{"geometry": {"type": "Point", "coordinates": [-117.7163448819, 34.0951292845]}, "type": "Feature", "properties": {"collection_times": [{"days": "Mon-Fri", "time": "5:00pm"}, {"days": "Sat", "time": "3:30pm"}, {"days": "Sun", "time": "Closed"}], "id": "9171100032", "name": "USPS COLLECTION BOX - BLUE BOX", "address": {"city": "CLAREMONT", "state": "CA", "street": "140 N HARVARD", "postcode": "91711"}}},
{"geometry": {"type": "Point", "coordinates": [-117.721037233, 34.1071216468]}, "type": "Feature", "properties": {"collection_times": [{"days": "Mon-Fri", "time": "12:30pm"}, {"days": "Sat", "time": "12:00pm"}, {"days": "Sun", "time": "Closed"}], "id": "9171100034", "name": "USPS COLLECTION BOX - BLUE BOX", "address": {"city": "CLAREMONT", "state": "CA", "street": "415 W FOOTHILL BLVD", "postcode": "91711"}}},
{"geometry": {"type": "Point", "coordinates": [-117.7163448819, 34.0951292845]}, "type": "Feature", "properties": {"collection_times": [{"days": "Mon-Fri", "time": "5:00pm"}, {"days": "Sat", "time": "1:00pm"}, {"days": "Sun", "time": "Closed"}], "id": "9171100048", "name": "USPS COLLECTION BOX - PO LOBBY", "address": {"city": "CLAREMONT", "state": "CA", "street": "140 N HARVARD", "postcode": "91711"}}},
{"geometry": {"type": "Point", "coordinates": [-117.7163448819, 34.0951292845]}, "type": "Feature", "properties": {"collection_times": [{"days": "Mon-Fri", "time": "5:00pm"}, {"days": "Sat", "time": "1:00pm"}, {"days": "Sun", "time": "Closed"}], "id": "9171100049", "name": "USPS COLLECTION BOX - APC", "address": {"city": "CLAREMONT", "state": "CA", "street": "140 HARVARD", "postcode": "91711"}}},
{"geometry": {"type": "Point", "coordinates": [-117.971266873, 34.0134020616]}, "type": "Feature", "properties": {"collection_times": [{"days": "Mon-Fri", "time": "7:00pm"}, {"days": "Sat", "time": "6:30pm"}, {"days": "Sun", "time": "Closed"}], "id": "9171500001", "name": "USPS COLLECTION BOX - BLUE BOX", "address": {"city": "CITY INDUSTRY", "state": "CA", "street": "15421 E GALE AVE", "postcode": "91715"}}},
{"geometry": {"type": "Point", "coordinates": [-117.971266873, 34.0134020616]}, "type": "Feature", "properties": {"collection_times": [{"days": "Mon-Fri", "time": "7:00pm"}, {"days": "Sat", "time": "6:30pm"}, {"days": "Sun", "time": "Closed"}], "id": "9171500003", "name": "USPS COLLECTION BOX - BLUE BOX", "address": {"city": "CITY INDUSTRY", "state": "CA", "street": "15421 E GALE AVE", "postcode": "91715"}}},
{"geometry": {"type": "Point", "coordinates": [-117.9713367829, 34.0134627632]}, "type": "Feature", "properties": {"collection_times": [{"days": "Mon-Sat", "time": "4:00pm"}, {"days": "Sun", "time": "Closed"}], "id": "9171500006", "name": "USPS COLLECTION BOX - EXPRESS", "address": {"city": "CITY INDUSTRY", "state": "CA", "street": "15421 E GALE AVE", "postcode": "91715"}}},
{"geometry": {"type": "Point", "coordinates": [-117.971266873, 34.0134020616]}, "type": "Feature", "properties": {"collection_times": [{"days": "Mon-Fri", "time": "7:00pm"}, {"days": "Sat", "time": "5:00pm"}, {"days": "Sun", "time": "Closed"}], "id": "9171500008", "name": "USPS COLLECTION BOX - BLUE BOX", "address": {"city": "CITY INDUSTRY", "state": "CA", "street": "15421 E GALE AVE", "postcode": "91715"}}},
{"geometry": {"type": "Point", "coordinates": [-117.971266873, 34.0134020616]}, "type": "Feature", "properties": {"collection_times": [{"days": "Mon-Fri", "time": "7:00pm"}, {"days": "Sat", "time": "5:00pm"}, {"days": "Sun", "time": "Closed"}], "id": "9171500009", "name": "USPS COLLECTION BOX - APC", "address": {"city": "CITY INDUSTRY", "state": "CA", "street": "15421 E GALE AVE", "postcode": "91715"}}},
{"geometry": {"type": "Point", "coordinates": [-117.9111990696, 34.0897167715]}, "type": "Feature", "properties": {"collection_times": [{"days": "Mon-Sat", "time": "5:00pm"}, {"days": "Sun", "time": "Closed"}], "id": "9172200001", "name": "USPS COLLECTION BOX - BLUE BOX", "address": {"city": "COVINA", "state": "CA", "street": "545 N RIMSDALE AVE", "postcode": "91722"}}},
{"geometry": {"type": "Point", "coordinates": [-117.9111990696, 34.0897167715]}, "type": "Feature", "properties": {"collection_times": [{"days": "Mon-Sat", "time": "5:00pm"}, {"days": "Sun", "time": "Closed"}], "id": "9172200057", "name": "USPS COLLECTION BOX - BLUE BOX", "address": {"city": "COVINA", "state": "CA", "street": "545 N RIMSDALE AVE", "postcode": "91722"}}},
{"geometry": {"type": "Point", "coordinates": [-117.9111990696, 34.0897167715]}, "type": "Feature", "properties": {"collection_times": [{"days": "Mon-Sat", "time": "5:00pm"}, {"days": "Sun", "time": "Closed"}], "id": "9172200064", "name": "USPS COLLECTION BOX - APC", "address": {"city": "COVINA", "state": "CA", "street": "545 N RIMSDALE AVE", "postcode": "91722"}}},
{"geometry": {"type": "Point", "coordinates": [-117.8986869126, 34.0863275941]}, "type": "Feature", "properties": {"collection_times": [{"days": "Mon-Sat", "time": "3:00pm"}, {"days": "Sun", "time": "Closed"}], "id": "9172300000", "name": "USPS COLLECTION BOX - BLUE BOX", "address": {"city": "COVINA", "state": "CA", "street": "475 W BADILLO ST", "postcode": "91723"}}},
{"geometry": {"type": "Point", "coordinates": [-117.8911748085, 34.0875086016]}, "type": "Feature", "properties": {"collection_times": [{"days": "Mon-Sat", "time": "3:00pm"}, {"days": "Sun", "time": "Closed"}], "id": "9172300002", "name": "USPS COLLECTION BOX - BLUE BOX", "address": {"city": "COVINA", "state": "CA", "street": "147 W COLLEGE ST", "postcode": "91723"}}},
{"geometry": {"type": "Point", "coordinates": [-117.8867317572, 34.0753672654]}, "type": "Feature", "properties": {"collection_times": [{"days": "Mon-Sat", "time": "3:00pm"}, {"days": "Sun", "time": "Closed"}], "id": "9172300015", "name": "USPS COLLECTION BOX - BLUE BOX", "address": {"city": "COVINA", "state": "CA", "street": "271 E WORKMAN ST", "postcode": "91723"}}},
{"geometry": {"type": "Point", "coordinates": [-117.8746858581, 34.0788749526]}, "type": "Feature", "properties": {"collection_times": [{"days": "Mon-Sat", "time": "3:00pm"}, {"days": "Sun", "time": "Closed"}], "id": "9172300016", "name": "USPS COLLECTION BOX - BLUE BOX", "address": {"city": "COVINA", "state": "CA", "street": "785 E ROWLAND ST", "postcode": "91723"}}},
{"geometry": {"type": "Point", "coordinates": [-117.8860339835, 34.0789660405]}, "type": "Feature", "properties": {"collection_times": [{"days": "Mon-Sat", "time": "3:00pm"}, {"days": "Sun", "time": "Closed"}], "id": "9172300018", "name": "USPS COLLECTION BOX - BLUE BOX", "address": {"city": "COVINA", "state": "CA", "street": "274 E ROWLAND ST", "postcode": "91723"}}},
{"geometry": {"type": "Point", "coordinates": [-117.8901424, 34.0860034633]}, "type": "Feature", "properties": {"collection_times": [{"days": "Mon-Sat", "time": "3:00pm"}, {"days": "Sun", "time": "Closed"}], "id": "9172300023", "name": "USPS COLLECTION BOX - BLUE BOX", "address": {"city": "COVINA", "state": "CA", "street": "107 S CITRUS AVE", "postcode": "91723"}}},
{"geometry": {"type": "Point", "coordinates": [-117.888239019, 34.0874348437]}, "type": "Feature", "properties": {"collection_times": [{"days": "Mon-Sat", "time": "5:00pm"}, {"days": "Sun", "time": "Closed"}], "id": "9172300026", "name": "USPS COLLECTION BOX - BLUE BOX", "address": {"city": "COVINA", "state": "CA", "street": "170 E COLLEGE ST", "postcode": "91723"}}},
{"geometry": {"type": "Point", "coordinates": [-117.888239019, 34.0874348437]}, "type": "Feature", "properties": {"collection_times": [{"days": "Mon-Sat", "time": "5:00pm"}, {"days": "Sun", "time": "Closed"}], "id": "9172300032", "name": "USPS COLLECTION BOX - BLUE BOX", "address": {"city": "COVINA", "state": "CA", "street": "170 E COLLEGE ST", "postcode": "91723"}}},
{"geometry": {"type": "Point", "coordinates": [-117.8981993432, 34.079175585]}, "type": "Feature", "properties": {"collection_times": [{"days": "Mon-Sat", "time": "3:00pm"}, {"days": "Sun", "time": "Closed"}], "id": "9172300033", "name": "USPS COLLECTION BOX - BLUE BOX", "address": {"city": "COVINA", "state": "CA", "street": "459 S ROWLAND AVE", "postcode": "91723"}}},
{"geometry": {"type": "Point", "coordinates": [-117.888239019, 34.0874348437]}, "type": "Feature", "properties": {"collection_times": [{"days": "Mon-Sat", "time": "5:00pm"}, {"days": "Sun", "time": "Closed"}], "id": "9172300034", "name": "USPS COLLECTION BOX - BLUE BOX", "address": {"city": "COVINA", "state": "CA", "street": "170 E COLLEGE ST", "postcode": "91723"}}},
{"geometry": {"type": "Point", "coordinates": [-117.888239019, 34.0874348437]}, "type": "Feature", "properties": {"collection_times": [{"days": "Mon-Sat", "time": "5:00pm"}, {"days": "Sun", "time": "Closed"}], "id": "9172300036", "name": "USPS COLLECTION BOX - APC", "address": {"city": "COVINA", "state": "CA", "street": "170 E COLLEGE ST", "postcode": "91723"}}},
{"geometry": {"type": "Point", "coordinates": [-117.888239019, 34.0874348437]}, "type": "Feature", "properties": {"collection_times": [{"days": "Mon-Sat", "time": "5:00pm"}, {"days": "Sun", "time": "Closed"}], "id": "9172300037", "name": "USPS COLLECTION BOX - BLUE BOX", "address": {"city": "COVINA", "state": "CA", "street": "170 E COLLEGE ST", "postcode": "91723"}}},
{"geometry": {"type": "Point", "coordinates": [-117.8864266854, 34.0849728637]}, "type": "Feature", "properties": {"collection_times": [{"days": "Mon-Sat", "time": "3:00pm"}, {"days": "Sun", "time": "Closed"}], "id": "9172300038", "name": "USPS COLLECTION BOX - BLUE BOX", "address": {"city": "COVINA", "state": "CA", "street": "143 E ROWLAND ST", "postcode": "91723"}}},
{"geometry": {"type": "Point", "coordinates": [-117.8574267612, 34.1030011443]}, "type": "Feature", "properties": {"collection_times": [{"days": "Mon-Sat", "time": "3:00pm"}, {"days": "Sun", "time": "Closed"}], "id": "9172400007", "name": "USPS COLLECTION BOX - BLUE BOX", "address": {"city": "COVINA", "state": "CA", "street": "20240 E CIENEGA AVE", "postcode": "91724"}}},
{"geometry": {"type": "Point", "coordinates": [-117.8632395472, 34.0727259319]}, "type": "Feature", "properties": {"collection_times": [{"days": "Mon-Sat", "time": "3:00pm"}, {"days": "Sun", "time": "Closed"}], "id": "9172400010", "name": "USPS COLLECTION BOX - BLUE BOX", "address": {"city": "COVINA", "state": "CA", "street": "1290 CENTER COURT DR", "postcode": "91724"}}},
{"geometry": {"type": "Point", "coordinates": [-117.8632395472, 34.0727259319]}, "type": "Feature", "properties": {"collection_times": [{"days": "Mon-Sat", "time": "3:00pm"}, {"days": "Sun", "time": "Closed"}], "id": "9172400011", "name": "USPS COLLECTION BOX - BLUE BOX", "address": {"city": "COVINA", "state": "CA", "street": "1290 CENTER COURT DR", "postcode": "91724"}}},
{"geometry": {"type": "Point", "coordinates": [-117.8632395472, 34.0727259319]}, "type": "Feature", "properties": {"collection_times": [{"days": "Mon-Sat", "time": "3:00pm"}, {"days": "Sun", "time": "Closed"}], "id": "9172400015", "name": "USPS COLLECTION BOX - BLUE BOX", "address": {"city": "COVINA", "state": "CA", "street": "1290 CENTER COURT DR", "postcode": "91724"}}},
{"geometry": {"type": "Point", "coordinates": [-117.8632395472, 34.0727259319]}, "type": "Feature", "properties": {"collection_times": [{"days": "Mon-Sat", "time": "3:00pm"}, {"days": "Sun", "time": "Closed"}], "id": "9172400016", "name": "USPS COLLECTION BOX - BLUE BOX", "address": {"city": "COVINA", "state": "CA", "street": "1290 CENTER COURT DR", "postcode": "91724"}}},
{"geometry": {"type": "Point", "coordinates": [-117.5795195046, 34.0996067714]}, "type": "Feature", "properties": {"collection_times": [{"days": "Mon-Sat", "time": "2:00pm"}, {"days": "Sun", "time": "Closed"}], "id": "9173000007", "name": "USPS COLLECTION BOX - BLUE BOX", "address": {"city": "RCH CUCAMONGA", "state": "CA", "street": "11200 BASELINE RD", "postcode": "91730"}}},
{"geometry": {"type": "Point", "coordinates": [-117.5934182132, 34.1063202608]}, "type": "Feature", "properties": {"collection_times": [{"days": "Mon-Sat", "time": "2:00pm"}, {"days": "Sun", "time": "Closed"}], "id": "9173000008", "name": "USPS COLLECTION BOX - BLUE BOX", "address": {"city": "RCH CUCAMONGA", "state": "CA", "street": "8111 ARCHIBALD AVE", "postcode": "91730"}}},
{"geometry": {"type": "Point", "coordinates": [-117.5795195046, 34.0996067714]}, "type": "Feature", "properties": {"collection_times": [{"days": "Mon-Sat", "time": "2:00pm"}, {"days": "Sun", "time": "Closed"}], "id": "9173000009", "name": "USPS COLLECTION BOX - BLUE BOX", "address": {"city": "RCH CUCAMONGA", "state": "CA", "street": "8383 PLACER", "postcode": "91730"}}},
{"geometry": {"type": "Point", "coordinates": [-117.595831259, 34.098053078]}, "type": "Feature", "properties": {"collection_times": [{"days": "Mon-Fri", "time": "2:00pm"}, {"days": "Sat", "time": "2:30pm"}, {"days": "Sun", "time": "Closed"}], "id": "9173000010", "name": "USPS COLLECTION BOX - BLUE BOX", "address": {"city": "RCH CUCAMONGA", "state": "CA", "street": "9607 BUSINESS CENTER DR", "postcode": "91730"}}},
{"geometry": {"type": "Point", "coordinates": [-117.5658460293, 34.0991177464]}, "type": "Feature", "properties": {"collection_times": [{"days": "Mon-Fri", "time": "5:05pm"}, {"days": "Sat", "time": "5:00pm"}, {"days": "Sun", "time": "Closed"}], "id": "9173000018", "name": "USPS COLLECTION BOX - BLUE BOX", "address": {"city": "RCH CUCAMONGA", "state": "CA", "street": "10950 ARROW RTE", "postcode": "91730"}}},
{"geometry": {"type": "Point", "coordinates": [-117.5749488985, 34.1064083225]}, "type": "Feature", "properties": {"collection_times": [{"days": "Mon-Fri", "time": "2:00pm"}, {"days": "Sat", "time": "1:30pm"}, {"days": "Sun", "time": "Closed"}], "id": "9173000019", "name": "USPS COLLECTION BOX - BLUE BOX", "address": {"city": "RCH CUCAMONGA", "state": "CA", "street": "10535 FOOTHILL BLVD", "postcode": "91730"}}},
{"geometry": {"type": "Point", "coordinates": [-117.5583481161, 34.1128440274]}, "type": "Feature", "properties": {"collection_times": [{"days": "Mon-Sat", "time": "2:00pm"}, {"days": "Sun", "time": "Closed"}], "id": "9173000021", "name": "USPS COLLECTION BOX - BLUE BOX", "address": {"city": "RCH CUCAMONGA", "state": "CA", "street": "7777 MILLIKEN AVE", "postcode": "91730"}}},
{"geometry": {"type": "Point", "coordinates": [-117.5720884285, 34.1018955089]}, "type": "Feature", "properties": {"collection_times": [{"days": "Mon-Fri", "time": "3:00pm"}, {"days": "Sat", "time": "1:30pm"}, {"days": "Sun", "time": "Closed"}], "id": "9173000024", "name": "USPS COLLECTION BOX - BLUE BOX", "address": {"city": "RCH CUCAMONGA", "state": "CA", "street": "8350 UTICA AVE", "postcode": "91730"}}},
{"geometry": {"type": "Point", "coordinates": [-117.5958620907, 34.0980382554]}, "type": "Feature", "properties": {"collection_times": [{"days": "Mon-Fri", "time": "2:00pm"}, {"days": "Sat", "time": "2:30pm"}, {"days": "Sun", "time": "Closed"}], "id": "9173000029", "name": "USPS COLLECTION BOX - BLUE BOX", "address": {"city": "RCH CUCAMONGA", "state": "CA", "street": "9607 BUSINESS CENTER DR", "postcode": "91730"}}},
{"geometry": {"type": "Point", "coordinates": [-117.5720884285, 34.1018955089]}, "type": "Feature", "properties": {"collection_times": [{"days": "Mon-Fri", "time": "3:00pm"}, {"days": "Sat", "time": "1:30pm"}, {"days": "Sun", "time": "Closed"}], "id": "9173000036", "name": "USPS COLLECTION BOX - BLUE BOX", "address": {"city": "RCH CUCAMONGA", "state": "CA", "street": "8350 UTICA AVE", "postcode": "91730"}}},
{"geometry": {"type": "Point", "coordinates": [-117.5958312588, 34.0980530778]}, "type": "Feature", "properties": {"collection_times": [{"days": "Mon-Fri", "time": "2:00pm"}, {"days": "Sat", "time": "2:30pm"}, {"days": "Sun", "time": "Closed"}], "id": "9173000045", "name": "USPS COLLECTION BOX - BLUE BOX", "address": {"city": "RCH CUCAMONGA", "state": "CA", "street": "9607 BUSINESS CENTER DR", "postcode": "91730"}}},
{"geometry": {"type": "Point", "coordinates": [-117.5793506166, 34.0782444108]}, "type": "Feature", "properties": {"collection_times": [{"days": "Mon-Fri", "time": "3:00pm"}, {"days": "Sat", "time": "1:30pm"}, {"days": "Sun", "time": "Closed"}], "id": "9173000047", "name": "USPS COLLECTION BOX - BLUE BOX", "address": {"city": "RCH CUCAMONGA", "state": "CA", "street": "9640 CENTER AVE", "postcode": "91730"}}},
{"geometry": {"type": "Point", "coordinates": [-117.571390558, 34.110574704]}, "type": "Feature", "properties": {"collection_times": [{"days": "Mon-Sat", "time": "11:40am"}, {"days": "Sun", "time": "Closed"}], "id": "9173000055", "name": "USPS COLLECTION BOX - BLUE BOX", "address": {"city": "RCH CUCAMONGA", "state": "CA", "street": "10701 TOWN CENTER DR", "postcode": "91730"}}},
{"geometry": {"type": "Point", "coordinates": [-117.6079499048, 34.0993377768]}, "type": "Feature", "properties": {"collection_times": [{"days": "Mon-Sat", "time": "11:00am"}, {"days": "Sun", "time": "Closed"}], "id": "9173000059", "name": "USPS COLLECTION BOX - BLUE BOX", "address": {"city": "RCH CUCAMONGA", "state": "CA", "street": "9007 ARROW", "postcode": "91730"}}},
{"geometry": {"type": "Point", "coordinates": [-117.5795195046, 34.0996067714]}, "type": "Feature", "properties": {"collection_times": [{"days": "Mon-Sat", "time": "2:00pm"}, {"days": "Sun", "time": "Closed"}], "id": "9173000060", "name": "USPS COLLECTION BOX - BLUE BOX", "address": {"city": "RCH CUCAMONGA", "state": "CA", "street": "12375 BASELINE RD", "postcode": "91730"}}},
{"geometry": {"type": "Point", "coordinates": [-117.5658460293, 34.0991177464]}, "type": "Feature", "properties": {"collection_times": [{"days": "Mon-Fri", "time": "5:05pm"}, {"days": "Sat", "time": "5:00pm"}, {"days": "Sun", "time": "Closed"}], "id": "9173000062", "name": "USPS COLLECTION BOX - PO LOBBY", "address": {"city": "RCH CUCAMONGA", "state": "CA", "street": "10950 ARROW RTE", "postcode": "91730"}}},
{"geometry": {"type": "Point", "coordinates": [-117.5658460293, 34.0991177464]}, "type": "Feature", "properties": {"collection_times": [{"days": "Mon-Fri", "time": "5:05pm"}, {"days": "Sat", "time": "5:00pm"}, {"days": "Sun", "time": "Closed"}], "id": "9173000064", "name": "USPS COLLECTION BOX - BLUE BOX", "address": {"city": "RCH CUCAMONGA", "state": "CA", "street": "10950 ARROW RTE", "postcode": "91730"}}},
{"geometry": {"type": "Point", "coordinates": [-117.5658460293, 34.0991177464]}, "type": "Feature", "properties": {"collection_times": [{"days": "Mon-Fri", "time": "5:05pm"}, {"days": "Sat", "time": "5:00pm"}, {"days": "Sun", "time": "Closed"}], "id": "9173000065", "name": "USPS COLLECTION BOX - APC", "address": {"city": "RCH CUCAMONGA", "state": "CA", "street": "10950 ARROW RTE", "postcode": "91730"}}},
{"geometry": {"type": "Point", "coordinates": [-118.0523923198, 34.0788394639]}, "type": "Feature", "properties": {"collection_times": [{"days": "Mon-Sat", "time": "3:00pm"}, {"days": "Sun", "time": "Closed"}], "id": "9173100004", "name": "USPS COLLECTION BOX - BLUE BOX", "address": {"city": "EL MONTE", "state": "CA", "street": "10008 VALLEY / BALDWIN", "postcode": "91731"}}},
{"geometry": {"type": "Point", "coordinates": [-118.034019473, 34.073310613]}, "type": "Feature", "properties": {"collection_times": [{"days": "Mon-Sat", "time": "5:00pm"}, {"days": "Sun", "time": "Closed"}], "id": "9173100017", "name": "USPS COLLECTION BOX - BLUE BOX", "address": {"city": "EL MONTE", "state": "CA", "street": "11151 VALLEY VLY", "postcode": "91731"}}},
{"geometry": {"type": "Point", "coordinates": [-118.0329245782, 34.0734834502]}, "type": "Feature", "properties": {"collection_times": [{"days": "Mon-Sat", "time": "5:00pm"}, {"days": "Sun", "time": "Closed"}], "id": "9173100018", "name": "USPS COLLECTION BOX - BLUE BOX", "address": {"city": "EL MONTE", "state": "CA", "street": "11151 VALLEY BLVD", "postcode": "91731"}}},
{"geometry": {"type": "Point", "coordinates": [-118.0318230293, 34.0716837451]}, "type": "Feature", "properties": {"collection_times": [{"days": "Mon-Sat", "time": "3:00pm"}, {"days": "Sun", "time": "Closed"}], "id": "9173100029", "name": "USPS COLLECTION BOX - BLUE BOX", "address": {"city": "EL MONTE", "state": "CA", "street": "11234 VALLEY VLY", "postcode": "91731"}}},
{"geometry": {"type": "Point", "coordinates": [-118.0651043968, 34.0719605575]}, "type": "Feature", "properties": {"collection_times": [{"days": "Mon-Fri", "time": "3:00pm"}, {"days": "Sat-Sun", "time": "Closed"}], "id": "9173100030", "name": "USPS COLLECTION BOX - BLUE BOX", "address": {"city": "EL MONTE", "state": "CA", "street": "9350 FLAIR DR", "postcode": "91731"}}},
{"geometry": {"type": "Point", "coordinates": [-118.0663062831, 34.0719250687]}, "type": "Feature", "properties": {"collection_times": [{"days": "Mon-Sat", "time": "3:00pm"}, {"days": "Sun", "time": "Closed"}], "id": "9173100032", "name": "USPS COLLECTION BOX - BLUE BOX", "address": {"city": "EL MONTE", "state": "CA", "street": "9300 FLAIR DR", "postcode": "91731"}}},
{"geometry": {"type": "Point", "coordinates": [-118.0579120063, 34.0720658408]}, "type": "Feature", "properties": {"collection_times": [{"days": "Mon-Sat", "time": "3:00pm"}, {"days": "Sun", "time": "Closed"}], "id": "9173100033", "name": "USPS COLLECTION BOX - BLUE BOX", "address": {"city": "EL MONTE", "state": "CA", "street": "9660 FLAIR DR", "postcode": "91731"}}},
{"geometry": {"type": "Point", "coordinates": [-118.0571584218, 34.0707916219]}, "type": "Feature", "properties": {"collection_times": [{"days": "Mon-Sat", "time": "3:00pm"}, {"days": "Sun", "time": "Closed"}], "id": "9173100036", "name": "USPS COLLECTION BOX - BLUE BOX", "address": {"city": "EL MONTE", "state": "CA", "street": "9680 TELSTAR AVE", "postcode": "91731"}}},
{"geometry": {"type": "Point", "coordinates": [-118.0329245782, 34.0734834502]}, "type": "Feature", "properties": {"collection_times": [{"days": "Mon-Fri", "time": "3:20pm"}, {"days": "Sat-Sun", "time": "Closed"}], "id": "9173100082", "name": "USPS COLLECTION BOX - EXPRESS", "address": {"city": "EL MONTE", "state": "CA", "street": "11151 VALLEY BLVD", "postcode": "91731"}}},
{"geometry": {"type": "Point", "coordinates": [-118.0328385139, 34.0734901243]}, "type": "Feature", "properties": {"collection_times": [{"days": "Mon-Sat", "time": "5:00pm"}, {"days": "Sun", "time": "Closed"}], "id": "9173100083", "name": "USPS COLLECTION BOX - BLUE BOX", "address": {"city": "EL MONTE", "state": "CA", "street": "11151 VALLEY BLVD", "postcode": "91731"}}},
{"geometry": {"type": "Point", "coordinates": [-118.0628913584, 34.0687752305]}, "type": "Feature", "properties": {"collection_times": [{"days": "Mon-Sat", "time": "3:00pm"}, {"days": "Sun", "time": "Closed"}], "id": "9173100084", "name": "USPS COLLECTION BOX - BLUE BOX", "address": {"city": "EL MONTE", "state": "CA", "street": "9480 TELSTAR AVE", "postcode": "91731"}}},
{"geometry": {"type": "Point", "coordinates": [-118.0686267938, 34.0687552932]}, "type": "Feature", "properties": {"collection_times": [{"days": "Mon-Sat", "time": "3:00pm"}, {"days": "Sun", "time": "Closed"}], "id": "9173100086", "name": "USPS COLLECTION BOX - BLUE BOX", "address": {"city": "EL MONTE", "state": "CA", "street": "3350 AERO JET AVE", "postcode": "91731"}}},
{"geometry": {"type": "Point", "coordinates": [-118.0329245782, 34.0734834502]}, "type": "Feature", "properties": {"collection_times": [{"days": "Mon-Sat", "time": "5:00pm"}, {"days": "Sun", "time": "Closed"}], "id": "9173100095", "name": "USPS COLLECTION BOX - BLUE BOX", "address": {"city": "EL MONTE", "state": "CA", "street": "11151 VALLEY BLVD", "postcode": "91731"}}},
{"geometry": {"type": "Point", "coordinates": [-118.0611024466, 34.0720291691]}, "type": "Feature", "properties": {"collection_times": [{"days": "Mon-Sat", "time": "3:00pm"}, {"days": "Sun", "time": "Closed"}], "id": "9173100105", "name": "USPS COLLECTION BOX - BLUE BOX", "address": {"city": "EL MONTE", "state": "CA", "street": "9550 FLAIR DR", "postcode": "91731"}}},
{"geometry": {"type": "Point", "coordinates": [-118.0651043968, 34.0719605575]}, "type": "Feature", "properties": {"collection_times": [{"days": "Mon-Fri", "time": "3:00pm"}, {"days": "Sat-Sun", "time": "Closed"}], "id": "9173100109", "name": "USPS COLLECTION BOX - BLUE BOX", "address": {"city": "EL MONTE", "state": "CA", "street": "9350 FLAIR DR", "postcode": "91731"}}},
{"geometry": {"type": "Point", "coordinates": [-118.0172572556, 34.0854533874]}, "type": "Feature", "properties": {"collection_times": [{"days": "Mon-Sat", "time": "3:00pm"}, {"days": "Sun", "time": "Closed"}], "id": "9173200002", "name": "USPS COLLECTION BOX - BLUE BOX", "address": {"city": "EL MONTE", "state": "CA", "street": "4501 PECK RD", "postcode": "91732"}}},
{"geometry": {"type": "Point", "coordinates": [-118.0219836954, 34.0645511437]}, "type": "Feature", "properties": {"collection_times": [{"days": "Mon-Sat", "time": "3:00pm"}, {"days": "Sun", "time": "Closed"}], "id": "9173200010", "name": "USPS COLLECTION BOX - BLUE BOX", "address": {"city": "EL MONTE", "state": "CA", "street": "11840 VALLEY BLVD", "postcode": "91732"}}},
{"geometry": {"type": "Point", "coordinates": [-118.0149634981, 34.0750362508]}, "type": "Feature", "properties": {"collection_times": [{"days": "Mon-Sat", "time": "3:00pm"}, {"days": "Sun", "time": "Closed"}], "id": "9173200012", "name": "USPS COLLECTION BOX - BLUE BOX", "address": {"city": "EL MONTE", "state": "CA", "street": "11904 RAMONA BLVD", "postcode": "91732"}}},
{"geometry": {"type": "Point", "coordinates": [-118.020790754, 34.0531396803]}, "type": "Feature", "properties": {"collection_times": [{"days": "Mon-Sat", "time": "3:00pm"}, {"days": "Sun", "time": "Closed"}], "id": "9173200014", "name": "USPS COLLECTION BOX - BLUE BOX", "address": {"city": "EL MONTE", "state": "CA", "street": "2556 DURFEE AVE", "postcode": "91732"}}},
{"geometry": {"type": "Point", "coordinates": [-118.0081484715, 34.0758252844]}, "type": "Feature", "properties": {"collection_times": [{"days": "Mon-Sat", "time": "3:00pm"}, {"days": "Sun", "time": "Closed"}], "id": "9173200016", "name": "USPS COLLECTION BOX - BLUE BOX", "address": {"city": "EL MONTE", "state": "CA", "street": "12170 RAMONA BLVD", "postcode": "91732"}}},
{"geometry": {"type": "Point", "coordinates": [-118.059391888, 34.0627110013]}, "type": "Feature", "properties": {"collection_times": [{"days": "Mon-Sat", "time": "3:00pm"}, {"days": "Sun", "time": "Closed"}], "id": "9173300000", "name": "USPS COLLECTION BOX - BLUE BOX", "address": {"city": "EL MONTE", "state": "CA", "street": "9622 GARVEY AVE", "postcode": "91733"}}},
{"geometry": {"type": "Point", "coordinates": [-118.052269292, 34.062721648]}, "type": "Feature", "properties": {"collection_times": [{"days": "Mon-Sat", "time": "3:00pm"}, {"days": "Sun", "time": "Closed"}], "id": "9173300001", "name": "USPS COLLECTION BOX - BLUE BOX", "address": {"city": "EL MONTE", "state": "CA", "street": "9900 GARVEY AVE", "postcode": "91733"}}},
{"geometry": {"type": "Point", "coordinates": [-118.0459946585, 34.0442859068]}, "type": "Feature", "properties": {"collection_times": [{"days": "Mon-Sat", "time": "3:00pm"}, {"days": "Sun", "time": "Closed"}], "id": "9173300002", "name": "USPS COLLECTION BOX - BLUE BOX", "address": {"city": "EL MONTE", "state": "CA", "street": "1415 SANTA ANITA AVE", "postcode": "91733"}}},
{"geometry": {"type": "Point", "coordinates": [-118.0556383592, 34.0495115452]}, "type": "Feature", "properties": {"collection_times": [{"days": "Mon-Sat", "time": "3:00pm"}, {"days": "Sun", "time": "Closed"}], "id": "9173300004", "name": "USPS COLLECTION BOX - BLUE BOX", "address": {"city": "EL MONTE", "state": "CA", "street": "1802 POTRERO AVE", "postcode": "91733"}}},
{"geometry": {"type": "Point", "coordinates": [-118.0286538822, 34.0467055665]}, "type": "Feature", "properties": {"collection_times": [{"days": "Mon-Sat", "time": "3:00pm"}, {"days": "Sun", "time": "Closed"}], "id": "9173300008", "name": "USPS COLLECTION BOX - BLUE BOX", "address": {"city": "EL MONTE", "state": "CA", "street": "2041 DURFEE AVE", "postcode": "91733"}}},
{"geometry": {"type": "Point", "coordinates": [-118.0310020558, 34.0628553223]}, "type": "Feature", "properties": {"collection_times": [{"days": "Mon-Sat", "time": "3:00pm"}, {"days": "Sun", "time": "Closed"}], "id": "9173300010", "name": "USPS COLLECTION BOX - BLUE BOX", "address": {"city": "EL MONTE", "state": "CA", "street": "11230 GARVEY AVE", "postcode": "91733"}}},
{"geometry": {"type": "Point", "coordinates": [-117.5982839471, 34.1333442982]}, "type": "Feature", "properties": {"collection_times": [{"days": "Mon-Fri", "time": "4:00pm"}, {"days": "Sat", "time": "3:00pm"}, {"days": "Sun", "time": "Closed"}], "id": "9173700001", "name": "USPS COLLECTION BOX - BLUE BOX", "address": {"city": "RCH CUCAMONGA", "state": "CA", "street": "6649 AMETHYST AVE", "postcode": "91737"}}},
{"geometry": {"type": "Point", "coordinates": [-117.5982839471, 34.1333442982]}, "type": "Feature", "properties": {"collection_times": [{"days": "Mon-Fri", "time": "4:00pm"}, {"days": "Sat", "time": "3:00pm"}, {"days": "Sun", "time": "Closed"}], "id": "9173700002", "name": "USPS COLLECTION BOX - BLUE BOX", "address": {"city": "RCH CUCAMONGA", "state": "CA", "street": "6649 AMETHYST AVE", "postcode": "91737"}}},
{"geometry": {"type": "Point", "coordinates": [-117.5982839471, 34.1333442982]}, "type": "Feature", "properties": {"collection_times": [{"days": "Mon-Fri", "time": "4:00pm"}, {"days": "Sat", "time": "3:00pm"}, {"days": "Sun", "time": "Closed"}], "id": "9173700003", "name": "USPS COLLECTION BOX - PO LOBBY", "address": {"city": "RCH CUCAMONGA", "state": "CA", "street": "6649 AMETHYST AVE", "postcode": "91737"}}},
{"geometry": {"type": "Point", "coordinates": [-117.5757805187, 34.1376656473]}, "type": "Feature", "properties": {"collection_times": [{"days": "Mon-Sat", "time": "2:00pm"}, {"days": "Sun", "time": "Closed"}], "id": "9173700004", "name": "USPS COLLECTION BOX - BLUE BOX", "address": {"city": "RCH CUCAMONGA", "state": "CA", "street": "6401 HAVEN AVE", "postcode": "91737"}}},
{"geometry": {"type": "Point", "coordinates": [-117.5982839471, 34.1333442982]}, "type": "Feature", "properties": {"collection_times": [{"days": "Mon-Fri", "time": "4:00pm"}, {"days": "Sat", "time": "3:00pm"}, {"days": "Sun", "time": "Closed"}], "id": "9173700005", "name": "USPS COLLECTION BOX - BLUE BOX", "address": {"city": "RCH CUCAMONGA", "state": "CA", "street": "6649 AMETHYST AVE", "postcode": "91737"}}},
{"geometry": {"type": "Point", "coordinates": [-117.5235559062, 34.1149949876]}, "type": "Feature", "properties": {"collection_times": [{"days": "Mon-Fri", "time": "4:00pm"}, {"days": "Sat", "time": "3:00pm"}, {"days": "Sun", "time": "Closed"}], "id": "9173900000", "name": "USPS COLLECTION BOX - BLUE BOX", "address": {"city": "RCH CUCAMONGA", "state": "CA", "street": "7615 ETIWANDA AVE", "postcode": "91739"}}},
{"geometry": {"type": "Point", "coordinates": [-117.8654836204, 34.1330142526]}, "type": "Feature", "properties": {"collection_times": [{"days": "Mon-Sat", "time": "5:00pm"}, {"days": "Sun", "time": "Closed"}], "id": "9174000001", "name": "USPS COLLECTION BOX - BLUE BOX", "address": {"city": "GLENDORA", "state": "CA", "street": "255 S GLENDORA AVE", "postcode": "91740"}}},
{"geometry": {"type": "Point", "coordinates": [-117.8724565973, 34.1073906967]}, "type": "Feature", "properties": {"collection_times": [{"days": "Mon-Sat", "time": "2:15pm"}, {"days": "Sun", "time": "Closed"}], "id": "9174000022", "name": "USPS COLLECTION BOX - BLUE BOX", "address": {"city": "GLENDORA", "state": "CA", "street": "1740 S GRAND AVE", "postcode": "91740"}}},
{"geometry": {"type": "Point", "coordinates": [-117.829066761, 34.1252040734]}, "type": "Feature", "properties": {"collection_times": [{"days": "Mon-Sat", "time": "9:45am"}, {"days": "Sun", "time": "Closed"}], "id": "9174000027", "name": "USPS COLLECTION BOX - BLUE BOX", "address": {"city": "GLENDORA", "state": "CA", "street": "701 S LONE HL", "postcode": "91740"}}},
{"geometry": {"type": "Point", "coordinates": [-117.8422917098, 34.1287461367]}, "type": "Feature", "properties": {"collection_times": [{"days": "Mon-Sat", "time": "1:45pm"}, {"days": "Sun", "time": "Closed"}], "id": "9174000028", "name": "USPS COLLECTION BOX - BLUE BOX", "address": {"city": "GLENDORA", "state": "CA", "street": "1200 E ROUTE 66", "postcode": "91740"}}},
{"geometry": {"type": "Point", "coordinates": [-117.8301615274, 34.1286268572]}, "type": "Feature", "properties": {"collection_times": [{"days": "Mon-Sat", "time": "1:45pm"}, {"days": "Sun", "time": "Closed"}], "id": "9174000029", "name": "USPS COLLECTION BOX - BLUE BOX", "address": {"city": "GLENDORA", "state": "CA", "street": "1822 E ROUTE 66", "postcode": "91740"}}},
{"geometry": {"type": "Point", "coordinates": [-117.8649900869, 34.128630631]}, "type": "Feature", "properties": {"collection_times": [{"days": "Mon-Fri", "time": "1:15pm"}, {"days": "Sat", "time": "1:30pm"}, {"days": "Sun", "time": "Closed"}], "id": "9174000031", "name": "USPS COLLECTION BOX - BLUE BOX", "address": {"city": "GLENDORA", "state": "CA", "street": "150 W ROUTE 66", "postcode": "91740"}}},
{"geometry": {"type": "Point", "coordinates": [-117.8472281976, 34.1067513806]}, "type": "Feature", "properties": {"collection_times": [{"days": "Mon-Fri", "time": "2:15pm"}, {"days": "Sat", "time": "1:30pm"}, {"days": "Sun", "time": "Closed"}], "id": "9174000032", "name": "USPS COLLECTION BOX - BLUE BOX", "address": {"city": "GLENDORA", "state": "CA", "street": "843 E ARROW HWY", "postcode": "91740"}}},
{"geometry": {"type": "Point", "coordinates": [-117.8654836204, 34.1330142526]}, "type": "Feature", "properties": {"collection_times": [{"days": "Mon-Sat", "time": "5:00pm"}, {"days": "Sun", "time": "Closed"}], "id": "9174000042", "name": "USPS COLLECTION BOX - BLUE BOX", "address": {"city": "GLENDORA", "state": "CA", "street": "255 S GLENDORA AVE", "postcode": "91740"}}},
{"geometry": {"type": "Point", "coordinates": [-117.8549992606, 34.1170911444]}, "type": "Feature", "properties": {"collection_times": [{"days": "Mon-Sat", "time": "5:00pm"}, {"days": "Sun", "time": "Closed"}], "id": "9174000043", "name": "USPS COLLECTION BOX - EXPRESS", "address": {"city": "GLENDORA", "state": "CA", "street": "255 S GLENDORA AVE", "postcode": "91740"}}},
{"geometry": {"type": "Point", "coordinates": [-117.8654836204, 34.1330142526]}, "type": "Feature", "properties": {"collection_times": [{"days": "Mon-Sat", "time": "5:00pm"}, {"days": "Sun", "time": "Closed"}], "id": "9174000044", "name": "USPS COLLECTION BOX - BLUE BOX", "address": {"city": "GLENDORA", "state": "CA", "street": "255 S GLENDORA AVE", "postcode": "91740"}}},
{"geometry": {"type": "Point", "coordinates": [-117.8227889095, 34.1176143004]}, "type": "Feature", "properties": {"collection_times": [{"days": "Mon-Sat", "time": "2:15pm"}, {"days": "Sun", "time": "Closed"}], "id": "9174000046", "name": "USPS COLLECTION BOX - BLUE BOX", "address": {"city": "GLENDORA", "state": "CA", "street": "2121 AUTO CENTRE DR", "postcode": "91740"}}},
{"geometry": {"type": "Point", "coordinates": [-117.8227889095, 34.1176143004]}, "type": "Feature", "properties": {"collection_times": [{"days": "Mon-Sat", "time": "2:15pm"}, {"days": "Sun", "time": "Closed"}], "id": "9174000047", "name": "USPS COLLECTION BOX - BLUE BOX", "address": {"city": "GLENDORA", "state": "CA", "street": "2121 AUTO CENTRE DR", "postcode": "91740"}}},
{"geometry": {"type": "Point", "coordinates": [-117.8223842809, 34.1272350116]}, "type": "Feature", "properties": {"collection_times": [{"days": "Mon-Sat", "time": "2:00pm"}, {"days": "Sun", "time": "Closed"}], "id": "9174000048", "name": "USPS COLLECTION BOX - BLUE BOX", "address": {"city": "GLENDORA", "state": "CA", "street": "2200 E ROUTE 66", "postcode": "91740"}}},
{"geometry": {"type": "Point", "coordinates": [-117.8226767616, 34.1176129249]}, "type": "Feature", "properties": {"collection_times": [{"days": "Mon-Sat", "time": "2:15pm"}, {"days": "Sun", "time": "Closed"}], "id": "9174000049", "name": "USPS COLLECTION BOX - BLUE BOX", "address": {"city": "GLENDORA", "state": "CA", "street": "2121 AUTO CENTRE DR", "postcode": "91740"}}},
{"geometry": {"type": "Point", "coordinates": [-117.8223842809, 34.1272350116]}, "type": "Feature", "properties": {"collection_times": [{"days": "Mon-Sat", "time": "2:00pm"}, {"days": "Sun", "time": "Closed"}], "id": "9174000050", "name": "USPS COLLECTION BOX - BLUE BOX", "address": {"city": "GLENDORA", "state": "CA", "street": "2200 E ROUTE 66", "postcode": "91740"}}},
{"geometry": {"type": "Point", "coordinates": [-117.8654137492, 34.1332522079]}, "type": "Feature", "properties": {"collection_times": [{"days": "Mon-Sat", "time": "1:15pm"}, {"days": "Sun", "time": "Closed"}], "id": "9174000051", "name": "USPS COLLECTION BOX - BLUE BOX", "address": {"city": "GLENDORA", "state": "CA", "street": "252 S GLENDORA AVE", "postcode": "91740"}}},
{"geometry": {"type": "Point", "coordinates": [-117.8699315461, 34.1288100165]}, "type": "Feature", "properties": {"collection_times": [{"days": "Mon-Sat", "time": "12:30pm"}, {"days": "Sun", "time": "Closed"}], "id": "9174000052", "name": "USPS COLLECTION BOX - BLUE BOX", "address": {"city": "GLENDORA", "state": "CA", "street": "415 W ROUTE 66", "postcode": "91740"}}},
{"geometry": {"type": "Point", "coordinates": [-117.8285469873, 34.136017131]}, "type": "Feature", "properties": {"collection_times": [{"days": "Mon-Sat", "time": "2:00pm"}, {"days": "Sun", "time": "Closed"}], "id": "9174000053", "name": "USPS COLLECTION BOX - BLUE BOX", "address": {"city": "GLENDORA", "state": "CA", "street": "103 S LONE HL", "postcode": "91740"}}},
{"geometry": {"type": "Point", "coordinates": [-117.8654836204, 34.1330142526]}, "type": "Feature", "properties": {"collection_times": [{"days": "Mon-Sat", "time": "5:00pm"}, {"days": "Sun", "time": "Closed"}], "id": "9174000054", "name": "USPS COLLECTION BOX - APC", "address": {"city": "GLENDORA", "state": "CA", "street": "255 S GLENDORA AVE", "postcode": "91740"}}},
{"geometry": {"type": "Point", "coordinates": [-117.872723611, 34.11455034]}, "type": "Feature", "properties": {"collection_times": [{"days": "Mon-Sat", "time": "2:45pm"}, {"days": "Sun", "time": "Closed"}], "id": "9174000058", "name": "USPS COLLECTION BOX - BLUE BOX", "address": {"city": "GLENDORA", "state": "CA", "street": "1335 S GRAND AVE", "postcode": "91740"}}},
{"geometry": {"type": "Point", "coordinates": [-117.8706961514, 34.136055233]}, "type": "Feature", "properties": {"collection_times": [{"days": "Mon-Sat", "time": "12:45pm"}, {"days": "Sun", "time": "Closed"}], "id": "9174100000", "name": "USPS COLLECTION BOX - BLUE BOX", "address": {"city": "GLENDORA", "state": "CA", "street": "407 W FOOTHILL BLVD", "postcode": "91741"}}},
{"geometry": {"type": "Point", "coordinates": [-117.8680399947, 34.1381518434]}, "type": "Feature", "properties": {"collection_times": [{"days": "Mon-Fri", "time": "12:45pm"}, {"days": "Sat", "time": "1:00pm"}, {"days": "Sun", "time": "Closed"}], "id": "9174100002", "name": "USPS COLLECTION BOX - BLUE BOX", "address": {"city": "GLENDORA", "state": "CA", "street": "175 N PENNSYLVANIA AVE", "postcode": "91741"}}},
{"geometry": {"type": "Point", "coordinates": [-117.8712978637, 34.13421259]}, "type": "Feature", "properties": {"collection_times": [{"days": "Mon-Sat", "time": "12:30pm"}, {"days": "Sun", "time": "Closed"}], "id": "9174100013", "name": "USPS COLLECTION BOX - BLUE BOX", "address": {"city": "GLENDORA", "state": "CA", "street": "427 W CARROLL AVE", "postcode": "91741"}}},
{"geometry": {"type": "Point", "coordinates": [-117.9514429787, 34.0200712996]}, "type": "Feature", "properties": {"collection_times": [{"days": "Mon-Fri", "time": "4:30pm"}, {"days": "Sat", "time": "4:00pm"}, {"days": "Sun", "time": "Closed"}], "id": "9174400000", "name": "USPS COLLECTION BOX - BLUE BOX", "address": {"city": "LA PUENTE", "state": "CA", "street": "15900 CENTRAL AVE", "postcode": "91744"}}},
{"geometry": {"type": "Point", "coordinates": [-117.9431294979, 34.051248129]}, "type": "Feature", "properties": {"collection_times": [{"days": "Mon-Fri", "time": "4:30pm"}, {"days": "Sat", "time": "3:00pm"}, {"days": "Sun", "time": "Closed"}], "id": "9174400004", "name": "USPS COLLECTION BOX - BLUE BOX", "address": {"city": "LA PUENTE", "state": "CA", "street": "1821 N HACIENDA BLVD", "postcode": "91744"}}},
{"geometry": {"type": "Point", "coordinates": [-117.9092199792, 34.0082854253]}, "type": "Feature", "properties": {"collection_times": [{"days": "Mon-Fri", "time": "4:30pm"}, {"days": "Sat", "time": "4:00pm"}, {"days": "Sun", "time": "Closed"}], "id": "9174400017", "name": "USPS COLLECTION BOX - BLUE BOX", "address": {"city": "LA PUENTE", "state": "CA", "street": "600 GIANO AVE", "postcode": "91744"}}},
{"geometry": {"type": "Point", "coordinates": [-117.9688600384, 34.041271053]}, "type": "Feature", "properties": {"collection_times": [{"days": "Mon-Sat", "time": "12:30pm"}, {"days": "Sun", "time": "Closed"}], "id": "9174400019", "name": "USPS COLLECTION BOX - BLUE BOX", "address": {"city": "LA PUENTE", "state": "CA", "street": "14535 TEMPLE AVE", "postcode": "91744"}}},
{"geometry": {"type": "Point", "coordinates": [-117.9358357876, 34.0361614946]}, "type": "Feature", "properties": {"collection_times": [{"days": "Mon-Fri", "time": "4:30pm"}, {"days": "Sat", "time": "4:00pm"}, {"days": "Sun", "time": "Closed"}], "id": "9174400023", "name": "USPS COLLECTION BOX - BLUE BOX", "address": {"city": "LA PUENTE", "state": "CA", "street": "16030 AMAR RD", "postcode": "91744"}}},
{"geometry": {"type": "Point", "coordinates": [-117.9281466012, 34.0140409458]}, "type": "Feature", "properties": {"collection_times": [{"days": "Mon-Fri", "time": "4:30pm"}, {"days": "Sat", "time": "4:00pm"}, {"days": "Sun", "time": "Closed"}], "id": "9174400026", "name": "USPS COLLECTION BOX - BLUE BOX", "address": {"city": "LA PUENTE", "state": "CA", "street": "17203 MAIN ST", "postcode": "91744"}}},
{"geometry": {"type": "Point", "coordinates": [-117.9262865282, 34.0093228803]}, "type": "Feature", "properties": {"collection_times": [{"days": "Mon-Sat", "time": "5:00pm"}, {"days": "Sun", "time": "Closed"}], "id": "9174400027", "name": "USPS COLLECTION BOX - BLUE BOX", "address": {"city": "LA PUENTE", "state": "CA", "street": "17305 E VALLEY BLVD", "postcode": "91744"}}},
{"geometry": {"type": "Point", "coordinates": [-117.9563357365, 34.0219199268]}, "type": "Feature", "properties": {"collection_times": [{"days": "Mon-Sat", "time": "5:00pm"}, {"days": "Sun", "time": "Closed"}], "id": "9174400029", "name": "USPS COLLECTION BOX - BLUE BOX", "address": {"city": "LA PUENTE", "state": "CA", "street": "15559 RAUSCH RD", "postcode": "91744"}}},
{"geometry": {"type": "Point", "coordinates": [-117.9563357365, 34.0219199268]}, "type": "Feature", "properties": {"collection_times": [{"days": "Mon-Sat", "time": "5:00pm"}, {"days": "Sun", "time": "Closed"}], "id": "9174400030", "name": "USPS COLLECTION BOX - BLUE BOX", "address": {"city": "LA PUENTE", "state": "CA", "street": "15559 RAUSCH RD", "postcode": "91744"}}},
{"geometry": {"type": "Point", "coordinates": [-117.9396660378, 34.0307515401]}, "type": "Feature", "properties": {"collection_times": [{"days": "Mon-Sat", "time": "5:00pm"}, {"days": "Sun", "time": "Closed"}], "id": "9174400031", "name": "USPS COLLECTION BOX - EXPRESS", "address": {"city": "LA PUENTE", "state": "CA", "street": "15559 RAUSCH RD", "postcode": "91744"}}},
{"geometry": {"type": "Point", "coordinates": [-117.9778365829, 33.9999159702]}, "type": "Feature", "properties": {"collection_times": [{"days": "Mon-Sat", "time": "1:30pm"}, {"days": "Sun", "time": "Closed"}], "id": "9174500030", "name": "USPS COLLECTION BOX - BLUE BOX", "address": {"city": "CITY INDUSTRY", "state": "CA", "street": "16300 SIERRA RIDGEWAY", "postcode": "91745"}}},
{"geometry": {"type": "Point", "coordinates": [-117.9448174298, 33.9896514917]}, "type": "Feature", "properties": {"collection_times": [{"days": "Mon-Sat", "time": "12:30pm"}, {"days": "Sun", "time": "Closed"}], "id": "9174500039", "name": "USPS COLLECTION BOX - BLUE BOX", "address": {"city": "CITY INDUSTRY", "state": "CA", "street": "16874 DAWNHAVEN", "postcode": "91745"}}},
{"geometry": {"type": "Point", "coordinates": [-117.9679933201, 33.9959601093]}, "type": "Feature", "properties": {"collection_times": [{"days": "Mon-Sat", "time": "5:00pm"}, {"days": "Sun", "time": "Closed"}], "id": "9174500041", "name": "USPS COLLECTION BOX - BLUE BOX", "address": {"city": "CITY INDUSTRY", "state": "CA", "street": "2054 S HACIENDA BLVD", "postcode": "91745"}}},
{"geometry": {"type": "Point", "coordinates": [-117.9679933201, 33.9959601093]}, "type": "Feature", "properties": {"collection_times": [{"days": "Mon-Sat", "time": "5:00pm"}, {"days": "Sun", "time": "Closed"}], "id": "9174500042", "name": "USPS COLLECTION BOX - BLUE BOX", "address": {"city": "CITY INDUSTRY", "state": "CA", "street": "2054 S HACIENDA BLVD", "postcode": "91745"}}},
{"geometry": {"type": "Point", "coordinates": [-117.9688919783, 33.9912058637]}, "type": "Feature", "properties": {"collection_times": [{"days": "Mon-Fri", "time": "4:30pm"}, {"days": "Sat", "time": "4:00pm"}, {"days": "Sun", "time": "Closed"}], "id": "9174500044", "name": "USPS COLLECTION BOX - BLUE BOX", "address": {"city": "CITY INDUSTRY", "state": "CA", "street": "2440 S HACIENDA BLVD", "postcode": "91745"}}},
{"geometry": {"type": "Point", "coordinates": [-117.9377579563, 33.990960368]}, "type": "Feature", "properties": {"collection_times": [{"days": "Mon-Sat", "time": "11:30am"}, {"days": "Sun", "time": "Closed"}], "id": "9174500048", "name": "USPS COLLECTION BOX - BLUE BOX", "address": {"city": "CITY INDUSTRY", "state": "CA", "street": "17002 COLIMA RD", "postcode": "91745"}}},
{"geometry": {"type": "Point", "coordinates": [-117.9316891018, 33.9932547487]}, "type": "Feature", "properties": {"collection_times": [{"days": "Mon-Fri", "time": "4:30pm"}, {"days": "Sat", "time": "3:00pm"}, {"days": "Sun", "time": "Closed"}], "id": "9174500049", "name": "USPS COLLECTION BOX - BLUE BOX", "address": {"city": "CITY INDUSTRY", "state": "CA", "street": "1605 S AZUSA AVE", "postcode": "91745"}}},
{"geometry": {"type": "Point", "coordinates": [-117.9332677342, 34.0012149153]}, "type": "Feature", "properties": {"collection_times": [{"days": "Mon-Fri", "time": "4:30pm"}, {"days": "Sat", "time": "3:00pm"}, {"days": "Sun", "time": "Closed"}], "id": "9174500052", "name": "USPS COLLECTION BOX - BLUE BOX", "address": {"city": "CITY INDUSTRY", "state": "CA", "street": "17088 GREEN DR", "postcode": "91745"}}},
{"geometry": {"type": "Point", "coordinates": [-117.9660880162, 33.9976643232]}, "type": "Feature", "properties": {"collection_times": [{"days": "Mon-Sat", "time": "5:00pm"}, {"days": "Sun", "time": "Closed"}], "id": "9174500120", "name": "USPS COLLECTION BOX - BLUE BOX", "address": {"city": "CITY INDUSTRY", "state": "CA", "street": "2054 S HACIENDA BLVD", "postcode": "91745"}}},
{"geometry": {"type": "Point", "coordinates": [-117.9660880162, 33.9976643232]}, "type": "Feature", "properties": {"collection_times": [{"days": "Mon-Sat", "time": "5:00pm"}, {"days": "Sun", "time": "Closed"}], "id": "9174500121", "name": "USPS COLLECTION BOX - EXPRESS", "address": {"city": "CITY INDUSTRY", "state": "CA", "street": "2054 S HACIENDA BLVD", "postcode": "91745"}}},
{"geometry": {"type": "Point", "coordinates": [-117.9682777367, 34.0490009183]}, "type": "Feature", "properties": {"collection_times": [{"days": "Mon-Fri", "time": "4:30pm"}, {"days": "Sat", "time": "3:00pm"}, {"days": "Sun", "time": "Closed"}], "id": "9174600002", "name": "USPS COLLECTION BOX - BLUE BOX", "address": {"city": "LA PUENTE", "state": "CA", "street": "14284 AMAR RD", "postcode": "91746"}}},
{"geometry": {"type": "Point", "coordinates": [-117.9867653899, 34.0332739383]}, "type": "Feature", "properties": {"collection_times": [{"days": "Mon-Sat", "time": "5:00pm"}, {"days": "Sun", "time": "Closed"}], "id": "9174600005", "name": "USPS COLLECTION BOX - BLUE BOX", "address": {"city": "LA PUENTE", "state": "CA", "street": "14250 DON JULIAN RD", "postcode": "91746"}}},
{"geometry": {"type": "Point", "coordinates": [-117.9867653899, 34.0332739383]}, "type": "Feature", "properties": {"collection_times": [{"days": "Mon-Sat", "time": "5:00pm"}, {"days": "Sun", "time": "Closed"}], "id": "9174600006", "name": "USPS COLLECTION BOX - BLUE BOX", "address": {"city": "LA PUENTE", "state": "CA", "street": "14250 DON JULIAN RD", "postcode": "91746"}}},
{"geometry": {"type": "Point", "coordinates": [-117.9617628437, 34.025202212]}, "type": "Feature", "properties": {"collection_times": [{"days": "Mon-Fri", "time": "4:30pm"}, {"days": "Sat", "time": "4:00pm"}, {"days": "Sun", "time": "Closed"}], "id": "9174600007", "name": "USPS COLLECTION BOX - BLUE BOX", "address": {"city": "LA PUENTE", "state": "CA", "street": "15322 VALLEY BLVD", "postcode": "91746"}}},
{"geometry": {"type": "Point", "coordinates": [-117.9732418327, 34.052940763]}, "type": "Feature", "properties": {"collection_times": [{"days": "Mon-Fri", "time": "4:30pm"}, {"days": "Sat", "time": "3:00pm"}, {"days": "Sun", "time": "Closed"}], "id": "9174600010", "name": "USPS COLLECTION BOX - BLUE BOX", "address": {"city": "LA PUENTE", "state": "CA", "street": "13955 AMAR RD", "postcode": "91746"}}},
{"geometry": {"type": "Point", "coordinates": [-117.9949170755, 34.0539606539]}, "type": "Feature", "properties": {"collection_times": [{"days": "Mon-Fri", "time": "4:30pm"}, {"days": "Sat", "time": "3:00pm"}, {"days": "Sun", "time": "Closed"}], "id": "9174600012", "name": "USPS COLLECTION BOX - BLUE BOX", "address": {"city": "LA PUENTE", "state": "CA", "street": "300 BALDWIN PARK BLVD", "postcode": "91746"}}},
{"geometry": {"type": "Point", "coordinates": [-117.9982104333, 34.0409173483]}, "type": "Feature", "properties": {"collection_times": [{"days": "Mon-Sat", "time": "5:00pm"}, {"days": "Sun", "time": "Closed"}], "id": "9174600019", "name": "USPS COLLECTION BOX - BLUE BOX", "address": {"city": "LA PUENTE", "state": "CA", "street": "512 WORKMAN MILL RD", "postcode": "91746"}}},
{"geometry": {"type": "Point", "coordinates": [-118.0228893232, 34.0288026656]}, "type": "Feature", "properties": {"collection_times": [{"days": "Mon-Fri", "time": "4:30pm"}, {"days": "Sat", "time": "4:00pm"}, {"days": "Sun", "time": "Closed"}], "id": "9174600025", "name": "USPS COLLECTION BOX - BLUE BOX", "address": {"city": "LA PUENTE", "state": "CA", "street": "12900 CROSSROADS PKWY S", "postcode": "91746"}}},
{"geometry": {"type": "Point", "coordinates": [-117.951372356, 34.0367048314]}, "type": "Feature", "properties": {"collection_times": [{"days": "Mon-Fri", "time": "5:10pm"}, {"days": "Sat", "time": "5:00pm"}, {"days": "Sun", "time": "Closed"}], "id": "9174700000", "name": "USPS COLLECTION BOX - BLUE BOX", "address": {"city": "LA PUENTE", "state": "CA", "street": "15310 ELLIOTT AVE", "postcode": "91747"}}},
{"geometry": {"type": "Point", "coordinates": [-117.9533484601, 34.0353311759]}, "type": "Feature", "properties": {"collection_times": [{"days": "Mon-Sat", "time": "3:00pm"}, {"days": "Sun", "time": "Closed"}], "id": "9174700001", "name": "USPS COLLECTION BOX - EXPRESS", "address": {"city": "LA PUENTE", "state": "CA", "street": "15310 ELLIOTT AVE", "postcode": "91747"}}},
{"geometry": {"type": "Point", "coordinates": [-117.9097162007, 33.9759150176]}, "type": "Feature", "properties": {"collection_times": [{"days": "Mon-Sat", "time": "1:00pm"}, {"days": "Sun", "time": "Closed"}], "id": "9174800000", "name": "USPS COLLECTION BOX - BLUE BOX", "address": {"city": "CITY INDUSTRY", "state": "CA", "street": "2430 FULLERTON RD", "postcode": "91748"}}},
{"geometry": {"type": "Point", "coordinates": [-117.8978155062, 33.9945490621]}, "type": "Feature", "properties": {"collection_times": [{"days": "Mon-Sat", "time": "4:00pm"}, {"days": "Sun", "time": "Closed"}], "id": "9174800001", "name": "USPS COLLECTION BOX - BLUE BOX", "address": {"city": "CITY INDUSTRY", "state": "CA", "street": "18605 GALE AVE", "postcode": "91748"}}},
{"geometry": {"type": "Point", "coordinates": [-117.9120793829, 33.980020754]}, "type": "Feature", "properties": {"collection_times": [{"days": "Mon-Sat", "time": "12:30pm"}, {"days": "Sun", "time": "Closed"}], "id": "9174800006", "name": "USPS COLLECTION BOX - BLUE BOX", "address": {"city": "CITY INDUSTRY", "state": "CA", "street": "18100 GALATINA ST", "postcode": "91748"}}},
{"geometry": {"type": "Point", "coordinates": [-117.8884898063, 33.9962204268]}, "type": "Feature", "properties": {"collection_times": [{"days": "Mon-Sat", "time": "4:00pm"}, {"days": "Sun", "time": "Closed"}], "id": "9174800007", "name": "USPS COLLECTION BOX - BLUE BOX", "address": {"city": "CITY INDUSTRY", "state": "CA", "street": "1015 NOGALES ST", "postcode": "91748"}}},
{"geometry": {"type": "Point", "coordinates": [-117.8986732836, 33.9763209935]}, "type": "Feature", "properties": {"collection_times": [{"days": "Mon-Fri", "time": "4:00pm"}, {"days": "Sat", "time": "2:00pm"}, {"days": "Sun", "time": "Closed"}], "id": "9174800012", "name": "USPS COLLECTION BOX - BLUE BOX", "address": {"city": "CITY INDUSTRY", "state": "CA", "street": "19600 WALNUT", "postcode": "91748"}}},
{"geometry": {"type": "Point", "coordinates": [-117.8716679992, 33.9861329546]}, "type": "Feature", "properties": {"collection_times": [{"days": "Mon-Fri", "time": "4:00pm"}, {"days": "Sat", "time": "2:00pm"}, {"days": "Sun", "time": "Closed"}], "id": "9174800013", "name": "USPS COLLECTION BOX - BLUE BOX", "address": {"city": "CITY INDUSTRY", "state": "CA", "street": "19740 COLIMA RD", "postcode": "91748"}}},
{"geometry": {"type": "Point", "coordinates": [-117.8856352251, 33.9873209653]}, "type": "Feature", "properties": {"collection_times": [{"days": "Mon-Fri", "time": "4:00pm"}, {"days": "Sat", "time": "2:00pm"}, {"days": "Sun", "time": "Closed"}], "id": "9174800015", "name": "USPS COLLECTION BOX - BLUE BOX", "address": {"city": "CITY INDUSTRY", "state": "CA", "street": "19141 COLIMA RD", "postcode": "91748"}}},
{"geometry": {"type": "Point", "coordinates": [-117.9097546767, 34.0009297864]}, "type": "Feature", "properties": {"collection_times": [{"days": "Mon-Sat", "time": "4:00pm"}, {"days": "Sun", "time": "Closed"}], "id": "9174800018", "name": "USPS COLLECTION BOX - BLUE BOX", "address": {"city": "CITY INDUSTRY", "state": "CA", "street": "18045 ROWLAND ST", "postcode": "91748"}}},
{"geometry": {"type": "Point", "coordinates": [-117.9237480188, 33.9943681784]}, "type": "Feature", "properties": {"collection_times": [{"days": "Mon-Sat", "time": "11:00am"}, {"days": "Sun", "time": "Closed"}], "id": "9174800020", "name": "USPS COLLECTION BOX - BLUE BOX", "address": {"city": "CITY INDUSTRY", "state": "CA", "street": "1500 ALBATROSS RD", "postcode": "91748"}}},
{"geometry": {"type": "Point", "coordinates": [-117.9147787422, 33.9882245922]}, "type": "Feature", "properties": {"collection_times": [{"days": "Mon-Sat", "time": "1:00pm"}, {"days": "Sun", "time": "Closed"}], "id": "9174800024", "name": "USPS COLLECTION BOX - BLUE BOX", "address": {"city": "CITY INDUSTRY", "state": "CA", "street": "1806 CALLE LA PAZ", "postcode": "91748"}}},
{"geometry": {"type": "Point", "coordinates": [-117.8986732836, 33.9763209935]}, "type": "Feature", "properties": {"collection_times": [{"days": "Mon-Fri", "time": "4:00pm"}, {"days": "Sat", "time": "3:00pm"}, {"days": "Sun", "time": "Closed"}], "id": "9174800030", "name": "USPS COLLECTION BOX - BLUE BOX", "address": {"city": "CITY INDUSTRY", "state": "CA", "street": "17800 KEYSTONE", "postcode": "91748"}}},
{"geometry": {"type": "Point", "coordinates": [-117.9096197207, 33.988553995]}, "type": "Feature", "properties": {"collection_times": [{"days": "Mon-Sat", "time": "11:30am"}, {"days": "Sun", "time": "Closed"}], "id": "9174800032", "name": "USPS COLLECTION BOX - BLUE BOX", "address": {"city": "CITY INDUSTRY", "state": "CA", "street": "1800 LARKVANE RD", "postcode": "91748"}}},
{"geometry": {"type": "Point", "coordinates": [-117.9012474992, 33.9851941574]}, "type": "Feature", "properties": {"collection_times": [{"days": "Mon-Fri", "time": "5:00pm"}, {"days": "Sat", "time": "2:00pm"}, {"days": "Sun", "time": "Closed"}], "id": "9174800037", "name": "USPS COLLECTION BOX - EXPRESS", "address": {"city": "CITY INDUSTRY", "state": "CA", "street": "1521 NOGALES ST", "postcode": "91748"}}},
{"geometry": {"type": "Point", "coordinates": [-117.8891664851, 33.9897437629]}, "type": "Feature", "properties": {"collection_times": [{"days": "Mon-Sat", "time": "5:00pm"}, {"days": "Sun", "time": "Closed"}], "id": "9174800038", "name": "USPS COLLECTION BOX - BLUE BOX", "address": {"city": "CITY INDUSTRY", "state": "CA", "street": "1521 NOGALES ST", "postcode": "91748"}}},
{"geometry": {"type": "Point", "coordinates": [-117.8891664851, 33.9897437629]}, "type": "Feature", "properties": {"collection_times": [{"days": "Mon-Sat", "time": "5:00pm"}, {"days": "Sun", "time": "Closed"}], "id": "9174800039", "name": "USPS COLLECTION BOX - BLUE BOX", "address": {"city": "CITY INDUSTRY", "state": "CA", "street": "1521 NOGALES ST", "postcode": "91748"}}},
{"geometry": {"type": "Point", "coordinates": [-117.8892473647, 33.9895914657]}, "type": "Feature", "properties": {"collection_times": [{"days": "Mon-Sat", "time": "5:00pm"}, {"days": "Sun", "time": "Closed"}], "id": "9174800040", "name": "USPS COLLECTION BOX - BLUE BOX", "address": {"city": "CITY INDUSTRY", "state": "CA", "street": "1521 NOGALES ST", "postcode": "91748"}}},
{"geometry": {"type": "Point", "coordinates": [-117.7704889036, 34.1158615078]}, "type": "Feature", "properties": {"collection_times": [{"days": "Mon-Sat", "time": "5:00pm"}, {"days": "Sun", "time": "Closed"}], "id": "9175000002", "name": "USPS COLLECTION BOX - EXPRESS", "address": {"city": "LA VERNE", "state": "CA", "street": "3355 N WHITE AVE", "postcode": "91750"}}},
{"geometry": {"type": "Point", "coordinates": [-117.759742905, 34.1076793765]}, "type": "Feature", "properties": {"collection_times": [{"days": "Mon-Fri", "time": "5:05pm"}, {"days": "Sat", "time": "5:00pm"}, {"days": "Sun", "time": "Closed"}], "id": "9175000003", "name": "USPS COLLECTION BOX - BLUE BOX", "address": {"city": "LA VERNE", "state": "CA", "street": "3355 N WHITE AVE", "postcode": "91750"}}},
{"geometry": {"type": "Point", "coordinates": [-117.7737380549, 34.1062829289]}, "type": "Feature", "properties": {"collection_times": [{"days": "Mon-Fri", "time": "2:00pm"}, {"days": "Sat", "time": "1:30pm"}, {"days": "Sun", "time": "Closed"}], "id": "9175000005", "name": "USPS COLLECTION BOX - BLUE BOX", "address": {"city": "LA VERNE", "state": "CA", "street": "2705 MOUNTAIN VIEW DR", "postcode": "91750"}}},
{"geometry": {"type": "Point", "coordinates": [-117.7705807374, 34.1017119754]}, "type": "Feature", "properties": {"collection_times": [{"days": "Mon-Fri", "time": "2:00pm"}, {"days": "Sat", "time": "1:30pm"}, {"days": "Sun", "time": "Closed"}], "id": "9175000015", "name": "USPS COLLECTION BOX - BLUE BOX", "address": {"city": "LA VERNE", "state": "CA", "street": "2050 BONITA AVE", "postcode": "91750"}}},
{"geometry": {"type": "Point", "coordinates": [-117.7676600117, 34.114237145]}, "type": "Feature", "properties": {"collection_times": [{"days": "Mon-Sat", "time": "1:00pm"}, {"days": "Sun", "time": "Closed"}], "id": "9175000018", "name": "USPS COLLECTION BOX - BLUE BOX", "address": {"city": "LA VERNE", "state": "CA", "street": "1933 FOOTHILL BLVD", "postcode": "91750"}}},
{"geometry": {"type": "Point", "coordinates": [-117.7730785177, 34.0950325383]}, "type": "Feature", "properties": {"collection_times": [{"days": "Mon-Fri", "time": "2:00pm"}, {"days": "Sat", "time": "1:30pm"}, {"days": "Sun", "time": "Closed"}], "id": "9175000025", "name": "USPS COLLECTION BOX - BLUE BOX", "address": {"city": "LA VERNE", "state": "CA", "street": "2058 WRIGHT AVE", "postcode": "91750"}}},
{"geometry": {"type": "Point", "coordinates": [-117.759742905, 34.1076793765]}, "type": "Feature", "properties": {"collection_times": [{"days": "Mon-Fri", "time": "5:05pm"}, {"days": "Sat", "time": "5:00pm"}, {"days": "Sun", "time": "Closed"}], "id": "9175000032", "name": "USPS COLLECTION BOX - APC", "address": {"city": "LA VERNE", "state": "CA", "street": "3355 N WHITE AVE", "postcode": "91750"}}},
{"geometry": {"type": "Point", "coordinates": [-117.759742905, 34.1076793765]}, "type": "Feature", "properties": {"collection_times": [{"days": "Mon-Fri", "time": "5:05pm"}, {"days": "Sat", "time": "5:00pm"}, {"days": "Sun", "time": "Closed"}], "id": "9175000035", "name": "USPS COLLECTION BOX - BLUE BOX", "address": {"city": "LA VERNE", "state": "CA", "street": "3355 N WHITE AVE", "postcode": "91750"}}},
{"geometry": {"type": "Point", "coordinates": [-117.775025701, 34.0987042697]}, "type": "Feature", "properties": {"collection_times": [{"days": "Mon-Sat", "time": "11:30am"}, {"days": "Sun", "time": "Closed"}], "id": "9175000039", "name": "USPS COLLECTION BOX - BLUE BOX", "address": {"city": "LA VERNE", "state": "CA", "street": "1912 ARROW HWY", "postcode": "91750"}}},
{"geometry": {"type": "Point", "coordinates": [-117.5082977143, 34.0230814287]}, "type": "Feature", "properties": {"collection_times": [{"days": "Mon-Fri", "time": "4:00pm"}, {"days": "Sat", "time": "3:15pm"}, {"days": "Sun", "time": "Closed"}], "id": "9175200002", "name": "USPS COLLECTION BOX - BLUE BOX", "address": {"city": "MIRA LOMA", "state": "CA", "street": "10250 COUNTRY CLUB DR", "postcode": "91752"}}},
{"geometry": {"type": "Point", "coordinates": [-117.5194219877, 33.9926987579]}, "type": "Feature", "properties": {"collection_times": [{"days": "Mon-Fri", "time": "5:00pm"}, {"days": "Sat", "time": "3:30pm"}, {"days": "Sun", "time": "Closed"}], "id": "9175200005", "name": "USPS COLLECTION BOX - BLUE BOX", "address": {"city": "MIRA LOMA", "state": "CA", "street": "10798 JURUPA RD", "postcode": "91752"}}},
{"geometry": {"type": "Point", "coordinates": [-117.5194219877, 33.9926987579]}, "type": "Feature", "properties": {"collection_times": [{"days": "Mon-Fri", "time": "5:00pm"}, {"days": "Sat", "time": "3:30pm"}, {"days": "Sun", "time": "Closed"}], "id": "9175200006", "name": "USPS COLLECTION BOX - BLUE BOX", "address": {"city": "MIRA LOMA", "state": "CA", "street": "10798 JURUPA RD", "postcode": "91752"}}},
{"geometry": {"type": "Point", "coordinates": [-117.5194219877, 33.9926987579]}, "type": "Feature", "properties": {"collection_times": [{"days": "Mon-Fri", "time": "5:00pm"}, {"days": "Sat", "time": "3:30pm"}, {"days": "Sun", "time": "Closed"}], "id": "9175200009", "name": "USPS COLLECTION BOX - PO LOBBY", "address": {"city": "MIRA LOMA", "state": "CA", "street": "10798 JURUPA RD", "postcode": "91752"}}},
{"geometry": {"type": "Point", "coordinates": [-117.5334471286, 33.9908035595]}, "type": "Feature", "properties": {"collection_times": [{"days": "Mon-Fri", "time": "5:00pm"}, {"days": "Sat", "time": "3:30pm"}, {"days": "Sun", "time": "Closed"}], "id": "9175200010", "name": "USPS COLLECTION BOX - EXPRESS", "address": {"city": "MIRA LOMA", "state": "CA", "street": "10798 JURUPA RD", "postcode": "91752"}}},
{"geometry": {"type": "Point", "coordinates": [-117.5334471286, 33.9908035595]}, "type": "Feature", "properties": {"collection_times": [{"days": "Mon-Fri", "time": "4:00pm"}, {"days": "Sat", "time": "3:15pm"}, {"days": "Sun", "time": "Closed"}], "id": "9175200011", "name": "USPS COLLECTION BOX - EXPRESS", "address": {"city": "MIRA LOMA", "state": "CA", "street": "11201 IBERIA ST", "postcode": "91752"}}},
{"geometry": {"type": "Point", "coordinates": [-118.122927431, 34.0691510299]}, "type": "Feature", "properties": {"collection_times": [{"days": "Mon-Fri", "time": "3:15pm"}, {"days": "Sat", "time": "3:30pm"}, {"days": "Sun", "time": "Closed"}], "id": "9175400002", "name": "USPS COLLECTION BOX - BLUE BOX", "address": {"city": "MONTEREY PARK", "state": "CA", "street": "616 N GARFIELD AVE", "postcode": "91754"}}},
{"geometry": {"type": "Point", "coordinates": [-118.1229644057, 34.0676296944]}, "type": "Feature", "properties": {"collection_times": [{"days": "Mon-Fri", "time": "3:15pm"}, {"days": "Sat", "time": "3:30pm"}, {"days": "Sun", "time": "Closed"}], "id": "9175400004", "name": "USPS COLLECTION BOX - BLUE BOX", "address": {"city": "MONTEREY PARK", "state": "CA", "street": "525 N GARFIELD AVE", "postcode": "91754"}}},
{"geometry": {"type": "Point", "coordinates": [-118.1254873542, 34.0625643144]}, "type": "Feature", "properties": {"collection_times": [{"days": "Mon-Fri", "time": "5:00pm"}, {"days": "Sat", "time": "3:30pm"}, {"days": "Sun", "time": "Closed"}], "id": "9175400005", "name": "USPS COLLECTION BOX - BLUE BOX", "address": {"city": "MONTEREY PARK", "state": "CA", "street": "245 W GARVEY AVE", "postcode": "91754"}}},
{"geometry": {"type": "Point", "coordinates": [-118.1188272953, 34.0598293133]}, "type": "Feature", "properties": {"collection_times": [{"days": "Mon-Fri", "time": "3:15pm"}, {"days": "Sat", "time": "3:00pm"}, {"days": "Sun", "time": "Closed"}], "id": "9175400009", "name": "USPS COLLECTION BOX - BLUE BOX", "address": {"city": "MONTEREY PARK", "state": "CA", "street": "320 W NEWMARK AVE", "postcode": "91754"}}},
{"geometry": {"type": "Point", "coordinates": [-118.144475748, 34.0386825582]}, "type": "Feature", "properties": {"collection_times": [{"days": "Mon-Fri", "time": "4:00pm"}, {"days": "Sat", "time": "2:30pm"}, {"days": "Sun", "time": "Closed"}], "id": "9175400013", "name": "USPS COLLECTION BOX - BLUE BOX", "address": {"city": "MONTEREY PARK", "state": "CA", "street": "2168 S ATLANTIC BLVD", "postcode": "91754"}}},
{"geometry": {"type": "Point", "coordinates": [-118.1304687944, 34.0363759688]}, "type": "Feature", "properties": {"collection_times": [{"days": "Mon-Fri", "time": "4:30pm"}, {"days": "Sat", "time": "3:00pm"}, {"days": "Sun", "time": "Closed"}], "id": "9175400016", "name": "USPS COLLECTION BOX - BLUE BOX", "address": {"city": "MONTEREY PARK", "state": "CA", "street": "2300 S GARFIELD AVE", "postcode": "91754"}}},
{"geometry": {"type": "Point", "coordinates": [-118.1316999631, 34.033597512]}, "type": "Feature", "properties": {"collection_times": [{"days": "Mon-Fri", "time": "4:30pm"}, {"days": "Sat", "time": "3:00pm"}, {"days": "Sun", "time": "Closed"}], "id": "9175400018", "name": "USPS COLLECTION BOX - BLUE BOX", "address": {"city": "MONTEREY PARK", "state": "CA", "street": "215 W POMONA BLVD", "postcode": "91754"}}},
{"geometry": {"type": "Point", "coordinates": [-118.1389032919, 34.0495032645]}, "type": "Feature", "properties": {"collection_times": [{"days": "Mon-Fri", "time": "4:00pm"}, {"days": "Sat", "time": "2:30pm"}, {"days": "Sun", "time": "Closed"}], "id": "9175400021", "name": "USPS COLLECTION BOX - BLUE BOX", "address": {"city": "MONTEREY PARK", "state": "CA", "street": "900 S ATLANTIC BLVD", "postcode": "91754"}}},
{"geometry": {"type": "Point", "coordinates": [-118.1596713194, 34.0500379619]}, "type": "Feature", "properties": {"collection_times": [{"days": "Mon-Fri", "time": "4:00pm"}, {"days": "Sat", "time": "2:00pm"}, {"days": "Sun", "time": "Closed"}], "id": "9175400025", "name": "USPS COLLECTION BOX - BLUE BOX", "address": {"city": "MONTEREY PARK", "state": "CA", "street": "1110 MONTEREY PASS RD", "postcode": "91754"}}},
{"geometry": {"type": "Point", "coordinates": [-118.1388497799, 34.0531717685]}, "type": "Feature", "properties": {"collection_times": [{"days": "Mon-Fri", "time": "3:15pm"}, {"days": "Sat", "time": "2:00pm"}, {"days": "Sun", "time": "Closed"}], "id": "9175400026", "name": "USPS COLLECTION BOX - EXPRESS", "address": {"city": "MONTEREY PARK", "state": "CA", "street": "705 MONTEREY PASS RD", "postcode": "91754"}}},
{"geometry": {"type": "Point", "coordinates": [-118.1661870574, 34.0589491918]}, "type": "Feature", "properties": {"collection_times": [{"days": "Mon-Fri", "time": "3:15pm"}, {"days": "Sat", "time": "2:00pm"}, {"days": "Sun", "time": "Closed"}], "id": "9175400040", "name": "USPS COLLECTION BOX - BLUE BOX", "address": {"city": "MONTEREY PARK", "state": "CA", "street": "201 CENTRE PLAZA DR", "postcode": "91754"}}},
{"geometry": {"type": "Point", "coordinates": [-118.1678408341, 34.0606845926]}, "type": "Feature", "properties": {"collection_times": [{"days": "Mon-Fri", "time": "3:15pm"}, {"days": "Sat", "time": "2:00pm"}, {"days": "Sun", "time": "Closed"}], "id": "9175400041", "name": "USPS COLLECTION BOX - BLUE BOX", "address": {"city": "MONTEREY PARK", "state": "CA", "street": "4700 W RAMONA BLVD", "postcode": "91754"}}},
{"geometry": {"type": "Point", "coordinates": [-118.1485979697, 34.0427153987]}, "type": "Feature", "properties": {"collection_times": [{"days": "Mon-Fri", "time": "4:00pm"}, {"days": "Sat", "time": "2:30pm"}, {"days": "Sun", "time": "Closed"}], "id": "9175400046", "name": "USPS COLLECTION BOX - BLUE BOX", "address": {"city": "MONTEREY PARK", "state": "CA", "street": "1200 W FLORAL DR", "postcode": "91754"}}},
{"geometry": {"type": "Point", "coordinates": [-118.13423874, 34.0652374927]}, "type": "Feature", "properties": {"collection_times": [{"days": "Mon-Fri", "time": "3:15pm"}, {"days": "Sat", "time": "2:00pm"}, {"days": "Sun", "time": "Closed"}], "id": "9175400052", "name": "USPS COLLECTION BOX - BLUE BOX", "address": {"city": "MONTEREY PARK", "state": "CA", "street": "330 N ATLANTIC BLVD", "postcode": "91754"}}},
{"geometry": {"type": "Point", "coordinates": [-118.1369360311, 34.0527634994]}, "type": "Feature", "properties": {"collection_times": [{"days": "Mon-Fri", "time": "4:00pm"}, {"days": "Sat", "time": "2:30pm"}, {"days": "Sun", "time": "Closed"}], "id": "9175400054", "name": "USPS COLLECTION BOX - BLUE BOX", "address": {"city": "MONTEREY PARK", "state": "CA", "street": "790 S ATLANTIC BLVD", "postcode": "91754"}}},
{"geometry": {"type": "Point", "coordinates": [-118.1363871381, 34.0536873903]}, "type": "Feature", "properties": {"collection_times": [{"days": "Mon-Fri", "time": "4:00pm"}, {"days": "Sat", "time": "2:00pm"}, {"days": "Sun", "time": "Closed"}], "id": "9175400056", "name": "USPS COLLECTION BOX - BLUE BOX", "address": {"city": "MONTEREY PARK", "state": "CA", "street": "701 S ATLANTIC BLVD", "postcode": "91754"}}},
{"geometry": {"type": "Point", "coordinates": [-118.1420511457, 34.0405849368]}, "type": "Feature", "properties": {"collection_times": [{"days": "Mon-Fri", "time": "4:00pm"}, {"days": "Sat", "time": "2:00pm"}, {"days": "Sun", "time": "Closed"}], "id": "9175400063", "name": "USPS COLLECTION BOX - BLUE BOX", "address": {"city": "MONTEREY PARK", "state": "CA", "street": "1995 S ATLANTIC BLVD", "postcode": "91754"}}},
{"geometry": {"type": "Point", "coordinates": [-118.1635313145, 34.0499941925]}, "type": "Feature", "properties": {"collection_times": [{"days": "Mon-Fri", "time": "3:15pm"}, {"days": "Sat", "time": "2:00pm"}, {"days": "Sun", "time": "Closed"}], "id": "9175400064", "name": "USPS COLLECTION BOX - BLUE BOX", "address": {"city": "MONTEREY PARK", "state": "CA", "street": "1100 CORPORATE CENTER DR", "postcode": "91754"}}},
{"geometry": {"type": "Point", "coordinates": [-118.1420511457, 34.0405849368]}, "type": "Feature", "properties": {"collection_times": [{"days": "Mon-Fri", "time": "4:00pm"}, {"days": "Sat", "time": "2:30pm"}, {"days": "Sun", "time": "Closed"}], "id": "9175400065", "name": "USPS COLLECTION BOX - BLUE BOX", "address": {"city": "MONTEREY PARK", "state": "CA", "street": "1995 S ATLANTIC BLVD", "postcode": "91754"}}},
{"geometry": {"type": "Point", "coordinates": [-118.1254873542, 34.0625643144]}, "type": "Feature", "properties": {"collection_times": [{"days": "Mon-Fri", "time": "5:00pm"}, {"days": "Sat", "time": "3:30pm"}, {"days": "Sun", "time": "Closed"}], "id": "9175400089", "name": "USPS COLLECTION BOX - BLUE BOX", "address": {"city": "MONTEREY PARK", "state": "CA", "street": "245 W GARVEY AVE", "postcode": "91754"}}},
{"geometry": {"type": "Point", "coordinates": [-118.1388497799, 34.0531717685]}, "type": "Feature", "properties": {"collection_times": [{"days": "Mon-Fri", "time": "5:00pm"}, {"days": "Sat", "time": "3:30pm"}, {"days": "Sun", "time": "Closed"}], "id": "9175400090", "name": "USPS COLLECTION BOX - EXPRESS", "address": {"city": "MONTEREY PARK", "state": "CA", "street": "245 W GARVEY AVE", "postcode": "91754"}}},
{"geometry": {"type": "Point", "coordinates": [-118.1388497799, 34.0531717685]}, "type": "Feature", "properties": {"collection_times": [{"days": "Mon-Fri", "time": "4:00pm"}, {"days": "Sat", "time": "2:30pm"}, {"days": "Sun", "time": "Closed"}], "id": "9175400091", "name": "USPS COLLECTION BOX - EXPRESS", "address": {"city": "MONTEREY PARK", "state": "CA", "street": "2168 S ATLANTIC BLVD", "postcode": "91754"}}},
{"geometry": {"type": "Point", "coordinates": [-118.1662592179, 34.0468889252]}, "type": "Feature", "properties": {"collection_times": [{"days": "Mon-Fri", "time": "3:15pm"}, {"days": "Sat", "time": "2:00pm"}, {"days": "Sun", "time": "Closed"}], "id": "9175400099", "name": "USPS COLLECTION BOX - BLUE BOX", "address": {"city": "MONTEREY PARK", "state": "CA", "street": "1255 CORPORATE CENTER DR", "postcode": "91754"}}},
{"geometry": {"type": "Point", "coordinates": [-118.164526676, 34.0465258669]}, "type": "Feature", "properties": {"collection_times": [{"days": "Mon-Fri", "time": "3:15pm"}, {"days": "Sat", "time": "2:00pm"}, {"days": "Sun", "time": "Closed"}], "id": "9175400100", "name": "USPS COLLECTION BOX - BLUE BOX", "address": {"city": "MONTEREY PARK", "state": "CA", "street": "2540 CORPORATE PL", "postcode": "91754"}}},
{"geometry": {"type": "Point", "coordinates": [-118.1254873542, 34.0625643144]}, "type": "Feature", "properties": {"collection_times": [{"days": "Mon-Fri", "time": "5:00pm"}, {"days": "Sat", "time": "3:30pm"}, {"days": "Sun", "time": "Closed"}], "id": "9175400105", "name": "USPS COLLECTION BOX - BLUE BOX", "address": {"city": "MONTEREY PARK", "state": "CA", "street": "245 W GARVEY AVE", "postcode": "91754"}}},
{"geometry": {"type": "Point", "coordinates": [-118.1485979697, 34.0427153987]}, "type": "Feature", "properties": {"collection_times": [{"days": "Mon-Fri", "time": "4:00pm"}, {"days": "Sat", "time": "2:30pm"}, {"days": "Sun", "time": "Closed"}], "id": "9175400106", "name": "USPS COLLECTION BOX - BLUE BOX", "address": {"city": "MONTEREY PARK", "state": "CA", "street": "1200 W FLORAL DR", "postcode": "91754"}}},
{"geometry": {"type": "Point", "coordinates": [-118.1254873542, 34.0625643144]}, "type": "Feature", "properties": {"collection_times": [{"days": "Mon-Fri", "time": "5:00pm"}, {"days": "Sat", "time": "3:30pm"}, {"days": "Sun", "time": "Closed"}], "id": "9175400108", "name": "USPS COLLECTION BOX - BLUE BOX", "address": {"city": "MONTEREY PARK", "state": "CA", "street": "245 W GARVEY AVE", "postcode": "91754"}}},
{"geometry": {"type": "Point", "coordinates": [-118.1625849474, 34.0507406396]}, "type": "Feature", "properties": {"collection_times": [{"days": "Mon-Fri", "time": "3:15pm"}, {"days": "Sat", "time": "2:00pm"}, {"days": "Sun", "time": "Closed"}], "id": "9175400111", "name": "USPS COLLECTION BOX - BLUE BOX", "address": {"city": "MONTEREY PARK", "state": "CA", "street": "1000 CORPORATE CENTER DR", "postcode": "91754"}}},
{"geometry": {"type": "Point", "coordinates": [-118.1254873542, 34.0625643144]}, "type": "Feature", "properties": {"collection_times": [{"days": "Mon-Fri", "time": "5:00pm"}, {"days": "Sat", "time": "3:30pm"}, {"days": "Sun", "time": "Closed"}], "id": "9175400114", "name": "USPS COLLECTION BOX - APC", "address": {"city": "MONTEREY PARK", "state": "CA", "street": "245 W GARVEY AVE", "postcode": "91754"}}},
{"geometry": {"type": "Point", "coordinates": [-118.1075572452, 34.0626364749]}, "type": "Feature", "properties": {"collection_times": [{"days": "Mon-Fri", "time": "4:30pm"}, {"days": "Sat", "time": "3:00pm"}, {"days": "Sun", "time": "Closed"}], "id": "9175500005", "name": "USPS COLLECTION BOX - BLUE BOX", "address": {"city": "MONTEREY PARK", "state": "CA", "street": "1101 E GARVEY AVE", "postcode": "91755"}}},
{"geometry": {"type": "Point", "coordinates": [-118.1169392927, 34.0368290421]}, "type": "Feature", "properties": {"collection_times": [{"days": "Mon-Fri", "time": "4:30pm"}, {"days": "Sat", "time": "3:00pm"}, {"days": "Sun", "time": "Closed"}], "id": "9175500010", "name": "USPS COLLECTION BOX - BLUE BOX", "address": {"city": "MONTEREY PARK", "state": "CA", "street": "521 ATLAS ST", "postcode": "91755"}}},
{"geometry": {"type": "Point", "coordinates": [-118.1136944363, 34.0397580485]}, "type": "Feature", "properties": {"collection_times": [{"days": "Mon-Fri", "time": "4:30pm"}, {"days": "Sat", "time": "3:00pm"}, {"days": "Sun", "time": "Closed"}], "id": "9175500022", "name": "USPS COLLECTION BOX - BLUE BOX", "address": {"city": "MONTEREY PARK", "state": "CA", "street": "1977 SATURN ST", "postcode": "91755"}}},
{"geometry": {"type": "Point", "coordinates": [-117.6585190346, 34.2365066006]}, "type": "Feature", "properties": {"collection_times": [{"days": "Mon-Sat", "time": "10:15am"}, {"days": "Sun", "time": "Closed"}], "id": "9175900001", "name": "USPS COLLECTION BOX - BLUE BOX", "address": {"city": "MT BALDY", "state": "CA", "street": "6730 MT BALDY RD", "postcode": "91759"}}},
{"geometry": {"type": "Point", "coordinates": [-117.6585190346, 34.2365066006]}, "type": "Feature", "properties": {"collection_times": [{"days": "Mon-Sat", "time": "10:15am"}, {"days": "Sun", "time": "Closed"}], "id": "9175900003", "name": "USPS COLLECTION BOX - PO LOBBY", "address": {"city": "MT BALDY", "state": "CA", "street": "6730 MT BALDY RD", "postcode": "91759"}}},
{"geometry": {"type": "Point", "coordinates": [-117.62845, 34.027813]}, "type": "Feature", "properties": {"collection_times": [{"days": "Mon-Fri", "time": "1:00pm"}, {"days": "Sat", "time": "12:00pm"}, {"days": "Sun", "time": "Closed"}], "id": "9176100041", "name": "USPS COLLECTION BOX - BLUE BOX", "address": {"city": "ONTARIO", "state": "CA", "street": "2526 SOUTH GROVE", "postcode": "91761"}}},
{"geometry": {"type": "Point", "coordinates": [-117.5601399684, 34.0553723723]}, "type": "Feature", "properties": {"collection_times": [{"days": "Mon-Fri", "time": "3:00pm"}, {"days": "Sat", "time": "12:00pm"}, {"days": "Sun", "time": "Closed"}], "id": "9176100051", "name": "USPS COLLECTION BOX - BLUE BOX", "address": {"city": "ONTARIO", "state": "CA", "street": "4300 SANTA ANA ST", "postcode": "91761"}}},
{"geometry": {"type": "Point", "coordinates": [-117.600808926, 34.033878403]}, "type": "Feature", "properties": {"collection_times": [{"days": "Mon-Fri", "time": "1:30pm"}, {"days": "Sat", "time": "12:00pm"}, {"days": "Sun", "time": "Closed"}], "id": "9176100052", "name": "USPS COLLECTION BOX - BLUE BOX", "address": {"city": "ONTARIO", "state": "CA", "street": "2313 E PHILADELPHIA ST", "postcode": "91761"}}},
{"geometry": {"type": "Point", "coordinates": [-117.5932930432, 34.0269986531]}, "type": "Feature", "properties": {"collection_times": [{"days": "Mon-Fri", "time": "1:00pm"}, {"days": "Sat", "time": "12:00pm"}, {"days": "Sun", "time": "Closed"}], "id": "9176100057", "name": "USPS COLLECTION BOX - BLUE BOX", "address": {"city": "ONTARIO", "state": "CA", "street": "2598 S ARCHIBALD AVE", "postcode": "91761"}}},
{"geometry": {"type": "Point", "coordinates": [-117.6110365431, 34.0412018468]}, "type": "Feature", "properties": {"collection_times": [{"days": "Mon-Fri", "time": "1:30pm"}, {"days": "Sat", "time": "12:00pm"}, {"days": "Sun", "time": "Closed"}], "id": "9176100058", "name": "USPS COLLECTION BOX - BLUE BOX", "address": {"city": "ONTARIO", "state": "CA", "street": "1800 S VINEYARD AVE", "postcode": "91761"}}},
{"geometry": {"type": "Point", "coordinates": [-117.637243094, 34.038560298]}, "type": "Feature", "properties": {"collection_times": [{"days": "Mon-Sat", "time": "1:00pm"}, {"days": "Sun", "time": "Closed"}], "id": "9176100064", "name": "USPS COLLECTION BOX - BLUE BOX", "address": {"city": "ONTARIO", "state": "CA", "street": "1930 S BON VIEW AVE", "postcode": "91761"}}},
{"geometry": {"type": "Point", "coordinates": [-117.6204643904, 34.063495986]}, "type": "Feature", "properties": {"collection_times": [{"days": "Mon-Fri", "time": "5:20pm"}, {"days": "Sat", "time": "4:00pm"}, {"days": "Sun", "time": "Closed"}], "id": "9176100069", "name": "USPS COLLECTION BOX - BLUE BOX", "address": {"city": "ONTARIO", "state": "CA", "street": "1555 E HOLT BLVD", "postcode": "91761"}}},
{"geometry": {"type": "Point", "coordinates": [-117.6066778513, 34.0371734582]}, "type": "Feature", "properties": {"collection_times": [{"days": "Mon-Fri", "time": "5:00pm"}, {"days": "Sat", "time": "4:00pm"}, {"days": "Sun", "time": "Closed"}], "id": "9176100070", "name": "USPS COLLECTION BOX - EXPRESS", "address": {"city": "ONTARIO", "state": "CA", "street": "1555 E HOLT BLVD", "postcode": "91761"}}},
{"geometry": {"type": "Point", "coordinates": [-117.6204643904, 34.063495986]}, "type": "Feature", "properties": {"collection_times": [{"days": "Mon-Fri", "time": "5:20pm"}, {"days": "Sat", "time": "4:00pm"}, {"days": "Sun", "time": "Closed"}], "id": "9176100071", "name": "USPS COLLECTION BOX - BLUE BOX", "address": {"city": "ONTARIO", "state": "CA", "street": "1555 E HOLT BLVD", "postcode": "91761"}}},
{"geometry": {"type": "Point", "coordinates": [-117.62845, 34.027813]}, "type": "Feature", "properties": {"collection_times": [{"days": "Mon-Fri", "time": "1:00pm"}, {"days": "Sat", "time": "12:00pm"}, {"days": "Sun", "time": "Closed"}], "id": "9176100079", "name": "USPS COLLECTION BOX - BLUE BOX", "address": {"city": "ONTARIO", "state": "CA", "street": "2526 SOUTH GROVE", "postcode": "91761"}}},
{"geometry": {"type": "Point", "coordinates": [-117.6110365431, 34.0412018468]}, "type": "Feature", "properties": {"collection_times": [{"days": "Mon-Fri", "time": "1:30pm"}, {"days": "Sat", "time": "12:00pm"}, {"days": "Sun", "time": "Closed"}], "id": "9176100088", "name": "USPS COLLECTION BOX - BLUE BOX", "address": {"city": "ONTARIO", "state": "CA", "street": "1800 S VINEYARD AVE", "postcode": "91761"}}},
{"geometry": {"type": "Point", "coordinates": [-117.578978038, 34.0660891606]}, "type": "Feature", "properties": {"collection_times": [{"days": "Mon-Fri", "time": "3:00pm"}, {"days": "Sat-Sun", "time": "Closed"}], "id": "9176100094", "name": "USPS COLLECTION BOX - BLUE BOX", "address": {"city": "ONTARIO", "state": "CA", "street": "3450 CENTRE LAKE DR", "postcode": "91761"}}},
{"geometry": {"type": "Point", "coordinates": [-117.60658549, 34.0448110103]}, "type": "Feature", "properties": {"collection_times": [{"days": "Mon-Fri", "time": "1:30pm"}, {"days": "Sat", "time": "12:00pm"}, {"days": "Sun", "time": "Closed"}], "id": "9176100096", "name": "USPS COLLECTION BOX - BLUE BOX", "address": {"city": "ONTARIO", "state": "CA", "street": "1600 S CARLOS AVE", "postcode": "91761"}}},
{"geometry": {"type": "Point", "coordinates": [-117.5846371095, 34.0401810926]}, "type": "Feature", "properties": {"collection_times": [{"days": "Mon-Fri", "time": "5:00pm"}, {"days": "Sat", "time": "12:00pm"}, {"days": "Sun", "time": "Closed"}], "id": "9176100106", "name": "USPS COLLECTION BOX - BLUE BOX", "address": {"city": "ONTARIO", "state": "CA", "street": "323 W TURNER AVE", "postcode": "91761"}}},
{"geometry": {"type": "Point", "coordinates": [-117.6204643904, 34.063495986]}, "type": "Feature", "properties": {"collection_times": [{"days": "Mon-Fri", "time": "5:20pm"}, {"days": "Sat", "time": "4:00pm"}, {"days": "Sun", "time": "Closed"}], "id": "9176100113", "name": "USPS COLLECTION BOX - APC", "address": {"city": "ONTARIO", "state": "CA", "street": "1555 E HOLT BLVD", "postcode": "91761"}}},
{"geometry": {"type": "Point", "coordinates": [-117.6700464305, 34.078381018]}, "type": "Feature", "properties": {"collection_times": [{"days": "Mon-Fri", "time": "5:00pm"}, {"days": "Sat", "time": "4:00pm"}, {"days": "Sun", "time": "Closed"}], "id": "9176200000", "name": "USPS COLLECTION BOX - BLUE BOX", "address": {"city": "ONTARIO", "state": "CA", "street": "1126 N MOUNTAIN AVE", "postcode": "91762"}}},
{"geometry": {"type": "Point", "coordinates": [-117.6515148904, 34.0633318445]}, "type": "Feature", "properties": {"collection_times": [{"days": "Mon-Fri", "time": "5:00pm"}, {"days": "Sat", "time": "4:00pm"}, {"days": "Sun", "time": "Closed"}], "id": "9176200011", "name": "USPS COLLECTION BOX - BLUE BOX", "address": {"city": "ONTARIO", "state": "CA", "street": "123 W HOLT BLVD", "postcode": "91762"}}},
{"geometry": {"type": "Point", "coordinates": [-117.663297618, 34.0578035443]}, "type": "Feature", "properties": {"collection_times": [{"days": "Mon-Fri", "time": "5:00pm"}, {"days": "Sat", "time": "4:00pm"}, {"days": "Sun", "time": "Closed"}], "id": "9176200016", "name": "USPS COLLECTION BOX - EXPRESS", "address": {"city": "ONTARIO", "state": "CA", "street": "123 W HOLT BLVD", "postcode": "91762"}}},
{"geometry": {"type": "Point", "coordinates": [-117.6700464305, 34.078381018]}, "type": "Feature", "properties": {"collection_times": [{"days": "Mon-Fri", "time": "5:00pm"}, {"days": "Sat", "time": "4:00pm"}, {"days": "Sun", "time": "Closed"}], "id": "9176200021", "name": "USPS COLLECTION BOX - BLUE BOX", "address": {"city": "ONTARIO", "state": "CA", "street": "1126 N MOUNTAIN AVE", "postcode": "91762"}}},
{"geometry": {"type": "Point", "coordinates": [-117.6700771277, 34.0783925111]}, "type": "Feature", "properties": {"collection_times": [{"days": "Mon-Fri", "time": "5:00pm"}, {"days": "Sat", "time": "4:00pm"}, {"days": "Sun", "time": "Closed"}], "id": "9176200022", "name": "USPS COLLECTION BOX - EXPRESS", "address": {"city": "ONTARIO", "state": "CA", "street": "1126 N MOUNTAIN AVE", "postcode": "91762"}}},
{"geometry": {"type": "Point", "coordinates": [-117.670799061, 34.056127543]}, "type": "Feature", "properties": {"collection_times": [{"days": "Mon-Fri", "time": "12:00pm"}, {"days": "Sat", "time": "11:30am"}, {"days": "Sun", "time": "Closed"}], "id": "9176200032", "name": "USPS COLLECTION BOX - BLUE BOX", "address": {"city": "ONTARIO", "state": "CA", "street": "1118 W MISSION BLVD", "postcode": "91762"}}},
{"geometry": {"type": "Point", "coordinates": [-117.6921400502, 34.0744148992]}, "type": "Feature", "properties": {"collection_times": [{"days": "Mon-Fri", "time": "5:00pm"}, {"days": "Sat", "time": "4:15pm"}, {"days": "Sun", "time": "Closed"}], "id": "9176300001", "name": "USPS COLLECTION BOX - BLUE BOX", "address": {"city": "MONTCLAIR", "state": "CA", "street": "5186 BENITO ST", "postcode": "91763"}}},
{"geometry": {"type": "Point", "coordinates": [-117.6894889686, 34.0923830921]}, "type": "Feature", "properties": {"collection_times": [{"days": "Mon-Sat", "time": "12:30pm"}, {"days": "Sun", "time": "Closed"}], "id": "9176300010", "name": "USPS COLLECTION BOX - BLUE BOX", "address": {"city": "MONTCLAIR", "state": "CA", "street": "5300 ARROW HWY", "postcode": "91763"}}},
{"geometry": {"type": "Point", "coordinates": [-117.6993177136, 34.0718422571]}, "type": "Feature", "properties": {"collection_times": [{"days": "Mon-Fri", "time": "1:30pm"}, {"days": "Sat", "time": "12:30pm"}, {"days": "Sun", "time": "Closed"}], "id": "9176300011", "name": "USPS COLLECTION BOX - EXPRESS", "address": {"city": "MONTCLAIR", "state": "CA", "street": "4994 HOLT BLVD", "postcode": "91763"}}},
{"geometry": {"type": "Point", "coordinates": [-117.6969237974, 34.0813272266]}, "type": "Feature", "properties": {"collection_times": [{"days": "Mon-Fri", "time": "1:30pm"}, {"days": "Sat", "time": "12:30pm"}, {"days": "Sun", "time": "Closed"}], "id": "9176300024", "name": "USPS COLLECTION BOX - BLUE BOX", "address": {"city": "MONTCLAIR", "state": "CA", "street": "4959 PALO VERDE ST", "postcode": "91763"}}},
{"geometry": {"type": "Point", "coordinates": [-117.6921339966, 34.0740378334]}, "type": "Feature", "properties": {"collection_times": [{"days": "Mon-Fri", "time": "5:00pm"}, {"days": "Sat", "time": "4:15pm"}, {"days": "Sun", "time": "Closed"}], "id": "9176300025", "name": "USPS COLLECTION BOX - EXPRESS", "address": {"city": "MONTCLAIR", "state": "CA", "street": "5186 BENITO ST", "postcode": "91763"}}},
{"geometry": {"type": "Point", "coordinates": [-117.6921339966, 34.0740378334]}, "type": "Feature", "properties": {"collection_times": [{"days": "Mon-Fri", "time": "5:00pm"}, {"days": "Sat", "time": "4:15pm"}, {"days": "Sun", "time": "Closed"}], "id": "9176300026", "name": "USPS COLLECTION BOX - BLUE BOX", "address": {"city": "MONTCLAIR", "state": "CA", "street": "5186 BENITO ST", "postcode": "91763"}}},
{"geometry": {"type": "Point", "coordinates": [-117.7037092501, 34.0925641538]}, "type": "Feature", "properties": {"collection_times": [{"days": "Mon-Sat", "time": "12:30pm"}, {"days": "Sun", "time": "Closed"}], "id": "9176300030", "name": "USPS COLLECTION BOX - BLUE BOX", "address": {"city": "MONTCLAIR", "state": "CA", "street": "4650 ARROW HWY", "postcode": "91763"}}},
{"geometry": {"type": "Point", "coordinates": [-117.5783439908, 34.0718481764]}, "type": "Feature", "properties": {"collection_times": [{"days": "Mon-Fri", "time": "3:00pm"}, {"days": "Sat-Sun", "time": "Closed"}], "id": "9176400020", "name": "USPS COLLECTION BOX - BLUE BOX", "address": {"city": "ONTARIO", "state": "CA", "street": "3400 INLAND EMPIRE BLVD", "postcode": "91764"}}},
{"geometry": {"type": "Point", "coordinates": [-117.611872032, 34.0776330139]}, "type": "Feature", "properties": {"collection_times": [{"days": "Mon-Fri", "time": "2:00pm"}, {"days": "Sat-Sun", "time": "Closed"}], "id": "9176400027", "name": "USPS COLLECTION BOX - BLUE BOX", "address": {"city": "ONTARIO", "state": "CA", "street": "1871 E 4TH ST", "postcode": "91764"}}},
{"geometry": {"type": "Point", "coordinates": [-117.8103908554, 34.0215570419]}, "type": "Feature", "properties": {"collection_times": [{"days": "Mon-Sat", "time": "12:00pm"}, {"days": "Sun", "time": "Closed"}], "id": "9176500002", "name": "USPS COLLECTION BOX - BLUE BOX", "address": {"city": "POMONA", "state": "CA", "street": "240 S DIAMOND BAR BLVD", "postcode": "91765"}}},
{"geometry": {"type": "Point", "coordinates": [-117.8087784824, 34.0319517023]}, "type": "Feature", "properties": {"collection_times": [{"days": "Mon-Fri", "time": "1:30pm"}, {"days": "Sat", "time": "12:00pm"}, {"days": "Sun", "time": "Closed"}], "id": "9176500003", "name": "USPS COLLECTION BOX - BLUE BOX", "address": {"city": "POMONA", "state": "CA", "street": "660 N DIAMOND BAR BLVD", "postcode": "91765"}}},
{"geometry": {"type": "Point", "coordinates": [-117.8127150343, 33.9984417353]}, "type": "Feature", "properties": {"collection_times": [{"days": "Mon-Fri", "time": "5:00pm"}, {"days": "Sat", "time": "4:05pm"}, {"days": "Sun", "time": "Closed"}], "id": "9176500006", "name": "USPS COLLECTION BOX - BLUE BOX", "address": {"city": "POMONA", "state": "CA", "street": "1317 S DIAMOND BAR BLVD", "postcode": "91765"}}},
{"geometry": {"type": "Point", "coordinates": [-117.8105233734, 34.0017181132]}, "type": "Feature", "properties": {"collection_times": [{"days": "Mon-Fri", "time": "12:30pm"}, {"days": "Sat", "time": "12:00pm"}, {"days": "Sun", "time": "Closed"}], "id": "9176500010", "name": "USPS COLLECTION BOX - BLUE BOX", "address": {"city": "POMONA", "state": "CA", "street": "1160 S DIAMOND BAR BLVD", "postcode": "91765"}}},
{"geometry": {"type": "Point", "coordinates": [-117.7972375724, 34.0325877083]}, "type": "Feature", "properties": {"collection_times": [{"days": "Mon-Sat", "time": "12:00pm"}, {"days": "Sun", "time": "Closed"}], "id": "9176500012", "name": "USPS COLLECTION BOX - BLUE BOX", "address": {"city": "POMONA", "state": "CA", "street": "700 GOLDEN SPRINGS DR", "postcode": "91765"}}},
{"geometry": {"type": "Point", "coordinates": [-117.8384341947, 33.9734428474]}, "type": "Feature", "properties": {"collection_times": [{"days": "Mon-Sat", "time": "12:30pm"}, {"days": "Sun", "time": "Closed"}], "id": "9176500013", "name": "USPS COLLECTION BOX - BLUE BOX", "address": {"city": "POMONA", "state": "CA", "street": "2835 S DIAMOND BAR BLVD", "postcode": "91765"}}},
{"geometry": {"type": "Point", "coordinates": [-117.8087784824, 34.0319517023]}, "type": "Feature", "properties": {"collection_times": [{"days": "Mon-Fri", "time": "1:30pm"}, {"days": "Sat", "time": "12:00pm"}, {"days": "Sun", "time": "Closed"}], "id": "9176500017", "name": "USPS COLLECTION BOX - BLUE BOX", "address": {"city": "POMONA", "state": "CA", "street": "660 N DIAMOND BAR BLVD", "postcode": "91765"}}},
{"geometry": {"type": "Point", "coordinates": [-117.8097815321, 34.0302553588]}, "type": "Feature", "properties": {"collection_times": [{"days": "Mon-Fri", "time": "1:30pm"}, {"days": "Sat", "time": "12:00pm"}, {"days": "Sun", "time": "Closed"}], "id": "9176500018", "name": "USPS COLLECTION BOX - BLUE BOX", "address": {"city": "POMONA", "state": "CA", "street": "556 N DIAMOND BAR BLVD", "postcode": "91765"}}},
{"geometry": {"type": "Point", "coordinates": [-117.8130814973, 33.9978514658]}, "type": "Feature", "properties": {"collection_times": [{"days": "Mon-Fri", "time": "5:00pm"}, {"days": "Sat", "time": "4:05pm"}, {"days": "Sun", "time": "Closed"}], "id": "9176500019", "name": "USPS COLLECTION BOX - BLUE BOX", "address": {"city": "POMONA", "state": "CA", "street": "1317 S DIAMOND BAR BLVD", "postcode": "91765"}}},
{"geometry": {"type": "Point", "coordinates": [-117.8163765067, 34.0018702885]}, "type": "Feature", "properties": {"collection_times": [{"days": "Mon-Fri", "time": "5:00pm"}, {"days": "Sat", "time": "4:05pm"}, {"days": "Sun", "time": "Closed"}], "id": "9176500020", "name": "USPS COLLECTION BOX - EXPRESS", "address": {"city": "POMONA", "state": "CA", "street": "1317 S DIAMOND BAR BLVD", "postcode": "91765"}}},
{"geometry": {"type": "Point", "coordinates": [-117.8127150343, 33.9984417353]}, "type": "Feature", "properties": {"collection_times": [{"days": "Mon-Fri", "time": "5:00pm"}, {"days": "Sat", "time": "4:05pm"}, {"days": "Sun", "time": "Closed"}], "id": "9176500022", "name": "USPS COLLECTION BOX - BLUE BOX", "address": {"city": "POMONA", "state": "CA", "street": "1317 S DIAMOND BAR BLVD", "postcode": "91765"}}},
{"geometry": {"type": "Point", "coordinates": [-117.8447723748, 33.9857405933]}, "type": "Feature", "properties": {"collection_times": [{"days": "Mon-Sat", "time": "12:30pm"}, {"days": "Sun", "time": "Closed"}], "id": "9176500024", "name": "USPS COLLECTION BOX - BLUE BOX", "address": {"city": "POMONA", "state": "CA", "street": "1950 S BREA CANYON RD", "postcode": "91765"}}},
{"geometry": {"type": "Point", "coordinates": [-117.8206885132, 34.0072314088]}, "type": "Feature", "properties": {"collection_times": [{"days": "Mon-Sat", "time": "12:30pm"}, {"days": "Sun", "time": "Closed"}], "id": "9176500027", "name": "USPS COLLECTION BOX - BLUE BOX", "address": {"city": "POMONA", "state": "CA", "street": "22640 GOLDEN SPRINGS DR", "postcode": "91765"}}},
{"geometry": {"type": "Point", "coordinates": [-117.8206885132, 34.0072314088]}, "type": "Feature", "properties": {"collection_times": [{"days": "Mon-Sat", "time": "12:30pm"}, {"days": "Sun", "time": "Closed"}], "id": "9176500028", "name": "USPS COLLECTION BOX - BLUE BOX", "address": {"city": "POMONA", "state": "CA", "street": "22640 GOLDEN SPRINGS DR", "postcode": "91765"}}},
{"geometry": {"type": "Point", "coordinates": [-117.8341529522, 33.9981912364]}, "type": "Feature", "properties": {"collection_times": [{"days": "Mon-Sat", "time": "12:30pm"}, {"days": "Sun", "time": "Closed"}], "id": "9176500029", "name": "USPS COLLECTION BOX - BLUE BOX", "address": {"city": "POMONA", "state": "CA", "street": "21660 COPLEY DR", "postcode": "91765"}}},
{"geometry": {"type": "Point", "coordinates": [-117.8087784824, 34.0319517023]}, "type": "Feature", "properties": {"collection_times": [{"days": "Mon-Fri", "time": "1:30pm"}, {"days": "Sat", "time": "12:00pm"}, {"days": "Sun", "time": "Closed"}], "id": "9176500035", "name": "USPS COLLECTION BOX - BLUE BOX", "address": {"city": "POMONA", "state": "CA", "street": "660 N DIAMOND BAR BLVD", "postcode": "91765"}}},
{"geometry": {"type": "Point", "coordinates": [-117.8130814973, 33.9978514658]}, "type": "Feature", "properties": {"collection_times": [{"days": "Mon-Fri", "time": "5:00pm"}, {"days": "Sat", "time": "3:00pm"}, {"days": "Sun", "time": "Closed"}], "id": "9176500036", "name": "USPS COLLECTION BOX - APC", "address": {"city": "POMONA", "state": "CA", "street": "1317 S DIAMOND BAR BLVD", "postcode": "91765"}}},
{"geometry": {"type": "Point", "coordinates": [-117.7544617385, 34.0563608776]}, "type": "Feature", "properties": {"collection_times": [{"days": "Mon-Sat", "time": "12:00pm"}, {"days": "Sun", "time": "Closed"}], "id": "9176600003", "name": "USPS COLLECTION BOX - BLUE BOX", "address": {"city": "POMONA", "state": "CA", "street": "300 S PARK AVE W", "postcode": "91766"}}},
{"geometry": {"type": "Point", "coordinates": [-117.7527696054, 34.0549492542]}, "type": "Feature", "properties": {"collection_times": [{"days": "Mon-Sat", "time": "12:00pm"}, {"days": "Sun", "time": "Closed"}], "id": "9176600004", "name": "USPS COLLECTION BOX - BLUE BOX", "address": {"city": "POMONA", "state": "CA", "street": "350 W MISSION BLVD", "postcode": "91766"}}},
{"geometry": {"type": "Point", "coordinates": [-117.7544617385, 34.0563608776]}, "type": "Feature", "properties": {"collection_times": [{"days": "Mon-Sat", "time": "12:00pm"}, {"days": "Sun", "time": "Closed"}], "id": "9176600007", "name": "USPS COLLECTION BOX - BLUE BOX", "address": {"city": "POMONA", "state": "CA", "street": "300 S PARK AVE W", "postcode": "91766"}}},
{"geometry": {"type": "Point", "coordinates": [-117.7544617385, 34.0563608776]}, "type": "Feature", "properties": {"collection_times": [{"days": "Mon-Sat", "time": "12:00pm"}, {"days": "Sun", "time": "Closed"}], "id": "9176600008", "name": "USPS COLLECTION BOX - BLUE BOX", "address": {"city": "POMONA", "state": "CA", "street": "300 S PARK AVE W", "postcode": "91766"}}},
{"geometry": {"type": "Point", "coordinates": [-117.7540182763, 34.0336713266]}, "type": "Feature", "properties": {"collection_times": [{"days": "Mon-Sat", "time": "12:00pm"}, {"days": "Sun", "time": "Closed"}], "id": "9176600019", "name": "USPS COLLECTION BOX - BLUE BOX", "address": {"city": "POMONA", "state": "CA", "street": "75 RIO RANCHO RD", "postcode": "91766"}}},
{"geometry": {"type": "Point", "coordinates": [-117.7491750949, 34.0329808766]}, "type": "Feature", "properties": {"collection_times": [{"days": "Mon-Fri", "time": "12:01pm"}, {"days": "Sat", "time": "12:00pm"}, {"days": "Sun", "time": "Closed"}], "id": "9176600021", "name": "USPS COLLECTION BOX - BLUE BOX", "address": {"city": "POMONA", "state": "CA", "street": "2102 S GAREY AVE", "postcode": "91766"}}},
{"geometry": {"type": "Point", "coordinates": [-117.7540182763, 34.0336713266]}, "type": "Feature", "properties": {"collection_times": [{"days": "Mon-Sat", "time": "12:00pm"}, {"days": "Sun", "time": "Closed"}], "id": "9176600152", "name": "USPS COLLECTION BOX - BLUE BOX", "address": {"city": "POMONA", "state": "CA", "street": "75 RIO RANCHO RD", "postcode": "91766"}}},
{"geometry": {"type": "Point", "coordinates": [-117.7521206507, 34.0686654965]}, "type": "Feature", "properties": {"collection_times": [{"days": "Mon-Fri", "time": "12:00pm"}, {"days": "Sat", "time": "2:15pm"}, {"days": "Sun", "time": "Closed"}], "id": "9176700001", "name": "USPS COLLECTION BOX - BLUE BOX", "address": {"city": "POMONA", "state": "CA", "street": "1095 N GAREY AVE", "postcode": "91767"}}},
{"geometry": {"type": "Point", "coordinates": [-117.7505421637, 34.075454846]}, "type": "Feature", "properties": {"collection_times": [{"days": "Mon-Fri", "time": "12:00pm"}, {"days": "Sat", "time": "2:00pm"}, {"days": "Sun", "time": "Closed"}], "id": "9176700002", "name": "USPS COLLECTION BOX - BLUE BOX", "address": {"city": "POMONA", "state": "CA", "street": "160 E ARTESIA ST", "postcode": "91767"}}},
{"geometry": {"type": "Point", "coordinates": [-117.7489597964, 34.0769763035]}, "type": "Feature", "properties": {"collection_times": [{"days": "Mon-Fri", "time": "12:00pm"}, {"days": "Sat", "time": "2:00pm"}, {"days": "Sun", "time": "Closed"}], "id": "9176700003", "name": "USPS COLLECTION BOX - BLUE BOX", "address": {"city": "POMONA", "state": "CA", "street": "1818 N ORANGE GROVE AVE", "postcode": "91767"}}},
{"geometry": {"type": "Point", "coordinates": [-117.7192871097, 34.0639378793]}, "type": "Feature", "properties": {"collection_times": [{"days": "Mon-Fri", "time": "1:30pm"}, {"days": "Sat", "time": "12:30pm"}, {"days": "Sun", "time": "Closed"}], "id": "9176700008", "name": "USPS COLLECTION BOX - BLUE BOX", "address": {"city": "POMONA", "state": "CA", "street": "1605 E HOLT AVE", "postcode": "91767"}}},
{"geometry": {"type": "Point", "coordinates": [-117.7373311525, 34.0988242808]}, "type": "Feature", "properties": {"collection_times": [{"days": "Mon-Fri", "time": "1:00pm"}, {"days": "Sat", "time": "12:30pm"}, {"days": "Sun", "time": "Closed"}], "id": "9176700010", "name": "USPS COLLECTION BOX - BLUE BOX", "address": {"city": "POMONA", "state": "CA", "street": "900 E HARRISON AVE", "postcode": "91767"}}},
{"geometry": {"type": "Point", "coordinates": [-117.7383782284, 34.1071027194]}, "type": "Feature", "properties": {"collection_times": [{"days": "Mon-Sat", "time": "1:00pm"}, {"days": "Sun", "time": "Closed"}], "id": "9176700011", "name": "USPS COLLECTION BOX - BLUE BOX", "address": {"city": "POMONA", "state": "CA", "street": "675 E FOOTHILL BLVD", "postcode": "91767"}}},
{"geometry": {"type": "Point", "coordinates": [-117.752632884, 34.0801880371]}, "type": "Feature", "properties": {"collection_times": [{"days": "Mon-Sat", "time": "10:15am"}, {"days": "Sun", "time": "Closed"}], "id": "9176700015", "name": "USPS COLLECTION BOX - BLUE BOX", "address": {"city": "POMONA", "state": "CA", "street": "1890 N GAREY AVE", "postcode": "91767"}}},
{"geometry": {"type": "Point", "coordinates": [-117.7485824325, 34.1090853587]}, "type": "Feature", "properties": {"collection_times": [{"days": "Mon-Sat", "time": "1:00pm"}, {"days": "Sun", "time": "Closed"}], "id": "9176700022", "name": "USPS COLLECTION BOX - BLUE BOX", "address": {"city": "POMONA", "state": "CA", "street": "3642 N GAREY AVE", "postcode": "91767"}}},
{"geometry": {"type": "Point", "coordinates": [-117.7486267426, 34.1035653005]}, "type": "Feature", "properties": {"collection_times": [{"days": "Mon-Sat", "time": "1:00pm"}, {"days": "Sun", "time": "Closed"}], "id": "9176700023", "name": "USPS COLLECTION BOX - BLUE BOX", "address": {"city": "POMONA", "state": "CA", "street": "3109 N GAREY AVE", "postcode": "91767"}}},
{"geometry": {"type": "Point", "coordinates": [-117.7373008936, 34.0899553496]}, "type": "Feature", "properties": {"collection_times": [{"days": "Mon-Sat", "time": "12:30pm"}, {"days": "Sun", "time": "Closed"}], "id": "9176700025", "name": "USPS COLLECTION BOX - BLUE BOX", "address": {"city": "POMONA", "state": "CA", "street": "740 E ARROW HWY", "postcode": "91767"}}},
{"geometry": {"type": "Point", "coordinates": [-117.7459267909, 34.0599994054]}, "type": "Feature", "properties": {"collection_times": [{"days": "Mon-Fri", "time": "1:30am"}, {"days": "Sat", "time": "11:30am"}, {"days": "Sun", "time": "Closed"}], "id": "9176700031", "name": "USPS COLLECTION BOX - BLUE BOX", "address": {"city": "POMONA", "state": "CA", "street": "225 N PALOMARES ST", "postcode": "91767"}}},
{"geometry": {"type": "Point", "coordinates": [-117.7502551364, 34.0611707888]}, "type": "Feature", "properties": {"collection_times": [{"days": "Mon-Sat", "time": "9:00am"}, {"days": "Sun", "time": "Closed"}], "id": "9176700032", "name": "USPS COLLECTION BOX - BLUE BOX", "address": {"city": "POMONA", "state": "CA", "street": "399 N GAREY AVE", "postcode": "91767"}}},
{"geometry": {"type": "Point", "coordinates": [-117.8108802243, 34.0472479016]}, "type": "Feature", "properties": {"collection_times": [{"days": "Mon-Sat", "time": "10:00am"}, {"days": "Sun", "time": "Closed"}], "id": "9176800010", "name": "USPS COLLECTION BOX - BLUE BOX", "address": {"city": "POMONA", "state": "CA", "street": "3431 POMONA BLVD", "postcode": "91768"}}},
{"geometry": {"type": "Point", "coordinates": [-117.7548899697, 34.0744116485]}, "type": "Feature", "properties": {"collection_times": [{"days": "Mon-Fri", "time": "12:00pm"}, {"days": "Sat", "time": "2:15pm"}, {"days": "Sun", "time": "Closed"}], "id": "9176800011", "name": "USPS COLLECTION BOX - BLUE BOX", "address": {"city": "POMONA", "state": "CA", "street": "1550 N PARK AVE", "postcode": "91768"}}},
{"geometry": {"type": "Point", "coordinates": [-117.8013151943, 34.0538352602]}, "type": "Feature", "properties": {"collection_times": [{"days": "Mon-Sat", "time": "1:00pm"}, {"days": "Sun", "time": "Closed"}], "id": "9176800015", "name": "USPS COLLECTION BOX - BLUE BOX", "address": {"city": "POMONA", "state": "CA", "street": "2845 POMONA BLVD", "postcode": "91768"}}},
{"geometry": {"type": "Point", "coordinates": [-117.809114361, 34.0483945792]}, "type": "Feature", "properties": {"collection_times": [{"days": "Mon-Sat", "time": "10:00am"}, {"days": "Sun", "time": "Closed"}], "id": "9176800016", "name": "USPS COLLECTION BOX - BLUE BOX", "address": {"city": "POMONA", "state": "CA", "street": "3361 POMONA BLVD", "postcode": "91768"}}},
{"geometry": {"type": "Point", "coordinates": [-117.7790094594, 34.0639604171]}, "type": "Feature", "properties": {"collection_times": [{"days": "Mon-Sat", "time": "5:00pm"}, {"days": "Sun", "time": "Closed"}], "id": "9176800030", "name": "USPS COLLECTION BOX - EXPRESS", "address": {"city": "POMONA", "state": "CA", "street": "580 W MONTEREY AVE", "postcode": "91768"}}},
{"geometry": {"type": "Point", "coordinates": [-117.7585181048, 34.06035573]}, "type": "Feature", "properties": {"collection_times": [{"days": "Mon-Fri", "time": "5:10pm"}, {"days": "Sat", "time": "5:00pm"}, {"days": "Sun", "time": "Closed"}], "id": "9176800031", "name": "USPS COLLECTION BOX - BLUE BOX", "address": {"city": "POMONA", "state": "CA", "street": "580 W MONTEREY AVE", "postcode": "91768"}}},
{"geometry": {"type": "Point", "coordinates": [-117.8207142499, 34.0503697516]}, "type": "Feature", "properties": {"collection_times": [{"days": "Mon-Fri", "time": "1:00pm"}, {"days": "Sat-Sun", "time": "Closed"}], "id": "9176800034", "name": "USPS COLLECTION BOX - BLUE BOX", "address": {"city": "POMONA", "state": "CA", "street": "3801 W TEMPLE AVE", "postcode": "91768"}}},
{"geometry": {"type": "Point", "coordinates": [-117.803167708, 34.0456290739]}, "type": "Feature", "properties": {"collection_times": [{"days": "Mon-Fri", "time": "1:30pm"}, {"days": "Sat", "time": "12:00pm"}, {"days": "Sun", "time": "Closed"}], "id": "9176800037", "name": "USPS COLLECTION BOX - BLUE BOX", "address": {"city": "POMONA", "state": "CA", "street": "3179 W TEMPLE AVE", "postcode": "91768"}}},
{"geometry": {"type": "Point", "coordinates": [-117.7993988132, 34.0635154882]}, "type": "Feature", "properties": {"collection_times": [{"days": "Mon-Fri", "time": "1:30pm"}, {"days": "Sat-Sun", "time": "Closed"}], "id": "9176800038", "name": "USPS COLLECTION BOX - BLUE BOX", "address": {"city": "POMONA", "state": "CA", "street": "732 CORPORATE CENTER DR", "postcode": "91768"}}},
{"geometry": {"type": "Point", "coordinates": [-117.7993988132, 34.0635154882]}, "type": "Feature", "properties": {"collection_times": [{"days": "Mon-Fri", "time": "1:30pm"}, {"days": "Sat-Sun", "time": "Closed"}], "id": "9176800042", "name": "USPS COLLECTION BOX - BLUE BOX", "address": {"city": "POMONA", "state": "CA", "street": "732 CORPORATE CENTER DR", "postcode": "91768"}}},
{"geometry": {"type": "Point", "coordinates": [-118.0779051958, 34.0806671355]}, "type": "Feature", "properties": {"collection_times": [{"days": "Mon-Fri", "time": "3:00pm"}, {"days": "Sat", "time": "3:15pm"}, {"days": "Sun", "time": "Closed"}], "id": "9177000002", "name": "USPS COLLECTION BOX - BLUE BOX", "address": {"city": "ROSEMEAD", "state": "CA", "street": "8780 VALLEY BLVD", "postcode": "91770"}}},
{"geometry": {"type": "Point", "coordinates": [-118.0819662898, 34.0650573372]}, "type": "Feature", "properties": {"collection_times": [{"days": "Mon-Sat", "time": "2:00pm"}, {"days": "Sun", "time": "Closed"}], "id": "9177000009", "name": "USPS COLLECTION BOX - BLUE BOX", "address": {"city": "ROSEMEAD", "state": "CA", "street": "3024 WALNUT GROVE AVE", "postcode": "91770"}}},
{"geometry": {"type": "Point", "coordinates": [-118.0582453967, 34.0812426596]}, "type": "Feature", "properties": {"collection_times": [{"days": "Mon-Sat", "time": "3:00pm"}, {"days": "Sun", "time": "Closed"}], "id": "9177000014", "name": "USPS COLLECTION BOX - BLUE BOX", "address": {"city": "ROSEMEAD", "state": "CA", "street": "9700 VALLEY BLVD S S", "postcode": "91770"}}},
{"geometry": {"type": "Point", "coordinates": [-118.0730689804, 34.0625838073]}, "type": "Feature", "properties": {"collection_times": [{"days": "Mon-Fri", "time": "3:00pm"}, {"days": "Sat", "time": "4:45pm"}, {"days": "Sun", "time": "Closed"}], "id": "9177000020", "name": "USPS COLLECTION BOX - BLUE BOX", "address": {"city": "ROSEMEAD", "state": "CA", "street": "9000 GARVEY AVE", "postcode": "91770"}}},
{"geometry": {"type": "Point", "coordinates": [-118.0826382146, 34.0892861745]}, "type": "Feature", "properties": {"collection_times": [{"days": "Mon-Sat", "time": "8:00am"}, {"days": "Sun", "time": "Closed"}], "id": "9177000022", "name": "USPS COLLECTION BOX - BLUE BOX", "address": {"city": "ROSEMEAD", "state": "CA", "street": "4729 WALNUT GROVE AVE", "postcode": "91770"}}},
{"geometry": {"type": "Point", "coordinates": [-118.09058415, 34.0691143582]}, "type": "Feature", "properties": {"collection_times": [{"days": "Mon-Sat", "time": "8:00am"}, {"days": "Sun", "time": "Closed"}], "id": "9177000023", "name": "USPS COLLECTION BOX - BLUE BOX", "address": {"city": "ROSEMEAD", "state": "CA", "street": "3351 SAN GABRIEL BLVD", "postcode": "91770"}}},
{"geometry": {"type": "Point", "coordinates": [-118.0894922788, 34.0697886448]}, "type": "Feature", "properties": {"collection_times": [{"days": "Mon-Sat", "time": "12:00pm"}, {"days": "Sun", "time": "Closed"}], "id": "9177000024", "name": "USPS COLLECTION BOX - BLUE BOX", "address": {"city": "ROSEMEAD", "state": "CA", "street": "3371 GLADYS AVE", "postcode": "91770"}}},
{"geometry": {"type": "Point", "coordinates": [-118.1043928006, 34.0698169788]}, "type": "Feature", "properties": {"collection_times": [{"days": "Mon-Sat", "time": "1:00pm"}, {"days": "Sun", "time": "Closed"}], "id": "9177000025", "name": "USPS COLLECTION BOX - BLUE BOX", "address": {"city": "ROSEMEAD", "state": "CA", "street": "7574 HELLMAN AVE", "postcode": "91770"}}},
{"geometry": {"type": "Point", "coordinates": [-118.0772261773, 34.0756135348]}, "type": "Feature", "properties": {"collection_times": [{"days": "Mon-Sat", "time": "8:00am"}, {"days": "Sun", "time": "Closed"}], "id": "9177000026", "name": "USPS COLLECTION BOX - BLUE BOX", "address": {"city": "ROSEMEAD", "state": "CA", "street": "8805 MARSHALL ST", "postcode": "91770"}}},
{"geometry": {"type": "Point", "coordinates": [-118.0998467187, 34.0627003547]}, "type": "Feature", "properties": {"collection_times": [{"days": "Mon-Fri", "time": "3:00pm"}, {"days": "Sat", "time": "3:45pm"}, {"days": "Sun", "time": "Closed"}], "id": "9177000027", "name": "USPS COLLECTION BOX - BLUE BOX", "address": {"city": "ROSEMEAD", "state": "CA", "street": "7779 GARVEY AVE", "postcode": "91770"}}},
{"geometry": {"type": "Point", "coordinates": [-118.1034522436, 34.0627350812]}, "type": "Feature", "properties": {"collection_times": [{"days": "Mon-Fri", "time": "3:00pm"}, {"days": "Sat", "time": "3:45pm"}, {"days": "Sun", "time": "Closed"}], "id": "9177000028", "name": "USPS COLLECTION BOX - BLUE BOX", "address": {"city": "ROSEMEAD", "state": "CA", "street": "7611 GARVEY AVE", "postcode": "91770"}}},
{"geometry": {"type": "Point", "coordinates": [-118.0995119413, 34.0663284898]}, "type": "Feature", "properties": {"collection_times": [{"days": "Mon-Sat", "time": "9:00am"}, {"days": "Sun", "time": "Closed"}], "id": "9177000030", "name": "USPS COLLECTION BOX - BLUE BOX", "address": {"city": "ROSEMEAD", "state": "CA", "street": "3200 DEL MAR AVE", "postcode": "91770"}}},
{"geometry": {"type": "Point", "coordinates": [-118.0979448693, 34.0484850368]}, "type": "Feature", "properties": {"collection_times": [{"days": "Mon-Sat", "time": "9:00am"}, {"days": "Sun", "time": "Closed"}], "id": "9177000031", "name": "USPS COLLECTION BOX - BLUE BOX", "address": {"city": "ROSEMEAD", "state": "CA", "street": "1626 POTRERO GRANDE DR", "postcode": "91770"}}},
{"geometry": {"type": "Point", "coordinates": [-118.0993909732, 34.0616442595]}, "type": "Feature", "properties": {"collection_times": [{"days": "Mon-Fri", "time": "3:00pm"}, {"days": "Sat", "time": "3:45pm"}, {"days": "Sun", "time": "Closed"}], "id": "9177000032", "name": "USPS COLLECTION BOX - BLUE BOX", "address": {"city": "ROSEMEAD", "state": "CA", "street": "2730 DEL MAR AVE", "postcode": "91770"}}},
{"geometry": {"type": "Point", "coordinates": [-118.0859907203, 34.0426977016]}, "type": "Feature", "properties": {"collection_times": [{"days": "Mon-Fri", "time": "1:00pm"}, {"days": "Sat", "time": "3:45pm"}, {"days": "Sun", "time": "Closed"}], "id": "9177000033", "name": "USPS COLLECTION BOX - BLUE BOX", "address": {"city": "ROSEMEAD", "state": "CA", "street": "1168 SAN GABRIEL BLVD", "postcode": "91770"}}},
{"geometry": {"type": "Point", "coordinates": [-118.0820227275, 34.052166395]}, "type": "Feature", "properties": {"collection_times": [{"days": "Mon-Fri", "time": "3:00pm"}, {"days": "Sat", "time": "3:45pm"}, {"days": "Sun", "time": "Closed"}], "id": "9177000034", "name": "USPS COLLECTION BOX - BLUE BOX", "address": {"city": "ROSEMEAD", "state": "CA", "street": "2131 WALNUT GROVE AVE", "postcode": "91770"}}},
{"geometry": {"type": "Point", "coordinates": [-118.0888215411, 34.0626506704]}, "type": "Feature", "properties": {"collection_times": [{"days": "Mon-Fri", "time": "3:00pm"}, {"days": "Sat", "time": "3:45pm"}, {"days": "Sun", "time": "Closed"}], "id": "9177000035", "name": "USPS COLLECTION BOX - BLUE BOX", "address": {"city": "ROSEMEAD", "state": "CA", "street": "8235 GARVEY AVE", "postcode": "91770"}}},
{"geometry": {"type": "Point", "coordinates": [-118.075851579, 34.0807345641]}, "type": "Feature", "properties": {"collection_times": [{"days": "Mon-Fri", "time": "3:00pm"}, {"days": "Sat", "time": "3:15pm"}, {"days": "Sun", "time": "Closed"}], "id": "9177000037", "name": "USPS COLLECTION BOX - BLUE BOX", "address": {"city": "ROSEMEAD", "state": "CA", "street": "8856 VALLEY BLVD S", "postcode": "91770"}}},
{"geometry": {"type": "Point", "coordinates": [-118.091651179, 34.0599381455]}, "type": "Feature", "properties": {"collection_times": [{"days": "Mon-Fri", "time": "5:00pm"}, {"days": "Sat", "time": "4:30pm"}, {"days": "Sun", "time": "Closed"}], "id": "9177000039", "name": "USPS COLLECTION BOX - BLUE BOX", "address": {"city": "ROSEMEAD", "state": "CA", "street": "8111 NEWMARK AVE", "postcode": "91770"}}},
{"geometry": {"type": "Point", "coordinates": [-118.091651179, 34.0599381455]}, "type": "Feature", "properties": {"collection_times": [{"days": "Mon-Fri", "time": "5:00pm"}, {"days": "Sat", "time": "4:30pm"}, {"days": "Sun", "time": "Closed"}], "id": "9177000040", "name": "USPS COLLECTION BOX - BLUE BOX", "address": {"city": "ROSEMEAD", "state": "CA", "street": "8111 NEWMARK AVE", "postcode": "91770"}}},
{"geometry": {"type": "Point", "coordinates": [-118.0757285513, 34.080739296]}, "type": "Feature", "properties": {"collection_times": [{"days": "Mon-Sat", "time": "5:00pm"}, {"days": "Sun", "time": "Closed"}], "id": "9177000041", "name": "USPS COLLECTION BOX - BLUE BOX", "address": {"city": "ROSEMEAD", "state": "CA", "street": "8845 VALLEY BLVD", "postcode": "91770"}}},
{"geometry": {"type": "Point", "coordinates": [-118.0757285513, 34.080739296]}, "type": "Feature", "properties": {"collection_times": [{"days": "Mon-Sat", "time": "5:00pm"}, {"days": "Sun", "time": "Closed"}], "id": "9177000042", "name": "USPS COLLECTION BOX - BLUE BOX", "address": {"city": "ROSEMEAD", "state": "CA", "street": "8845 VALLEY BLVD", "postcode": "91770"}}},
{"geometry": {"type": "Point", "coordinates": [-118.085167237, 34.0655724142]}, "type": "Feature", "properties": {"collection_times": [{"days": "Mon-Sat", "time": "5:00pm"}, {"days": "Sun", "time": "Closed"}], "id": "9177000044", "name": "USPS COLLECTION BOX - EXPRESS", "address": {"city": "ROSEMEAD", "state": "CA", "street": "8845 VALLEY BLVD", "postcode": "91770"}}},
{"geometry": {"type": "Point", "coordinates": [-118.0757285513, 34.080739296]}, "type": "Feature", "properties": {"collection_times": [{"days": "Mon-Sat", "time": "5:00pm"}, {"days": "Sun", "time": "Closed"}], "id": "9177000045", "name": "USPS COLLECTION BOX - BLUE BOX", "address": {"city": "ROSEMEAD", "state": "CA", "street": "8845 VALLEY BLVD", "postcode": "91770"}}},
{"geometry": {"type": "Point", "coordinates": [-117.8148383748, 34.1031610567]}, "type": "Feature", "properties": {"collection_times": [{"days": "Mon-Sat", "time": "3:00pm"}, {"days": "Sun", "time": "Closed"}], "id": "9177300005", "name": "USPS COLLECTION BOX - EXPRESS", "address": {"city": "SAN DIMAS", "state": "CA", "street": "300 E BONITA AVE", "postcode": "91773"}}},
{"geometry": {"type": "Point", "coordinates": [-117.7958003543, 34.1228519188]}, "type": "Feature", "properties": {"collection_times": [{"days": "Mon-Sat", "time": "1:00pm"}, {"days": "Sun", "time": "Closed"}], "id": "9177300011", "name": "USPS COLLECTION BOX - BLUE BOX", "address": {"city": "SAN DIMAS", "state": "CA", "street": "627 E FOOTHILL BLVD", "postcode": "91773"}}},
{"geometry": {"type": "Point", "coordinates": [-117.8269494398, 34.1067778803]}, "type": "Feature", "properties": {"collection_times": [{"days": "Mon-Sat", "time": "1:00pm"}, {"days": "Sun", "time": "Closed"}], "id": "9177300015", "name": "USPS COLLECTION BOX - BLUE BOX", "address": {"city": "SAN DIMAS", "state": "CA", "street": "987 W ARROW HWY", "postcode": "91773"}}},
{"geometry": {"type": "Point", "coordinates": [-117.8296443377, 34.0732957746]}, "type": "Feature", "properties": {"collection_times": [{"days": "Mon-Fri", "time": "5:00pm"}, {"days": "Sat", "time": "2:45pm"}, {"days": "Sun", "time": "Closed"}], "id": "9177300020", "name": "USPS COLLECTION BOX - BLUE BOX", "address": {"city": "SAN DIMAS", "state": "CA", "street": "1152 VIA VERDE", "postcode": "91773"}}},
{"geometry": {"type": "Point", "coordinates": [-117.8026798767, 34.1066288381]}, "type": "Feature", "properties": {"collection_times": [{"days": "Mon-Sat", "time": "5:00pm"}, {"days": "Sun", "time": "Closed"}], "id": "9177300024", "name": "USPS COLLECTION BOX - BLUE BOX", "address": {"city": "SAN DIMAS", "state": "CA", "street": "300 E BONITA AVE", "postcode": "91773"}}},
{"geometry": {"type": "Point", "coordinates": [-117.8148383748, 34.1031610567]}, "type": "Feature", "properties": {"collection_times": [{"days": "Mon-Sat", "time": "2:45pm"}, {"days": "Sun", "time": "Closed"}], "id": "9177300026", "name": "USPS COLLECTION BOX - EXPRESS", "address": {"city": "SAN DIMAS", "state": "CA", "street": "1152 VIA VERDE", "postcode": "91773"}}},
{"geometry": {"type": "Point", "coordinates": [-117.8026798767, 34.1066288381]}, "type": "Feature", "properties": {"collection_times": [{"days": "Mon-Sat", "time": "5:00pm"}, {"days": "Sun", "time": "Closed"}], "id": "9177300033", "name": "USPS COLLECTION BOX - BLUE BOX", "address": {"city": "SAN DIMAS", "state": "CA", "street": "300 E BONITA AVE", "postcode": "91773"}}},
{"geometry": {"type": "Point", "coordinates": [-117.8026798767, 34.1066288381]}, "type": "Feature", "properties": {"collection_times": [{"days": "Mon-Sat", "time": "5:00pm"}, {"days": "Sun", "time": "Closed"}], "id": "9177300034", "name": "USPS COLLECTION BOX - BLUE BOX", "address": {"city": "SAN DIMAS", "state": "CA", "street": "300 E BONITA AVE", "postcode": "91773"}}},
{"geometry": {"type": "Point", "coordinates": [-117.8294696176, 34.0994927444]}, "type": "Feature", "properties": {"collection_times": [{"days": "Mon-Sat", "time": "1:00pm"}, {"days": "Sun", "time": "Closed"}], "id": "9177300035", "name": "USPS COLLECTION BOX - BLUE BOX", "address": {"city": "SAN DIMAS", "state": "CA", "street": "1111 W COVINA BLVD", "postcode": "91773"}}},
{"geometry": {"type": "Point", "coordinates": [-117.814583823, 34.1175875039]}, "type": "Feature", "properties": {"collection_times": [{"days": "Mon-Sat", "time": "1:00pm"}, {"days": "Sun", "time": "Closed"}], "id": "9177300036", "name": "USPS COLLECTION BOX - BLUE BOX", "address": {"city": "SAN DIMAS", "state": "CA", "street": "457 W ALLEN AVE", "postcode": "91773"}}},
{"geometry": {"type": "Point", "coordinates": [-117.8026798767, 34.1066288381]}, "type": "Feature", "properties": {"collection_times": [{"days": "Mon-Sat", "time": "5:00pm"}, {"days": "Sun", "time": "Closed"}], "id": "9177300040", "name": "USPS COLLECTION BOX - BLUE BOX", "address": {"city": "SAN DIMAS", "state": "CA", "street": "300 E BONITA AVE", "postcode": "91773"}}},
{"geometry": {"type": "Point", "coordinates": [-117.8329917665, 34.0957472124]}, "type": "Feature", "properties": {"collection_times": [{"days": "Mon-Sat", "time": "1:00pm"}, {"days": "Sun", "time": "Closed"}], "id": "9177300043", "name": "USPS COLLECTION BOX - BLUE BOX", "address": {"city": "SAN DIMAS", "state": "CA", "street": "1400 CYPRESS ST", "postcode": "91773"}}},
{"geometry": {"type": "Point", "coordinates": [-117.8026798767, 34.1066288381]}, "type": "Feature", "properties": {"collection_times": [{"days": "Mon-Sat", "time": "5:00pm"}, {"days": "Sun", "time": "Closed"}], "id": "9177300049", "name": "USPS COLLECTION BOX - APC", "address": {"city": "SAN DIMAS", "state": "CA", "street": "300 E BONITA AVE", "postcode": "91773"}}},
{"geometry": {"type": "Point", "coordinates": [-118.0872495545, 34.1035000348]}, "type": "Feature", "properties": {"collection_times": [{"days": "Mon-Sat", "time": "3:00pm"}, {"days": "Sun", "time": "Closed"}], "id": "9177600005", "name": "USPS COLLECTION BOX - BLUE BOX", "address": {"city": "SAN GABRIEL", "state": "CA", "street": "933 E LAS TUNAS DR", "postcode": "91776"}}},
{"geometry": {"type": "Point", "coordinates": [-118.0952450083, 34.0799490794]}, "type": "Feature", "properties": {"collection_times": [{"days": "Mon-Sat", "time": "3:00pm"}, {"days": "Sun", "time": "Closed"}], "id": "9177600015", "name": "USPS COLLECTION BOX - BLUE BOX", "address": {"city": "SAN GABRIEL", "state": "CA", "street": "401 E VALLEY BLVD", "postcode": "91776"}}},
{"geometry": {"type": "Point", "coordinates": [-118.1043546535, 34.0795412682]}, "type": "Feature", "properties": {"collection_times": [{"days": "Mon-Sat", "time": "3:00pm"}, {"days": "Sun", "time": "Closed"}], "id": "9177600020", "name": "USPS COLLECTION BOX - BLUE BOX", "address": {"city": "SAN GABRIEL", "state": "CA", "street": "333 W VALLEY BLVD", "postcode": "91776"}}},
{"geometry": {"type": "Point", "coordinates": [-118.1001632259, 34.1027181065]}, "type": "Feature", "properties": {"collection_times": [{"days": "Mon-Sat", "time": "3:00pm"}, {"days": "Sun", "time": "Closed"}], "id": "9177600028", "name": "USPS COLLECTION BOX - BLUE BOX", "address": {"city": "SAN GABRIEL", "state": "CA", "street": "110 W LAS TUNAS DR", "postcode": "91776"}}},
{"geometry": {"type": "Point", "coordinates": [-118.1106506829, 34.1011559847]}, "type": "Feature", "properties": {"collection_times": [{"days": "Mon-Sat", "time": "3:00pm"}, {"days": "Sun", "time": "Closed"}], "id": "9177600031", "name": "USPS COLLECTION BOX - BLUE BOX", "address": {"city": "SAN GABRIEL", "state": "CA", "street": "135 S MISSION DR", "postcode": "91776"}}},
{"geometry": {"type": "Point", "coordinates": [-118.1075300371, 34.1024406782]}, "type": "Feature", "properties": {"collection_times": [{"days": "Mon-Sat", "time": "3:00pm"}, {"days": "Sun", "time": "Closed"}], "id": "9177600033", "name": "USPS COLLECTION BOX - BLUE BOX", "address": {"city": "SAN GABRIEL", "state": "CA", "street": "533 W LAS TUNAS DR", "postcode": "91776"}}},
{"geometry": {"type": "Point", "coordinates": [-118.0968774917, 34.1031256114]}, "type": "Feature", "properties": {"collection_times": [{"days": "Mon-Sat", "time": "3:00pm"}, {"days": "Sun", "time": "Closed"}], "id": "9177600035", "name": "USPS COLLECTION BOX - BLUE BOX", "address": {"city": "SAN GABRIEL", "state": "CA", "street": "300 E LAS TUNAS DR", "postcode": "91776"}}},
{"geometry": {"type": "Point", "coordinates": [-118.0909922708, 34.1013760151]}, "type": "Feature", "properties": {"collection_times": [{"days": "Mon-Sat", "time": "3:00pm"}, {"days": "Sun", "time": "Closed"}], "id": "9177600036", "name": "USPS COLLECTION BOX - BLUE BOX", "address": {"city": "SAN GABRIEL", "state": "CA", "street": "201 S SAN GABRIEL BLVD", "postcode": "91776"}}},
{"geometry": {"type": "Point", "coordinates": [-118.0995793699, 34.0955534911]}, "type": "Feature", "properties": {"collection_times": [{"days": "Mon-Sat", "time": "3:00pm"}, {"days": "Sun", "time": "Closed"}], "id": "9177600038", "name": "USPS COLLECTION BOX - BLUE BOX", "address": {"city": "SAN GABRIEL", "state": "CA", "street": "500 S DEL MAR AVE", "postcode": "91776"}}},
{"geometry": {"type": "Point", "coordinates": [-118.1041348069, 34.0911400995]}, "type": "Feature", "properties": {"collection_times": [{"days": "Mon-Sat", "time": "3:00pm"}, {"days": "Sun", "time": "Closed"}], "id": "9177600041", "name": "USPS COLLECTION BOX - BLUE BOX", "address": {"city": "SAN GABRIEL", "state": "CA", "street": "940 ABBOT AVE", "postcode": "91776"}}},
{"geometry": {"type": "Point", "coordinates": [-118.0977008699, 34.1030914293]}, "type": "Feature", "properties": {"collection_times": [{"days": "Mon-Sat", "time": "3:00pm"}, {"days": "Sun", "time": "Closed"}], "id": "9177600044", "name": "USPS COLLECTION BOX - BLUE BOX", "address": {"city": "SAN GABRIEL", "state": "CA", "street": "215 E LAS TUNAS DR", "postcode": "91776"}}},
{"geometry": {"type": "Point", "coordinates": [-118.1064917953, 34.1012566599]}, "type": "Feature", "properties": {"collection_times": [{"days": "Mon-Sat", "time": "3:00pm"}, {"days": "Sun", "time": "Closed"}], "id": "9177600051", "name": "USPS COLLECTION BOX - BLUE BOX", "address": {"city": "SAN GABRIEL", "state": "CA", "street": "207 S SANTA ANITA ST", "postcode": "91776"}}},
{"geometry": {"type": "Point", "coordinates": [-118.0955344133, 34.0897237909]}, "type": "Feature", "properties": {"collection_times": [{"days": "Mon-Sat", "time": "3:00pm"}, {"days": "Sun", "time": "Closed"}], "id": "9177600053", "name": "USPS COLLECTION BOX - BLUE BOX", "address": {"city": "SAN GABRIEL", "state": "CA", "street": "609 S SANTA ANITA/MISSION", "postcode": "91776"}}},
{"geometry": {"type": "Point", "coordinates": [-118.10171989, 34.0988410862]}, "type": "Feature", "properties": {"collection_times": [{"days": "Mon-Sat", "time": "3:00pm"}, {"days": "Sun", "time": "Closed"}], "id": "9177600054", "name": "USPS COLLECTION BOX - BLUE BOX", "address": {"city": "SAN GABRIEL", "state": "CA", "street": "232 BROADWAY", "postcode": "91776"}}},
{"geometry": {"type": "Point", "coordinates": [-118.0996621771, 34.1024856306]}, "type": "Feature", "properties": {"collection_times": [{"days": "Mon-Sat", "time": "3:00pm"}, {"days": "Sun", "time": "Closed"}], "id": "9177600055", "name": "USPS COLLECTION BOX - BLUE BOX", "address": {"city": "SAN GABRIEL", "state": "CA", "street": "109 S DEL MAR AVE", "postcode": "91776"}}},
{"geometry": {"type": "Point", "coordinates": [-118.0996460893, 34.1020909115]}, "type": "Feature", "properties": {"collection_times": [{"days": "Mon-Sat", "time": "3:00pm"}, {"days": "Sun", "time": "Closed"}], "id": "9177600057", "name": "USPS COLLECTION BOX - BLUE BOX", "address": {"city": "SAN GABRIEL", "state": "CA", "street": "120 S DEL MAR AVE", "postcode": "91776"}}},
{"geometry": {"type": "Point", "coordinates": [-118.0996609941, 34.1022916253]}, "type": "Feature", "properties": {"collection_times": [{"days": "Mon-Sat", "time": "5:00pm"}, {"days": "Sun", "time": "Closed"}], "id": "9177600061", "name": "USPS COLLECTION BOX - BLUE BOX", "address": {"city": "SAN GABRIEL", "state": "CA", "street": "120 S DEL MAR", "postcode": "91776"}}},
{"geometry": {"type": "Point", "coordinates": [-118.0996609941, 34.1022916253]}, "type": "Feature", "properties": {"collection_times": [{"days": "Mon-Sat", "time": "5:00pm"}, {"days": "Sun", "time": "Closed"}], "id": "9177600062", "name": "USPS COLLECTION BOX - BLUE BOX", "address": {"city": "SAN GABRIEL", "state": "CA", "street": "120 S DEL MAR", "postcode": "91776"}}},
{"geometry": {"type": "Point", "coordinates": [-118.091245424, 34.0801348039]}, "type": "Feature", "properties": {"collection_times": [{"days": "Mon-Sat", "time": "3:00pm"}, {"days": "Sun", "time": "Closed"}], "id": "9177600063", "name": "USPS COLLECTION BOX - BLUE BOX", "address": {"city": "SAN GABRIEL", "state": "CA", "street": "725 E VALLEY BLVD", "postcode": "91776"}}},
{"geometry": {"type": "Point", "coordinates": [-118.0847994227, 34.103477452]}, "type": "Feature", "properties": {"collection_times": [{"days": "Mon-Sat", "time": "3:00pm"}, {"days": "Sun", "time": "Closed"}], "id": "9177600066", "name": "USPS COLLECTION BOX - BLUE BOX", "address": {"city": "SAN GABRIEL", "state": "CA", "street": "1033 E LAS TUNAS DR", "postcode": "91776"}}},
{"geometry": {"type": "Point", "coordinates": [-118.1012319636, 34.0796119361]}, "type": "Feature", "properties": {"collection_times": [{"days": "Mon-Sat", "time": "3:00pm"}, {"days": "Sun", "time": "Closed"}], "id": "9177600069", "name": "USPS COLLECTION BOX - BLUE BOX", "address": {"city": "SAN GABRIEL", "state": "CA", "street": "140 W VALLEY BLVD", "postcode": "91776"}}},
{"geometry": {"type": "Point", "coordinates": [-118.0996609941, 34.1022916253]}, "type": "Feature", "properties": {"collection_times": [{"days": "Mon-Sat", "time": "5:00pm"}, {"days": "Sun", "time": "Closed"}], "id": "9177600073", "name": "USPS COLLECTION BOX - BLUE BOX", "address": {"city": "SAN GABRIEL", "state": "CA", "street": "120 S DEL MAR AVE", "postcode": "91776"}}},
{"geometry": {"type": "Point", "coordinates": [-118.0996609941, 34.1022916253]}, "type": "Feature", "properties": {"collection_times": [{"days": "Mon-Sat", "time": "5:00pm"}, {"days": "Sun", "time": "Closed"}], "id": "9177600074", "name": "USPS COLLECTION BOX - BLUE BOX", "address": {"city": "SAN GABRIEL", "state": "CA", "street": "120 S DEL MAR AVE", "postcode": "91776"}}},
{"geometry": {"type": "Point", "coordinates": [-118.0996609941, 34.1022916253]}, "type": "Feature", "properties": {"collection_times": [{"days": "Mon-Sat", "time": "5:00pm"}, {"days": "Sun", "time": "Closed"}], "id": "9177600075", "name": "USPS COLLECTION BOX - APC", "address": {"city": "SAN GABRIEL", "state": "CA", "street": "120 S DEL MAR AVE", "postcode": "91776"}}},
{"geometry": {"type": "Point", "coordinates": [-118.0580495547, 34.1071529698]}, "type": "Feature", "properties": {"collection_times": [{"days": "Mon-Sat", "time": "3:00pm"}, {"days": "Sun", "time": "Closed"}], "id": "9178000001", "name": "USPS COLLECTION BOX - BLUE BOX", "address": {"city": "TEMPLE CITY", "state": "CA", "street": "9701 LAS TUNAS DR", "postcode": "91780"}}},
{"geometry": {"type": "Point", "coordinates": [-118.0572762039, 34.0895911774]}, "type": "Feature", "properties": {"collection_times": [{"days": "Mon-Sat", "time": "3:00pm"}, {"days": "Sun", "time": "Closed"}], "id": "9178000006", "name": "USPS COLLECTION BOX - BLUE BOX", "address": {"city": "TEMPLE CITY", "state": "CA", "street": "4802 TEMPLE CITY BLVD", "postcode": "91780"}}},
{"geometry": {"type": "Point", "coordinates": [-118.0283881381, 34.0958708193]}, "type": "Feature", "properties": {"collection_times": [{"days": "Mon-Sat", "time": "3:00pm"}, {"days": "Sun", "time": "Closed"}], "id": "9178000007", "name": "USPS COLLECTION BOX - BLUE BOX", "address": {"city": "TEMPLE CITY", "state": "CA", "street": "4959 SANTA ANITA AVE", "postcode": "91780"}}},
{"geometry": {"type": "Point", "coordinates": [-118.07363548, 34.1004321242]}, "type": "Feature", "properties": {"collection_times": [{"days": "Mon-Sat", "time": "3:00pm"}, {"days": "Sun", "time": "Closed"}], "id": "9178000011", "name": "USPS COLLECTION BOX - BLUE BOX", "address": {"city": "TEMPLE CITY", "state": "CA", "street": "5565 ROSEMEAD BLVD", "postcode": "91780"}}},
{"geometry": {"type": "Point", "coordinates": [-118.0360438269, 34.1029150447]}, "type": "Feature", "properties": {"collection_times": [{"days": "Mon-Sat", "time": "1:00pm"}, {"days": "Sun", "time": "Closed"}], "id": "9178000015", "name": "USPS COLLECTION BOX - BLUE BOX", "address": {"city": "TEMPLE CITY", "state": "CA", "street": "5500 PERSIMMON AVE", "postcode": "91780"}}},
{"geometry": {"type": "Point", "coordinates": [-118.0606938204, 34.1059718802]}, "type": "Feature", "properties": {"collection_times": [{"days": "Mon-Sat", "time": "3:00pm"}, {"days": "Sun", "time": "Closed"}], "id": "9178000016", "name": "USPS COLLECTION BOX - BLUE BOX", "address": {"city": "TEMPLE CITY", "state": "CA", "street": "5858 TEMPLE CITY BLVD", "postcode": "91780"}}},
{"geometry": {"type": "Point", "coordinates": [-118.0642088969, 34.1062320617]}, "type": "Feature", "properties": {"collection_times": [{"days": "Mon-Sat", "time": "3:00pm"}, {"days": "Sun", "time": "Closed"}], "id": "9178000019", "name": "USPS COLLECTION BOX - BLUE BOX", "address": {"city": "TEMPLE CITY", "state": "CA", "street": "9470 LAS TUNAS DR", "postcode": "91780"}}},
{"geometry": {"type": "Point", "coordinates": [-118.0503883003, 34.0993032168]}, "type": "Feature", "properties": {"collection_times": [{"days": "Mon-Sat", "time": "11:00am"}, {"days": "Sun", "time": "Closed"}], "id": "9178000024", "name": "USPS COLLECTION BOX - BLUE BOX", "address": {"city": "TEMPLE CITY", "state": "CA", "street": "5406 BALDWIN AVE", "postcode": "91780"}}},
{"geometry": {"type": "Point", "coordinates": [-118.0596379434, 34.1068708595]}, "type": "Feature", "properties": {"collection_times": [{"days": "Mon-Sat", "time": "3:00pm"}, {"days": "Sun", "time": "Closed"}], "id": "9178000028", "name": "USPS COLLECTION BOX - BLUE BOX", "address": {"city": "TEMPLE CITY", "state": "CA", "street": "9635 LAS TUNAS DR", "postcode": "91780"}}},
{"geometry": {"type": "Point", "coordinates": [-118.062431094, 34.1073478937]}, "type": "Feature", "properties": {"collection_times": [{"days": "Mon-Sat", "time": "3:00pm"}, {"days": "Sun", "time": "Closed"}], "id": "9178000031", "name": "USPS COLLECTION BOX - BLUE BOX", "address": {"city": "TEMPLE CITY", "state": "CA", "street": "5944 PRIMROSE AVE", "postcode": "91780"}}},
{"geometry": {"type": "Point", "coordinates": [-118.0652655116, 34.1069103006]}, "type": "Feature", "properties": {"collection_times": [{"days": "Mon-Sat", "time": "5:00pm"}, {"days": "Sun", "time": "Closed"}], "id": "9178000034", "name": "USPS COLLECTION BOX - APC", "address": {"city": "TEMPLE CITY", "state": "CA", "street": "5940 OAK AVE", "postcode": "91780"}}},
{"geometry": {"type": "Point", "coordinates": [-118.0652655116, 34.1069103006]}, "type": "Feature", "properties": {"collection_times": [{"days": "Mon-Sat", "time": "5:00pm"}, {"days": "Sun", "time": "Closed"}], "id": "9178000035", "name": "USPS COLLECTION BOX - BLUE BOX", "address": {"city": "TEMPLE CITY", "state": "CA", "street": "5940 OAK AVE", "postcode": "91780"}}},
{"geometry": {"type": "Point", "coordinates": [-117.6701049347, 34.1010294081]}, "type": "Feature", "properties": {"collection_times": [{"days": "Mon-Sat", "time": "12:00pm"}, {"days": "Sun", "time": "Closed"}], "id": "9178600016", "name": "USPS COLLECTION BOX - BLUE BOX", "address": {"city": "UPLAND", "state": "CA", "street": "600 N MOUNTAIN AVE", "postcode": "91786"}}},
{"geometry": {"type": "Point", "coordinates": [-117.6700525196, 34.1049973086]}, "type": "Feature", "properties": {"collection_times": [{"days": "Mon-Sat", "time": "12:00pm"}, {"days": "Sun", "time": "Closed"}], "id": "9178600017", "name": "USPS COLLECTION BOX - BLUE BOX", "address": {"city": "UPLAND", "state": "CA", "street": "870 N MOUNTAIN AVE", "postcode": "91786"}}},
{"geometry": {"type": "Point", "coordinates": [-117.6692697657, 34.1066638417]}, "type": "Feature", "properties": {"collection_times": [{"days": "Mon-Sat", "time": "12:00pm"}, {"days": "Sun", "time": "Closed"}], "id": "9178600027", "name": "USPS COLLECTION BOX - BLUE BOX", "address": {"city": "UPLAND", "state": "CA", "street": "1170 W FOOTHILL BLVD", "postcode": "91786"}}},
{"geometry": {"type": "Point", "coordinates": [-117.6704433339, 34.1222764872]}, "type": "Feature", "properties": {"collection_times": [{"days": "Mon-Sat", "time": "12:00pm"}, {"days": "Sun", "time": "Closed"}], "id": "9178600045", "name": "USPS COLLECTION BOX - BLUE BOX", "address": {"city": "UPLAND", "state": "CA", "street": "1637 N MOUNTAIN AVE", "postcode": "91786"}}},
{"geometry": {"type": "Point", "coordinates": [-117.6701901078, 34.1086583105]}, "type": "Feature", "properties": {"collection_times": [{"days": "Mon-Sat", "time": "12:00pm"}, {"days": "Sun", "time": "Closed"}], "id": "9178600046", "name": "USPS COLLECTION BOX - BLUE BOX", "address": {"city": "UPLAND", "state": "CA", "street": "1150 N MOUNTAIN AVE", "postcode": "91786"}}},
{"geometry": {"type": "Point", "coordinates": [-117.6470586931, 34.0999542334]}, "type": "Feature", "properties": {"collection_times": [{"days": "Mon-Fri", "time": "5:20pm"}, {"days": "Sat", "time": "5:00pm"}, {"days": "Sun", "time": "Closed"}], "id": "9178600056", "name": "USPS COLLECTION BOX - BLUE BOX", "address": {"city": "UPLAND", "state": "CA", "street": "333 E ARROW HWY", "postcode": "91786"}}},
{"geometry": {"type": "Point", "coordinates": [-117.6700919222, 34.0983334446]}, "type": "Feature", "properties": {"collection_times": [{"days": "Mon-Sat", "time": "12:00pm"}, {"days": "Sun", "time": "Closed"}], "id": "9178600064", "name": "USPS COLLECTION BOX - BLUE BOX", "address": {"city": "UPLAND", "state": "CA", "street": "400 N MOUNTAIN AVE", "postcode": "91786"}}},
{"geometry": {"type": "Point", "coordinates": [-117.6470586931, 34.0999542334]}, "type": "Feature", "properties": {"collection_times": [{"days": "Mon-Fri", "time": "5:20pm"}, {"days": "Sat", "time": "5:00pm"}, {"days": "Sun", "time": "Closed"}], "id": "9178600067", "name": "USPS COLLECTION BOX - BLUE BOX", "address": {"city": "UPLAND", "state": "CA", "street": "333 E ARROW HWY", "postcode": "91786"}}},
{"geometry": {"type": "Point", "coordinates": [-117.6598259586, 34.1019140402]}, "type": "Feature", "properties": {"collection_times": [{"days": "Mon-Sat", "time": "5:00pm"}, {"days": "Sun", "time": "Closed"}], "id": "9178600069", "name": "USPS COLLECTION BOX - EXPRESS", "address": {"city": "UPLAND", "state": "CA", "street": "333 E ARROW HWY", "postcode": "91786"}}},
{"geometry": {"type": "Point", "coordinates": [-117.6470586931, 34.0999542334]}, "type": "Feature", "properties": {"collection_times": [{"days": "Mon-Fri", "time": "5:20pm"}, {"days": "Sat", "time": "5:00pm"}, {"days": "Sun", "time": "Closed"}], "id": "9178600071", "name": "USPS COLLECTION BOX - BLUE BOX", "address": {"city": "UPLAND", "state": "CA", "street": "333 E ARROW HWY", "postcode": "91786"}}},
{"geometry": {"type": "Point", "coordinates": [-117.6897001431, 34.0985703518]}, "type": "Feature", "properties": {"collection_times": [{"days": "Mon-Sat", "time": "12:00pm"}, {"days": "Sun", "time": "Closed"}], "id": "9178600087", "name": "USPS COLLECTION BOX - BLUE BOX", "address": {"city": "UPLAND", "state": "CA", "street": "419 N CENTRAL AVE STE B", "postcode": "91786"}}},
{"geometry": {"type": "Point", "coordinates": [-117.6700525196, 34.1049973086]}, "type": "Feature", "properties": {"collection_times": [{"days": "Mon-Sat", "time": "12:00pm"}, {"days": "Sun", "time": "Closed"}], "id": "9178600089", "name": "USPS COLLECTION BOX - BLUE BOX", "address": {"city": "UPLAND", "state": "CA", "street": "870 N MOUNTAIN AVE", "postcode": "91786"}}},
{"geometry": {"type": "Point", "coordinates": [-117.6455729066, 34.099810991]}, "type": "Feature", "properties": {"collection_times": [{"days": "Mon-Fri", "time": "5:20pm"}, {"days": "Sat", "time": "5:00pm"}, {"days": "Sun", "time": "Closed"}], "id": "9178600090", "name": "USPS COLLECTION BOX - APC", "address": {"city": "UPLAND", "state": "CA", "street": "333 E ARROW HWY", "postcode": "91786"}}},
{"geometry": {"type": "Point", "coordinates": [-117.6761924416, 34.1071098172]}, "type": "Feature", "properties": {"collection_times": [{"days": "Mon-Sat", "time": "12:00pm"}, {"days": "Sun", "time": "Closed"}], "id": "9178600091", "name": "USPS COLLECTION BOX - BLUE BOX", "address": {"city": "UPLAND", "state": "CA", "street": "1425 W FOOTHILL BLVD", "postcode": "91786"}}},
{"geometry": {"type": "Point", "coordinates": [-117.8432463577, 33.9985248308]}, "type": "Feature", "properties": {"collection_times": [{"days": "Mon-Fri", "time": "1:00pm"}, {"days": "Sat", "time": "12:30pm"}, {"days": "Sun", "time": "Closed"}], "id": "9178900008", "name": "USPS COLLECTION BOX - BLUE BOX", "address": {"city": "WALNUT", "state": "CA", "street": "1101 BREA CANYON RD", "postcode": "91789"}}},
{"geometry": {"type": "Point", "coordinates": [-117.8697003121, 33.9928849704]}, "type": "Feature", "properties": {"collection_times": [{"days": "Mon-Sat", "time": "1:00pm"}, {"days": "Sun", "time": "Closed"}], "id": "9178900012", "name": "USPS COLLECTION BOX - BLUE BOX", "address": {"city": "WALNUT", "state": "CA", "street": "19720 E WALNUT DR S", "postcode": "91789"}}},
{"geometry": {"type": "Point", "coordinates": [-117.8696791676, 33.9870314769]}, "type": "Feature", "properties": {"collection_times": [{"days": "Mon-Fri", "time": "1:00pm"}, {"days": "Sat", "time": "12:30pm"}, {"days": "Sun", "time": "Closed"}], "id": "9178900013", "name": "USPS COLLECTION BOX - BLUE BOX", "address": {"city": "WALNUT", "state": "CA", "street": "19811 COLIMA RD", "postcode": "91789"}}},
{"geometry": {"type": "Point", "coordinates": [-117.8607157457, 34.0120538192]}, "type": "Feature", "properties": {"collection_times": [{"days": "Mon-Fri", "time": "5:00pm"}, {"days": "Sat", "time": "4:00pm"}, {"days": "Sun", "time": "Closed"}], "id": "9178900014", "name": "USPS COLLECTION BOX - BLUE BOX", "address": {"city": "WALNUT", "state": "CA", "street": "280 S LEMON", "postcode": "91789"}}},
{"geometry": {"type": "Point", "coordinates": [-117.8581798046, 34.0163304668]}, "type": "Feature", "properties": {"collection_times": [{"days": "Mon-Sat", "time": "3:00pm"}, {"days": "Sun", "time": "Closed"}], "id": "9178900016", "name": "USPS COLLECTION BOX - EXPRESS", "address": {"city": "WALNUT", "state": "CA", "street": "280 S LEMON", "postcode": "91789"}}},
{"geometry": {"type": "Point", "coordinates": [-117.8490203804, 34.0451677199]}, "type": "Feature", "properties": {"collection_times": [{"days": "Mon-Sat", "time": "1:00pm"}, {"days": "Sun", "time": "Closed"}], "id": "9178900019", "name": "USPS COLLECTION BOX - BLUE BOX", "address": {"city": "WALNUT", "state": "CA", "street": "1275 N GRAND AVE", "postcode": "91789"}}},
{"geometry": {"type": "Point", "coordinates": [-117.8432913102, 34.0257577292]}, "type": "Feature", "properties": {"collection_times": [{"days": "Mon-Sat", "time": "1:00pm"}, {"days": "Sun", "time": "Closed"}], "id": "9178900021", "name": "USPS COLLECTION BOX - BLUE BOX", "address": {"city": "WALNUT", "state": "CA", "street": "21155 LA PUENTE RD", "postcode": "91789"}}},
{"geometry": {"type": "Point", "coordinates": [-117.8581798046, 34.0163304668]}, "type": "Feature", "properties": {"collection_times": [{"days": "Mon-Sat", "time": "3:00pm"}, {"days": "Sun", "time": "Closed"}], "id": "9178900026", "name": "USPS COLLECTION BOX - EXPRESS", "address": {"city": "WALNUT", "state": "CA", "street": "280 S LEMON", "postcode": "91789"}}},
{"geometry": {"type": "Point", "coordinates": [-117.8607730175, 34.012100206]}, "type": "Feature", "properties": {"collection_times": [{"days": "Mon-Fri", "time": "5:00pm"}, {"days": "Sat", "time": "4:00pm"}, {"days": "Sun", "time": "Closed"}], "id": "9178900027", "name": "USPS COLLECTION BOX - BLUE BOX", "address": {"city": "WALNUT", "state": "CA", "street": "280 S LEMON AVE", "postcode": "91789"}}},
{"geometry": {"type": "Point", "coordinates": [-117.8465738439, 34.0047800751]}, "type": "Feature", "properties": {"collection_times": [{"days": "Mon-Sat", "time": "1:00pm"}, {"days": "Sun", "time": "Closed"}], "id": "9178900031", "name": "USPS COLLECTION BOX - BLUE BOX", "address": {"city": "WALNUT", "state": "CA", "street": "727 BREA CANYON RD", "postcode": "91789"}}},
{"geometry": {"type": "Point", "coordinates": [-117.9288440855, 34.0694254764]}, "type": "Feature", "properties": {"collection_times": [{"days": "Mon-Fri", "time": "5:10pm"}, {"days": "Sat", "time": "4:00pm"}, {"days": "Sun", "time": "Closed"}], "id": "9179000001", "name": "USPS COLLECTION BOX - BLUE BOX", "address": {"city": "WEST COVINA", "state": "CA", "street": "396 S CALIFORNIA AVE", "postcode": "91790"}}},
{"geometry": {"type": "Point", "coordinates": [-117.9314927306, 34.0619314314]}, "type": "Feature", "properties": {"collection_times": [{"days": "Mon-Sat", "time": "10:00am"}, {"days": "Sun", "time": "Closed"}], "id": "9179000005", "name": "USPS COLLECTION BOX - BLUE BOX", "address": {"city": "WEST COVINA", "state": "CA", "street": "777 S GLENDORA AVE", "postcode": "91790"}}},
{"geometry": {"type": "Point", "coordinates": [-117.9348925547, 34.0789092584]}, "type": "Feature", "properties": {"collection_times": [{"days": "Mon-Sat", "time": "10:30am"}, {"days": "Sun", "time": "Closed"}], "id": "9179000009", "name": "USPS COLLECTION BOX - BLUE BOX", "address": {"city": "WEST COVINA", "state": "CA", "street": "436 N SUNSET AVE", "postcode": "91790"}}},
{"geometry": {"type": "Point", "coordinates": [-117.9455238832, 34.062120872]}, "type": "Feature", "properties": {"collection_times": [{"days": "Mon-Fri", "time": "4:45pm"}, {"days": "Sat", "time": "3:00pm"}, {"days": "Sun", "time": "Closed"}], "id": "9179000011", "name": "USPS COLLECTION BOX - BLUE BOX", "address": {"city": "WEST COVINA", "state": "CA", "street": "1135 S SUNSET AVE", "postcode": "91790"}}},
{"geometry": {"type": "Point", "coordinates": [-117.9428688818, 34.0645972718]}, "type": "Feature", "properties": {"collection_times": [{"days": "Mon-Fri", "time": "4:30pm"}, {"days": "Sat", "time": "3:00pm"}, {"days": "Sun", "time": "Closed"}], "id": "9179000013", "name": "USPS COLLECTION BOX - BLUE BOX", "address": {"city": "WEST COVINA", "state": "CA", "street": "933 S SUNSET AVE", "postcode": "91790"}}},
{"geometry": {"type": "Point", "coordinates": [-117.9477572334, 34.06254657]}, "type": "Feature", "properties": {"collection_times": [{"days": "Mon-Fri", "time": "4:45pm"}, {"days": "Sat", "time": "3:00pm"}, {"days": "Sun", "time": "Closed"}], "id": "9179000014", "name": "USPS COLLECTION BOX - BLUE BOX", "address": {"city": "WEST COVINA", "state": "CA", "street": "1433 W MERCED AVE", "postcode": "91790"}}},
{"geometry": {"type": "Point", "coordinates": [-117.9395025458, 34.0698205847]}, "type": "Feature", "properties": {"collection_times": [{"days": "Mon-Fri", "time": "4:45pm"}, {"days": "Sat", "time": "3:00pm"}, {"days": "Sun", "time": "Closed"}], "id": "9179000015", "name": "USPS COLLECTION BOX - BLUE BOX", "address": {"city": "WEST COVINA", "state": "CA", "street": "1427 W WEST COVINA PKWY", "postcode": "91790"}}},
{"geometry": {"type": "Point", "coordinates": [-117.9415916513, 34.0681537955]}, "type": "Feature", "properties": {"collection_times": [{"days": "Mon-Fri", "time": "4:30pm"}, {"days": "Sat", "time": "3:00pm"}, {"days": "Sun", "time": "Closed"}], "id": "9179000016", "name": "USPS COLLECTION BOX - BLUE BOX", "address": {"city": "WEST COVINA", "state": "CA", "street": "1501 W CAMERON AVE", "postcode": "91790"}}},
{"geometry": {"type": "Point", "coordinates": [-117.9466038484, 34.0609010741]}, "type": "Feature", "properties": {"collection_times": [{"days": "Mon-Fri", "time": "4:45pm"}, {"days": "Sat", "time": "3:00pm"}, {"days": "Sun", "time": "Closed"}], "id": "9179000033", "name": "USPS COLLECTION BOX - BLUE BOX", "address": {"city": "WEST COVINA", "state": "CA", "street": "1250 S SUNSET AVE", "postcode": "91790"}}},
{"geometry": {"type": "Point", "coordinates": [-117.9393633484, 34.0727980087]}, "type": "Feature", "properties": {"collection_times": [{"days": "Mon-Fri", "time": "4:30pm"}, {"days": "Sat", "time": "3:00pm"}, {"days": "Sun", "time": "Closed"}], "id": "9179000059", "name": "USPS COLLECTION BOX - BLUE BOX", "address": {"city": "WEST COVINA", "state": "CA", "street": "1543 W GARVEY AVE N", "postcode": "91790"}}},
{"geometry": {"type": "Point", "coordinates": [-117.9375694719, 34.0720821027]}, "type": "Feature", "properties": {"collection_times": [{"days": "Mon-Fri", "time": "4:30pm"}, {"days": "Sat", "time": "3:00pm"}, {"days": "Sun", "time": "Closed"}], "id": "9179000061", "name": "USPS COLLECTION BOX - BLUE BOX", "address": {"city": "WEST COVINA", "state": "CA", "street": "1444 W GARVEY AVE S", "postcode": "91790"}}},
{"geometry": {"type": "Point", "coordinates": [-117.94319469, 34.0733307259]}, "type": "Feature", "properties": {"collection_times": [{"days": "Mon-Fri", "time": "4:30pm"}, {"days": "Sat", "time": "3:00pm"}, {"days": "Sun", "time": "Closed"}], "id": "9179000064", "name": "USPS COLLECTION BOX - BLUE BOX", "address": {"city": "WEST COVINA", "state": "CA", "street": "1901 N GARVEY", "postcode": "91790"}}},
{"geometry": {"type": "Point", "coordinates": [-117.9376890603, 34.0666543205]}, "type": "Feature", "properties": {"collection_times": [{"days": "Mon-Sat", "time": "3:10pm"}, {"days": "Sun", "time": "Closed"}], "id": "9179000065", "name": "USPS COLLECTION BOX - EXPRESS", "address": {"city": "WEST COVINA", "state": "CA", "street": "396 S CALIFORNIA", "postcode": "91790"}}},
{"geometry": {"type": "Point", "coordinates": [-117.9288440855, 34.0694254764]}, "type": "Feature", "properties": {"collection_times": [{"days": "Mon-Fri", "time": "5:10pm"}, {"days": "Sat", "time": "4:00pm"}, {"days": "Sun", "time": "Closed"}], "id": "9179000066", "name": "USPS COLLECTION BOX - BLUE BOX", "address": {"city": "WEST COVINA", "state": "CA", "street": "396 S CALIFORNIA AVE", "postcode": "91790"}}},
{"geometry": {"type": "Point", "coordinates": [-117.9376890603, 34.0666543205]}, "type": "Feature", "properties": {"collection_times": [{"days": "Mon-Sat", "time": "3:10pm"}, {"days": "Sun", "time": "Closed"}], "id": "9179000084", "name": "USPS COLLECTION BOX - EXPRESS", "address": {"city": "WEST COVINA", "state": "CA", "street": "396 S CALIFORNIA", "postcode": "91790"}}},
{"geometry": {"type": "Point", "coordinates": [-117.9471610221, 34.0711407669]}, "type": "Feature", "properties": {"collection_times": [{"days": "Mon-Fri", "time": "4:30pm"}, {"days": "Sat", "time": "3:00pm"}, {"days": "Sun", "time": "Closed"}], "id": "9179000085", "name": "USPS COLLECTION BOX - BLUE BOX", "address": {"city": "WEST COVINA", "state": "CA", "street": "1906 W GARVEY AVE S", "postcode": "91790"}}},
{"geometry": {"type": "Point", "coordinates": [-117.9288440855, 34.0694254764]}, "type": "Feature", "properties": {"collection_times": [{"days": "Mon-Fri", "time": "5:10pm"}, {"days": "Sat", "time": "4:00pm"}, {"days": "Sun", "time": "Closed"}], "id": "9179000086", "name": "USPS COLLECTION BOX - APC", "address": {"city": "WEST COVINA", "state": "CA", "street": "396 S CALIFORNIA AVE", "postcode": "91790"}}},
{"geometry": {"type": "Point", "coordinates": [-117.9078721109, 34.0486249459]}, "type": "Feature", "properties": {"collection_times": [{"days": "Mon-Fri", "time": "5:00pm"}, {"days": "Sat", "time": "4:00pm"}, {"days": "Sun", "time": "Closed"}], "id": "9179100002", "name": "USPS COLLECTION BOX - BLUE BOX", "address": {"city": "WEST COVINA", "state": "CA", "street": "1418 S AZUSA AVE", "postcode": "91791"}}},
{"geometry": {"type": "Point", "coordinates": [-117.8889403036, 34.0708306397]}, "type": "Feature", "properties": {"collection_times": [{"days": "Mon-Fri", "time": "4:00pm"}, {"days": "Sat", "time": "3:00pm"}, {"days": "Sun", "time": "Closed"}], "id": "9179100007", "name": "USPS COLLECTION BOX - BLUE BOX", "address": {"city": "WEST COVINA", "state": "CA", "street": "2666 E GARVEY AVE S", "postcode": "91791"}}},
{"geometry": {"type": "Point", "coordinates": [-117.8835249275, 34.0746411425]}, "type": "Feature", "properties": {"collection_times": [{"days": "Mon-Fri", "time": "4:00pm"}, {"days": "Sat", "time": "3:00pm"}, {"days": "Sun", "time": "Closed"}], "id": "9179100011", "name": "USPS COLLECTION BOX - BLUE BOX", "address": {"city": "WEST COVINA", "state": "CA", "street": "2901 E EASTLAND CENTER DR", "postcode": "91791"}}},
{"geometry": {"type": "Point", "coordinates": [-117.8836597848, 34.0716080357]}, "type": "Feature", "properties": {"collection_times": [{"days": "Mon-Fri", "time": "4:00pm"}, {"days": "Sat", "time": "3:00pm"}, {"days": "Sun", "time": "Closed"}], "id": "9179100013", "name": "USPS COLLECTION BOX - BLUE BOX", "address": {"city": "WEST COVINA", "state": "CA", "street": "2934 E GARVEY AVE S", "postcode": "91791"}}},
{"geometry": {"type": "Point", "coordinates": [-117.9078721109, 34.0486249459]}, "type": "Feature", "properties": {"collection_times": [{"days": "Mon-Fri", "time": "5:00pm"}, {"days": "Sat", "time": "4:00pm"}, {"days": "Sun", "time": "Closed"}], "id": "9179100021", "name": "USPS COLLECTION BOX - BLUE BOX", "address": {"city": "WEST COVINA", "state": "CA", "street": "1418 S AZUSA AVE", "postcode": "91791"}}},
{"geometry": {"type": "Point", "coordinates": [-117.8980582651, 34.0635128815]}, "type": "Feature", "properties": {"collection_times": [{"days": "Mon-Fri", "time": "1:35pm"}, {"days": "Sat", "time": "4:00pm"}, {"days": "Sun", "time": "Closed"}], "id": "9179100022", "name": "USPS COLLECTION BOX - EXPRESS", "address": {"city": "WEST COVINA", "state": "CA", "street": "1418 S AZUSA AVE", "postcode": "91791"}}},
{"geometry": {"type": "Point", "coordinates": [-117.9078721109, 34.0486249459]}, "type": "Feature", "properties": {"collection_times": [{"days": "Mon-Fri", "time": "5:00pm"}, {"days": "Sat-Sun", "time": "Closed"}], "id": "9179100025", "name": "USPS COLLECTION BOX - PO LOBBY", "address": {"city": "WEST COVINA", "state": "CA", "street": "1418 S AZUSA AVE", "postcode": "91791"}}}
]}
