{"type": "FeatureCollection", "features": [
{"geometry": {"type": "Point", "coordinates": [-118.129399393, 34.09390185]}, "type": "Feature", "properties": {"collection_times": [{"days": "Mon-Sat", "time": "5:00pm"}, {"days": "Sun", "time": "Closed"}], "id": "9180100002", "name": "USPS COLLECTION BOX - EXPRESS", "address": {"city": "ALHAMBRA", "state": "CA", "street": "10 W BAY STATE ST", "postcode": "91801"}}},
{"geometry": {"type": "Point", "coordinates": [-118.1260291494, 34.0930278737]}, "type": "Feature", "properties": {"collection_times": [{"days": "Mon-Sat", "time": "5:00pm"}, {"days": "Sun", "time": "Closed"}], "id": "9180100008", "name": "USPS COLLECTION BOX - BLUE BOX", "address": {"city": "ALHAMBRA", "state": "CA", "street": "10 W BAY STATE ST", "postcode": "91801"}}},
{"geometry": {"type": "Point", "coordinates": [-118.12339116, 34.091486462]}, "type": "Feature", "properties": {"collection_times": [{"days": "Mon-Sat", "time": "3:30pm"}, {"days": "Sun", "time": "Closed"}], "id": "9180100012", "name": "USPS COLLECTION BOX - BLUE BOX", "address": {"city": "ALHAMBRA", "state": "CA", "street": "15 E BEACON ST", "postcode": "91801"}}},
{"geometry": {"type": "Point", "coordinates": [-118.1327916551, 34.0923002878]}, "type": "Feature", "properties": {"collection_times": [{"days": "Mon-Sat", "time": "3:30pm"}, {"days": "Sun", "time": "Closed"}], "id": "9180100014", "name": "USPS COLLECTION BOX - BLUE BOX", "address": {"city": "ALHAMBRA", "state": "CA", "street": "560 W MAIN ST", "postcode": "91801"}}},
{"geometry": {"type": "Point", "coordinates": [-118.1153269197, 34.078980236]}, "type": "Feature", "properties": {"collection_times": [{"days": "Mon-Sat", "time": "3:30pm"}, {"days": "Sun", "time": "Closed"}], "id": "9180100016", "name": "USPS COLLECTION BOX - BLUE BOX", "address": {"city": "ALHAMBRA", "state": "CA", "street": "777 E VALLEY BLVD", "postcode": "91801"}}},
{"geometry": {"type": "Point", "coordinates": [-118.1222200216, 34.0785874936]}, "type": "Feature", "properties": {"collection_times": [{"days": "Mon-Sat", "time": "3:30pm"}, {"days": "Sun", "time": "Closed"}], "id": "9180100017", "name": "USPS COLLECTION BOX - BLUE BOX", "address": {"city": "ALHAMBRA", "state": "CA", "street": "28 E VALLEY BLVD", "postcode": "91801"}}},
{"geometry": {"type": "Point", "coordinates": [-118.1204896224, 34.0786525282]}, "type": "Feature", "properties": {"collection_times": [{"days": "Mon-Sat", "time": "2:30pm"}, {"days": "Sun", "time": "Closed"}], "id": "9180100018", "name": "USPS COLLECTION BOX - BLUE BOX", "address": {"city": "ALHAMBRA", "state": "CA", "street": "230 E VALLEY BLVD", "postcode": "91801"}}},
{"geometry": {"type": "Point", "coordinates": [-118.126184958, 34.0968690626]}, "type": "Feature", "properties": {"collection_times": [{"days": "Mon-Sat", "time": "11:45am"}, {"days": "Sun", "time": "Closed"}], "id": "9180100019", "name": "USPS COLLECTION BOX - BLUE BOX", "address": {"city": "ALHAMBRA", "state": "CA", "street": "118 N STONEMAN AVE", "postcode": "91801"}}},
{"geometry": {"type": "Point", "coordinates": [-118.126415977, 34.0953713154]}, "type": "Feature", "properties": {"collection_times": [{"days": "Mon-Sat", "time": "3:30pm"}, {"days": "Sun", "time": "Closed"}], "id": "9180100021", "name": "USPS COLLECTION BOX - BLUE BOX", "address": {"city": "ALHAMBRA", "state": "CA", "street": "21 W MAIN ST", "postcode": "91801"}}},
{"geometry": {"type": "Point", "coordinates": [-118.1176360556, 34.0995660879]}, "type": "Feature", "properties": {"collection_times": [{"days": "Mon-Sat", "time": "11:45am"}, {"days": "Sun", "time": "Closed"}], "id": "9180100027", "name": "USPS COLLECTION BOX - BLUE BOX", "address": {"city": "ALHAMBRA", "state": "CA", "street": "900 E MAIN ST", "postcode": "91801"}}},
{"geometry": {"type": "Point", "coordinates": [-118.141406433, 34.0915148692]}, "type": "Feature", "properties": {"collection_times": [{"days": "Mon-Sat", "time": "3:30pm"}, {"days": "Sun", "time": "Closed"}], "id": "9180100035", "name": "USPS COLLECTION BOX - BLUE BOX", "address": {"city": "ALHAMBRA", "state": "CA", "street": "1641 W MAIN ST", "postcode": "91801"}}},
{"geometry": {"type": "Point", "coordinates": [-118.1230504588, 34.0829904669]}, "type": "Feature", "properties": {"collection_times": [{"days": "Mon-Sat", "time": "3:00pm"}, {"days": "Sun", "time": "Closed"}], "id": "9180100037", "name": "USPS COLLECTION BOX - BLUE BOX", "address": {"city": "ALHAMBRA", "state": "CA", "street": "1048 S GARFIELD AVE", "postcode": "91801"}}},
{"geometry": {"type": "Point", "coordinates": [-118.1320377271, 34.0903572049]}, "type": "Feature", "properties": {"collection_times": [{"days": "Mon-Sat", "time": "3:15pm"}, {"days": "Sun", "time": "Closed"}], "id": "9180100038", "name": "USPS COLLECTION BOX - BLUE BOX", "address": {"city": "ALHAMBRA", "state": "CA", "street": "600 IRVING ST", "postcode": "91801"}}},
{"geometry": {"type": "Point", "coordinates": [-118.1333144724, 34.0881805737]}, "type": "Feature", "properties": {"collection_times": [{"days": "Mon-Sat", "time": "3:15pm"}, {"days": "Sun", "time": "Closed"}], "id": "9180100039", "name": "USPS COLLECTION BOX - BLUE BOX", "address": {"city": "ALHAMBRA", "state": "CA", "street": "801 W COMMONWEALTH AVE", "postcode": "91801"}}},
{"geometry": {"type": "Point", "coordinates": [-118.1449488432, 34.0900902888]}, "type": "Feature", "properties": {"collection_times": [{"days": "Mon-Sat", "time": "3:30pm"}, {"days": "Sun", "time": "Closed"}], "id": "9180100040", "name": "USPS COLLECTION BOX - BLUE BOX", "address": {"city": "ALHAMBRA", "state": "CA", "street": "100 S RAYMOND AVE", "postcode": "91801"}}},
{"geometry": {"type": "Point", "coordinates": [-118.1112705534, 34.0759838009]}, "type": "Feature", "properties": {"collection_times": [{"days": "Mon-Sat", "time": "2:45pm"}, {"days": "Sun", "time": "Closed"}], "id": "9180100044", "name": "USPS COLLECTION BOX - BLUE BOX", "address": {"city": "ALHAMBRA", "state": "CA", "street": "1601 S VEGA ST", "postcode": "91801"}}},
{"geometry": {"type": "Point", "coordinates": [-118.1230469099, 34.087023174]}, "type": "Feature", "properties": {"collection_times": [{"days": "Mon-Sat", "time": "3:30pm"}, {"days": "Sun", "time": "Closed"}], "id": "9180100047", "name": "USPS COLLECTION BOX - BLUE BOX", "address": {"city": "ALHAMBRA", "state": "CA", "street": "801 S GARFIELD AVE", "postcode": "91801"}}},
{"geometry": {"type": "Point", "coordinates": [-118.1307930318, 34.1009030776]}, "type": "Feature", "properties": {"collection_times": [{"days": "Mon-Sat", "time": "3:30pm"}, {"days": "Sun", "time": "Closed"}], "id": "9180100048", "name": "USPS COLLECTION BOX - BLUE BOX", "address": {"city": "ALHAMBRA", "state": "CA", "street": "626 N GARFIELD AVE", "postcode": "91801"}}},
{"geometry": {"type": "Point", "coordinates": [-118.1340143841, 34.0989606548]}, "type": "Feature", "properties": {"collection_times": [{"days": "Mon-Sat", "time": "12:15pm"}, {"days": "Sun", "time": "Closed"}], "id": "9180100049", "name": "USPS COLLECTION BOX - BLUE BOX", "address": {"city": "ALHAMBRA", "state": "CA", "street": "320 W ALHAMBRA RD", "postcode": "91801"}}},
{"geometry": {"type": "Point", "coordinates": [-118.1090707681, 34.0793452647]}, "type": "Feature", "properties": {"collection_times": [{"days": "Mon-Sat", "time": "3:30pm"}, {"days": "Sun", "time": "Closed"}], "id": "9180100051", "name": "USPS COLLECTION BOX - BLUE BOX", "address": {"city": "ALHAMBRA", "state": "CA", "street": "1429 E VALLEY BLVD", "postcode": "91801"}}},
{"geometry": {"type": "Point", "coordinates": [-118.1113521776, 34.0843958221]}, "type": "Feature", "properties": {"collection_times": [{"days": "Mon-Sat", "time": "2:45pm"}, {"days": "Sun", "time": "Closed"}], "id": "9180100053", "name": "USPS COLLECTION BOX - BLUE BOX", "address": {"city": "ALHAMBRA", "state": "CA", "street": "1000 S VEGA ST", "postcode": "91801"}}},
{"geometry": {"type": "Point", "coordinates": [-118.1328512738, 34.1052395591]}, "type": "Feature", "properties": {"collection_times": [{"days": "Mon-Sat", "time": "12:00pm"}, {"days": "Sun", "time": "Closed"}], "id": "9180100057", "name": "USPS COLLECTION BOX - BLUE BOX", "address": {"city": "ALHAMBRA", "state": "CA", "street": "1100 N STONEMAN AVE", "postcode": "91801"}}},
{"geometry": {"type": "Point", "coordinates": [-118.1243357753, 34.0964413786]}, "type": "Feature", "properties": {"collection_times": [{"days": "Mon-Sat", "time": "11:45am"}, {"days": "Sun", "time": "Closed"}], "id": "9180100060", "name": "USPS COLLECTION BOX - BLUE BOX", "address": {"city": "ALHAMBRA", "state": "CA", "street": "245 E MAIN ST", "postcode": "91801"}}},
{"geometry": {"type": "Point", "coordinates": [-118.1543267108, 34.0950779416]}, "type": "Feature", "properties": {"collection_times": [{"days": "Mon-Sat", "time": "12:30pm"}, {"days": "Sun", "time": "Closed"}], "id": "9180100061", "name": "USPS COLLECTION BOX - BLUE BOX", "address": {"city": "ALHAMBRA", "state": "CA", "street": "2800 W MAIN ST", "postcode": "91801"}}},
{"geometry": {"type": "Point", "coordinates": [-118.1232385492, 34.0969008813]}, "type": "Feature", "properties": {"collection_times": [{"days": "Mon-Sat", "time": "3:30pm"}, {"days": "Sun", "time": "Closed"}], "id": "9180100062", "name": "USPS COLLECTION BOX - BLUE BOX", "address": {"city": "ALHAMBRA", "state": "CA", "street": "345 E MAIN ST", "postcode": "91801"}}},
{"geometry": {"type": "Point", "coordinates": [-118.1233443476, 34.0901788649]}, "type": "Feature", "properties": {"collection_times": [{"days": "Mon-Sat", "time": "3:30pm"}, {"days": "Sun", "time": "Closed"}], "id": "9180100063", "name": "USPS COLLECTION BOX - BLUE BOX", "address": {"city": "ALHAMBRA", "state": "CA", "street": "430 S GARFIELD AVE", "postcode": "91801"}}},
{"geometry": {"type": "Point", "coordinates": [-118.1260291494, 34.0930278737]}, "type": "Feature", "properties": {"collection_times": [{"days": "Mon-Sat", "time": "5:00pm"}, {"days": "Sun", "time": "Closed"}], "id": "9180100065", "name": "USPS COLLECTION BOX - APC", "address": {"city": "ALHAMBRA", "state": "CA", "street": "10 W BAY STATE ST", "postcode": "91801"}}},
{"geometry": {"type": "Point", "coordinates": [-118.1260291494, 34.0930278737]}, "type": "Feature", "properties": {"collection_times": [{"days": "Mon-Sat", "time": "5:00pm"}, {"days": "Sun", "time": "Closed"}], "id": "9180100066", "name": "USPS COLLECTION BOX - BLUE BOX", "address": {"city": "ALHAMBRA", "state": "CA", "street": "10 E BAY STATE ST", "postcode": "91801"}}},
{"geometry": {"type": "Point", "coordinates": [-118.1401253558, 34.0777014803]}, "type": "Feature", "properties": {"collection_times": [{"days": "Mon-Sat", "time": "5:00pm"}, {"days": "Sun", "time": "Closed"}], "id": "9180300000", "name": "USPS COLLECTION BOX - BLUE BOX", "address": {"city": "ALHAMBRA", "state": "CA", "street": "1603 W VALLEY BLVD", "postcode": "91803"}}},
{"geometry": {"type": "Point", "coordinates": [-118.1401253558, 34.0777014803]}, "type": "Feature", "properties": {"collection_times": [{"days": "Mon-Sat", "time": "5:00pm"}, {"days": "Sun", "time": "Closed"}], "id": "9180300001", "name": "USPS COLLECTION BOX - BLUE BOX", "address": {"city": "ALHAMBRA", "state": "CA", "street": "1603 W VALLEY BLVD", "postcode": "91803"}}},
{"geometry": {"type": "Point", "coordinates": [-118.1255039157, 34.0761849039]}, "type": "Feature", "properties": {"collection_times": [{"days": "Mon-Sat", "time": "2:30pm"}, {"days": "Sun", "time": "Closed"}], "id": "9180300004", "name": "USPS COLLECTION BOX - BLUE BOX", "address": {"city": "ALHAMBRA", "state": "CA", "street": "1525 S 3RD ST", "postcode": "91803"}}},
{"geometry": {"type": "Point", "coordinates": [-118.1324921976, 34.0780809988]}, "type": "Feature", "properties": {"collection_times": [{"days": "Mon-Sat", "time": "3:30pm"}, {"days": "Sun", "time": "Closed"}], "id": "9180300005", "name": "USPS COLLECTION BOX - BLUE BOX", "address": {"city": "ALHAMBRA", "state": "CA", "street": "855 W VALLEY BLVD", "postcode": "91803"}}},
{"geometry": {"type": "Point", "coordinates": [-118.1464659407, 34.0838011373]}, "type": "Feature", "properties": {"collection_times": [{"days": "Mon-Sat", "time": "12:45pm"}, {"days": "Sun", "time": "Closed"}], "id": "9180300006", "name": "USPS COLLECTION BOX - BLUE BOX", "address": {"city": "ALHAMBRA", "state": "CA", "street": "608 S PALM AVE", "postcode": "91803"}}},
{"geometry": {"type": "Point", "coordinates": [-118.150000496, 34.0840059728]}, "type": "Feature", "properties": {"collection_times": [{"days": "Mon-Sat", "time": "3:30pm"}, {"days": "Sun", "time": "Closed"}], "id": "9180300009", "name": "USPS COLLECTION BOX - BLUE BOX", "address": {"city": "ALHAMBRA", "state": "CA", "street": "2400 W ORANGE ST", "postcode": "91803"}}},
{"geometry": {"type": "Point", "coordinates": [-118.150000496, 34.0840059728]}, "type": "Feature", "properties": {"collection_times": [{"days": "Mon-Sat", "time": "3:30pm"}, {"days": "Sun", "time": "Closed"}], "id": "9180300010", "name": "USPS COLLECTION BOX - BLUE BOX", "address": {"city": "ALHAMBRA", "state": "CA", "street": "2400 W ORANGE ST", "postcode": "91803"}}},
{"geometry": {"type": "Point", "coordinates": [-118.1550033634, 34.0647811795]}, "type": "Feature", "properties": {"collection_times": [{"days": "Mon-Sat", "time": "1:15pm"}, {"days": "Sun", "time": "Closed"}], "id": "9180300012", "name": "USPS COLLECTION BOX - BLUE BOX", "address": {"city": "ALHAMBRA", "state": "CA", "street": "2901 MONTEZUMA AVE", "postcode": "91803"}}},
{"geometry": {"type": "Point", "coordinates": [-118.1280642176, 34.07604813]}, "type": "Feature", "properties": {"collection_times": [{"days": "Mon-Sat", "time": "2:30pm"}, {"days": "Sun", "time": "Closed"}], "id": "9180300014", "name": "USPS COLLECTION BOX - BLUE BOX", "address": {"city": "ALHAMBRA", "state": "CA", "street": "501 W NORWOOD PL", "postcode": "91803"}}},
{"geometry": {"type": "Point", "coordinates": [-118.1551857681, 34.0875953948]}, "type": "Feature", "properties": {"collection_times": [{"days": "Mon-Sat", "time": "12:45pm"}, {"days": "Sun", "time": "Closed"}], "id": "9180300017", "name": "USPS COLLECTION BOX - BLUE BOX", "address": {"city": "ALHAMBRA", "state": "CA", "street": "2900 W COMMONWEALTH AVE", "postcode": "91803"}}},
{"geometry": {"type": "Point", "coordinates": [-118.1367262929, 34.0778677873]}, "type": "Feature", "properties": {"collection_times": [{"days": "Mon-Sat", "time": "1:30pm"}, {"days": "Sun", "time": "Closed"}], "id": "9180300020", "name": "USPS COLLECTION BOX - BLUE BOX", "address": {"city": "ALHAMBRA", "state": "CA", "street": "1227 W VALLEY BLVD", "postcode": "91803"}}},
{"geometry": {"type": "Point", "coordinates": [-118.1556859307, 34.0696277624]}, "type": "Feature", "properties": {"collection_times": [{"days": "Mon-Sat", "time": "1:00pm"}, {"days": "Sun", "time": "Closed"}], "id": "9180300030", "name": "USPS COLLECTION BOX - BLUE BOX", "address": {"city": "ALHAMBRA", "state": "CA", "street": "2821 W HELLMAN AVE", "postcode": "91803"}}},
{"geometry": {"type": "Point", "coordinates": [-118.1490862026, 34.0770579277]}, "type": "Feature", "properties": {"collection_times": [{"days": "Mon-Sat", "time": "1:15pm"}, {"days": "Sun", "time": "Closed"}], "id": "9180300031", "name": "USPS COLLECTION BOX - BLUE BOX", "address": {"city": "ALHAMBRA", "state": "CA", "street": "2300 W VALLEY BLVD", "postcode": "91803"}}},
{"geometry": {"type": "Point", "coordinates": [-118.1443071068, 34.0753312965]}, "type": "Feature", "properties": {"collection_times": [{"days": "Mon-Sat", "time": "4:45pm"}, {"days": "Sun", "time": "Closed"}], "id": "9180300037", "name": "USPS COLLECTION BOX - EXPRESS", "address": {"city": "ALHAMBRA", "state": "CA", "street": "1603 W VALLEY BLVD", "postcode": "91803"}}},
{"geometry": {"type": "Point", "coordinates": [-118.1467367893, 34.0879170963]}, "type": "Feature", "properties": {"collection_times": [{"days": "Mon-Sat", "time": "3:30pm"}, {"days": "Sun", "time": "Closed"}], "id": "9180300038", "name": "USPS COLLECTION BOX - BLUE BOX", "address": {"city": "ALHAMBRA", "state": "CA", "street": "2107 W COMMONWEALTH #D", "postcode": "91803"}}},
{"geometry": {"type": "Point", "coordinates": [-118.149120225, 34.0841166669]}, "type": "Feature", "properties": {"collection_times": [{"days": "Mon-Sat", "time": "3:30pm"}, {"days": "Sun", "time": "Closed"}], "id": "9180300039", "name": "USPS COLLECTION BOX - BLUE BOX", "address": {"city": "ALHAMBRA", "state": "CA", "street": "2301 W ORANGE ST", "postcode": "91803"}}},
{"geometry": {"type": "Point", "coordinates": [-118.150000496, 34.0840059728]}, "type": "Feature", "properties": {"collection_times": [{"days": "Mon-Sat", "time": "3:30pm"}, {"days": "Sun", "time": "Closed"}], "id": "9180300040", "name": "USPS COLLECTION BOX - BLUE BOX", "address": {"city": "ALHAMBRA", "state": "CA", "street": "2400 W ORANGE ST", "postcode": "91803"}}}
]}
