{"type": "FeatureCollection", "features": [
{"geometry": {"type": "Point", "coordinates": [-116.7553391986, 32.8268634862]}, "type": "Feature", "properties": {"collection_times": [{"days": "Mon-Fri", "time": "4:45pm"}, {"days": "Sat", "time": "5:00pm"}, {"days": "Sun", "time": "Closed"}], "id": "9190100003", "name": "USPS COLLECTION BOX - BLUE BOX", "address": {"city": "ALPINE", "state": "CA", "street": "2127 ARNOLD WAY", "postcode": "91901"}}},
{"geometry": {"type": "Point", "coordinates": [-116.7806972369, 32.8415034241]}, "type": "Feature", "properties": {"collection_times": [{"days": "Mon-Sat", "time": "5:00pm"}, {"days": "Sun", "time": "Closed"}], "id": "9190100007", "name": "USPS COLLECTION BOX - BLUE BOX", "address": {"city": "ALPINE", "state": "CA", "street": "1140 TAVERN RD", "postcode": "91901"}}},
{"geometry": {"type": "Point", "coordinates": [-116.7553391986, 32.8268634862]}, "type": "Feature", "properties": {"collection_times": [{"days": "Mon-Fri", "time": "4:45pm"}, {"days": "Sat", "time": "5:00pm"}, {"days": "Sun", "time": "Closed"}], "id": "9190100008", "name": "USPS COLLECTION BOX - BLUE BOX", "address": {"city": "ALPINE", "state": "CA", "street": "2127 ARNOLD WAY", "postcode": "91901"}}},
{"geometry": {"type": "Point", "coordinates": [-116.7553391986, 32.8268634862]}, "type": "Feature", "properties": {"collection_times": [{"days": "Mon-Fri", "time": "4:45pm"}, {"days": "Sat", "time": "5:00pm"}, {"days": "Sun", "time": "Closed"}], "id": "9190100009", "name": "USPS COLLECTION BOX - EXPRESS", "address": {"city": "ALPINE", "state": "CA", "street": "2127 ARNOLD WAY", "postcode": "91901"}}},
{"geometry": {"type": "Point", "coordinates": [-116.7553391986, 32.8268634862]}, "type": "Feature", "properties": {"collection_times": [{"days": "Mon-Sat", "time": "12:00pm"}, {"days": "Sun", "time": "Closed"}], "id": "9190100010", "name": "USPS COLLECTION BOX - PO LOBBY", "address": {"city": "ALPINE", "state": "CA", "street": "2127 ARNOLD WAY", "postcode": "91901"}}},
{"geometry": {"type": "Point", "coordinates": [-117.0208840422, 32.6692728795]}, "type": "Feature", "properties": {"collection_times": [{"days": "Mon-Fri", "time": "5:00pm"}, {"days": "Sat", "time": "2:30pm"}, {"days": "Sun", "time": "Closed"}], "id": "9190200004", "name": "USPS COLLECTION BOX - BLUE BOX", "address": {"city": "BONITA", "state": "CA", "street": "5073 CENTRAL AVE", "postcode": "91902"}}},
{"geometry": {"type": "Point", "coordinates": [-117.0208840422, 32.6692728795]}, "type": "Feature", "properties": {"collection_times": [{"days": "Mon-Fri", "time": "5:00pm"}, {"days": "Sat", "time": "2:30pm"}, {"days": "Sun", "time": "Closed"}], "id": "9190200005", "name": "USPS COLLECTION BOX - BLUE BOX", "address": {"city": "BONITA", "state": "CA", "street": "5073 CENTRAL AVE", "postcode": "91902"}}},
{"geometry": {"type": "Point", "coordinates": [-117.0208840422, 32.6692728795]}, "type": "Feature", "properties": {"collection_times": [{"days": "Mon-Fri", "time": "5:00pm"}, {"days": "Sat", "time": "2:30pm"}, {"days": "Sun", "time": "Closed"}], "id": "9190200008", "name": "USPS COLLECTION BOX - BLUE BOX", "address": {"city": "BONITA", "state": "CA", "street": "5073 CENTRAL AVE", "postcode": "91902"}}},
{"geometry": {"type": "Point", "coordinates": [-117.0208840422, 32.6692728795]}, "type": "Feature", "properties": {"collection_times": [{"days": "Mon-Fri", "time": "5:00pm"}, {"days": "Sat", "time": "2:30pm"}, {"days": "Sun", "time": "Closed"}], "id": "9190200010", "name": "USPS COLLECTION BOX - BLUE BOX", "address": {"city": "BONITA", "state": "CA", "street": "5073 CENTRAL AVE", "postcode": "91902"}}},
{"geometry": {"type": "Point", "coordinates": [-117.0208840422, 32.6692728795]}, "type": "Feature", "properties": {"collection_times": [{"days": "Mon-Fri", "time": "5:00pm"}, {"days": "Sat", "time": "2:30pm"}, {"days": "Sun", "time": "Closed"}], "id": "9190200011", "name": "USPS COLLECTION BOX - BLUE BOX", "address": {"city": "BONITA", "state": "CA", "street": "5073 CENTRAL AVE", "postcode": "91902"}}},
{"geometry": {"type": "Point", "coordinates": [-117.0241690339, 32.6645818757]}, "type": "Feature", "properties": {"collection_times": [{"days": "Mon-Fri", "time": "5:00pm"}, {"days": "Sat", "time": "2:30pm"}, {"days": "Sun", "time": "Closed"}], "id": "9190200013", "name": "USPS COLLECTION BOX - EXPRESS", "address": {"city": "BONITA", "state": "CA", "street": "5073 CENTRAL AVE", "postcode": "91902"}}},
{"geometry": {"type": "Point", "coordinates": [-117.0208840422, 32.6692728795]}, "type": "Feature", "properties": {"collection_times": [{"days": "Mon-Fri", "time": "5:00pm"}, {"days": "Sat", "time": "2:30pm"}, {"days": "Sun", "time": "Closed"}], "id": "9190200016", "name": "USPS COLLECTION BOX - APC", "address": {"city": "BONITA", "state": "CA", "street": "5073 CENTRAL AVE", "postcode": "91902"}}},
{"geometry": {"type": "Point", "coordinates": [-117.0395940631, 32.6587749744]}, "type": "Feature", "properties": {"collection_times": [{"days": "Mon-Fri", "time": "12:30pm"}, {"days": "Sat", "time": "11:00am"}, {"days": "Sun", "time": "Closed"}], "id": "9190200017", "name": "USPS COLLECTION BOX - BLUE BOX", "address": {"city": "BONITA", "state": "CA", "street": "4055 BONITA RD", "postcode": "91902"}}},
{"geometry": {"type": "Point", "coordinates": [-116.3138084297, 32.666393743]}, "type": "Feature", "properties": {"collection_times": [{"days": "Mon-Sat", "time": "4:00pm"}, {"days": "Sun", "time": "Closed"}], "id": "9190500001", "name": "USPS COLLECTION BOX - BLUE BOX", "address": {"city": "BOULEVARD", "state": "CA", "street": "39550 OLD HIGHWAY 80", "postcode": "91905"}}},
{"geometry": {"type": "Point", "coordinates": [-116.3138084297, 32.666393743]}, "type": "Feature", "properties": {"collection_times": [{"days": "Mon-Sat", "time": "12:00pm"}, {"days": "Sun", "time": "Closed"}], "id": "9190500003", "name": "USPS COLLECTION BOX - PO LOBBY", "address": {"city": "BOULEVARD", "state": "CA", "street": "39550 OLD HIGHWAY 80", "postcode": "91905"}}},
{"geometry": {"type": "Point", "coordinates": [-116.462529278, 32.6530719562]}, "type": "Feature", "properties": {"collection_times": [{"days": "Mon-Fri", "time": "4:00pm"}, {"days": "Sat", "time": "12:00pm"}, {"days": "Sun", "time": "Closed"}], "id": "9190600001", "name": "USPS COLLECTION BOX - BLUE BOX", "address": {"city": "CAMPO", "state": "CA", "street": "951 JEB STUART RD", "postcode": "91906"}}},
{"geometry": {"type": "Point", "coordinates": [-116.462529278, 32.6530719562]}, "type": "Feature", "properties": {"collection_times": [{"days": "Mon-Sat", "time": "12:00pm"}, {"days": "Sun", "time": "Closed"}], "id": "9190600003", "name": "USPS COLLECTION BOX - PO LOBBY", "address": {"city": "CAMPO", "state": "CA", "street": "951 JEB STUART RD", "postcode": "91906"}}},
{"geometry": {"type": "Point", "coordinates": [-116.9942334256, 32.6420434993]}, "type": "Feature", "properties": {"collection_times": [{"days": "Mon-Fri", "time": "2:00pm"}, {"days": "Sat", "time": "9:00am"}, {"days": "Sun", "time": "Closed"}], "id": "9191000002", "name": "USPS COLLECTION BOX - BLUE BOX", "address": {"city": "CHULA VISTA", "state": "CA", "street": "900 OTAY LAKES RD", "postcode": "91910"}}},
{"geometry": {"type": "Point", "coordinates": [-117.0718139745, 32.6437907605]}, "type": "Feature", "properties": {"collection_times": [{"days": "Mon-Sat", "time": "10:30am"}, {"days": "Sun", "time": "Closed"}], "id": "9191000004", "name": "USPS COLLECTION BOX - BLUE BOX", "address": {"city": "CHULA VISTA", "state": "CA", "street": "99 F ST", "postcode": "91910"}}},
{"geometry": {"type": "Point", "coordinates": [-117.0821761636, 32.6560630204]}, "type": "Feature", "properties": {"collection_times": [{"days": "Mon-Sat", "time": "10:30am"}, {"days": "Sun", "time": "Closed"}], "id": "9191000005", "name": "USPS COLLECTION BOX - BLUE BOX", "address": {"city": "CHULA VISTA", "state": "CA", "street": "122 N 2ND AVE", "postcode": "91910"}}},
{"geometry": {"type": "Point", "coordinates": [-117.0802571105, 32.6449739293]}, "type": "Feature", "properties": {"collection_times": [{"days": "Mon-Sat", "time": "2:00pm"}, {"days": "Sun", "time": "Closed"}], "id": "9191000014", "name": "USPS COLLECTION BOX - BLUE BOX", "address": {"city": "CHULA VISTA", "state": "CA", "street": "200 CHURCH AVE", "postcode": "91910"}}},
{"geometry": {"type": "Point", "coordinates": [-117.0958316943, 32.640609478]}, "type": "Feature", "properties": {"collection_times": [{"days": "Mon-Sat", "time": "10:30am"}, {"days": "Sun", "time": "Closed"}], "id": "9191000020", "name": "USPS COLLECTION BOX - BLUE BOX", "address": {"city": "CHULA VISTA", "state": "CA", "street": "646 E ST", "postcode": "91910"}}},
{"geometry": {"type": "Point", "coordinates": [-117.0519639231, 32.640373192]}, "type": "Feature", "properties": {"collection_times": [{"days": "Mon-Sat", "time": "2:00pm"}, {"days": "Sun", "time": "Closed"}], "id": "9191000022", "name": "USPS COLLECTION BOX - BLUE BOX", "address": {"city": "CHULA VISTA", "state": "CA", "street": "320 E H ST", "postcode": "91910"}}},
{"geometry": {"type": "Point", "coordinates": [-117.0675446756, 32.6408806814]}, "type": "Feature", "properties": {"collection_times": [{"days": "Mon-Sat", "time": "10:30am"}, {"days": "Sun", "time": "Closed"}], "id": "9191000026", "name": "USPS COLLECTION BOX - BLUE BOX", "address": {"city": "CHULA VISTA", "state": "CA", "street": "30 G ST", "postcode": "91910"}}},
{"geometry": {"type": "Point", "coordinates": [-117.0669586478, 32.638750864]}, "type": "Feature", "properties": {"collection_times": [{"days": "Mon-Sat", "time": "10:30am"}, {"days": "Sun", "time": "Closed"}], "id": "9191000028", "name": "USPS COLLECTION BOX - BLUE BOX", "address": {"city": "CHULA VISTA", "state": "CA", "street": "491 OAKLAWN AVE", "postcode": "91910"}}},
{"geometry": {"type": "Point", "coordinates": [-117.1040791803, 32.6274718415]}, "type": "Feature", "properties": {"collection_times": [{"days": "Mon-Sat", "time": "10:30am"}, {"days": "Sun", "time": "Closed"}], "id": "9191000037", "name": "USPS COLLECTION BOX - BLUE BOX", "address": {"city": "CHULA VISTA", "state": "CA", "street": "460 SANDPIPER WAY", "postcode": "91910"}}},
{"geometry": {"type": "Point", "coordinates": [-117.0415861235, 32.6287443151]}, "type": "Feature", "properties": {"collection_times": [{"days": "Mon-Sat", "time": "1:30pm"}, {"days": "Sun", "time": "Closed"}], "id": "9191000039", "name": "USPS COLLECTION BOX - BLUE BOX", "address": {"city": "CHULA VISTA", "state": "CA", "street": "513 TELEGRAPH CANYON RD", "postcode": "91910"}}},
{"geometry": {"type": "Point", "coordinates": [-117.088639689, 32.6290314084]}, "type": "Feature", "properties": {"collection_times": [{"days": "Mon-Sat", "time": "2:00pm"}, {"days": "Sun", "time": "Closed"}], "id": "9191000043", "name": "USPS COLLECTION BOX - BLUE BOX", "address": {"city": "CHULA VISTA", "state": "CA", "street": "555 BROADWAY", "postcode": "91910"}}},
{"geometry": {"type": "Point", "coordinates": [-117.0739255563, 32.6258263456]}, "type": "Feature", "properties": {"collection_times": [{"days": "Mon-Sat", "time": "5:00pm"}, {"days": "Sun", "time": "Closed"}], "id": "9191000046", "name": "USPS COLLECTION BOX - BLUE BOX", "address": {"city": "CHULA VISTA", "state": "CA", "street": "750 3RD AVE", "postcode": "91910"}}},
{"geometry": {"type": "Point", "coordinates": [-117.0739255563, 32.6258263456]}, "type": "Feature", "properties": {"collection_times": [{"days": "Mon-Sat", "time": "5:00pm"}, {"days": "Sun", "time": "Closed"}], "id": "9191000047", "name": "USPS COLLECTION BOX - BLUE BOX", "address": {"city": "CHULA VISTA", "state": "CA", "street": "750 3RD AVE", "postcode": "91910"}}},
{"geometry": {"type": "Point", "coordinates": [-117.0670281682, 32.638694333]}, "type": "Feature", "properties": {"collection_times": [{"days": "Mon-Sat", "time": "5:00pm"}, {"days": "Sun", "time": "Closed"}], "id": "9191000048", "name": "USPS COLLECTION BOX - EXPRESS", "address": {"city": "CHULA VISTA", "state": "CA", "street": "750 3RD AVE", "postcode": "91910"}}},
{"geometry": {"type": "Point", "coordinates": [-117.0004889199, 32.6443814751]}, "type": "Feature", "properties": {"collection_times": [{"days": "Mon-Sat", "time": "2:00pm"}, {"days": "Sun", "time": "Closed"}], "id": "9191000049", "name": "USPS COLLECTION BOX - BLUE BOX", "address": {"city": "CHULA VISTA", "state": "CA", "street": "1479 E H ST", "postcode": "91910"}}},
{"geometry": {"type": "Point", "coordinates": [-117.0799401997, 32.6414312043]}, "type": "Feature", "properties": {"collection_times": [{"days": "Mon-Sat", "time": "4:00pm"}, {"days": "Sun", "time": "Closed"}], "id": "9191000053", "name": "USPS COLLECTION BOX - BLUE BOX", "address": {"city": "CHULA VISTA", "state": "CA", "street": "299 3RD AVE", "postcode": "91910"}}},
{"geometry": {"type": "Point", "coordinates": [-117.0739255563, 32.6258263456]}, "type": "Feature", "properties": {"collection_times": [{"days": "Mon-Sat", "time": "5:00pm"}, {"days": "Sun", "time": "Closed"}], "id": "9191000058", "name": "USPS COLLECTION BOX - BLUE BOX", "address": {"city": "CHULA VISTA", "state": "CA", "street": "750 3RD AVE", "postcode": "91910"}}},
{"geometry": {"type": "Point", "coordinates": [-117.0112522496, 32.6385349745]}, "type": "Feature", "properties": {"collection_times": [{"days": "Mon-Sat", "time": "10:30am"}, {"days": "Sun", "time": "Closed"}], "id": "9191000064", "name": "USPS COLLECTION BOX - BLUE BOX", "address": {"city": "CHULA VISTA", "state": "CA", "street": "896 PASEO RANCHERO", "postcode": "91910"}}},
{"geometry": {"type": "Point", "coordinates": [-117.0739255563, 32.6258263456]}, "type": "Feature", "properties": {"collection_times": [{"days": "Mon-Sat", "time": "5:00pm"}, {"days": "Sun", "time": "Closed"}], "id": "9191000066", "name": "USPS COLLECTION BOX - APC", "address": {"city": "CHULA VISTA", "state": "CA", "street": "750 3RD AVE", "postcode": "91910"}}},
{"geometry": {"type": "Point", "coordinates": [-117.0728304797, 32.6233423081]}, "type": "Feature", "properties": {"collection_times": [{"days": "Mon-Sat", "time": "10:00am"}, {"days": "Sun", "time": "Closed"}], "id": "9191100001", "name": "USPS COLLECTION BOX - BLUE BOX", "address": {"city": "CHULA VISTA", "state": "CA", "street": "815 3RD AVE", "postcode": "91911"}}},
{"geometry": {"type": "Point", "coordinates": [-117.0660393758, 32.6060412413]}, "type": "Feature", "properties": {"collection_times": [{"days": "Mon-Sat", "time": "10:30am"}, {"days": "Sun", "time": "Closed"}], "id": "9191100002", "name": "USPS COLLECTION BOX - BLUE BOX", "address": {"city": "CHULA VISTA", "state": "CA", "street": "1321 3RD AVE", "postcode": "91911"}}},
{"geometry": {"type": "Point", "coordinates": [-117.0840631544, 32.6173404784]}, "type": "Feature", "properties": {"collection_times": [{"days": "Mon-Sat", "time": "10:00am"}, {"days": "Sun", "time": "Closed"}], "id": "9191100006", "name": "USPS COLLECTION BOX - BLUE BOX", "address": {"city": "CHULA VISTA", "state": "CA", "street": "897 BROADWAY", "postcode": "91911"}}},
{"geometry": {"type": "Point", "coordinates": [-117.0514919225, 32.6024297832]}, "type": "Feature", "properties": {"collection_times": [{"days": "Mon-Sat", "time": "10:30am"}, {"days": "Sun", "time": "Closed"}], "id": "9191100007", "name": "USPS COLLECTION BOX - BLUE BOX", "address": {"city": "CHULA VISTA", "state": "CA", "street": "1440 HILLTOP DR", "postcode": "91911"}}},
{"geometry": {"type": "Point", "coordinates": [-117.0880808432, 32.6101178335]}, "type": "Feature", "properties": {"collection_times": [{"days": "Mon-Sat", "time": "10:30am"}, {"days": "Sun", "time": "Closed"}], "id": "9191100008", "name": "USPS COLLECTION BOX - BLUE BOX", "address": {"city": "CHULA VISTA", "state": "CA", "street": "1100 INDUSTRIAL BLVD", "postcode": "91911"}}},
{"geometry": {"type": "Point", "coordinates": [-117.0849377031, 32.5949533784]}, "type": "Feature", "properties": {"collection_times": [{"days": "Mon-Sat", "time": "10:30am"}, {"days": "Sun", "time": "Closed"}], "id": "9191100010", "name": "USPS COLLECTION BOX - BLUE BOX", "address": {"city": "CHULA VISTA", "state": "CA", "street": "2260 MAIN ST", "postcode": "91911"}}},
{"geometry": {"type": "Point", "coordinates": [-117.0401594675, 32.5947136286]}, "type": "Feature", "properties": {"collection_times": [{"days": "Mon-Sat", "time": "10:30am"}, {"days": "Sun", "time": "Closed"}], "id": "9191100011", "name": "USPS COLLECTION BOX - BLUE BOX", "address": {"city": "CHULA VISTA", "state": "CA", "street": "1700 MELROSE AVE", "postcode": "91911"}}},
{"geometry": {"type": "Point", "coordinates": [-117.0393829035, 32.6053122736]}, "type": "Feature", "properties": {"collection_times": [{"days": "Mon-Sat", "time": "10:30am"}, {"days": "Sun", "time": "Closed"}], "id": "9191100012", "name": "USPS COLLECTION BOX - BLUE BOX", "address": {"city": "CHULA VISTA", "state": "CA", "street": "1480 MELROSE AVE", "postcode": "91911"}}},
{"geometry": {"type": "Point", "coordinates": [-117.0346868074, 32.610104821]}, "type": "Feature", "properties": {"collection_times": [{"days": "Mon-Sat", "time": "10:30am"}, {"days": "Sun", "time": "Closed"}], "id": "9191100013", "name": "USPS COLLECTION BOX - BLUE BOX", "address": {"city": "CHULA VISTA", "state": "CA", "street": "1418 OLEANDER AVE", "postcode": "91911"}}},
{"geometry": {"type": "Point", "coordinates": [-117.0799186031, 32.6061801786]}, "type": "Feature", "properties": {"collection_times": [{"days": "Mon-Sat", "time": "10:30am"}, {"days": "Sun", "time": "Closed"}], "id": "9191100019", "name": "USPS COLLECTION BOX - BLUE BOX", "address": {"city": "CHULA VISTA", "state": "CA", "street": "1208 BROADWAY", "postcode": "91911"}}},
{"geometry": {"type": "Point", "coordinates": [-117.0235847375, 32.6182116388]}, "type": "Feature", "properties": {"collection_times": [{"days": "Mon-Sat", "time": "1:00pm"}, {"days": "Sun", "time": "Closed"}], "id": "9191100021", "name": "USPS COLLECTION BOX - BLUE BOX", "address": {"city": "CHULA VISTA", "state": "CA", "street": "750 MEDICAL CENTER CT", "postcode": "91911"}}},
{"geometry": {"type": "Point", "coordinates": [-117.068746778, 32.6100078215]}, "type": "Feature", "properties": {"collection_times": [{"days": "Mon-Fri", "time": "5:00pm"}, {"days": "Sat", "time": "1:00pm"}, {"days": "Sun", "time": "Closed"}], "id": "9191100024", "name": "USPS COLLECTION BOX - BLUE BOX", "address": {"city": "CHULA VISTA", "state": "CA", "street": "340 OXFORD ST", "postcode": "91911"}}},
{"geometry": {"type": "Point", "coordinates": [-117.0601065744, 32.6078013439]}, "type": "Feature", "properties": {"collection_times": [{"days": "Mon-Fri", "time": "5:00pm"}, {"days": "Sat", "time": "1:00pm"}, {"days": "Sun", "time": "Closed"}], "id": "9191100025", "name": "USPS COLLECTION BOX - EXPRESS", "address": {"city": "CHULA VISTA", "state": "CA", "street": "340 OXFORD ST", "postcode": "91911"}}},
{"geometry": {"type": "Point", "coordinates": [-117.02929, 32.6017]}, "type": "Feature", "properties": {"collection_times": [{"days": "Mon-Sat", "time": "10:30am"}, {"days": "Sun", "time": "Closed"}], "id": "9191100027", "name": "USPS COLLECTION BOX - BLUE BOX", "address": {"city": "CHULA VISTA", "state": "CA", "street": "1655 BRANDYWINE AVE", "postcode": "91911"}}},
{"geometry": {"type": "Point", "coordinates": [-117.068746778, 32.6100078215]}, "type": "Feature", "properties": {"collection_times": [{"days": "Mon-Fri", "time": "5:00pm"}, {"days": "Sat", "time": "1:00pm"}, {"days": "Sun", "time": "Closed"}], "id": "9191100028", "name": "USPS COLLECTION BOX - BLUE BOX", "address": {"city": "CHULA VISTA", "state": "CA", "street": "340 OXFORD ST", "postcode": "91911"}}},
{"geometry": {"type": "Point", "coordinates": [-116.9834821582, 32.6455988164]}, "type": "Feature", "properties": {"collection_times": [{"days": "Mon-Sat", "time": "11:00am"}, {"days": "Sun", "time": "Closed"}], "id": "9191300003", "name": "USPS COLLECTION BOX - BLUE BOX", "address": {"city": "CHULA VISTA", "state": "CA", "street": "900 RUTGERS AVE", "postcode": "91913"}}},
{"geometry": {"type": "Point", "coordinates": [-116.9643687232, 32.6607843409]}, "type": "Feature", "properties": {"collection_times": [{"days": "Mon-Fri", "time": "5:00pm"}, {"days": "Sat", "time": "2:00pm"}, {"days": "Sun", "time": "Closed"}], "id": "9191400006", "name": "USPS COLLECTION BOX - EXPRESS", "address": {"city": "CHULA VISTA", "state": "CA", "street": "830 KUHN DR", "postcode": "91914"}}},
{"geometry": {"type": "Point", "coordinates": [-116.9668945759, 32.6530231716]}, "type": "Feature", "properties": {"collection_times": [{"days": "Mon-Fri", "time": "5:00pm"}, {"days": "Sat", "time": "2:00pm"}, {"days": "Sun", "time": "Closed"}], "id": "9191400007", "name": "USPS COLLECTION BOX - BLUE BOX", "address": {"city": "CHULA VISTA", "state": "CA", "street": "830 KUHN DR", "postcode": "91914"}}},
{"geometry": {"type": "Point", "coordinates": [-116.9668945759, 32.6530231716]}, "type": "Feature", "properties": {"collection_times": [{"days": "Mon-Fri", "time": "5:00pm"}, {"days": "Sat", "time": "2:00pm"}, {"days": "Sun", "time": "Closed"}], "id": "9191400008", "name": "USPS COLLECTION BOX - BLUE BOX", "address": {"city": "CHULA VISTA", "state": "CA", "street": "830 KUHN DR", "postcode": "91914"}}},
{"geometry": {"type": "Point", "coordinates": [-116.9668945759, 32.6530231716]}, "type": "Feature", "properties": {"collection_times": [{"days": "Mon-Fri", "time": "5:00pm"}, {"days": "Sat", "time": "2:00pm"}, {"days": "Sun", "time": "Closed"}], "id": "9191400012", "name": "USPS COLLECTION BOX - APC", "address": {"city": "CHULA VISTA", "state": "CA", "street": "830 KUHN DR", "postcode": "91914"}}},
{"geometry": {"type": "Point", "coordinates": [-116.9668945759, 32.6530231716]}, "type": "Feature", "properties": {"collection_times": [{"days": "Mon-Fri", "time": "5:00pm"}, {"days": "Sat", "time": "2:00pm"}, {"days": "Sun", "time": "Closed"}], "id": "9191400013", "name": "USPS COLLECTION BOX - BLUE BOX", "address": {"city": "CHULA VISTA", "state": "CA", "street": "830 KUHN DR", "postcode": "91914"}}},
{"geometry": {"type": "Point", "coordinates": [-116.6218780097, 32.867002647]}, "type": "Feature", "properties": {"collection_times": [{"days": "Mon-Sat", "time": "4:45pm"}, {"days": "Sun", "time": "Closed"}], "id": "9191600001", "name": "USPS COLLECTION BOX - BLUE BOX", "address": {"city": "DESCANSO", "state": "CA", "street": "24680 VIEJAS GRADE RD", "postcode": "91916"}}},
{"geometry": {"type": "Point", "coordinates": [-116.6218780097, 32.867002647]}, "type": "Feature", "properties": {"collection_times": [{"days": "Mon-Sat", "time": "12:00pm"}, {"days": "Sun", "time": "Closed"}], "id": "9191600003", "name": "USPS COLLECTION BOX - PO LOBBY", "address": {"city": "DESCANSO", "state": "CA", "street": "24680 VIEJAS GRADE RD", "postcode": "91916"}}},
{"geometry": {"type": "Point", "coordinates": [-116.7814888922, 32.6443042118]}, "type": "Feature", "properties": {"collection_times": [{"days": "Mon-Fri", "time": "4:45pm"}, {"days": "Sat", "time": "11:00am"}, {"days": "Sun", "time": "Closed"}], "id": "9191700001", "name": "USPS COLLECTION BOX - BLUE BOX", "address": {"city": "DULZURA", "state": "CA", "street": "16985 HIGHWAY 94", "postcode": "91917"}}},
{"geometry": {"type": "Point", "coordinates": [-116.7814888922, 32.6443042118]}, "type": "Feature", "properties": {"collection_times": [{"days": "Mon-Sat", "time": "12:00pm"}, {"days": "Sun", "time": "Closed"}], "id": "9191700004", "name": "USPS COLLECTION BOX - PO LOBBY", "address": {"city": "DULZURA", "state": "CA", "street": "16985 HIGHWAY 94", "postcode": "91917"}}},
{"geometry": {"type": "Point", "coordinates": [-119.2702268805, 36.3741071704]}, "type": "Feature", "properties": {"collection_times": [{"days": "Mon-Sat", "time": "5:00pm"}, {"days": "Sun", "time": "Closed"}], "id": "9193100002", "name": "USPS COLLECTION BOX - BLUE BOX", "address": {"city": "PINE VALLEY", "state": "CA", "street": "26835 OLD HIGHWAY 80", "postcode": "91931"}}},
{"geometry": {"type": "Point", "coordinates": [-117.1131633755, 32.5823590655]}, "type": "Feature", "properties": {"collection_times": [{"days": "Mon-Fri", "time": "5:00pm"}, {"days": "Sat", "time": "4:30pm"}, {"days": "Sun", "time": "Closed"}], "id": "9193200002", "name": "USPS COLLECTION BOX - BLUE BOX", "address": {"city": "IMPERIAL BEACH", "state": "CA", "street": "946 DONAX AVE", "postcode": "91932"}}},
{"geometry": {"type": "Point", "coordinates": [-117.1314422041, 32.5765679343]}, "type": "Feature", "properties": {"collection_times": [{"days": "Mon-Sat", "time": "3:00pm"}, {"days": "Sun", "time": "Closed"}], "id": "9193200005", "name": "USPS COLLECTION BOX - BLUE BOX", "address": {"city": "IMPERIAL BEACH", "state": "CA", "street": "104 IMPERIAL BEACH BLVD", "postcode": "91932"}}},
{"geometry": {"type": "Point", "coordinates": [-117.1209103348, 32.5852998385]}, "type": "Feature", "properties": {"collection_times": [{"days": "Mon-Sat", "time": "3:00pm"}, {"days": "Sun", "time": "Closed"}], "id": "9193200008", "name": "USPS COLLECTION BOX - BLUE BOX", "address": {"city": "IMPERIAL BEACH", "state": "CA", "street": "586 RAINBOW DR", "postcode": "91932"}}},
{"geometry": {"type": "Point", "coordinates": [-117.1113616909, 32.5839997961]}, "type": "Feature", "properties": {"collection_times": [{"days": "Mon-Sat", "time": "3:00pm"}, {"days": "Sun", "time": "Closed"}], "id": "9193200011", "name": "USPS COLLECTION BOX - BLUE BOX", "address": {"city": "IMPERIAL BEACH", "state": "CA", "street": "1008 PALM AVE", "postcode": "91932"}}},
{"geometry": {"type": "Point", "coordinates": [-117.1168784163, 32.5789331273]}, "type": "Feature", "properties": {"collection_times": [{"days": "Mon-Fri", "time": "5:00pm"}, {"days": "Sat", "time": "4:30pm"}, {"days": "Sun", "time": "Closed"}], "id": "9193200014", "name": "USPS COLLECTION BOX - EXPRESS", "address": {"city": "IMPERIAL BEACH", "state": "CA", "street": "946 DONAX AVE", "postcode": "91932"}}},
{"geometry": {"type": "Point", "coordinates": [-117.1056513853, 32.5760615282]}, "type": "Feature", "properties": {"collection_times": [{"days": "Mon-Sat", "time": "3:00pm"}, {"days": "Sun", "time": "Closed"}], "id": "9193200017", "name": "USPS COLLECTION BOX - BLUE BOX", "address": {"city": "IMPERIAL BEACH", "state": "CA", "street": "1129 13TH ST", "postcode": "91932"}}},
{"geometry": {"type": "Point", "coordinates": [-117.1179665107, 32.5848203753]}, "type": "Feature", "properties": {"collection_times": [{"days": "Mon-Sat", "time": "3:00pm"}, {"days": "Sun", "time": "Closed"}], "id": "9193200021", "name": "USPS COLLECTION BOX - BLUE BOX", "address": {"city": "IMPERIAL BEACH", "state": "CA", "street": "639 7TH ST", "postcode": "91932"}}},
{"geometry": {"type": "Point", "coordinates": [-116.2273080602, 32.6370910259]}, "type": "Feature", "properties": {"collection_times": [{"days": "Mon-Sat", "time": "3:45pm"}, {"days": "Sun", "time": "Closed"}], "id": "9193400001", "name": "USPS COLLECTION BOX - BLUE BOX", "address": {"city": "JACUMBA", "state": "CA", "street": "1209 N RAILROAD ST", "postcode": "91934"}}},
{"geometry": {"type": "Point", "coordinates": [-116.2273080602, 32.6370910259]}, "type": "Feature", "properties": {"collection_times": [{"days": "Mon-Sat", "time": "12:00pm"}, {"days": "Sun", "time": "Closed"}], "id": "9193400003", "name": "USPS COLLECTION BOX - PO LOBBY", "address": {"city": "JACUMBA", "state": "CA", "street": "1209 N RAILROAD ST", "postcode": "91934"}}},
{"geometry": {"type": "Point", "coordinates": [-116.8138360077, 32.7190204497]}, "type": "Feature", "properties": {"collection_times": [{"days": "Mon-Fri", "time": "4:30pm"}, {"days": "Sat", "time": "12:00pm"}, {"days": "Sun", "time": "Closed"}], "id": "9193500001", "name": "USPS COLLECTION BOX - BLUE BOX", "address": {"city": "JAMUL", "state": "CA", "street": "13961 CAMPO RD", "postcode": "91935"}}},
{"geometry": {"type": "Point", "coordinates": [-116.8138360077, 32.7190204497]}, "type": "Feature", "properties": {"collection_times": [{"days": "Mon-Sat", "time": "12:00pm"}, {"days": "Sun", "time": "Closed"}], "id": "9193500003", "name": "USPS COLLECTION BOX - PO LOBBY", "address": {"city": "JAMUL", "state": "CA", "street": "13961 CAMPO RD", "postcode": "91935"}}},
{"geometry": {"type": "Point", "coordinates": [-117.0223762404, 32.7635694408]}, "type": "Feature", "properties": {"collection_times": [{"days": "Mon-Fri", "time": "4:00pm"}, {"days": "Sat", "time": "10:00am"}, {"days": "Sun", "time": "Closed"}], "id": "9194100002", "name": "USPS COLLECTION BOX - BLUE BOX", "address": {"city": "LA MESA", "state": "CA", "street": "8101 LA MESA BLVD", "postcode": "91941"}}},
{"geometry": {"type": "Point", "coordinates": [-117.0314738908, 32.7725724052]}, "type": "Feature", "properties": {"collection_times": [{"days": "Mon-Fri", "time": "5:00pm"}, {"days": "Sat", "time": "12:00pm"}, {"days": "Sun", "time": "Closed"}], "id": "9194100003", "name": "USPS COLLECTION BOX - BLUE BOX", "address": {"city": "LA MESA", "state": "CA", "street": "7777 ALVARADO RD", "postcode": "91941"}}},
{"geometry": {"type": "Point", "coordinates": [-116.9964523907, 32.7781902773]}, "type": "Feature", "properties": {"collection_times": [{"days": "Mon-Fri", "time": "3:30pm"}, {"days": "Sat", "time": "12:00pm"}, {"days": "Sun", "time": "Closed"}], "id": "9194100014", "name": "USPS COLLECTION BOX - BLUE BOX", "address": {"city": "LA MESA", "state": "CA", "street": "9340 FUERTE DR", "postcode": "91941"}}},
{"geometry": {"type": "Point", "coordinates": [-117.042048361, 32.7658212584]}, "type": "Feature", "properties": {"collection_times": [{"days": "Mon-Sat", "time": "10:45am"}, {"days": "Sun", "time": "Closed"}], "id": "9194100017", "name": "USPS COLLECTION BOX - BLUE BOX", "address": {"city": "LA MESA", "state": "CA", "street": "4799 HARBINSON AVE", "postcode": "91941"}}},
{"geometry": {"type": "Point", "coordinates": [-117.0058604633, 32.7726776886]}, "type": "Feature", "properties": {"collection_times": [{"days": "Mon-Fri", "time": "4:30pm"}, {"days": "Sat", "time": "10:00am"}, {"days": "Sun", "time": "Closed"}], "id": "9194100023", "name": "USPS COLLECTION BOX - BLUE BOX", "address": {"city": "LA MESA", "state": "CA", "street": "8875 LA MESA BLVD", "postcode": "91941"}}},
{"geometry": {"type": "Point", "coordinates": [-117.0100869975, 32.7697255086]}, "type": "Feature", "properties": {"collection_times": [{"days": "Mon-Fri", "time": "4:30pm"}, {"days": "Sat", "time": "10:00am"}, {"days": "Sun", "time": "Closed"}], "id": "9194100024", "name": "USPS COLLECTION BOX - BLUE BOX", "address": {"city": "LA MESA", "state": "CA", "street": "8695 LA MESA BLVD", "postcode": "91941"}}},
{"geometry": {"type": "Point", "coordinates": [-117.0188557957, 32.7650094155]}, "type": "Feature", "properties": {"collection_times": [{"days": "Mon-Fri", "time": "4:30pm"}, {"days": "Sat", "time": "10:00am"}, {"days": "Sun", "time": "Closed"}], "id": "9194100029", "name": "USPS COLLECTION BOX - BLUE BOX", "address": {"city": "LA MESA", "state": "CA", "street": "8301 LA MESA BLVD", "postcode": "91941"}}},
{"geometry": {"type": "Point", "coordinates": [-117.0147397533, 32.7575736685]}, "type": "Feature", "properties": {"collection_times": [{"days": "Mon-Fri", "time": "4:30pm"}, {"days": "Sat", "time": "10:00am"}, {"days": "Sun", "time": "Closed"}], "id": "9194100030", "name": "USPS COLLECTION BOX - BLUE BOX", "address": {"city": "LA MESA", "state": "CA", "street": "4323 PALM AVE", "postcode": "91941"}}},
{"geometry": {"type": "Point", "coordinates": [-117.0224440889, 32.7665062891]}, "type": "Feature", "properties": {"collection_times": [{"days": "Mon-Sat", "time": "5:00pm"}, {"days": "Sun", "time": "Closed"}], "id": "9194100042", "name": "USPS COLLECTION BOX - BLUE BOX", "address": {"city": "LA MESA", "state": "CA", "street": "4830 DATE AVE", "postcode": "91941"}}},
{"geometry": {"type": "Point", "coordinates": [-117.0285212253, 32.7631264779]}, "type": "Feature", "properties": {"collection_times": [{"days": "Mon-Sat", "time": "11:00am"}, {"days": "Sun", "time": "Closed"}], "id": "9194100044", "name": "USPS COLLECTION BOX - BLUE BOX", "address": {"city": "LA MESA", "state": "CA", "street": "7851 UNIVERSITY AVE", "postcode": "91941"}}},
{"geometry": {"type": "Point", "coordinates": [-117.0314738908, 32.7725724052]}, "type": "Feature", "properties": {"collection_times": [{"days": "Mon-Fri", "time": "5:00pm"}, {"days": "Sat", "time": "12:00pm"}, {"days": "Sun", "time": "Closed"}], "id": "9194100048", "name": "USPS COLLECTION BOX - BLUE BOX", "address": {"city": "LA MESA", "state": "CA", "street": "7777 ALVARADO RD", "postcode": "91941"}}},
{"geometry": {"type": "Point", "coordinates": [-117.0057688298, 32.7727494729]}, "type": "Feature", "properties": {"collection_times": [{"days": "Mon-Fri", "time": "4:30pm"}, {"days": "Sat", "time": "10:00am"}, {"days": "Sun", "time": "Closed"}], "id": "9194100053", "name": "USPS COLLECTION BOX - BLUE BOX", "address": {"city": "LA MESA", "state": "CA", "street": "8875 LA MESA BLVD", "postcode": "91941"}}},
{"geometry": {"type": "Point", "coordinates": [-117.0388874947, 32.7565338476]}, "type": "Feature", "properties": {"collection_times": [{"days": "Mon-Fri", "time": "4:00pm"}, {"days": "Sat", "time": "11:00am"}, {"days": "Sun", "time": "Closed"}], "id": "9194100055", "name": "USPS COLLECTION BOX - BLUE BOX", "address": {"city": "LA MESA", "state": "CA", "street": "7373 UNIVERSITY AVE", "postcode": "91941"}}},
{"geometry": {"type": "Point", "coordinates": [-117.0224440889, 32.7665062891]}, "type": "Feature", "properties": {"collection_times": [{"days": "Mon-Sat", "time": "5:00pm"}, {"days": "Sun", "time": "Closed"}], "id": "9194100059", "name": "USPS COLLECTION BOX - BLUE BOX", "address": {"city": "LA MESA", "state": "CA", "street": "4830 DATE AVE", "postcode": "91941"}}},
{"geometry": {"type": "Point", "coordinates": [-117.0224440889, 32.7665062891]}, "type": "Feature", "properties": {"collection_times": [{"days": "Mon-Sat", "time": "5:00pm"}, {"days": "Sun", "time": "Closed"}], "id": "9194100060", "name": "USPS COLLECTION BOX - BLUE BOX", "address": {"city": "LA MESA", "state": "CA", "street": "4830 DATE AVE", "postcode": "91941"}}},
{"geometry": {"type": "Point", "coordinates": [-117.0040994535, 32.7593029956]}, "type": "Feature", "properties": {"collection_times": [{"days": "Mon-Sat", "time": "5:00pm"}, {"days": "Sun", "time": "Closed"}], "id": "9194100061", "name": "USPS COLLECTION BOX - EXPRESS", "address": {"city": "LA MESA", "state": "CA", "street": "4830 DATE AVE", "postcode": "91941"}}},
{"geometry": {"type": "Point", "coordinates": [-116.9710711646, 32.763220651]}, "type": "Feature", "properties": {"collection_times": [{"days": "Mon-Fri", "time": "5:00pm"}, {"days": "Sat", "time": "1:00pm"}, {"days": "Sun", "time": "Closed"}], "id": "9194100069", "name": "USPS COLLECTION BOX - APC", "address": {"city": "LA MESA", "state": "CA", "street": "8064 ALISON DR", "postcode": "91941"}}},
{"geometry": {"type": "Point", "coordinates": [-116.9933991736, 32.7859422074]}, "type": "Feature", "properties": {"collection_times": [{"days": "Mon-Sat", "time": "12:15pm"}, {"days": "Sun", "time": "Closed"}], "id": "9194200001", "name": "USPS COLLECTION BOX - BLUE BOX", "address": {"city": "LA MESA", "state": "CA", "street": "5885 AMAYA DR", "postcode": "91942"}}},
{"geometry": {"type": "Point", "coordinates": [-117.0338681998, 32.7841299143]}, "type": "Feature", "properties": {"collection_times": [{"days": "Mon-Sat", "time": "12:30pm"}, {"days": "Sun", "time": "Closed"}], "id": "9194200003", "name": "USPS COLLECTION BOX - BLUE BOX", "address": {"city": "LA MESA", "state": "CA", "street": "5700 BALTIMORE DR", "postcode": "91942"}}},
{"geometry": {"type": "Point", "coordinates": [-117.023501726, 32.7716774197]}, "type": "Feature", "properties": {"collection_times": [{"days": "Mon-Fri", "time": "3:30pm"}, {"days": "Sat", "time": "10:30am"}, {"days": "Sun", "time": "Closed"}], "id": "9194200004", "name": "USPS COLLECTION BOX - BLUE BOX", "address": {"city": "LA MESA", "state": "CA", "street": "8100 COMMERCIAL ST", "postcode": "91942"}}},
{"geometry": {"type": "Point", "coordinates": [-117.0072173173, 32.7821094204]}, "type": "Feature", "properties": {"collection_times": [{"days": "Mon-Fri", "time": "3:30pm"}, {"days": "Sat", "time": "10:15am"}, {"days": "Sun", "time": "Closed"}], "id": "9194200012", "name": "USPS COLLECTION BOX - BLUE BOX", "address": {"city": "LA MESA", "state": "CA", "street": "5555 GROSSMONT CENTER DR", "postcode": "91942"}}},
{"geometry": {"type": "Point", "coordinates": [-117.0094673052, 32.7797198433]}, "type": "Feature", "properties": {"collection_times": [{"days": "Mon-Fri", "time": "3:30pm"}, {"days": "Sat", "time": "10:15am"}, {"days": "Sun", "time": "Closed"}], "id": "9194200013", "name": "USPS COLLECTION BOX - BLUE BOX", "address": {"city": "LA MESA", "state": "CA", "street": "5565 GROSSMONT CENTER DR", "postcode": "91942"}}},
{"geometry": {"type": "Point", "coordinates": [-117.0090296104, 32.7792904292]}, "type": "Feature", "properties": {"collection_times": [{"days": "Mon-Fri", "time": "5:00pm"}, {"days": "Sat", "time": "2:30pm"}, {"days": "Sun", "time": "Closed"}], "id": "9194200015", "name": "USPS COLLECTION BOX - BLUE BOX", "address": {"city": "LA MESA", "state": "CA", "street": "5500 GROSSMONT CENTER DR", "postcode": "91942"}}},
{"geometry": {"type": "Point", "coordinates": [-117.0090296104, 32.7792904292]}, "type": "Feature", "properties": {"collection_times": [{"days": "Mon-Fri", "time": "5:00pm"}, {"days": "Sat", "time": "10:15am"}, {"days": "Sun", "time": "Closed"}], "id": "9194200016", "name": "USPS COLLECTION BOX - BLUE BOX", "address": {"city": "LA MESA", "state": "CA", "street": "5500 GROSSMONT CENTER DR", "postcode": "91942"}}},
{"geometry": {"type": "Point", "coordinates": [-117.0109246126, 32.7742795983]}, "type": "Feature", "properties": {"collection_times": [{"days": "Mon-Fri", "time": "5:00pm"}, {"days": "Sat", "time": "10:30am"}, {"days": "Sun", "time": "Closed"}], "id": "9194200020", "name": "USPS COLLECTION BOX - BLUE BOX", "address": {"city": "LA MESA", "state": "CA", "street": "5232 JACKSON DR", "postcode": "91942"}}},
{"geometry": {"type": "Point", "coordinates": [-117.0283863679, 32.7834497129]}, "type": "Feature", "properties": {"collection_times": [{"days": "Mon-Sat", "time": "12:30pm"}, {"days": "Sun", "time": "Closed"}], "id": "9194200024", "name": "USPS COLLECTION BOX - BLUE BOX", "address": {"city": "LA MESA", "state": "CA", "street": "5740 LAKE MURRAY BLVD", "postcode": "91942"}}},
{"geometry": {"type": "Point", "coordinates": [-117.022128515, 32.7890048882]}, "type": "Feature", "properties": {"collection_times": [{"days": "Mon-Fri", "time": "5:00pm"}, {"days": "Sat", "time": "1:30pm"}, {"days": "Sun", "time": "Closed"}], "id": "9194200025", "name": "USPS COLLECTION BOX - BLUE BOX", "address": {"city": "LA MESA", "state": "CA", "street": "6055 LAKE MURRAY BLVD", "postcode": "91942"}}},
{"geometry": {"type": "Point", "coordinates": [-117.041014246, 32.7742544841]}, "type": "Feature", "properties": {"collection_times": [{"days": "Mon-Sat", "time": "12:45pm"}, {"days": "Sun", "time": "Closed"}], "id": "9194200027", "name": "USPS COLLECTION BOX - BLUE BOX", "address": {"city": "LA MESA", "state": "CA", "street": "5264 MARYLAND AVE", "postcode": "91942"}}},
{"geometry": {"type": "Point", "coordinates": [-116.9922836433, 32.7794868004]}, "type": "Feature", "properties": {"collection_times": [{"days": "Mon-Sat", "time": "12:00pm"}, {"days": "Sun", "time": "Closed"}], "id": "9194200030", "name": "USPS COLLECTION BOX - BLUE BOX", "address": {"city": "LA MESA", "state": "CA", "street": "9530 MURRAY DR", "postcode": "91942"}}},
{"geometry": {"type": "Point", "coordinates": [-116.9988887737, 32.7869718211]}, "type": "Feature", "properties": {"collection_times": [{"days": "Mon-Sat", "time": "12:15pm"}, {"days": "Sun", "time": "Closed"}], "id": "9194200032", "name": "USPS COLLECTION BOX - BLUE BOX", "address": {"city": "LA MESA", "state": "CA", "street": "5965 SEVERIN DR", "postcode": "91942"}}},
{"geometry": {"type": "Point", "coordinates": [-117.0076514632, 32.7843333833]}, "type": "Feature", "properties": {"collection_times": [{"days": "Mon-Fri", "time": "3:45pm"}, {"days": "Sat", "time": "10:15am"}, {"days": "Sun", "time": "Closed"}], "id": "9194200040", "name": "USPS COLLECTION BOX - BLUE BOX", "address": {"city": "LA MESA", "state": "CA", "street": "8881 FLETCHER PKWY", "postcode": "91942"}}},
{"geometry": {"type": "Point", "coordinates": [-117.0163320161, 32.7753499929]}, "type": "Feature", "properties": {"collection_times": [{"days": "Mon-Fri", "time": "3:30pm"}, {"days": "Sat", "time": "10:30am"}, {"days": "Sun", "time": "Closed"}], "id": "9194200044", "name": "USPS COLLECTION BOX - BLUE BOX", "address": {"city": "LA MESA", "state": "CA", "street": "8380 CENTER DR", "postcode": "91942"}}},
{"geometry": {"type": "Point", "coordinates": [-117.0090296104, 32.7792904292]}, "type": "Feature", "properties": {"collection_times": [{"days": "Mon-Fri", "time": "5:00pm"}, {"days": "Sat", "time": "2:30pm"}, {"days": "Sun", "time": "Closed"}], "id": "9194200048", "name": "USPS COLLECTION BOX - BLUE BOX", "address": {"city": "LA MESA", "state": "CA", "street": "5500 GROSSMONT CENTER DR", "postcode": "91942"}}},
{"geometry": {"type": "Point", "coordinates": [-117.0090296104, 32.7792904292]}, "type": "Feature", "properties": {"collection_times": [{"days": "Mon-Fri", "time": "3:30pm"}, {"days": "Sat", "time": "10:15am"}, {"days": "Sun", "time": "Closed"}], "id": "9194200051", "name": "USPS COLLECTION BOX - BLUE BOX", "address": {"city": "LA MESA", "state": "CA", "street": "5500 GROSSMONT CENTER DR", "postcode": "91942"}}},
{"geometry": {"type": "Point", "coordinates": [-117.0090296104, 32.7792904292]}, "type": "Feature", "properties": {"collection_times": [{"days": "Mon-Fri", "time": "3:30pm"}, {"days": "Sat", "time": "10:15am"}, {"days": "Sun", "time": "Closed"}], "id": "9194200053", "name": "USPS COLLECTION BOX - BLUE BOX", "address": {"city": "LA MESA", "state": "CA", "street": "5500 GROSSMONT CENTER DR", "postcode": "91942"}}},
{"geometry": {"type": "Point", "coordinates": [-117.0282373151, 32.742799694]}, "type": "Feature", "properties": {"collection_times": [{"days": "Mon-Fri", "time": "5:00pm"}, {"days": "Sat", "time": "3:30pm"}, {"days": "Sun", "time": "Closed"}], "id": "9194500002", "name": "USPS COLLECTION BOX - BLUE BOX", "address": {"city": "LEMON GROVE", "state": "CA", "street": "7938 BROADWAY", "postcode": "91945"}}},
{"geometry": {"type": "Point", "coordinates": [-117.0282373151, 32.742799694]}, "type": "Feature", "properties": {"collection_times": [{"days": "Mon-Fri", "time": "5:00pm"}, {"days": "Sat", "time": "3:30pm"}, {"days": "Sun", "time": "Closed"}], "id": "9194500004", "name": "USPS COLLECTION BOX - BLUE BOX", "address": {"city": "LEMON GROVE", "state": "CA", "street": "7938 BROADWAY", "postcode": "91945"}}},
{"geometry": {"type": "Point", "coordinates": [-117.0330893302, 32.7355314706]}, "type": "Feature", "properties": {"collection_times": [{"days": "Mon-Fri", "time": "5:00pm"}, {"days": "Sat", "time": "3:30pm"}, {"days": "Sun", "time": "Closed"}], "id": "9194500029", "name": "USPS COLLECTION BOX - EXPRESS", "address": {"city": "LEMON GROVE", "state": "CA", "street": "7938 BROADWAY", "postcode": "91945"}}},
{"geometry": {"type": "Point", "coordinates": [-117.0282373151, 32.742799694]}, "type": "Feature", "properties": {"collection_times": [{"days": "Mon-Fri", "time": "5:00pm"}, {"days": "Sat", "time": "3:30pm"}, {"days": "Sun", "time": "Closed"}], "id": "9194500032", "name": "USPS COLLECTION BOX - BLUE BOX", "address": {"city": "LEMON GROVE", "state": "CA", "street": "7938 BROADWAY", "postcode": "91945"}}},
{"geometry": {"type": "Point", "coordinates": [-117.0282373151, 32.742799694]}, "type": "Feature", "properties": {"collection_times": [{"days": "Mon-Fri", "time": "5:00pm"}, {"days": "Sat", "time": "3:30pm"}, {"days": "Sun", "time": "Closed"}], "id": "9194500033", "name": "USPS COLLECTION BOX - BLUE BOX", "address": {"city": "LEMON GROVE", "state": "CA", "street": "7938 BROADWAY", "postcode": "91945"}}},
{"geometry": {"type": "Point", "coordinates": [-116.419839599, 32.8761619186]}, "type": "Feature", "properties": {"collection_times": [{"days": "Mon-Sat", "time": "4:00pm"}, {"days": "Sun", "time": "Closed"}], "id": "9194800001", "name": "USPS COLLECTION BOX - BLUE BOX", "address": {"city": "MOUNT LAGUNA", "state": "CA", "street": "810 SUNRISE HWY", "postcode": "91948"}}},
{"geometry": {"type": "Point", "coordinates": [-116.419839599, 32.8761619186]}, "type": "Feature", "properties": {"collection_times": [{"days": "Mon-Sat", "time": "4:00pm"}, {"days": "Sun", "time": "Closed"}], "id": "9194800003", "name": "USPS COLLECTION BOX - PO LOBBY", "address": {"city": "MOUNT LAGUNA", "state": "CA", "street": "810 SUNRISE HWY", "postcode": "91948"}}},
{"geometry": {"type": "Point", "coordinates": [-117.0827149414, 32.686469554]}, "type": "Feature", "properties": {"collection_times": [{"days": "Mon-Fri", "time": "2:00pm"}, {"days": "Sat", "time": "10:30am"}, {"days": "Sun", "time": "Closed"}], "id": "9195000006", "name": "USPS COLLECTION BOX - BLUE BOX", "address": {"city": "NATIONAL CITY", "state": "CA", "street": "2400 E 4TH ST", "postcode": "91950"}}},
{"geometry": {"type": "Point", "coordinates": [-117.0959986974, 32.6770143793]}, "type": "Feature", "properties": {"collection_times": [{"days": "Mon-Fri", "time": "2:00pm"}, {"days": "Sat", "time": "10:15am"}, {"days": "Sun", "time": "Closed"}], "id": "9195000009", "name": "USPS COLLECTION BOX - BLUE BOX", "address": {"city": "NATIONAL CITY", "state": "CA", "street": "1021 E PLAZA BLVD", "postcode": "91950"}}},
{"geometry": {"type": "Point", "coordinates": [-117.1036343877, 32.6585446247]}, "type": "Feature", "properties": {"collection_times": [{"days": "Mon-Fri", "time": "2:30pm"}, {"days": "Sat", "time": "10:45am"}, {"days": "Sun", "time": "Closed"}], "id": "9195000011", "name": "USPS COLLECTION BOX - BLUE BOX", "address": {"city": "NATIONAL CITY", "state": "CA", "street": "2602 HOOVER AVE", "postcode": "91950"}}},
{"geometry": {"type": "Point", "coordinates": [-117.0874426571, 32.6726571051]}, "type": "Feature", "properties": {"collection_times": [{"days": "Mon-Fri", "time": "2:30pm"}, {"days": "Sat", "time": "10:30am"}, {"days": "Sun", "time": "Closed"}], "id": "9195000015", "name": "USPS COLLECTION BOX - BLUE BOX", "address": {"city": "NATIONAL CITY", "state": "CA", "street": "1701 PALM AVE", "postcode": "91950"}}},
{"geometry": {"type": "Point", "coordinates": [-117.0792447041, 32.6802285771]}, "type": "Feature", "properties": {"collection_times": [{"days": "Mon-Fri", "time": "2:00pm"}, {"days": "Sat", "time": "10:15am"}, {"days": "Sun", "time": "Closed"}], "id": "9195000016", "name": "USPS COLLECTION BOX - BLUE BOX", "address": {"city": "NATIONAL CITY", "state": "CA", "street": "2617 E PLAZA BLVD", "postcode": "91950"}}},
{"geometry": {"type": "Point", "coordinates": [-117.0804968933, 32.6614925584]}, "type": "Feature", "properties": {"collection_times": [{"days": "Mon-Fri", "time": "2:30pm"}, {"days": "Sat", "time": "11:00am"}, {"days": "Sun", "time": "Closed"}], "id": "9195000018", "name": "USPS COLLECTION BOX - BLUE BOX", "address": {"city": "NATIONAL CITY", "state": "CA", "street": "1730 SWEETWATER RD", "postcode": "91950"}}},
{"geometry": {"type": "Point", "coordinates": [-117.1125275289, 32.6589152939]}, "type": "Feature", "properties": {"collection_times": [{"days": "Mon-Fri", "time": "2:30pm"}, {"days": "Sat", "time": "10:45am"}, {"days": "Sun", "time": "Closed"}], "id": "9195000019", "name": "USPS COLLECTION BOX - BLUE BOX", "address": {"city": "NATIONAL CITY", "state": "CA", "street": "1000 W 24TH ST", "postcode": "91950"}}},
{"geometry": {"type": "Point", "coordinates": [-117.1036058772, 32.6605119952]}, "type": "Feature", "properties": {"collection_times": [{"days": "Mon-Fri", "time": "2:30pm"}, {"days": "Sat", "time": "10:45am"}, {"days": "Sun", "time": "Closed"}], "id": "9195000020", "name": "USPS COLLECTION BOX - BLUE BOX", "address": {"city": "NATIONAL CITY", "state": "CA", "street": "221 W 25TH ST", "postcode": "91950"}}},
{"geometry": {"type": "Point", "coordinates": [-117.0678569768, 32.6556392774]}, "type": "Feature", "properties": {"collection_times": [{"days": "Mon-Fri", "time": "2:30pm"}, {"days": "Sat", "time": "11:00am"}, {"days": "Sun", "time": "Closed"}], "id": "9195000024", "name": "USPS COLLECTION BOX - BLUE BOX", "address": {"city": "NATIONAL CITY", "state": "CA", "street": "3030 PLAZA BONITA RD", "postcode": "91950"}}},
{"geometry": {"type": "Point", "coordinates": [-117.096735371, 32.6710319395]}, "type": "Feature", "properties": {"collection_times": [{"days": "Mon-Sat", "time": "5:00pm"}, {"days": "Sun", "time": "Closed"}], "id": "9195000035", "name": "USPS COLLECTION BOX - BLUE BOX", "address": {"city": "NATIONAL CITY", "state": "CA", "street": "710 E 16TH ST", "postcode": "91950"}}},
{"geometry": {"type": "Point", "coordinates": [-117.0920076048, 32.672680966]}, "type": "Feature", "properties": {"collection_times": [{"days": "Mon-Sat", "time": "5:00pm"}, {"days": "Sun", "time": "Closed"}], "id": "9195000036", "name": "USPS COLLECTION BOX - EXPRESS", "address": {"city": "NATIONAL CITY", "state": "CA", "street": "710 E 16TH ST", "postcode": "91950"}}},
{"geometry": {"type": "Point", "coordinates": [-117.096735371, 32.6710319395]}, "type": "Feature", "properties": {"collection_times": [{"days": "Mon-Sat", "time": "5:00pm"}, {"days": "Sun", "time": "Closed"}], "id": "9195000037", "name": "USPS COLLECTION BOX - BLUE BOX", "address": {"city": "NATIONAL CITY", "state": "CA", "street": "710 E 16TH ST", "postcode": "91950"}}},
{"geometry": {"type": "Point", "coordinates": [-117.096735371, 32.6710319395]}, "type": "Feature", "properties": {"collection_times": [{"days": "Mon-Sat", "time": "5:00pm"}, {"days": "Sun", "time": "Closed"}], "id": "9195000038", "name": "USPS COLLECTION BOX - BLUE BOX", "address": {"city": "NATIONAL CITY", "state": "CA", "street": "710 E 16TH ST", "postcode": "91950"}}},
{"geometry": {"type": "Point", "coordinates": [-116.3943995918, 32.712933097]}, "type": "Feature", "properties": {"collection_times": [{"days": "Mon-Sat", "time": "4:45pm"}, {"days": "Sun", "time": "Closed"}], "id": "9196200001", "name": "USPS COLLECTION BOX - BLUE BOX", "address": {"city": "PINE VALLEY", "state": "CA", "street": "28858 OLD HIGHWAY 80", "postcode": "91962"}}},
{"geometry": {"type": "Point", "coordinates": [-116.3943995918, 32.712933097]}, "type": "Feature", "properties": {"collection_times": [{"days": "Mon-Sat", "time": "12:00pm"}, {"days": "Sun", "time": "Closed"}], "id": "9196200003", "name": "USPS COLLECTION BOX - PO LOBBY", "address": {"city": "PINE VALLEY", "state": "CA", "street": "28858 OLD HIGHWAY 80", "postcode": "91962"}}},
{"geometry": {"type": "Point", "coordinates": [-116.604749998, 32.6150922631]}, "type": "Feature", "properties": {"collection_times": [{"days": "Mon-Sat", "time": "12:00pm"}, {"days": "Sun", "time": "Closed"}], "id": "9196300003", "name": "USPS COLLECTION BOX - PO LOBBY", "address": {"city": "POTRERO", "state": "CA", "street": "25050 HIGHWAY 94", "postcode": "91963"}}},
{"geometry": {"type": "Point", "coordinates": [-116.9969171594, 32.727962471]}, "type": "Feature", "properties": {"collection_times": [{"days": "Mon-Fri", "time": "5:00pm"}, {"days": "Sat", "time": "3:30pm"}, {"days": "Sun", "time": "Closed"}], "id": "9197700001", "name": "USPS COLLECTION BOX - EXPRESS", "address": {"city": "SPRING VALLEY", "state": "CA", "street": "10174 AUSTIN DR", "postcode": "91977"}}},
{"geometry": {"type": "Point", "coordinates": [-117.0064602235, 32.7363620313]}, "type": "Feature", "properties": {"collection_times": [{"days": "Mon-Fri", "time": "2:30pm"}, {"days": "Sat", "time": "3:30pm"}, {"days": "Sun", "time": "Closed"}], "id": "9197700003", "name": "USPS COLLECTION BOX - BLUE BOX", "address": {"city": "SPRING VALLEY", "state": "CA", "street": "2840 BANCROFT DR", "postcode": "91977"}}},
{"geometry": {"type": "Point", "coordinates": [-116.9971266773, 32.7079035875]}, "type": "Feature", "properties": {"collection_times": [{"days": "Mon-Fri", "time": "2:30pm"}, {"days": "Sat", "time": "3:30pm"}, {"days": "Sun", "time": "Closed"}], "id": "9197700007", "name": "USPS COLLECTION BOX - BLUE BOX", "address": {"city": "SPRING VALLEY", "state": "CA", "street": "9410 JAMACHA BLVD", "postcode": "91977"}}},
{"geometry": {"type": "Point", "coordinates": [-117.0174676567, 32.7142903829]}, "type": "Feature", "properties": {"collection_times": [{"days": "Mon-Fri", "time": "2:30pm"}, {"days": "Sat", "time": "3:30pm"}, {"days": "Sun", "time": "Closed"}], "id": "9197700010", "name": "USPS COLLECTION BOX - BLUE BOX", "address": {"city": "SPRING VALLEY", "state": "CA", "street": "1075 ELKELTON BLVD", "postcode": "91977"}}},
{"geometry": {"type": "Point", "coordinates": [-117.0111828166, 32.7080383297]}, "type": "Feature", "properties": {"collection_times": [{"days": "Mon-Fri", "time": "2:30pm"}, {"days": "Sat", "time": "3:30pm"}, {"days": "Sun", "time": "Closed"}], "id": "9197700016", "name": "USPS COLLECTION BOX - BLUE BOX", "address": {"city": "SPRING VALLEY", "state": "CA", "street": "631 SWEETWATER RD", "postcode": "91977"}}},
{"geometry": {"type": "Point", "coordinates": [-117.018726325, 32.6976922857]}, "type": "Feature", "properties": {"collection_times": [{"days": "Mon-Fri", "time": "2:30pm"}, {"days": "Sat", "time": "3:30pm"}, {"days": "Sun", "time": "Closed"}], "id": "9197700019", "name": "USPS COLLECTION BOX - BLUE BOX", "address": {"city": "SPRING VALLEY", "state": "CA", "street": "103 WORTHINGTON ST", "postcode": "91977"}}},
{"geometry": {"type": "Point", "coordinates": [-116.9726216823, 32.7311735733]}, "type": "Feature", "properties": {"collection_times": [{"days": "Mon-Fri", "time": "5:00pm"}, {"days": "Sat", "time": "3:30pm"}, {"days": "Sun", "time": "Closed"}], "id": "9197700022", "name": "USPS COLLECTION BOX - BLUE BOX", "address": {"city": "SPRING VALLEY", "state": "CA", "street": "10174 AUSTIN DR", "postcode": "91977"}}},
{"geometry": {"type": "Point", "coordinates": [-116.9726216823, 32.7311735733]}, "type": "Feature", "properties": {"collection_times": [{"days": "Mon-Fri", "time": "5:00pm"}, {"days": "Sat", "time": "3:30pm"}, {"days": "Sun", "time": "Closed"}], "id": "9197700024", "name": "USPS COLLECTION BOX - BLUE BOX", "address": {"city": "SPRING VALLEY", "state": "CA", "street": "10174 AUSTIN DR", "postcode": "91977"}}},
{"geometry": {"type": "Point", "coordinates": [-116.9969171594, 32.727962471]}, "type": "Feature", "properties": {"collection_times": [{"days": "Mon-Fri", "time": "5:00pm"}, {"days": "Sat", "time": "3:30pm"}, {"days": "Sun", "time": "Closed"}], "id": "9197700027", "name": "USPS COLLECTION BOX - EXPRESS", "address": {"city": "SPRING VALLEY", "state": "CA", "street": "9805 CAMPO RD STE 165", "postcode": "91977"}}},
{"geometry": {"type": "Point", "coordinates": [-116.9726216823, 32.7311735733]}, "type": "Feature", "properties": {"collection_times": [{"days": "Mon-Fri", "time": "5:00pm"}, {"days": "Sat", "time": "3:30pm"}, {"days": "Sun", "time": "Closed"}], "id": "9197700044", "name": "USPS COLLECTION BOX - APC", "address": {"city": "SPRING VALLEY", "state": "CA", "street": "10174 AUSTIN DR", "postcode": "91977"}}},
{"geometry": {"type": "Point", "coordinates": [-116.6273787867, 32.5827132821]}, "type": "Feature", "properties": {"collection_times": [{"days": "Mon-Fri", "time": "4:30pm"}, {"days": "Sat", "time": "10:45am"}, {"days": "Sun", "time": "Closed"}], "id": "9198000001", "name": "USPS COLLECTION BOX - BLUE BOX", "address": {"city": "TECATE", "state": "CA", "street": "441 TECATE RD", "postcode": "91980"}}},
{"geometry": {"type": "Point", "coordinates": [-116.6273787867, 32.5827132821]}, "type": "Feature", "properties": {"collection_times": [{"days": "Mon-Sat", "time": "12:00pm"}, {"days": "Sun", "time": "Closed"}], "id": "9198000003", "name": "USPS COLLECTION BOX - PO LOBBY", "address": {"city": "TECATE", "state": "CA", "street": "441 TECATE RD", "postcode": "91980"}}}
]}
