{"type": "FeatureCollection", "features": [
{"geometry": {"type": "Point", "coordinates": [-116.2358275206, 33.7074175569]}, "type": "Feature", "properties": {"collection_times": [{"days": "Mon-Fri", "time": "5:00pm"}, {"days": "Sat-Sun", "time": "Closed"}], "id": "9220100003", "name": "USPS COLLECTION BOX - BLUE BOX", "address": {"city": "BERMUDA DUNES", "state": "CA", "street": "81893 DR CARREON BLVD", "postcode": "92201"}}},
{"geometry": {"type": "Point", "coordinates": [-116.2510290974, 33.7073776821]}, "type": "Feature", "properties": {"collection_times": [{"days": "Mon-Sat", "time": "4:30pm"}, {"days": "Sun", "time": "Closed"}], "id": "9220100004", "name": "USPS COLLECTION BOX - BLUE BOX", "address": {"city": "BERMUDA DUNES", "state": "CA", "street": "81022 US HIGHWAY 111", "postcode": "92201"}}},
{"geometry": {"type": "Point", "coordinates": [-116.2393243473, 33.710010603]}, "type": "Feature", "properties": {"collection_times": [{"days": "Mon-Sat", "time": "4:30pm"}, {"days": "Sun", "time": "Closed"}], "id": "9220100006", "name": "USPS COLLECTION BOX - BLUE BOX", "address": {"city": "BERMUDA DUNES", "state": "CA", "street": "81713 US HIGHWAY 111", "postcode": "92201"}}},
{"geometry": {"type": "Point", "coordinates": [-116.2076995976, 33.722237755]}, "type": "Feature", "properties": {"collection_times": [{"days": "Mon-Sat", "time": "4:00pm"}, {"days": "Sun", "time": "Closed"}], "id": "9220100009", "name": "USPS COLLECTION BOX - BLUE BOX", "address": {"city": "BERMUDA DUNES", "state": "CA", "street": "83558 AVENUE 45", "postcode": "92201"}}},
{"geometry": {"type": "Point", "coordinates": [-116.2182222348, 33.7156305708]}, "type": "Feature", "properties": {"collection_times": [{"days": "Mon-Sat", "time": "5:00pm"}, {"days": "Sun", "time": "Closed"}], "id": "9220100012", "name": "USPS COLLECTION BOX - BLUE BOX", "address": {"city": "BERMUDA DUNES", "state": "CA", "street": "45901 SMURR ST", "postcode": "92201"}}},
{"geometry": {"type": "Point", "coordinates": [-116.2263379127, 33.7176319864]}, "type": "Feature", "properties": {"collection_times": [{"days": "Mon-Sat", "time": "5:00pm"}, {"days": "Sun", "time": "Closed"}], "id": "9220100013", "name": "USPS COLLECTION BOX - BLUE BOX", "address": {"city": "BERMUDA DUNES", "state": "CA", "street": "82490 REQUA AVE", "postcode": "92201"}}},
{"geometry": {"type": "Point", "coordinates": [-116.2303870923, 33.7147400729]}, "type": "Feature", "properties": {"collection_times": [{"days": "Mon-Sat", "time": "2:00pm"}, {"days": "Sun", "time": "Closed"}], "id": "9220100016", "name": "USPS COLLECTION BOX - BLUE BOX", "address": {"city": "BERMUDA DUNES", "state": "CA", "street": "82227 US HIGHWAY 111", "postcode": "92201"}}},
{"geometry": {"type": "Point", "coordinates": [-116.2428365729, 33.7220208354]}, "type": "Feature", "properties": {"collection_times": [{"days": "Mon-Sat", "time": "1:00pm"}, {"days": "Sun", "time": "Closed"}], "id": "9220100017", "name": "USPS COLLECTION BOX - BLUE BOX", "address": {"city": "BERMUDA DUNES", "state": "CA", "street": "81491 MILES AVE", "postcode": "92201"}}},
{"geometry": {"type": "Point", "coordinates": [-116.2373892904, 33.7176931551]}, "type": "Feature", "properties": {"collection_times": [{"days": "Mon-Sat", "time": "2:00pm"}, {"days": "Sun", "time": "Closed"}], "id": "9220100019", "name": "USPS COLLECTION BOX - BLUE BOX", "address": {"city": "BERMUDA DUNES", "state": "CA", "street": "81901 SHADOW PALM AVE", "postcode": "92201"}}},
{"geometry": {"type": "Point", "coordinates": [-116.2338675269, 33.7278467027]}, "type": "Feature", "properties": {"collection_times": [{"days": "Mon-Sat", "time": "1:00pm"}, {"days": "Sun", "time": "Closed"}], "id": "9220100029", "name": "USPS COLLECTION BOX - BLUE BOX", "address": {"city": "BERMUDA DUNES", "state": "CA", "street": "44251 MONROE ST", "postcode": "92201"}}},
{"geometry": {"type": "Point", "coordinates": [-116.2169224608, 33.7154508143]}, "type": "Feature", "properties": {"collection_times": [{"days": "Mon-Sat", "time": "5:45pm"}, {"days": "Sun", "time": "Closed"}], "id": "9220100035", "name": "USPS COLLECTION BOX - EXPRESS", "address": {"city": "BERMUDA DUNES", "state": "CA", "street": "45805 FARGO ST", "postcode": "92201"}}},
{"geometry": {"type": "Point", "coordinates": [-116.2342762105, 33.7066048499]}, "type": "Feature", "properties": {"collection_times": [{"days": "Mon-Sat", "time": "5:00pm"}, {"days": "Sun", "time": "Closed"}], "id": "9220100039", "name": "USPS COLLECTION BOX - BLUE BOX", "address": {"city": "BERMUDA DUNES", "state": "CA", "street": "82001 AVENIDA DEL MAR", "postcode": "92201"}}},
{"geometry": {"type": "Point", "coordinates": [-116.2548868, 33.7146452144]}, "type": "Feature", "properties": {"collection_times": [{"days": "Mon-Sat", "time": "1:30pm"}, {"days": "Sun", "time": "Closed"}], "id": "9220100044", "name": "USPS COLLECTION BOX - BLUE BOX", "address": {"city": "BERMUDA DUNES", "state": "CA", "street": "80845 AVENUE 46", "postcode": "92201"}}},
{"geometry": {"type": "Point", "coordinates": [-116.2076995976, 33.722237755]}, "type": "Feature", "properties": {"collection_times": [{"days": "Mon-Sat", "time": "4:00pm"}, {"days": "Sun", "time": "Closed"}], "id": "9220100045", "name": "USPS COLLECTION BOX - BLUE BOX", "address": {"city": "BERMUDA DUNES", "state": "CA", "street": "83558 AVENUE 45", "postcode": "92201"}}},
{"geometry": {"type": "Point", "coordinates": [-116.237342891, 33.7121600394]}, "type": "Feature", "properties": {"collection_times": [{"days": "Mon-Sat", "time": "4:30pm"}, {"days": "Sun", "time": "Closed"}], "id": "9220100047", "name": "USPS COLLECTION BOX - BLUE BOX", "address": {"city": "BERMUDA DUNES", "state": "CA", "street": "81770 US HIGHWAY 111", "postcode": "92201"}}},
{"geometry": {"type": "Point", "coordinates": [-116.251410639, 33.7109415917]}, "type": "Feature", "properties": {"collection_times": [{"days": "Mon-Sat", "time": "1:30pm"}, {"days": "Sun", "time": "Closed"}], "id": "9220100048", "name": "USPS COLLECTION BOX - BLUE BOX", "address": {"city": "BERMUDA DUNES", "state": "CA", "street": "46618 MADISON ST", "postcode": "92201"}}},
{"geometry": {"type": "Point", "coordinates": [-116.2520494369, 33.7387718843]}, "type": "Feature", "properties": {"collection_times": [{"days": "Mon-Sat", "time": "1:00pm"}, {"days": "Sun", "time": "Closed"}], "id": "9220100056", "name": "USPS COLLECTION BOX - BLUE BOX", "address": {"city": "BERMUDA DUNES", "state": "CA", "street": "80975 INDIO BLVD", "postcode": "92201"}}},
{"geometry": {"type": "Point", "coordinates": [-116.2206924035, 33.7135237203]}, "type": "Feature", "properties": {"collection_times": [{"days": "Mon-Fri", "time": "5:00pm"}, {"days": "Sat", "time": "2:00pm"}, {"days": "Sun", "time": "Closed"}], "id": "9220100058", "name": "USPS COLLECTION BOX - BLUE BOX", "address": {"city": "BERMUDA DUNES", "state": "CA", "street": "46200 OASIS ST", "postcode": "92201"}}},
{"geometry": {"type": "Point", "coordinates": [-116.2181620968, 33.7187058989]}, "type": "Feature", "properties": {"collection_times": [{"days": "Mon-Fri", "time": "2:30pm"}, {"days": "Sat-Sun", "time": "Closed"}], "id": "9220100059", "name": "USPS COLLECTION BOX - BLUE BOX", "address": {"city": "BERMUDA DUNES", "state": "CA", "street": "100 CIVIC CENTER MALL", "postcode": "92201"}}},
{"geometry": {"type": "Point", "coordinates": [-116.2169446141, 33.716137618]}, "type": "Feature", "properties": {"collection_times": [{"days": "Mon-Sat", "time": "5:45pm"}, {"days": "Sun", "time": "Closed"}], "id": "9220100062", "name": "USPS COLLECTION BOX - BLUE BOX", "address": {"city": "BERMUDA DUNES", "state": "CA", "street": "45805 FARGO ST", "postcode": "92201"}}},
{"geometry": {"type": "Point", "coordinates": [-116.2169446141, 33.716137618]}, "type": "Feature", "properties": {"collection_times": [{"days": "Mon-Sat", "time": "5:45pm"}, {"days": "Sun", "time": "Closed"}], "id": "9220100063", "name": "USPS COLLECTION BOX - BLUE BOX", "address": {"city": "BERMUDA DUNES", "state": "CA", "street": "45805 FARGO ST", "postcode": "92201"}}},
{"geometry": {"type": "Point", "coordinates": [-116.2310768608, 33.7073737602]}, "type": "Feature", "properties": {"collection_times": [{"days": "Mon-Sat", "time": "10:00am"}, {"days": "Sun", "time": "Closed"}], "id": "9220100064", "name": "USPS COLLECTION BOX - BLUE BOX", "address": {"city": "BERMUDA DUNES", "state": "CA", "street": "62450 CHIRIACO RD", "postcode": "92201"}}},
{"geometry": {"type": "Point", "coordinates": [-116.28565, 33.74371]}, "type": "Feature", "properties": {"collection_times": [{"days": "Mon-Sat", "time": "1:30pm"}, {"days": "Sun", "time": "Closed"}], "id": "9220300001", "name": "USPS COLLECTION BOX - BLUE BOX", "address": {"city": "LA QUINTA", "state": "CA", "street": "79041 AVENUE 42", "postcode": "92203"}}},
{"geometry": {"type": "Point", "coordinates": [-116.27985, 33.751682]}, "type": "Feature", "properties": {"collection_times": [{"days": "Mon-Sat", "time": "1:30pm"}, {"days": "Sun", "time": "Closed"}], "id": "9220300002", "name": "USPS COLLECTION BOX - BLUE BOX", "address": {"city": "LA QUINTA", "state": "CA", "street": "79301 COUNTRY CLUB DR", "postcode": "92203"}}},
{"geometry": {"type": "Point", "coordinates": [-116.30309, 33.75669]}, "type": "Feature", "properties": {"collection_times": [{"days": "Mon-Sat", "time": "2:30pm"}, {"days": "Sun", "time": "Closed"}], "id": "9220300003", "name": "USPS COLLECTION BOX - BLUE BOX", "address": {"city": "LA QUINTA", "state": "CA", "street": "40100 WASHINGTON ST", "postcode": "92203"}}},
{"geometry": {"type": "Point", "coordinates": [-116.30374, 33.74988]}, "type": "Feature", "properties": {"collection_times": [{"days": "Mon-Sat", "time": "2:30pm"}, {"days": "Sun", "time": "Closed"}], "id": "9220300004", "name": "USPS COLLECTION BOX - BLUE BOX", "address": {"city": "LA QUINTA", "state": "CA", "street": "41120 WASHINGTON ST", "postcode": "92203"}}},
{"geometry": {"type": "Point", "coordinates": [-116.3267577372, 33.7201823623]}, "type": "Feature", "properties": {"collection_times": [{"days": "Mon-Sat", "time": "3:00pm"}, {"days": "Sun", "time": "Closed"}], "id": "9221000002", "name": "USPS COLLECTION BOX - BLUE BOX", "address": {"city": "PALM DESERT", "state": "CA", "street": "45200 CLUB DR", "postcode": "92210"}}},
{"geometry": {"type": "Point", "coordinates": [-116.338724584, 33.7232012909]}, "type": "Feature", "properties": {"collection_times": [{"days": "Mon-Sat", "time": "3:00pm"}, {"days": "Sun", "time": "Closed"}], "id": "9221000004", "name": "USPS COLLECTION BOX - BLUE BOX", "address": {"city": "PALM DESERT", "state": "CA", "street": "44950 EL DORADO DR", "postcode": "92210"}}},
{"geometry": {"type": "Point", "coordinates": [-116.3559683376, 33.7214942726]}, "type": "Feature", "properties": {"collection_times": [{"days": "Mon-Sat", "time": "3:00pm"}, {"days": "Sun", "time": "Closed"}], "id": "9221000006", "name": "USPS COLLECTION BOX - BLUE BOX", "address": {"city": "PALM DESERT", "state": "CA", "street": "74916 US HIGHWAY 111", "postcode": "92210"}}},
{"geometry": {"type": "Point", "coordinates": [-116.3559683376, 33.7214942726]}, "type": "Feature", "properties": {"collection_times": [{"days": "Mon-Sat", "time": "3:00pm"}, {"days": "Sun", "time": "Closed"}], "id": "9221000008", "name": "USPS COLLECTION BOX - BLUE BOX", "address": {"city": "PALM DESERT", "state": "CA", "street": "74916 US HIGHWAY 111", "postcode": "92210"}}},
{"geometry": {"type": "Point", "coordinates": [-116.3577444545, 33.7213161418]}, "type": "Feature", "properties": {"collection_times": [{"days": "Mon-Sat", "time": "3:00pm"}, {"days": "Sun", "time": "Closed"}], "id": "9221000009", "name": "USPS COLLECTION BOX - BLUE BOX", "address": {"city": "PALM DESERT", "state": "CA", "street": "74955 US HIGHWAY 111", "postcode": "92210"}}},
{"geometry": {"type": "Point", "coordinates": [-116.3577444545, 33.7213161418]}, "type": "Feature", "properties": {"collection_times": [{"days": "Mon-Sat", "time": "3:00pm"}, {"days": "Sun", "time": "Closed"}], "id": "9221000010", "name": "USPS COLLECTION BOX - BLUE BOX", "address": {"city": "PALM DESERT", "state": "CA", "street": "74955 US HIGHWAY 111", "postcode": "92210"}}},
{"geometry": {"type": "Point", "coordinates": [-116.3606341984, 33.7229063928]}, "type": "Feature", "properties": {"collection_times": [{"days": "Mon-Sat", "time": "3:00pm"}, {"days": "Sun", "time": "Closed"}], "id": "9221000011", "name": "USPS COLLECTION BOX - BLUE BOX", "address": {"city": "PALM DESERT", "state": "CA", "street": "74800 VILLAGE CENTER DR", "postcode": "92210"}}},
{"geometry": {"type": "Point", "coordinates": [-116.3117403633, 33.7583120005]}, "type": "Feature", "properties": {"collection_times": [{"days": "Mon-Sat", "time": "3:00pm"}, {"days": "Sun", "time": "Closed"}], "id": "9221100003", "name": "USPS COLLECTION BOX - BLUE BOX", "address": {"city": "PALM DESERT", "state": "CA", "street": "77564 COUNTRY CLUB DR", "postcode": "92211"}}},
{"geometry": {"type": "Point", "coordinates": [-116.3039806029, 33.7412708878]}, "type": "Feature", "properties": {"collection_times": [{"days": "Mon-Sat", "time": "3:00pm"}, {"days": "Sun", "time": "Closed"}], "id": "9221100008", "name": "USPS COLLECTION BOX - BLUE BOX", "address": {"city": "PALM DESERT", "state": "CA", "street": "42335 WASHINGTON ST", "postcode": "92211"}}},
{"geometry": {"type": "Point", "coordinates": [-116.3053508947, 33.7469023298]}, "type": "Feature", "properties": {"collection_times": [{"days": "Mon-Sat", "time": "12:00pm"}, {"days": "Sun", "time": "Closed"}], "id": "9221100009", "name": "USPS COLLECTION BOX - BLUE BOX", "address": {"city": "PALM DESERT", "state": "CA", "street": "41555 WOODHAVEN DR E", "postcode": "92211"}}},
{"geometry": {"type": "Point", "coordinates": [-116.3060834535, 33.7581487521]}, "type": "Feature", "properties": {"collection_times": [{"days": "Mon-Sat", "time": "3:00pm"}, {"days": "Sun", "time": "Closed"}], "id": "9221100010", "name": "USPS COLLECTION BOX - BLUE BOX", "address": {"city": "PALM DESERT", "state": "CA", "street": "77777 COUNTRY CLUB DR", "postcode": "92211"}}},
{"geometry": {"type": "Point", "coordinates": [-116.3117403633, 33.7583120005]}, "type": "Feature", "properties": {"collection_times": [{"days": "Mon-Sat", "time": "3:00pm"}, {"days": "Sun", "time": "Closed"}], "id": "9221100013", "name": "USPS COLLECTION BOX - BLUE BOX", "address": {"city": "PALM DESERT", "state": "CA", "street": "77564 COUNTRY CLUB DR", "postcode": "92211"}}},
{"geometry": {"type": "Point", "coordinates": [-116.357785858, 33.7581002508]}, "type": "Feature", "properties": {"collection_times": [{"days": "Mon-Sat", "time": "3:00pm"}, {"days": "Sun", "time": "Closed"}], "id": "9221100014", "name": "USPS COLLECTION BOX - BLUE BOX", "address": {"city": "PALM DESERT", "state": "CA", "street": "74884 COUNTRY CLUB DR", "postcode": "92211"}}},
{"geometry": {"type": "Point", "coordinates": [-116.3300781661, 33.7638179875]}, "type": "Feature", "properties": {"collection_times": [{"days": "Mon-Sat", "time": "3:00pm"}, {"days": "Sun", "time": "Closed"}], "id": "9221100015", "name": "USPS COLLECTION BOX - BLUE BOX", "address": {"city": "PALM DESERT", "state": "CA", "street": "76501 BEGONIA LN", "postcode": "92211"}}},
{"geometry": {"type": "Point", "coordinates": [-116.2945602554, 33.7723319138]}, "type": "Feature", "properties": {"collection_times": [{"days": "Mon-Sat", "time": "10:00am"}, {"days": "Sun", "time": "Closed"}], "id": "9221100016", "name": "USPS COLLECTION BOX - BLUE BOX", "address": {"city": "PALM DESERT", "state": "CA", "street": "38180 DEL WEBB BLVD", "postcode": "92211"}}},
{"geometry": {"type": "Point", "coordinates": [-116.3206170534, 33.7607528983]}, "type": "Feature", "properties": {"collection_times": [{"days": "Mon-Sat", "time": "10:00am"}, {"days": "Sun", "time": "Closed"}], "id": "9221100017", "name": "USPS COLLECTION BOX - EXPRESS", "address": {"city": "PALM DESERT", "state": "CA", "street": "38180 DEL WEBB BLVD", "postcode": "92211"}}},
{"geometry": {"type": "Point", "coordinates": [-116.2927725827, 33.780111018]}, "type": "Feature", "properties": {"collection_times": [{"days": "Mon-Sat", "time": "10:00am"}, {"days": "Sun", "time": "Closed"}], "id": "9221100020", "name": "USPS COLLECTION BOX - BLUE BOX", "address": {"city": "PALM DESERT", "state": "CA", "street": "36890 DEL WEBB BLVD", "postcode": "92211"}}},
{"geometry": {"type": "Point", "coordinates": [-116.3558753405, 33.7792869963]}, "type": "Feature", "properties": {"collection_times": [{"days": "Mon-Fri", "time": "3:00pm"}, {"days": "Sat-Sun", "time": "Closed"}], "id": "9221100021", "name": "USPS COLLECTION BOX - BLUE BOX", "address": {"city": "PALM DESERT", "state": "CA", "street": "36953 COOK ST STE 104", "postcode": "92211"}}},
{"geometry": {"type": "Point", "coordinates": [-116.9407847077, 33.9177050744]}, "type": "Feature", "properties": {"collection_times": [{"days": "Mon-Sat", "time": "2:00pm"}, {"days": "Sun", "time": "Closed"}], "id": "9222000003", "name": "USPS COLLECTION BOX - BLUE BOX", "address": {"city": "BANNING", "state": "CA", "street": "850 COUNTRY CLUB DR", "postcode": "92220"}}},
{"geometry": {"type": "Point", "coordinates": [-116.9117634454, 33.9269755027]}, "type": "Feature", "properties": {"collection_times": [{"days": "Mon-Sat", "time": "2:00pm"}, {"days": "Sun", "time": "Closed"}], "id": "9222000004", "name": "USPS COLLECTION BOX - BLUE BOX", "address": {"city": "BANNING", "state": "CA", "street": "158 N SUNSET AVE", "postcode": "92220"}}},
{"geometry": {"type": "Point", "coordinates": [-116.8857499078, 33.9254167838]}, "type": "Feature", "properties": {"collection_times": [{"days": "Mon-Sat", "time": "2:00pm"}, {"days": "Sun", "time": "Closed"}], "id": "9222000005", "name": "USPS COLLECTION BOX - BLUE BOX", "address": {"city": "BANNING", "state": "CA", "street": "827 W RAMSEY ST", "postcode": "92220"}}},
{"geometry": {"type": "Point", "coordinates": [-116.9469266307, 33.9324080713]}, "type": "Feature", "properties": {"collection_times": [{"days": "Mon-Fri", "time": "4:30pm"}, {"days": "Sat", "time": "2:00pm"}, {"days": "Sun", "time": "Closed"}], "id": "9222000008", "name": "USPS COLLECTION BOX - BLUE BOX", "address": {"city": "BANNING", "state": "CA", "street": "600 N HIGHLAND SPRINGS AVE", "postcode": "92220"}}},
{"geometry": {"type": "Point", "coordinates": [-116.8746076173, 33.9270658286]}, "type": "Feature", "properties": {"collection_times": [{"days": "Mon-Fri", "time": "5:00pm"}, {"days": "Sat", "time": "4:00pm"}, {"days": "Sun", "time": "Closed"}], "id": "9222000011", "name": "USPS COLLECTION BOX - BLUE BOX", "address": {"city": "BANNING", "state": "CA", "street": "176 N ALESSANDRO ST", "postcode": "92220"}}},
{"geometry": {"type": "Point", "coordinates": [-116.9198439681, 33.9325464775]}, "type": "Feature", "properties": {"collection_times": [{"days": "Mon-Sat", "time": "2:00pm"}, {"days": "Sun", "time": "Closed"}], "id": "9222000013", "name": "USPS COLLECTION BOX - BLUE BOX", "address": {"city": "BANNING", "state": "CA", "street": "3800 W WILSON ST", "postcode": "92220"}}},
{"geometry": {"type": "Point", "coordinates": [-116.9396774581, 33.9327002622]}, "type": "Feature", "properties": {"collection_times": [{"days": "Mon-Sat", "time": "2:00pm"}, {"days": "Sun", "time": "Closed"}], "id": "9222000014", "name": "USPS COLLECTION BOX - BLUE BOX", "address": {"city": "BANNING", "state": "CA", "street": "5700 W WILSON ST", "postcode": "92220"}}},
{"geometry": {"type": "Point", "coordinates": [-116.8983223957, 33.9254226986]}, "type": "Feature", "properties": {"collection_times": [{"days": "Mon-Sat", "time": "2:00pm"}, {"days": "Sun", "time": "Closed"}], "id": "9222000015", "name": "USPS COLLECTION BOX - BLUE BOX", "address": {"city": "BANNING", "state": "CA", "street": "1964 W RAMSEY ST", "postcode": "92220"}}},
{"geometry": {"type": "Point", "coordinates": [-116.9468935078, 33.9305023244]}, "type": "Feature", "properties": {"collection_times": [{"days": "Mon-Sat", "time": "2:00pm"}, {"days": "Sun", "time": "Closed"}], "id": "9222000019", "name": "USPS COLLECTION BOX - BLUE BOX", "address": {"city": "BANNING", "state": "CA", "street": "264 N HIGHLAND SPRINGS AVE", "postcode": "92220"}}},
{"geometry": {"type": "Point", "coordinates": [-116.8928282077, 33.9253634317]}, "type": "Feature", "properties": {"collection_times": [{"days": "Mon-Fri", "time": "5:00pm"}, {"days": "Sat", "time": "4:00pm"}, {"days": "Sun", "time": "Closed"}], "id": "9222000020", "name": "USPS COLLECTION BOX - EXPRESS", "address": {"city": "BANNING", "state": "CA", "street": "176 N ALESSANDRO ST", "postcode": "92220"}}},
{"geometry": {"type": "Point", "coordinates": [-116.9489993621, 33.9292832081]}, "type": "Feature", "properties": {"collection_times": [{"days": "Mon-Sat", "time": "1:30pm"}, {"days": "Sun", "time": "Closed"}], "id": "9222300003", "name": "USPS COLLECTION BOX - BLUE BOX", "address": {"city": "CHERRY VALLEY", "state": "CA", "street": "1661 E 6TH ST", "postcode": "92223"}}},
{"geometry": {"type": "Point", "coordinates": [-116.9771147916, 33.9347951644]}, "type": "Feature", "properties": {"collection_times": [{"days": "Mon-Fri", "time": "5:00pm"}, {"days": "Sat", "time": "3:00pm"}, {"days": "Sun", "time": "Closed"}], "id": "9222300005", "name": "USPS COLLECTION BOX - BLUE BOX", "address": {"city": "CHERRY VALLEY", "state": "CA", "street": "950 BEAUMONT AVE", "postcode": "92223"}}},
{"geometry": {"type": "Point", "coordinates": [-116.9772357532, 33.9310104597]}, "type": "Feature", "properties": {"collection_times": [{"days": "Mon-Sat", "time": "1:30pm"}, {"days": "Sun", "time": "Closed"}], "id": "9222300006", "name": "USPS COLLECTION BOX - BLUE BOX", "address": {"city": "CHERRY VALLEY", "state": "CA", "street": "701 BEAUMONT AVE", "postcode": "92223"}}},
{"geometry": {"type": "Point", "coordinates": [-116.9486372605, 33.9624017811]}, "type": "Feature", "properties": {"collection_times": [{"days": "Mon-Sat", "time": "1:30pm"}, {"days": "Sun", "time": "Closed"}], "id": "9222300008", "name": "USPS COLLECTION BOX - BLUE BOX", "address": {"city": "CHERRY VALLEY", "state": "CA", "street": "10941 DEERFIELD DR", "postcode": "92223"}}},
{"geometry": {"type": "Point", "coordinates": [-116.9743303461, 33.9296541469]}, "type": "Feature", "properties": {"collection_times": [{"days": "Mon-Sat", "time": "1:30pm"}, {"days": "Sun", "time": "Closed"}], "id": "9222300012", "name": "USPS COLLECTION BOX - BLUE BOX", "address": {"city": "CHERRY VALLEY", "state": "CA", "street": "600 ORANGE AVE", "postcode": "92223"}}},
{"geometry": {"type": "Point", "coordinates": [-116.9764087335, 33.9498040876]}, "type": "Feature", "properties": {"collection_times": [{"days": "Mon-Fri", "time": "5:00pm"}, {"days": "Sat", "time": "3:00pm"}, {"days": "Sun", "time": "Closed"}], "id": "9222300016", "name": "USPS COLLECTION BOX - EXPRESS", "address": {"city": "CHERRY VALLEY", "state": "CA", "street": "950 BEAUMONT AVE", "postcode": "92223"}}},
{"geometry": {"type": "Point", "coordinates": [-116.97478424, 33.9580267653]}, "type": "Feature", "properties": {"collection_times": [{"days": "Mon-Sat", "time": "1:30pm"}, {"days": "Sun", "time": "Closed"}], "id": "9222300020", "name": "USPS COLLECTION BOX - BLUE BOX", "address": {"city": "CHERRY VALLEY", "state": "CA", "street": "1740 VASILI LN", "postcode": "92223"}}},
{"geometry": {"type": "Point", "coordinates": [-114.6046787913, 33.6103114279]}, "type": "Feature", "properties": {"collection_times": [{"days": "Mon-Sat", "time": "10:00am"}, {"days": "Sun", "time": "Closed"}], "id": "9222500009", "name": "USPS COLLECTION BOX - BLUE BOX", "address": {"city": "BLYTHE", "state": "CA", "street": "17970 W HOBSONWAY", "postcode": "92225"}}},
{"geometry": {"type": "Point", "coordinates": [-114.5954515457, 33.6121851451]}, "type": "Feature", "properties": {"collection_times": [{"days": "Mon-Sat", "time": "3:15pm"}, {"days": "Sun", "time": "Closed"}], "id": "9222500015", "name": "USPS COLLECTION BOX - BLUE BOX", "address": {"city": "BLYTHE", "state": "CA", "street": "200 E MURPHY ST", "postcode": "92225"}}},
{"geometry": {"type": "Point", "coordinates": [-114.6046787913, 33.6103114279]}, "type": "Feature", "properties": {"collection_times": [{"days": "Mon-Sat", "time": "3:15pm"}, {"days": "Sun", "time": "Closed"}], "id": "9222500019", "name": "USPS COLLECTION BOX - EXPRESS", "address": {"city": "BLYTHE", "state": "CA", "street": "200 E MURPHY ST", "postcode": "92225"}}},
{"geometry": {"type": "Point", "coordinates": [-114.5954515457, 33.6121851451]}, "type": "Feature", "properties": {"collection_times": [{"days": "Mon-Sat", "time": "3:15pm"}, {"days": "Sun", "time": "Closed"}], "id": "9222500024", "name": "USPS COLLECTION BOX - BLUE BOX", "address": {"city": "BLYTHE", "state": "CA", "street": "200 E MURPHY ST", "postcode": "92225"}}},
{"geometry": {"type": "Point", "coordinates": [-114.6486673494, 33.5851518847]}, "type": "Feature", "properties": {"collection_times": [{"days": "Mon-Sat", "time": "10:00am"}, {"days": "Sun", "time": "Closed"}], "id": "9222500027", "name": "USPS COLLECTION BOX - BLUE BOX", "address": {"city": "BLYTHE", "state": "CA", "street": "42500 HIGHWAY 95", "postcode": "92225"}}},
{"geometry": {"type": "Point", "coordinates": [-115.5336040456, 32.9787537599]}, "type": "Feature", "properties": {"collection_times": [{"days": "Mon-Sat", "time": "2:45pm"}, {"days": "Sun", "time": "Closed"}], "id": "9222700002", "name": "USPS COLLECTION BOX - BLUE BOX", "address": {"city": "BRAWLEY", "state": "CA", "street": "401 MAIN ST", "postcode": "92227"}}},
{"geometry": {"type": "Point", "coordinates": [-115.532537336, 32.9797208255]}, "type": "Feature", "properties": {"collection_times": [{"days": "Mon-Sat", "time": "2:45pm"}, {"days": "Sun", "time": "Closed"}], "id": "9222700007", "name": "USPS COLLECTION BOX - BLUE BOX", "address": {"city": "BRAWLEY", "state": "CA", "street": "400 MAIN ST", "postcode": "92227"}}},
{"geometry": {"type": "Point", "coordinates": [-115.5336040456, 32.9787537599]}, "type": "Feature", "properties": {"collection_times": [{"days": "Mon-Sat", "time": "2:45pm"}, {"days": "Sun", "time": "Closed"}], "id": "9222700009", "name": "USPS COLLECTION BOX - BLUE BOX", "address": {"city": "BRAWLEY", "state": "CA", "street": "401 MAIN ST", "postcode": "92227"}}},
{"geometry": {"type": "Point", "coordinates": [-115.5335992159, 32.978541419]}, "type": "Feature", "properties": {"collection_times": [{"days": "Mon-Sat", "time": "2:45pm"}, {"days": "Sun", "time": "Closed"}], "id": "9222700010", "name": "USPS COLLECTION BOX - BLUE BOX", "address": {"city": "BRAWLEY", "state": "CA", "street": "400 MAIN ST", "postcode": "92227"}}},
{"geometry": {"type": "Point", "coordinates": [-115.5325460258, 32.9797338147]}, "type": "Feature", "properties": {"collection_times": [{"days": "Mon-Sat", "time": "2:45pm"}, {"days": "Sun", "time": "Closed"}], "id": "9222700011", "name": "USPS COLLECTION BOX - EXPRESS", "address": {"city": "BRAWLEY", "state": "CA", "street": "401 MAIN ST", "postcode": "92227"}}},
{"geometry": {"type": "Point", "coordinates": [-115.5336040456, 32.9787537599]}, "type": "Feature", "properties": {"collection_times": [{"days": "Mon-Sat", "time": "2:45pm"}, {"days": "Sun", "time": "Closed"}], "id": "9222700012", "name": "USPS COLLECTION BOX - BLUE BOX", "address": {"city": "BRAWLEY", "state": "CA", "street": "401 MAIN ST", "postcode": "92227"}}},
{"geometry": {"type": "Point", "coordinates": [-115.5495854591, 32.9786997914]}, "type": "Feature", "properties": {"collection_times": [{"days": "Mon-Sat", "time": "2:45pm"}, {"days": "Sun", "time": "Closed"}], "id": "9222700014", "name": "USPS COLLECTION BOX - BLUE BOX", "address": {"city": "BRAWLEY", "state": "CA", "street": "475 W MAIN ST", "postcode": "92227"}}},
{"geometry": {"type": "Point", "coordinates": [-116.7831016586, 33.9174430651]}, "type": "Feature", "properties": {"collection_times": [{"days": "Mon-Fri", "time": "4:15pm"}, {"days": "Sat", "time": "1:45pm"}, {"days": "Sun", "time": "Closed"}], "id": "9223000001", "name": "USPS COLLECTION BOX - BLUE BOX", "address": {"city": "CABAZON", "state": "CA", "street": "50360 RAMONA RD", "postcode": "92230"}}},
{"geometry": {"type": "Point", "coordinates": [-116.7545443801, 33.9011412829]}, "type": "Feature", "properties": {"collection_times": [{"days": "Mon-Sat", "time": "11:30am"}, {"days": "Sun", "time": "Closed"}], "id": "9223000012", "name": "USPS COLLECTION BOX - BLUE BOX", "address": {"city": "CABAZON", "state": "CA", "street": "15118 ELM ST", "postcode": "92230"}}},
{"geometry": {"type": "Point", "coordinates": [-116.7806575457, 33.910590413]}, "type": "Feature", "properties": {"collection_times": [{"days": "Mon-Sat", "time": "4:30pm"}, {"days": "Sun", "time": "Closed"}], "id": "9223000013", "name": "USPS COLLECTION BOX - PO LOBBY", "address": {"city": "CABAZON", "state": "CA", "street": "50360 RAMONA RD", "postcode": "92230"}}},
{"geometry": {"type": "Point", "coordinates": [-115.4985909373, 32.6766514244]}, "type": "Feature", "properties": {"collection_times": [{"days": "Mon-Sat", "time": "1:00pm"}, {"days": "Sun", "time": "Closed"}], "id": "9223100003", "name": "USPS COLLECTION BOX - BLUE BOX", "address": {"city": "CALEXICO", "state": "CA", "street": "922 S IMPERIAL AVE", "postcode": "92231"}}},
{"geometry": {"type": "Point", "coordinates": [-115.4955615543, 32.668742903]}, "type": "Feature", "properties": {"collection_times": [{"days": "Mon-Sat", "time": "1:00pm"}, {"days": "Sun", "time": "Closed"}], "id": "9223100012", "name": "USPS COLLECTION BOX - BLUE BOX", "address": {"city": "CALEXICO", "state": "CA", "street": "250 E 4TH ST", "postcode": "92231"}}},
{"geometry": {"type": "Point", "coordinates": [-115.4962318706, 32.6658656297]}, "type": "Feature", "properties": {"collection_times": [{"days": "Mon-Sat", "time": "1:00pm"}, {"days": "Sun", "time": "Closed"}], "id": "9223100014", "name": "USPS COLLECTION BOX - BLUE BOX", "address": {"city": "CALEXICO", "state": "CA", "street": "120 ROCKWOOD AVE STE A", "postcode": "92231"}}},
{"geometry": {"type": "Point", "coordinates": [-115.4975413427, 32.6670577696]}, "type": "Feature", "properties": {"collection_times": [{"days": "Mon-Sat", "time": "1:00pm"}, {"days": "Sun", "time": "Closed"}], "id": "9223100015", "name": "USPS COLLECTION BOX - BLUE BOX", "address": {"city": "CALEXICO", "state": "CA", "street": "233 PAULIN AVE", "postcode": "92231"}}},
{"geometry": {"type": "Point", "coordinates": [-115.4987250798, 32.6709434152]}, "type": "Feature", "properties": {"collection_times": [{"days": "Mon-Sat", "time": "1:00pm"}, {"days": "Sun", "time": "Closed"}], "id": "9223100016", "name": "USPS COLLECTION BOX - BLUE BOX", "address": {"city": "CALEXICO", "state": "CA", "street": "601 S IMPERIAL AVE", "postcode": "92231"}}},
{"geometry": {"type": "Point", "coordinates": [-115.502446046, 32.6786266947]}, "type": "Feature", "properties": {"collection_times": [{"days": "Mon-Sat", "time": "1:30pm"}, {"days": "Sun", "time": "Closed"}], "id": "9223100018", "name": "USPS COLLECTION BOX - BLUE BOX", "address": {"city": "CALEXICO", "state": "CA", "street": "1101 OLLIE AVE", "postcode": "92231"}}},
{"geometry": {"type": "Point", "coordinates": [-115.4962318706, 32.6658656297]}, "type": "Feature", "properties": {"collection_times": [{"days": "Mon-Sat", "time": "1:00pm"}, {"days": "Sun", "time": "Closed"}], "id": "9223100020", "name": "USPS COLLECTION BOX - BLUE BOX", "address": {"city": "CALEXICO", "state": "CA", "street": "120 ROCKWOOD AVE STE A", "postcode": "92231"}}},
{"geometry": {"type": "Point", "coordinates": [-115.502446046, 32.6786266947]}, "type": "Feature", "properties": {"collection_times": [{"days": "Mon-Sat", "time": "1:30pm"}, {"days": "Sun", "time": "Closed"}], "id": "9223100021", "name": "USPS COLLECTION BOX - BLUE BOX", "address": {"city": "CALEXICO", "state": "CA", "street": "1101 OLLIE AVE", "postcode": "92231"}}},
{"geometry": {"type": "Point", "coordinates": [-115.4975413427, 32.6670577696]}, "type": "Feature", "properties": {"collection_times": [{"days": "Mon-Sat", "time": "1:00pm"}, {"days": "Sun", "time": "Closed"}], "id": "9223100022", "name": "USPS COLLECTION BOX - BLUE BOX", "address": {"city": "CALEXICO", "state": "CA", "street": "233 PAULIN AVE", "postcode": "92231"}}},
{"geometry": {"type": "Point", "coordinates": [-115.4934631417, 32.6709805762]}, "type": "Feature", "properties": {"collection_times": [{"days": "Mon-Sat", "time": "1:00pm"}, {"days": "Sun", "time": "Closed"}], "id": "9223100024", "name": "USPS COLLECTION BOX - BLUE BOX", "address": {"city": "CALEXICO", "state": "CA", "street": "608 HEBER AVE", "postcode": "92231"}}},
{"geometry": {"type": "Point", "coordinates": [-115.4929760607, 32.678173053]}, "type": "Feature", "properties": {"collection_times": [{"days": "Mon-Sat", "time": "1:00pm"}, {"days": "Sun", "time": "Closed"}], "id": "9223100025", "name": "USPS COLLECTION BOX - BLUE BOX", "address": {"city": "CALEXICO", "state": "CA", "street": "233 PAULIN AVE", "postcode": "92231"}}},
{"geometry": {"type": "Point", "coordinates": [-115.4929760607, 32.678173053]}, "type": "Feature", "properties": {"collection_times": [{"days": "Mon-Sat", "time": "1:30pm"}, {"days": "Sun", "time": "Closed"}], "id": "9223100026", "name": "USPS COLLECTION BOX - EXPRESS", "address": {"city": "CALEXICO", "state": "CA", "street": "1101 OLLIE AVE", "postcode": "92231"}}},
{"geometry": {"type": "Point", "coordinates": [-115.5162292231, 33.1258126682]}, "type": "Feature", "properties": {"collection_times": [{"days": "Mon-Fri", "time": "2:30pm"}, {"days": "Sat", "time": "9:30am"}, {"days": "Sun", "time": "Closed"}], "id": "9223300001", "name": "USPS COLLECTION BOX - BLUE BOX", "address": {"city": "CALIPATRIA", "state": "CA", "street": "190 W MAIN ST", "postcode": "92233"}}},
{"geometry": {"type": "Point", "coordinates": [-116.4559858279, 33.7771658043]}, "type": "Feature", "properties": {"collection_times": [{"days": "Mon-Fri", "time": "4:00pm"}, {"days": "Sat", "time": "1:15pm"}, {"days": "Sun", "time": "Closed"}], "id": "9223400001", "name": "USPS COLLECTION BOX - BLUE BOX", "address": {"city": "CATHEDRAL CITY", "state": "CA", "street": "69044 E US HIGHWAY 111", "postcode": "92234"}}},
{"geometry": {"type": "Point", "coordinates": [-116.464796326, 33.7847132786]}, "type": "Feature", "properties": {"collection_times": [{"days": "Mon-Sat", "time": "1:15pm"}, {"days": "Sun", "time": "Closed"}], "id": "9223400002", "name": "USPS COLLECTION BOX - BLUE BOX", "address": {"city": "CATHEDRAL CITY", "state": "CA", "street": "68625 PEREZ RD", "postcode": "92234"}}},
{"geometry": {"type": "Point", "coordinates": [-116.4755920095, 33.8186559202]}, "type": "Feature", "properties": {"collection_times": [{"days": "Mon-Sat", "time": "1:15pm"}, {"days": "Sun", "time": "Closed"}], "id": "9223400009", "name": "USPS COLLECTION BOX - BLUE BOX", "address": {"city": "CATHEDRAL CITY", "state": "CA", "street": "31750 LANDAU BLVD", "postcode": "92234"}}},
{"geometry": {"type": "Point", "coordinates": [-116.4679358991, 33.7806983159]}, "type": "Feature", "properties": {"collection_times": [{"days": "Mon-Fri", "time": "4:00pm"}, {"days": "Sat", "time": "1:15pm"}, {"days": "Sun", "time": "Closed"}], "id": "9223400010", "name": "USPS COLLECTION BOX - BLUE BOX", "address": {"city": "CATHEDRAL CITY", "state": "CA", "street": "68435 E PALM CANYON DR", "postcode": "92234"}}},
{"geometry": {"type": "Point", "coordinates": [-116.4578626518, 33.8052233446]}, "type": "Feature", "properties": {"collection_times": [{"days": "Mon-Fri", "time": "5:00pm"}, {"days": "Sat", "time": "3:00pm"}, {"days": "Sun", "time": "Closed"}], "id": "9223400019", "name": "USPS COLLECTION BOX - BLUE BOX", "address": {"city": "CATHEDRAL CITY", "state": "CA", "street": "33490 DATE PALM DR", "postcode": "92234"}}},
{"geometry": {"type": "Point", "coordinates": [-116.4662659827, 33.8122021084]}, "type": "Feature", "properties": {"collection_times": [{"days": "Mon-Fri", "time": "5:00pm"}, {"days": "Sat", "time": "3:00pm"}, {"days": "Sun", "time": "Closed"}], "id": "9223400021", "name": "USPS COLLECTION BOX - EXPRESS", "address": {"city": "CATHEDRAL CITY", "state": "CA", "street": "33490 DATE PALM DR", "postcode": "92234"}}},
{"geometry": {"type": "Point", "coordinates": [-116.4635537261, 33.8015312797]}, "type": "Feature", "properties": {"collection_times": [{"days": "Mon-Sat", "time": "12:00pm"}, {"days": "Sun", "time": "Closed"}], "id": "9223400032", "name": "USPS COLLECTION BOX - BLUE BOX", "address": {"city": "CATHEDRAL CITY", "state": "CA", "street": "68680 DINAH SHORE DR", "postcode": "92234"}}},
{"geometry": {"type": "Point", "coordinates": [-116.457032449, 33.8158356294]}, "type": "Feature", "properties": {"collection_times": [{"days": "Mon-Fri", "time": "4:30pm"}, {"days": "Sat", "time": "2:30pm"}, {"days": "Sun", "time": "Closed"}], "id": "9223400036", "name": "USPS COLLECTION BOX - BLUE BOX", "address": {"city": "CATHEDRAL CITY", "state": "CA", "street": "69115 RAMON RD STE #F-1", "postcode": "92234"}}},
{"geometry": {"type": "Point", "coordinates": [-116.4741582633, 33.8159575908]}, "type": "Feature", "properties": {"collection_times": [{"days": "Mon-Fri", "time": "4:00pm"}, {"days": "Sat", "time": "1:15pm"}, {"days": "Sun", "time": "Closed"}], "id": "9223400039", "name": "USPS COLLECTION BOX - BLUE BOX", "address": {"city": "CATHEDRAL CITY", "state": "CA", "street": "68100 RAMON RD", "postcode": "92234"}}},
{"geometry": {"type": "Point", "coordinates": [-116.4582368185, 33.8167691007]}, "type": "Feature", "properties": {"collection_times": [{"days": "Mon-Fri", "time": "4:00pm"}, {"days": "Sat", "time": "1:15pm"}, {"days": "Sun", "time": "Closed"}], "id": "9223400043", "name": "USPS COLLECTION BOX - BLUE BOX", "address": {"city": "CATHEDRAL CITY", "state": "CA", "street": "31855 DATE PALM DR", "postcode": "92234"}}},
{"geometry": {"type": "Point", "coordinates": [-116.4578626518, 33.8052233446]}, "type": "Feature", "properties": {"collection_times": [{"days": "Mon-Fri", "time": "5:00pm"}, {"days": "Sat", "time": "3:00pm"}, {"days": "Sun", "time": "Closed"}], "id": "9223400045", "name": "USPS COLLECTION BOX - BLUE BOX", "address": {"city": "CATHEDRAL CITY", "state": "CA", "street": "33490 DATE PALM DR", "postcode": "92234"}}},
{"geometry": {"type": "Point", "coordinates": [-116.4578626518, 33.8052233446]}, "type": "Feature", "properties": {"collection_times": [{"days": "Mon-Fri", "time": "5:00pm"}, {"days": "Sat", "time": "3:00pm"}, {"days": "Sun", "time": "Closed"}], "id": "9223400046", "name": "USPS COLLECTION BOX - BLUE BOX", "address": {"city": "CATHEDRAL CITY", "state": "CA", "street": "33490 DATE PALM DR", "postcode": "92234"}}},
{"geometry": {"type": "Point", "coordinates": [-116.4629742908, 33.8089269449]}, "type": "Feature", "properties": {"collection_times": [{"days": "Mon-Sat", "time": "1:15pm"}, {"days": "Sun", "time": "Closed"}], "id": "9223400049", "name": "USPS COLLECTION BOX - BLUE BOX", "address": {"city": "CATHEDRAL CITY", "state": "CA", "street": "6700 VISTA CHINO", "postcode": "92234"}}},
{"geometry": {"type": "Point", "coordinates": [-116.4578626518, 33.8052233446]}, "type": "Feature", "properties": {"collection_times": [{"days": "Mon-Fri", "time": "5:00pm"}, {"days": "Sat", "time": "3:00pm"}, {"days": "Sun", "time": "Closed"}], "id": "9223400051", "name": "USPS COLLECTION BOX - APC", "address": {"city": "CATHEDRAL CITY", "state": "CA", "street": "33490 DATE PALM DR", "postcode": "92234"}}},
{"geometry": {"type": "Point", "coordinates": [-116.1748530837, 33.7134187077]}, "type": "Feature", "properties": {"collection_times": [{"days": "Mon-Sat", "time": "1:00pm"}, {"days": "Sun", "time": "Closed"}], "id": "9223600001", "name": "USPS COLLECTION BOX - BLUE BOX", "address": {"city": "COACHELLA", "state": "CA", "street": "46155 DILLON RD", "postcode": "92236"}}},
{"geometry": {"type": "Point", "coordinates": [-116.1814533414, 33.6743582165]}, "type": "Feature", "properties": {"collection_times": [{"days": "Mon-Sat", "time": "1:00pm"}, {"days": "Sun", "time": "Closed"}], "id": "9223600006", "name": "USPS COLLECTION BOX - BLUE BOX", "address": {"city": "COACHELLA", "state": "CA", "street": "51508 HWY 86", "postcode": "92236"}}},
{"geometry": {"type": "Point", "coordinates": [-116.1847356964, 33.6787713345]}, "type": "Feature", "properties": {"collection_times": [{"days": "Mon-Fri", "time": "5:00pm"}, {"days": "Sat", "time": "3:00pm"}, {"days": "Sun", "time": "Closed"}], "id": "9223600010", "name": "USPS COLLECTION BOX - EXPRESS", "address": {"city": "COACHELLA", "state": "CA", "street": "1412 6TH ST", "postcode": "92236"}}},
{"geometry": {"type": "Point", "coordinates": [-116.1816692497, 33.6859522535]}, "type": "Feature", "properties": {"collection_times": [{"days": "Mon-Sat", "time": "1:00pm"}, {"days": "Sun", "time": "Closed"}], "id": "9223600012", "name": "USPS COLLECTION BOX - BLUE BOX", "address": {"city": "COACHELLA", "state": "CA", "street": "49939 HARRISON ST", "postcode": "92236"}}},
{"geometry": {"type": "Point", "coordinates": [-115.4018400024, 33.71335081]}, "type": "Feature", "properties": {"collection_times": [{"days": "Mon-Fri", "time": "4:45pm"}, {"days": "Sat", "time": "9:00am"}, {"days": "Sun", "time": "Closed"}], "id": "9223900001", "name": "USPS COLLECTION BOX - BLUE BOX", "address": {"city": "DESERT CENTER", "state": "CA", "street": "44300 RAGSDALE RD", "postcode": "92239"}}},
{"geometry": {"type": "Point", "coordinates": [-115.3954871723, 33.7432121111]}, "type": "Feature", "properties": {"collection_times": [{"days": "Mon-Sat", "time": "4:30pm"}, {"days": "Sun", "time": "Closed"}], "id": "9223900004", "name": "USPS COLLECTION BOX - PO LOBBY", "address": {"city": "DESERT CENTER", "state": "CA", "street": "44300 RAGSDALE RD", "postcode": "92239"}}},
{"geometry": {"type": "Point", "coordinates": [-116.5004213683, 33.9541047077]}, "type": "Feature", "properties": {"collection_times": [{"days": "Mon-Sat", "time": "1:00pm"}, {"days": "Sun", "time": "Closed"}], "id": "9224000007", "name": "USPS COLLECTION BOX - BLUE BOX", "address": {"city": "DSRT HOT SPGS", "state": "CA", "street": "66605 HACIENDA AVE", "postcode": "92240"}}},
{"geometry": {"type": "Point", "coordinates": [-116.5060831019, 33.9467923814]}, "type": "Feature", "properties": {"collection_times": [{"days": "Mon-Fri", "time": "5:00pm"}, {"days": "Sat", "time": "3:00pm"}, {"days": "Sun", "time": "Closed"}], "id": "9224000011", "name": "USPS COLLECTION BOX - BLUE BOX", "address": {"city": "DSRT HOT SPGS", "state": "CA", "street": "66311 TWO BUNCH PALMS TRL", "postcode": "92240"}}},
{"geometry": {"type": "Point", "coordinates": [-116.5011466716, 33.9688035351]}, "type": "Feature", "properties": {"collection_times": [{"days": "Mon-Sat", "time": "1:00pm"}, {"days": "Sun", "time": "Closed"}], "id": "9224000012", "name": "USPS COLLECTION BOX - BLUE BOX", "address": {"city": "DSRT HOT SPGS", "state": "CA", "street": "66510 8TH ST", "postcode": "92240"}}},
{"geometry": {"type": "Point", "coordinates": [-116.5394190237, 33.9774282087]}, "type": "Feature", "properties": {"collection_times": [{"days": "Mon-Sat", "time": "1:00pm"}, {"days": "Sun", "time": "Closed"}], "id": "9224000018", "name": "USPS COLLECTION BOX - BLUE BOX", "address": {"city": "DSRT HOT SPGS", "state": "CA", "street": "64316 SPYGLASS AVE", "postcode": "92240"}}},
{"geometry": {"type": "Point", "coordinates": [-116.5014763346, 33.9392846118]}, "type": "Feature", "properties": {"collection_times": [{"days": "Mon-Sat", "time": "1:00pm"}, {"days": "Sun", "time": "Closed"}], "id": "9224000026", "name": "USPS COLLECTION BOX - BLUE BOX", "address": {"city": "DSRT HOT SPGS", "state": "CA", "street": "15300 PALM DR", "postcode": "92240"}}},
{"geometry": {"type": "Point", "coordinates": [-116.50135, 33.94472]}, "type": "Feature", "properties": {"collection_times": [{"days": "Mon-Sat", "time": "1:00pm"}, {"days": "Sun", "time": "Closed"}], "id": "9224000027", "name": "USPS COLLECTION BOX - BLUE BOX", "address": {"city": "DSRT HOT SPGS", "state": "CA", "street": "14577 PALM DR", "postcode": "92240"}}},
{"geometry": {"type": "Point", "coordinates": [-116.5060831019, 33.9467923814]}, "type": "Feature", "properties": {"collection_times": [{"days": "Mon-Fri", "time": "5:00pm"}, {"days": "Sat", "time": "3:00pm"}, {"days": "Sun", "time": "Closed"}], "id": "9224000028", "name": "USPS COLLECTION BOX - BLUE BOX", "address": {"city": "DSRT HOT SPGS", "state": "CA", "street": "66311 TWO BUNCH PALMS TRL", "postcode": "92240"}}},
{"geometry": {"type": "Point", "coordinates": [-116.5027770639, 33.9577033076]}, "type": "Feature", "properties": {"collection_times": [{"days": "Mon-Fri", "time": "5:00pm"}, {"days": "Sat", "time": "3:00pm"}, {"days": "Sun", "time": "Closed"}], "id": "9224000029", "name": "USPS COLLECTION BOX - EXPRESS", "address": {"city": "DSRT HOT SPGS", "state": "CA", "street": "66311 TWO BUNCH PALMS TRL", "postcode": "92240"}}},
{"geometry": {"type": "Point", "coordinates": [-116.5060831019, 33.9467923814]}, "type": "Feature", "properties": {"collection_times": [{"days": "Mon-Fri", "time": "5:00pm"}, {"days": "Sat", "time": "3:00pm"}, {"days": "Sun", "time": "Closed"}], "id": "9224000035", "name": "USPS COLLECTION BOX - BLUE BOX", "address": {"city": "DSRT HOT SPGS", "state": "CA", "street": "66311 TWO BUNCH PALMS TRL", "postcode": "92240"}}},
{"geometry": {"type": "Point", "coordinates": [-116.43686075, 33.9252192297]}, "type": "Feature", "properties": {"collection_times": [{"days": "Mon-Sat", "time": "1:00pm"}, {"days": "Sun", "time": "Closed"}], "id": "9224100000", "name": "USPS COLLECTION BOX - BLUE BOX", "address": {"city": "DSRT HOT SPGS", "state": "CA", "street": "70200 DILLON RD", "postcode": "92241"}}},
{"geometry": {"type": "Point", "coordinates": [-116.3615216424, 33.9044228111]}, "type": "Feature", "properties": {"collection_times": [{"days": "Mon-Sat", "time": "12:00pm"}, {"days": "Sun", "time": "Closed"}], "id": "9224100004", "name": "USPS COLLECTION BOX - BLUE BOX", "address": {"city": "DSRT HOT SPGS", "state": "CA", "street": "74711 DILLON RD", "postcode": "92241"}}},
{"geometry": {"type": "Point", "coordinates": [-116.4319304172, 33.9177534868]}, "type": "Feature", "properties": {"collection_times": [{"days": "Mon-Sat", "time": "1:00pm"}, {"days": "Sun", "time": "Closed"}], "id": "9224100006", "name": "USPS COLLECTION BOX - BLUE BOX", "address": {"city": "DSRT HOT SPGS", "state": "CA", "street": "18025 LANGLOIS RD", "postcode": "92241"}}},
{"geometry": {"type": "Point", "coordinates": [-116.3330562885, 33.8654926586]}, "type": "Feature", "properties": {"collection_times": [{"days": "Mon-Sat", "time": "1:00pm"}, {"days": "Sun", "time": "Closed"}], "id": "9224100009", "name": "USPS COLLECTION BOX - BLUE BOX", "address": {"city": "DSRT HOT SPGS", "state": "CA", "street": "7211 DESERT CREST AVE", "postcode": "92241"}}},
{"geometry": {"type": "Point", "coordinates": [-115.5670985012, 32.7927912322]}, "type": "Feature", "properties": {"collection_times": [{"days": "Mon-Sat", "time": "1:45pm"}, {"days": "Sun", "time": "Closed"}], "id": "9224300003", "name": "USPS COLLECTION BOX - BLUE BOX", "address": {"city": "EL CENTRO", "state": "CA", "street": "1249 W MAIN ST", "postcode": "92243"}}},
{"geometry": {"type": "Point", "coordinates": [-115.5607595683, 32.792766363]}, "type": "Feature", "properties": {"collection_times": [{"days": "Mon-Sat", "time": "1:45pm"}, {"days": "Sun", "time": "Closed"}], "id": "9224300004", "name": "USPS COLLECTION BOX - BLUE BOX", "address": {"city": "EL CENTRO", "state": "CA", "street": "939 W MAIN ST", "postcode": "92243"}}},
{"geometry": {"type": "Point", "coordinates": [-115.5614190221, 32.7893332235]}, "type": "Feature", "properties": {"collection_times": [{"days": "Mon-Sat", "time": "1:45pm"}, {"days": "Sun", "time": "Closed"}], "id": "9224300006", "name": "USPS COLLECTION BOX - BLUE BOX", "address": {"city": "EL CENTRO", "state": "CA", "street": "444 S 8TH ST", "postcode": "92243"}}},
{"geometry": {"type": "Point", "coordinates": [-115.5700118609, 32.8093401818]}, "type": "Feature", "properties": {"collection_times": [{"days": "Mon-Sat", "time": "1:45pm"}, {"days": "Sun", "time": "Closed"}], "id": "9224300010", "name": "USPS COLLECTION BOX - BLUE BOX", "address": {"city": "EL CENTRO", "state": "CA", "street": "1950 S IMPERIAL AVE", "postcode": "92243"}}},
{"geometry": {"type": "Point", "coordinates": [-115.498114529, 32.7814265948]}, "type": "Feature", "properties": {"collection_times": [{"days": "Mon-Sat", "time": "1:45pm"}, {"days": "Sun", "time": "Closed"}], "id": "9224300011", "name": "USPS COLLECTION BOX - BLUE BOX", "address": {"city": "EL CENTRO", "state": "CA", "street": "1415 ROSS AVE", "postcode": "92243"}}},
{"geometry": {"type": "Point", "coordinates": [-115.5539453715, 32.7928796164]}, "type": "Feature", "properties": {"collection_times": [{"days": "Mon-Sat", "time": "1:45pm"}, {"days": "Sun", "time": "Closed"}], "id": "9224300019", "name": "USPS COLLECTION BOX - BLUE BOX", "address": {"city": "EL CENTRO", "state": "CA", "street": "598 W MAIN ST", "postcode": "92243"}}},
{"geometry": {"type": "Point", "coordinates": [-115.5615464887, 32.7956657636]}, "type": "Feature", "properties": {"collection_times": [{"days": "Mon-Sat", "time": "1:45pm"}, {"days": "Sun", "time": "Closed"}], "id": "9224300022", "name": "USPS COLLECTION BOX - BLUE BOX", "address": {"city": "EL CENTRO", "state": "CA", "street": "380 N 8TH ST", "postcode": "92243"}}},
{"geometry": {"type": "Point", "coordinates": [-115.573794123, 32.7928935451]}, "type": "Feature", "properties": {"collection_times": [{"days": "Mon-Sat", "time": "2:30pm"}, {"days": "Sun", "time": "Closed"}], "id": "9224300027", "name": "USPS COLLECTION BOX - BLUE BOX", "address": {"city": "EL CENTRO", "state": "CA", "street": "1598 W MAIN ST", "postcode": "92243"}}},
{"geometry": {"type": "Point", "coordinates": [-115.573794123, 32.7928935451]}, "type": "Feature", "properties": {"collection_times": [{"days": "Mon-Sat", "time": "2:30pm"}, {"days": "Sun", "time": "Closed"}], "id": "9224300028", "name": "USPS COLLECTION BOX - BLUE BOX", "address": {"city": "EL CENTRO", "state": "CA", "street": "1598 W MAIN ST", "postcode": "92243"}}},
{"geometry": {"type": "Point", "coordinates": [-115.573794123, 32.7928935451]}, "type": "Feature", "properties": {"collection_times": [{"days": "Mon-Sat", "time": "2:30pm"}, {"days": "Sun", "time": "Closed"}], "id": "9224300029", "name": "USPS COLLECTION BOX - BLUE BOX", "address": {"city": "EL CENTRO", "state": "CA", "street": "1598 W MAIN ST", "postcode": "92243"}}},
{"geometry": {"type": "Point", "coordinates": [-115.5287581615, 32.7306245021]}, "type": "Feature", "properties": {"collection_times": [{"days": "Mon-Fri", "time": "1:45pm"}, {"days": "Sat", "time": "9:00am"}, {"days": "Sun", "time": "Closed"}], "id": "9224900001", "name": "USPS COLLECTION BOX - BLUE BOX", "address": {"city": "HEBER", "state": "CA", "street": "71 E MAIN ST", "postcode": "92249"}}},
{"geometry": {"type": "Point", "coordinates": [-115.3724533123, 32.8109753743]}, "type": "Feature", "properties": {"collection_times": [{"days": "Mon-Sat", "time": "10:00am"}, {"days": "Sun", "time": "Closed"}], "id": "9225000001", "name": "USPS COLLECTION BOX - BLUE BOX", "address": {"city": "HOLTVILLE", "state": "CA", "street": "708 E 5TH ST", "postcode": "92250"}}},
{"geometry": {"type": "Point", "coordinates": [-115.3802323793, 32.8109347707]}, "type": "Feature", "properties": {"collection_times": [{"days": "Mon-Sat", "time": "12:30pm"}, {"days": "Sun", "time": "Closed"}], "id": "9225000008", "name": "USPS COLLECTION BOX - BLUE BOX", "address": {"city": "HOLTVILLE", "state": "CA", "street": "102 W 5TH ST", "postcode": "92250"}}},
{"geometry": {"type": "Point", "coordinates": [-115.3788545228, 32.8114224629]}, "type": "Feature", "properties": {"collection_times": [{"days": "Mon-Sat", "time": "1:00pm"}, {"days": "Sun", "time": "Closed"}], "id": "9225000011", "name": "USPS COLLECTION BOX - BLUE BOX", "address": {"city": "HOLTVILLE", "state": "CA", "street": "520 FERN AVE", "postcode": "92250"}}},
{"geometry": {"type": "Point", "coordinates": [-115.5698939632, 32.8476622705]}, "type": "Feature", "properties": {"collection_times": [{"days": "Mon-Sat", "time": "1:30pm"}, {"days": "Sun", "time": "Closed"}], "id": "9225100001", "name": "USPS COLLECTION BOX - BLUE BOX", "address": {"city": "IMPERIAL", "state": "CA", "street": "116 N IMPERIAL AVE", "postcode": "92251"}}},
{"geometry": {"type": "Point", "coordinates": [-115.5816422526, 32.8256092832]}, "type": "Feature", "properties": {"collection_times": [{"days": "Mon-Sat", "time": "11:00am"}, {"days": "Sun", "time": "Closed"}], "id": "9225100006", "name": "USPS COLLECTION BOX - BLUE BOX", "address": {"city": "IMPERIAL", "state": "CA", "street": "516 W ATEN RD", "postcode": "92251"}}},
{"geometry": {"type": "Point", "coordinates": [-116.3290508853, 34.1350225092]}, "type": "Feature", "properties": {"collection_times": [{"days": "Mon-Fri", "time": "5:00pm"}, {"days": "Sat", "time": "2:45pm"}, {"days": "Sun", "time": "Closed"}], "id": "9225200003", "name": "USPS COLLECTION BOX - BLUE BOX", "address": {"city": "JOSHUA TREE", "state": "CA", "street": "61416 29 PALMS HWY", "postcode": "92252"}}},
{"geometry": {"type": "Point", "coordinates": [-116.3151768591, 34.1355647121]}, "type": "Feature", "properties": {"collection_times": [{"days": "Mon-Sat", "time": "1:00pm"}, {"days": "Sun", "time": "Closed"}], "id": "9225200005", "name": "USPS COLLECTION BOX - BLUE BOX", "address": {"city": "JOSHUA TREE", "state": "CA", "street": "6465 PARK BLVD", "postcode": "92252"}}},
{"geometry": {"type": "Point", "coordinates": [-116.3036749491, 33.6758041615]}, "type": "Feature", "properties": {"collection_times": [{"days": "Mon-Fri", "time": "5:00pm"}, {"days": "Sat", "time": "2:00pm"}, {"days": "Sun", "time": "Closed"}], "id": "9225300001", "name": "USPS COLLECTION BOX - BLUE BOX", "address": {"city": "LA QUINTA", "state": "CA", "street": "51321 AVE BERMUDAS", "postcode": "92253"}}},
{"geometry": {"type": "Point", "coordinates": [-116.293790875, 33.7145328115]}, "type": "Feature", "properties": {"collection_times": [{"days": "Mon-Fri", "time": "2:00pm"}, {"days": "Sat", "time": "1:45pm"}, {"days": "Sun", "time": "Closed"}], "id": "9225300004", "name": "USPS COLLECTION BOX - BLUE BOX", "address": {"city": "LA QUINTA", "state": "CA", "street": "78630 HIGHWAY 111", "postcode": "92253"}}},
{"geometry": {"type": "Point", "coordinates": [-116.2826199803, 33.6780717886]}, "type": "Feature", "properties": {"collection_times": [{"days": "Mon-Fri", "time": "5:00pm"}, {"days": "Sat", "time": "2:00pm"}, {"days": "Sun", "time": "Closed"}], "id": "9225300005", "name": "USPS COLLECTION BOX - EXPRESS", "address": {"city": "LA QUINTA", "state": "CA", "street": "51321 AVE BERMUDAS", "postcode": "92253"}}},
{"geometry": {"type": "Point", "coordinates": [-116.2964174958, 33.7156698786]}, "type": "Feature", "properties": {"collection_times": [{"days": "Mon-Fri", "time": "2:00pm"}, {"days": "Sat", "time": "1:45pm"}, {"days": "Sun", "time": "Closed"}], "id": "9225300009", "name": "USPS COLLECTION BOX - BLUE BOX", "address": {"city": "LA QUINTA", "state": "CA", "street": "78435 HIGHWAY 111", "postcode": "92253"}}},
{"geometry": {"type": "Point", "coordinates": [-116.2939618014, 33.721914247]}, "type": "Feature", "properties": {"collection_times": [{"days": "Mon-Fri", "time": "1:45pm"}, {"days": "Sat", "time": "1:15pm"}, {"days": "Sun", "time": "Closed"}], "id": "9225300011", "name": "USPS COLLECTION BOX - BLUE BOX", "address": {"city": "LA QUINTA", "state": "CA", "street": "78500 MILES", "postcode": "92253"}}},
{"geometry": {"type": "Point", "coordinates": [-116.3036749491, 33.6758041615]}, "type": "Feature", "properties": {"collection_times": [{"days": "Mon-Fri", "time": "5:00pm"}, {"days": "Sat", "time": "2:00pm"}, {"days": "Sun", "time": "Closed"}], "id": "9225300013", "name": "USPS COLLECTION BOX - BLUE BOX", "address": {"city": "LA QUINTA", "state": "CA", "street": "51321 AVE BERMUDAS", "postcode": "92253"}}},
{"geometry": {"type": "Point", "coordinates": [-116.2826199803, 33.6780717886]}, "type": "Feature", "properties": {"collection_times": [{"days": "Mon-Sat", "time": "5:00pm"}, {"days": "Sun", "time": "Closed"}], "id": "9225300016", "name": "USPS COLLECTION BOX - EXPRESS", "address": {"city": "LA QUINTA", "state": "CA", "street": "79125 CORPORATE CENTER DR", "postcode": "92253"}}},
{"geometry": {"type": "Point", "coordinates": [-116.2785614722, 33.7072534822]}, "type": "Feature", "properties": {"collection_times": [{"days": "Mon-Sat", "time": "2:00pm"}, {"days": "Sun", "time": "Closed"}], "id": "9225300020", "name": "USPS COLLECTION BOX - BLUE BOX", "address": {"city": "LA QUINTA", "state": "CA", "street": "79405 HIGHWAY 111", "postcode": "92253"}}},
{"geometry": {"type": "Point", "coordinates": [-116.2944490521, 33.7069017868]}, "type": "Feature", "properties": {"collection_times": [{"days": "Mon-Sat", "time": "2:00pm"}, {"days": "Sun", "time": "Closed"}], "id": "9225300021", "name": "USPS COLLECTION BOX - BLUE BOX", "address": {"city": "LA QUINTA", "state": "CA", "street": "47000 WASHINGTON ST", "postcode": "92253"}}},
{"geometry": {"type": "Point", "coordinates": [-116.2423978601, 33.6074048404]}, "type": "Feature", "properties": {"collection_times": [{"days": "Mon-Sat", "time": "1:00pm"}, {"days": "Sun", "time": "Closed"}], "id": "9225300022", "name": "USPS COLLECTION BOX - BLUE BOX", "address": {"city": "LA QUINTA", "state": "CA", "street": "60800 TRILOGY PKWY", "postcode": "92253"}}},
{"geometry": {"type": "Point", "coordinates": [-116.2850338492, 33.7103497115]}, "type": "Feature", "properties": {"collection_times": [{"days": "Mon-Sat", "time": "5:00pm"}, {"days": "Sun", "time": "Closed"}], "id": "9225300026", "name": "USPS COLLECTION BOX - APC", "address": {"city": "LA QUINTA", "state": "CA", "street": "79125 CORPORATE CENTER DR", "postcode": "92253"}}},
{"geometry": {"type": "Point", "coordinates": [-116.0736331998, 33.5701600112]}, "type": "Feature", "properties": {"collection_times": [{"days": "Mon-Fri", "time": "4:30pm"}, {"days": "Sat", "time": "10:30am"}, {"days": "Sun", "time": "Closed"}], "id": "9225400003", "name": "USPS COLLECTION BOX - BLUE BOX", "address": {"city": "MECCA", "state": "CA", "street": "91307 2ND ST", "postcode": "92254"}}},
{"geometry": {"type": "Point", "coordinates": [-115.9765099978, 33.5400613789]}, "type": "Feature", "properties": {"collection_times": [{"days": "Mon-Sat", "time": "4:00pm"}, {"days": "Sun", "time": "Closed"}], "id": "9225400004", "name": "USPS COLLECTION BOX - PO LOBBY", "address": {"city": "MECCA", "state": "CA", "street": "91307 2ND ST", "postcode": "92254"}}},
{"geometry": {"type": "Point", "coordinates": [-116.5823102866, 34.0453025772]}, "type": "Feature", "properties": {"collection_times": [{"days": "Mon-Fri", "time": "3:00pm"}, {"days": "Sat", "time": "12:00pm"}, {"days": "Sun", "time": "Closed"}], "id": "9225600001", "name": "USPS COLLECTION BOX - BLUE BOX", "address": {"city": "MORONGO VALLEY", "state": "CA", "street": "49649 29 PALMS HWY", "postcode": "92256"}}},
{"geometry": {"type": "Point", "coordinates": [-116.5626295147, 34.0677622969]}, "type": "Feature", "properties": {"collection_times": [{"days": "Mon-Fri,Sun", "time": "Closed"}, {"days": "Sat", "time": "6:00pm"}], "id": "9225600004", "name": "USPS COLLECTION BOX - PO LOBBY", "address": {"city": "MORONGO VALLEY", "state": "CA", "street": "49649 29 PALMS HWY", "postcode": "92256"}}},
{"geometry": {"type": "Point", "coordinates": [-115.7338891465, 33.3570508412]}, "type": "Feature", "properties": {"collection_times": [{"days": "Mon-Fri", "time": "10:00am"}, {"days": "Sat-Sun", "time": "Closed"}], "id": "9225700002", "name": "USPS COLLECTION BOX - BLUE BOX", "address": {"city": "NILAND", "state": "CA", "street": "9592 AVENUE A", "postcode": "92257"}}},
{"geometry": {"type": "Point", "coordinates": [-115.7133624351, 33.3499494506]}, "type": "Feature", "properties": {"collection_times": [{"days": "Mon-Fri", "time": "3:00pm"}, {"days": "Sat", "time": "9:30am"}, {"days": "Sun", "time": "Closed"}], "id": "9225700003", "name": "USPS COLLECTION BOX - BLUE BOX", "address": {"city": "NILAND", "state": "CA", "street": "8108 US HIGHWAY 111", "postcode": "92257"}}},
{"geometry": {"type": "Point", "coordinates": [-116.5706199798, 33.9296519521]}, "type": "Feature", "properties": {"collection_times": [{"days": "Mon-Fri", "time": "4:30pm"}, {"days": "Sat", "time": "10:45am"}, {"days": "Sun", "time": "Closed"}], "id": "9225800002", "name": "USPS COLLECTION BOX - BLUE BOX", "address": {"city": "NORTH PALM SPRNG", "state": "CA", "street": "64117 DILLION RD", "postcode": "92258"}}},
{"geometry": {"type": "Point", "coordinates": [-116.0002882289, 32.7471083631]}, "type": "Feature", "properties": {"collection_times": [{"days": "Mon-Fri", "time": "12:15pm"}, {"days": "Sat", "time": "9:00am"}, {"days": "Sun", "time": "Closed"}], "id": "9225900001", "name": "USPS COLLECTION BOX - BLUE BOX", "address": {"city": "OCOTILLO", "state": "CA", "street": "1153 N IMPERIAL HWY", "postcode": "92259"}}},
{"geometry": {"type": "Point", "coordinates": [-116.0002882289, 32.7471083631]}, "type": "Feature", "properties": {"collection_times": [{"days": "Mon-Fri", "time": "12:15pm"}, {"days": "Sat", "time": "9:00am"}, {"days": "Sun", "time": "Closed"}], "id": "9225900003", "name": "USPS COLLECTION BOX - BLUE BOX", "address": {"city": "OCOTILLO", "state": "CA", "street": "1153 N IMPERIAL HWY", "postcode": "92259"}}},
{"geometry": {"type": "Point", "coordinates": [-116.3987576418, 33.720906838]}, "type": "Feature", "properties": {"collection_times": [{"days": "Mon-Sat", "time": "3:00pm"}, {"days": "Sun", "time": "Closed"}], "id": "9226000001", "name": "USPS COLLECTION BOX - BLUE BOX", "address": {"city": "PALM DESERT", "state": "CA", "street": "72620 EL PASEO", "postcode": "92260"}}},
{"geometry": {"type": "Point", "coordinates": [-116.3916811813, 33.719783027]}, "type": "Feature", "properties": {"collection_times": [{"days": "Mon-Sat", "time": "3:00pm"}, {"days": "Sun", "time": "Closed"}], "id": "9226000003", "name": "USPS COLLECTION BOX - BLUE BOX", "address": {"city": "PALM DESERT", "state": "CA", "street": "72996 EL PASEO", "postcode": "92260"}}},
{"geometry": {"type": "Point", "coordinates": [-116.3959075551, 33.6912362184]}, "type": "Feature", "properties": {"collection_times": [{"days": "Mon-Sat", "time": "12:00pm"}, {"days": "Sun", "time": "Closed"}], "id": "9226000005", "name": "USPS COLLECTION BOX - BLUE BOX", "address": {"city": "PALM DESERT", "state": "CA", "street": "1 QUAIL TRL", "postcode": "92260"}}},
{"geometry": {"type": "Point", "coordinates": [-116.391002659, 33.7323767891]}, "type": "Feature", "properties": {"collection_times": [{"days": "Mon-Sat", "time": "3:00pm"}, {"days": "Sun", "time": "Closed"}], "id": "9226000007", "name": "USPS COLLECTION BOX - BLUE BOX", "address": {"city": "PALM DESERT", "state": "CA", "street": "43500 MONTEREY AVE", "postcode": "92260"}}},
{"geometry": {"type": "Point", "coordinates": [-116.3786163517, 33.7580498449]}, "type": "Feature", "properties": {"collection_times": [{"days": "Mon-Sat", "time": "3:00pm"}, {"days": "Sun", "time": "Closed"}], "id": "9226000008", "name": "USPS COLLECTION BOX - BLUE BOX", "address": {"city": "PALM DESERT", "state": "CA", "street": "73750 COUNTRY CLUB DR", "postcode": "92260"}}},
{"geometry": {"type": "Point", "coordinates": [-116.3923176132, 33.7215515506]}, "type": "Feature", "properties": {"collection_times": [{"days": "Mon-Sat", "time": "3:00pm"}, {"days": "Sun", "time": "Closed"}], "id": "9226000012", "name": "USPS COLLECTION BOX - BLUE BOX", "address": {"city": "PALM DESERT", "state": "CA", "street": "72900 HIGHWAY 111", "postcode": "92260"}}},
{"geometry": {"type": "Point", "coordinates": [-116.3984559872, 33.7231106905]}, "type": "Feature", "properties": {"collection_times": [{"days": "Mon-Sat", "time": "3:00pm"}, {"days": "Sun", "time": "Closed"}], "id": "9226000013", "name": "USPS COLLECTION BOX - BLUE BOX", "address": {"city": "PALM DESERT", "state": "CA", "street": "72780 HIGHWAY 111", "postcode": "92260"}}},
{"geometry": {"type": "Point", "coordinates": [-116.4026050753, 33.7279517772]}, "type": "Feature", "properties": {"collection_times": [{"days": "Mon-Sat", "time": "3:00pm"}, {"days": "Sun", "time": "Closed"}], "id": "9226000014", "name": "USPS COLLECTION BOX - BLUE BOX", "address": {"city": "PALM DESERT", "state": "CA", "street": "72333 HIGHWAY 111", "postcode": "92260"}}},
{"geometry": {"type": "Point", "coordinates": [-116.3903432547, 33.7197877588]}, "type": "Feature", "properties": {"collection_times": [{"days": "Mon-Sat", "time": "3:00pm"}, {"days": "Sun", "time": "Closed"}], "id": "9226000015", "name": "USPS COLLECTION BOX - BLUE BOX", "address": {"city": "PALM DESERT", "state": "CA", "street": "73040 EL PASEO", "postcode": "92260"}}},
{"geometry": {"type": "Point", "coordinates": [-116.3942186282, 33.7286090838]}, "type": "Feature", "properties": {"collection_times": [{"days": "Mon-Sat", "time": "3:00pm"}, {"days": "Sun", "time": "Closed"}], "id": "9226000019", "name": "USPS COLLECTION BOX - BLUE BOX", "address": {"city": "PALM DESERT", "state": "CA", "street": "72855 FRED WARING DR", "postcode": "92260"}}},
{"geometry": {"type": "Point", "coordinates": [-116.3838594566, 33.7578423657]}, "type": "Feature", "properties": {"collection_times": [{"days": "Mon-Sat", "time": "3:00pm"}, {"days": "Sun", "time": "Closed"}], "id": "9226000021", "name": "USPS COLLECTION BOX - BLUE BOX", "address": {"city": "PALM DESERT", "state": "CA", "street": "73373 COUNTRY CLUB DR", "postcode": "92260"}}},
{"geometry": {"type": "Point", "coordinates": [-116.3626018952, 33.7470009302]}, "type": "Feature", "properties": {"collection_times": [{"days": "Mon-Fri", "time": "5:00pm"}, {"days": "Sat", "time": "4:30pm"}, {"days": "Sun", "time": "Closed"}], "id": "9226000022", "name": "USPS COLLECTION BOX - BLUE BOX", "address": {"city": "PALM DESERT", "state": "CA", "street": "74801 HOVLEY LN E", "postcode": "92260"}}},
{"geometry": {"type": "Point", "coordinates": [-116.3954855773, 33.7086407365]}, "type": "Feature", "properties": {"collection_times": [{"days": "Mon-Sat", "time": "12:00pm"}, {"days": "Sun", "time": "Closed"}], "id": "9226000028", "name": "USPS COLLECTION BOX - BLUE BOX", "address": {"city": "PALM DESERT", "state": "CA", "street": "72740 BURSERA WAY", "postcode": "92260"}}},
{"geometry": {"type": "Point", "coordinates": [-116.3814686965, 33.7289261168]}, "type": "Feature", "properties": {"collection_times": [{"days": "Mon-Sat", "time": "3:00pm"}, {"days": "Sun", "time": "Closed"}], "id": "9226000030", "name": "USPS COLLECTION BOX - BLUE BOX", "address": {"city": "PALM DESERT", "state": "CA", "street": "73510 FRED WARING DR", "postcode": "92260"}}},
{"geometry": {"type": "Point", "coordinates": [-116.3848330318, 33.7198256135]}, "type": "Feature", "properties": {"collection_times": [{"days": "Mon-Sat", "time": "3:00pm"}, {"days": "Sun", "time": "Closed"}], "id": "9226000031", "name": "USPS COLLECTION BOX - BLUE BOX", "address": {"city": "PALM DESERT", "state": "CA", "street": "73350 EL PASEO", "postcode": "92260"}}},
{"geometry": {"type": "Point", "coordinates": [-116.3767924597, 33.7198540045]}, "type": "Feature", "properties": {"collection_times": [{"days": "Mon-Sat", "time": "3:00pm"}, {"days": "Sun", "time": "Closed"}], "id": "9226000034", "name": "USPS COLLECTION BOX - BLUE BOX", "address": {"city": "PALM DESERT", "state": "CA", "street": "73820 EL PASEO", "postcode": "92260"}}},
{"geometry": {"type": "Point", "coordinates": [-116.3767924597, 33.7198540045]}, "type": "Feature", "properties": {"collection_times": [{"days": "Mon-Sat", "time": "3:00pm"}, {"days": "Sun", "time": "Closed"}], "id": "9226000035", "name": "USPS COLLECTION BOX - BLUE BOX", "address": {"city": "PALM DESERT", "state": "CA", "street": "73820 EL PASEO", "postcode": "92260"}}},
{"geometry": {"type": "Point", "coordinates": [-116.3738054883, 33.7190555075]}, "type": "Feature", "properties": {"collection_times": [{"days": "Mon-Fri", "time": "5:00pm"}, {"days": "Sat", "time": "3:30pm"}, {"days": "Sun", "time": "Closed"}], "id": "9226000036", "name": "USPS COLLECTION BOX - BLUE BOX", "address": {"city": "PALM DESERT", "state": "CA", "street": "45300 PORTOLA AVE", "postcode": "92260"}}},
{"geometry": {"type": "Point", "coordinates": [-116.3738054883, 33.7190555075]}, "type": "Feature", "properties": {"collection_times": [{"days": "Mon-Fri", "time": "5:00pm"}, {"days": "Sat", "time": "3:30pm"}, {"days": "Sun", "time": "Closed"}], "id": "9226000037", "name": "USPS COLLECTION BOX - BLUE BOX", "address": {"city": "PALM DESERT", "state": "CA", "street": "45300 PORTOLA AVE", "postcode": "92260"}}},
{"geometry": {"type": "Point", "coordinates": [-116.3738054883, 33.7190555072]}, "type": "Feature", "properties": {"collection_times": [{"days": "Mon-Fri", "time": "5:00pm"}, {"days": "Sat", "time": "3:30pm"}, {"days": "Sun", "time": "Closed"}], "id": "9226000038", "name": "USPS COLLECTION BOX - BLUE BOX", "address": {"city": "PALM DESERT", "state": "CA", "street": "45300 PORTOLA AVE", "postcode": "92260"}}},
{"geometry": {"type": "Point", "coordinates": [-116.3738054883, 33.7190555072]}, "type": "Feature", "properties": {"collection_times": [{"days": "Mon-Fri", "time": "5:00pm"}, {"days": "Sat", "time": "3:30pm"}, {"days": "Sun", "time": "Closed"}], "id": "9226000039", "name": "USPS COLLECTION BOX - BLUE BOX", "address": {"city": "PALM DESERT", "state": "CA", "street": "45300 PORTOLA AVE", "postcode": "92260"}}},
{"geometry": {"type": "Point", "coordinates": [-116.3738054883, 33.7190555072]}, "type": "Feature", "properties": {"collection_times": [{"days": "Mon-Fri", "time": "5:00pm"}, {"days": "Sat", "time": "3:30pm"}, {"days": "Sun", "time": "Closed"}], "id": "9226000040", "name": "USPS COLLECTION BOX - BLUE BOX", "address": {"city": "PALM DESERT", "state": "CA", "street": "45300 PORTOLA AVE", "postcode": "92260"}}},
{"geometry": {"type": "Point", "coordinates": [-116.3824899317, 33.7258016741]}, "type": "Feature", "properties": {"collection_times": [{"days": "Mon-Fri", "time": "5:00pm"}, {"days": "Sat", "time": "3:30pm"}, {"days": "Sun", "time": "Closed"}], "id": "9226000041", "name": "USPS COLLECTION BOX - EXPRESS", "address": {"city": "PALM DESERT", "state": "CA", "street": "45300 PORTOLA AVE", "postcode": "92260"}}},
{"geometry": {"type": "Point", "coordinates": [-116.3824899317, 33.7258016741]}, "type": "Feature", "properties": {"collection_times": [{"days": "Mon-Fri", "time": "5:00pm"}, {"days": "Sat", "time": "4:30pm"}, {"days": "Sun", "time": "Closed"}], "id": "9226000045", "name": "USPS COLLECTION BOX - EXPRESS", "address": {"city": "PALM DESERT", "state": "CA", "street": "74801 HOVLEY LN E", "postcode": "92260"}}},
{"geometry": {"type": "Point", "coordinates": [-116.3814686965, 33.7289261168]}, "type": "Feature", "properties": {"collection_times": [{"days": "Mon-Sat", "time": "3:00pm"}, {"days": "Sun", "time": "Closed"}], "id": "9226000046", "name": "USPS COLLECTION BOX - BLUE BOX", "address": {"city": "PALM DESERT", "state": "CA", "street": "73510 FRED WARING DR", "postcode": "92260"}}},
{"geometry": {"type": "Point", "coordinates": [-116.3626018952, 33.7470009302]}, "type": "Feature", "properties": {"collection_times": [{"days": "Mon-Fri", "time": "5:00pm"}, {"days": "Sat", "time": "4:30pm"}, {"days": "Sun", "time": "Closed"}], "id": "9226000047", "name": "USPS COLLECTION BOX - BLUE BOX", "address": {"city": "PALM DESERT", "state": "CA", "street": "74801 HOVLEY LN E", "postcode": "92260"}}},
{"geometry": {"type": "Point", "coordinates": [-116.3626018952, 33.7470009302]}, "type": "Feature", "properties": {"collection_times": [{"days": "Mon-Fri", "time": "5:00pm"}, {"days": "Sat", "time": "4:30pm"}, {"days": "Sun", "time": "Closed"}], "id": "9226000050", "name": "USPS COLLECTION BOX - BLUE BOX", "address": {"city": "PALM DESERT", "state": "CA", "street": "74801 HOVLEY LN E", "postcode": "92260"}}},
{"geometry": {"type": "Point", "coordinates": [-116.378789965, 33.728987959]}, "type": "Feature", "properties": {"collection_times": [{"days": "Mon-Sat", "time": "3:00pm"}, {"days": "Sun", "time": "Closed"}], "id": "9226000051", "name": "USPS COLLECTION BOX - BLUE BOX", "address": {"city": "PALM DESERT", "state": "CA", "street": "73710 FRED WARING DR", "postcode": "92260"}}},
{"geometry": {"type": "Point", "coordinates": [-116.378789965, 33.728987959]}, "type": "Feature", "properties": {"collection_times": [{"days": "Mon-Sat", "time": "3:00pm"}, {"days": "Sun", "time": "Closed"}], "id": "9226000052", "name": "USPS COLLECTION BOX - BLUE BOX", "address": {"city": "PALM DESERT", "state": "CA", "street": "73710 FRED WARING DR", "postcode": "92260"}}},
{"geometry": {"type": "Point", "coordinates": [-116.3984430765, 33.7283723168]}, "type": "Feature", "properties": {"collection_times": [{"days": "Mon-Sat", "time": "3:00pm"}, {"days": "Sun", "time": "Closed"}], "id": "9226000053", "name": "USPS COLLECTION BOX - BLUE BOX", "address": {"city": "PALM DESERT", "state": "CA", "street": "44411 TOWN CENTER WAY", "postcode": "92260"}}},
{"geometry": {"type": "Point", "coordinates": [-116.39114, 33.747055]}, "type": "Feature", "properties": {"collection_times": [{"days": "Mon-Sat", "time": "3:00pm"}, {"days": "Sun", "time": "Closed"}], "id": "9226000054", "name": "USPS COLLECTION BOX - BLUE BOX", "address": {"city": "PALM DESERT", "state": "CA", "street": "41500 MONTEREY AVE", "postcode": "92260"}}},
{"geometry": {"type": "Point", "coordinates": [-116.3733597861, 33.7220282732]}, "type": "Feature", "properties": {"collection_times": [{"days": "Mon-Sat", "time": "3:00pm"}, {"days": "Sun", "time": "Closed"}], "id": "9226000056", "name": "USPS COLLECTION BOX - BLUE BOX", "address": {"city": "PALM DESERT", "state": "CA", "street": "74020 ALESSANDRO DR", "postcode": "92260"}}},
{"geometry": {"type": "Point", "coordinates": [-116.3958432686, 33.7065237444]}, "type": "Feature", "properties": {"collection_times": [{"days": "Mon-Sat", "time": "12:00pm"}, {"days": "Sun", "time": "Closed"}], "id": "9226000057", "name": "USPS COLLECTION BOX - BLUE BOX", "address": {"city": "PALM DESERT", "state": "CA", "street": "47100 HWY 74", "postcode": "92260"}}},
{"geometry": {"type": "Point", "coordinates": [-116.3959075551, 33.6912362184]}, "type": "Feature", "properties": {"collection_times": [{"days": "Mon-Sat", "time": "12:00pm"}, {"days": "Sun", "time": "Closed"}], "id": "9226000058", "name": "USPS COLLECTION BOX - BLUE BOX", "address": {"city": "PALM DESERT", "state": "CA", "street": "45000 SAGE LN", "postcode": "92260"}}},
{"geometry": {"type": "Point", "coordinates": [-116.378789965, 33.728987959]}, "type": "Feature", "properties": {"collection_times": [{"days": "Mon-Sat", "time": "3:00pm"}, {"days": "Sun", "time": "Closed"}], "id": "9226000060", "name": "USPS COLLECTION BOX - BLUE BOX", "address": {"city": "PALM DESERT", "state": "CA", "street": "73710 FRED WARING DR", "postcode": "92260"}}},
{"geometry": {"type": "Point", "coordinates": [-116.3813918042, 33.7223938174]}, "type": "Feature", "properties": {"collection_times": [{"days": "Mon-Sat", "time": "3:00pm"}, {"days": "Sun", "time": "Closed"}], "id": "9226000061", "name": "USPS COLLECTION BOX - BLUE BOX", "address": {"city": "PALM DESERT", "state": "CA", "street": "73550 ALESSANDRO DR", "postcode": "92260"}}},
{"geometry": {"type": "Point", "coordinates": [-116.3848898138, 33.7211233195]}, "type": "Feature", "properties": {"collection_times": [{"days": "Mon-Sat", "time": "3:00pm"}, {"days": "Sun", "time": "Closed"}], "id": "9226000062", "name": "USPS COLLECTION BOX - BLUE BOX", "address": {"city": "PALM DESERT", "state": "CA", "street": "73345 HIGHWAY 111", "postcode": "92260"}}},
{"geometry": {"type": "Point", "coordinates": [-116.3708244317, 33.7211327831]}, "type": "Feature", "properties": {"collection_times": [{"days": "Mon-Sat", "time": "3:00pm"}, {"days": "Sun", "time": "Closed"}], "id": "9226000063", "name": "USPS COLLECTION BOX - BLUE BOX", "address": {"city": "PALM DESERT", "state": "CA", "street": "74199 EL PASEO", "postcode": "92260"}}},
{"geometry": {"type": "Point", "coordinates": [-116.3626018952, 33.7470009302]}, "type": "Feature", "properties": {"collection_times": [{"days": "Mon-Fri", "time": "5:00pm"}, {"days": "Sat", "time": "4:30pm"}, {"days": "Sun", "time": "Closed"}], "id": "9226000064", "name": "USPS COLLECTION BOX - APC", "address": {"city": "PALM DESERT", "state": "CA", "street": "74801 HOVLEY LN E", "postcode": "92260"}}},
{"geometry": {"type": "Point", "coordinates": [-116.3738054883, 33.7190555072]}, "type": "Feature", "properties": {"collection_times": [{"days": "Mon-Fri", "time": "5:00pm"}, {"days": "Sat", "time": "3:30pm"}, {"days": "Sun", "time": "Closed"}], "id": "9226000065", "name": "USPS COLLECTION BOX - APC", "address": {"city": "PALM DESERT", "state": "CA", "street": "45300 PORTOLA AVE", "postcode": "92260"}}},
{"geometry": {"type": "Point", "coordinates": [-116.3626018952, 33.7470009302]}, "type": "Feature", "properties": {"collection_times": [{"days": "Mon-Fri", "time": "5:00pm"}, {"days": "Sat", "time": "4:30pm"}, {"days": "Sun", "time": "Closed"}], "id": "9226000067", "name": "USPS COLLECTION BOX - BLUE BOX", "address": {"city": "PALM DESERT", "state": "CA", "street": "74801 HOVLEY LN E", "postcode": "92260"}}},
{"geometry": {"type": "Point", "coordinates": [-116.5467694675, 33.8162462328]}, "type": "Feature", "properties": {"collection_times": [{"days": "Mon-Fri", "time": "2:30pm"}, {"days": "Sat", "time": "4:00pm"}, {"days": "Sun", "time": "Closed"}], "id": "9226200002", "name": "USPS COLLECTION BOX - BLUE BOX", "address": {"city": "PALM SPRINGS", "state": "CA", "street": "499 S PALM CANYON DR", "postcode": "92262"}}},
{"geometry": {"type": "Point", "coordinates": [-116.5179535053, 33.8177250786]}, "type": "Feature", "properties": {"collection_times": [{"days": "Mon-Sat", "time": "11:00am"}, {"days": "Sun", "time": "Closed"}], "id": "9226200008", "name": "USPS COLLECTION BOX - BLUE BOX", "address": {"city": "PALM SPRINGS", "state": "CA", "street": "400 S FARRELL DR", "postcode": "92262"}}},
{"geometry": {"type": "Point", "coordinates": [-116.5281488863, 33.8229776413]}, "type": "Feature", "properties": {"collection_times": [{"days": "Mon-Sat", "time": "2:45pm"}, {"days": "Sun", "time": "Closed"}], "id": "9226200010", "name": "USPS COLLECTION BOX - BLUE BOX", "address": {"city": "PALM SPRINGS", "state": "CA", "street": "102 S SUNRISE WAY", "postcode": "92262"}}},
{"geometry": {"type": "Point", "coordinates": [-116.5111357547, 33.8230332282]}, "type": "Feature", "properties": {"collection_times": [{"days": "Mon-Sat", "time": "4:00pm"}, {"days": "Sun", "time": "Closed"}], "id": "9226200021", "name": "USPS COLLECTION BOX - BLUE BOX", "address": {"city": "PALM SPRINGS", "state": "CA", "street": "3400 E TAHQUITZ WAY", "postcode": "92262"}}},
{"geometry": {"type": "Point", "coordinates": [-116.5270388949, 33.8241708749]}, "type": "Feature", "properties": {"collection_times": [{"days": "Mon-Sat", "time": "4:00pm"}, {"days": "Sun", "time": "Closed"}], "id": "9226200022", "name": "USPS COLLECTION BOX - BLUE BOX", "address": {"city": "PALM SPRINGS", "state": "CA", "street": "160 N LURING DR", "postcode": "92262"}}},
{"geometry": {"type": "Point", "coordinates": [-116.5682246237, 33.8624862775]}, "type": "Feature", "properties": {"collection_times": [{"days": "Mon-Sat", "time": "4:00pm"}, {"days": "Sun", "time": "Closed"}], "id": "9226200023", "name": "USPS COLLECTION BOX - BLUE BOX", "address": {"city": "PALM SPRINGS", "state": "CA", "street": "2500 COMPUTER WAY", "postcode": "92262"}}},
{"geometry": {"type": "Point", "coordinates": [-116.5180152839, 33.819325475]}, "type": "Feature", "properties": {"collection_times": [{"days": "Mon-Sat", "time": "4:00pm"}, {"days": "Sun", "time": "Closed"}], "id": "9226200035", "name": "USPS COLLECTION BOX - BLUE BOX", "address": {"city": "PALM SPRINGS", "state": "CA", "street": "300 S FARRELL DR", "postcode": "92262"}}},
{"geometry": {"type": "Point", "coordinates": [-116.5139127822, 33.8232032145]}, "type": "Feature", "properties": {"collection_times": [{"days": "Mon-Sat", "time": "3:30pm"}, {"days": "Sun", "time": "Closed"}], "id": "9226200040", "name": "USPS COLLECTION BOX - BLUE BOX", "address": {"city": "PALM SPRINGS", "state": "CA", "street": "2990 E TAHQUITZ CANYON WAY", "postcode": "92262"}}},
{"geometry": {"type": "Point", "coordinates": [-116.5180152839, 33.819325475]}, "type": "Feature", "properties": {"collection_times": [{"days": "Mon-Sat", "time": "4:00pm"}, {"days": "Sun", "time": "Closed"}], "id": "9226200041", "name": "USPS COLLECTION BOX - BLUE BOX", "address": {"city": "PALM SPRINGS", "state": "CA", "street": "300 S FARRELL DR", "postcode": "92262"}}},
{"geometry": {"type": "Point", "coordinates": [-116.5442781559, 33.8267225174]}, "type": "Feature", "properties": {"collection_times": [{"days": "Mon-Sat", "time": "5:00pm"}, {"days": "Sun", "time": "Closed"}], "id": "9226200046", "name": "USPS COLLECTION BOX - BLUE BOX", "address": {"city": "PALM SPRINGS", "state": "CA", "street": "333 E AMADO RD", "postcode": "92262"}}},
{"geometry": {"type": "Point", "coordinates": [-116.5378282233, 33.8422912715]}, "type": "Feature", "properties": {"collection_times": [{"days": "Mon-Sat", "time": "5:00pm"}, {"days": "Sun", "time": "Closed"}], "id": "9226200047", "name": "USPS COLLECTION BOX - EXPRESS", "address": {"city": "PALM SPRINGS", "state": "CA", "street": "333 E AMADO RD", "postcode": "92262"}}},
{"geometry": {"type": "Point", "coordinates": [-116.5442781559, 33.8267225174]}, "type": "Feature", "properties": {"collection_times": [{"days": "Mon-Sat", "time": "5:00pm"}, {"days": "Sun", "time": "Closed"}], "id": "9226200050", "name": "USPS COLLECTION BOX - APC", "address": {"city": "PALM SPRINGS", "state": "CA", "street": "333 E AMADO RD", "postcode": "92262"}}},
{"geometry": {"type": "Point", "coordinates": [-116.510685274, 33.8252828412]}, "type": "Feature", "properties": {"collection_times": [{"days": "Mon-Fri", "time": "4:00pm"}, {"days": "Sat", "time": "12:00pm"}, {"days": "Sun", "time": "Closed"}], "id": "9226200052", "name": "USPS COLLECTION BOX - BLUE BOX", "address": {"city": "PALM SPRINGS", "state": "CA", "street": "255 N EL CIELO RD STE #140", "postcode": "92262"}}},
{"geometry": {"type": "Point", "coordinates": [-116.5468645931, 33.8228649876]}, "type": "Feature", "properties": {"collection_times": [{"days": "Mon-Fri", "time": "2:30pm"}, {"days": "Sat", "time": "4:00pm"}, {"days": "Sun", "time": "Closed"}], "id": "9226200053", "name": "USPS COLLECTION BOX - BLUE BOX", "address": {"city": "PALM SPRINGS", "state": "CA", "street": "111 S PALM CANYON DR", "postcode": "92262"}}},
{"geometry": {"type": "Point", "coordinates": [-116.5467366282, 33.8382402697]}, "type": "Feature", "properties": {"collection_times": [{"days": "Mon-Sat", "time": "3:30pm"}, {"days": "Sun", "time": "Closed"}], "id": "9226200056", "name": "USPS COLLECTION BOX - BLUE BOX", "address": {"city": "PALM SPRINGS", "state": "CA", "street": "1100 N PALM CANYON DR", "postcode": "92262"}}},
{"geometry": {"type": "Point", "coordinates": [-116.5467576379, 33.8450228926]}, "type": "Feature", "properties": {"collection_times": [{"days": "Mon-Sat", "time": "2:45pm"}, {"days": "Sun", "time": "Closed"}], "id": "9226200057", "name": "USPS COLLECTION BOX - BLUE BOX", "address": {"city": "PALM SPRINGS", "state": "CA", "street": "1701 N PALM CANYON DR", "postcode": "92262"}}},
{"geometry": {"type": "Point", "coordinates": [-116.5250929274, 33.844779203]}, "type": "Feature", "properties": {"collection_times": [{"days": "Mon-Sat", "time": "4:00pm"}, {"days": "Sun", "time": "Closed"}], "id": "9226200058", "name": "USPS COLLECTION BOX - BLUE BOX", "address": {"city": "PALM SPRINGS", "state": "CA", "street": "1717 E VISTA CHINO", "postcode": "92262"}}},
{"geometry": {"type": "Point", "coordinates": [-116.5442781559, 33.8267225174]}, "type": "Feature", "properties": {"collection_times": [{"days": "Mon-Sat", "time": "5:00pm"}, {"days": "Sun", "time": "Closed"}], "id": "9226200062", "name": "USPS COLLECTION BOX - BLUE BOX", "address": {"city": "PALM SPRINGS", "state": "CA", "street": "333 E AMADO RD", "postcode": "92262"}}},
{"geometry": {"type": "Point", "coordinates": [-116.5282919528, 33.8453470068]}, "type": "Feature", "properties": {"collection_times": [{"days": "Mon-Sat", "time": "4:00pm"}, {"days": "Sun", "time": "Closed"}], "id": "9226200063", "name": "USPS COLLECTION BOX - BLUE BOX", "address": {"city": "PALM SPRINGS", "state": "CA", "street": "1751 N SUNRISE WAY", "postcode": "92262"}}},
{"geometry": {"type": "Point", "coordinates": [-116.5382036684, 33.8230013659]}, "type": "Feature", "properties": {"collection_times": [{"days": "Mon-Sat", "time": "4:00pm"}, {"days": "Sun", "time": "Closed"}], "id": "9226200075", "name": "USPS COLLECTION BOX - BLUE BOX", "address": {"city": "PALM SPRINGS", "state": "CA", "street": "901 E TAHQUITZ CANYON WAY", "postcode": "92262"}}},
{"geometry": {"type": "Point", "coordinates": [-116.5682246237, 33.8624862775]}, "type": "Feature", "properties": {"collection_times": [{"days": "Mon-Sat", "time": "4:00pm"}, {"days": "Sun", "time": "Closed"}], "id": "9226200076", "name": "USPS COLLECTION BOX - BLUE BOX", "address": {"city": "PALM SPRINGS", "state": "CA", "street": "3600 TACHEVAH DR", "postcode": "92262"}}},
{"geometry": {"type": "Point", "coordinates": [-116.545692239, 33.8033017397]}, "type": "Feature", "properties": {"collection_times": [{"days": "Mon-Sat", "time": "4:00pm"}, {"days": "Sun", "time": "Closed"}], "id": "9226400004", "name": "USPS COLLECTION BOX - BLUE BOX", "address": {"city": "PALM SPRINGS", "state": "CA", "street": "1555 S PALM CANYON DR", "postcode": "92264"}}},
{"geometry": {"type": "Point", "coordinates": [-116.4824542826, 33.8002887157]}, "type": "Feature", "properties": {"collection_times": [{"days": "Mon-Sat", "time": "11:00am"}, {"days": "Sun", "time": "Closed"}], "id": "9226400014", "name": "USPS COLLECTION BOX - BLUE BOX", "address": {"city": "PALM SPRINGS", "state": "CA", "street": "1900 GOLF CLUB DR", "postcode": "92264"}}},
{"geometry": {"type": "Point", "coordinates": [-116.5272731208, 33.8013847193]}, "type": "Feature", "properties": {"collection_times": [{"days": "Mon-Fri", "time": "5:00pm"}, {"days": "Sat", "time": "4:30pm"}, {"days": "Sun", "time": "Closed"}], "id": "9226400017", "name": "USPS COLLECTION BOX - BLUE BOX", "address": {"city": "PALM SPRINGS", "state": "CA", "street": "1775 E PALM CANYON DR", "postcode": "92264"}}},
{"geometry": {"type": "Point", "coordinates": [-116.5257411889, 33.8013835364]}, "type": "Feature", "properties": {"collection_times": [{"days": "Mon-Sat", "time": "2:00pm"}, {"days": "Sun", "time": "Closed"}], "id": "9226400018", "name": "USPS COLLECTION BOX - BLUE BOX", "address": {"city": "PALM SPRINGS", "state": "CA", "street": "1900 S PALM CANYON DR", "postcode": "92264"}}},
{"geometry": {"type": "Point", "coordinates": [-116.4941751119, 33.7930744326]}, "type": "Feature", "properties": {"collection_times": [{"days": "Mon-Sat", "time": "4:00pm"}, {"days": "Sun", "time": "Closed"}], "id": "9226400022", "name": "USPS COLLECTION BOX - BLUE BOX", "address": {"city": "PALM SPRINGS", "state": "CA", "street": "4733 E PALM CANYON DR", "postcode": "92264"}}},
{"geometry": {"type": "Point", "coordinates": [-116.5464493275, 33.8085264712]}, "type": "Feature", "properties": {"collection_times": [{"days": "Mon-Sat", "time": "11:00am"}, {"days": "Sun", "time": "Closed"}], "id": "9226400023", "name": "USPS COLLECTION BOX - BLUE BOX", "address": {"city": "PALM SPRINGS", "state": "CA", "street": "111 W MESQUITE AVE", "postcode": "92264"}}},
{"geometry": {"type": "Point", "coordinates": [-116.5272731208, 33.8013847193]}, "type": "Feature", "properties": {"collection_times": [{"days": "Mon-Fri", "time": "5:00pm"}, {"days": "Sat", "time": "4:30pm"}, {"days": "Sun", "time": "Closed"}], "id": "9226400031", "name": "USPS COLLECTION BOX - BLUE BOX", "address": {"city": "PALM SPRINGS", "state": "CA", "street": "1775 E PALM CANYON DR", "postcode": "92264"}}},
{"geometry": {"type": "Point", "coordinates": [-116.5272731208, 33.8013847193]}, "type": "Feature", "properties": {"collection_times": [{"days": "Mon-Fri", "time": "5:00pm"}, {"days": "Sat", "time": "4:30pm"}, {"days": "Sun", "time": "Closed"}], "id": "9226400032", "name": "USPS COLLECTION BOX - BLUE BOX", "address": {"city": "PALM SPRINGS", "state": "CA", "street": "1775 E PALM CANYON DR", "postcode": "92264"}}},
{"geometry": {"type": "Point", "coordinates": [-116.4973283739, 33.8121586276]}, "type": "Feature", "properties": {"collection_times": [{"days": "Mon-Sat", "time": "4:00pm"}, {"days": "Sun", "time": "Closed"}], "id": "9226400042", "name": "USPS COLLECTION BOX - BLUE BOX", "address": {"city": "PALM SPRINGS", "state": "CA", "street": "700 S VELLA RD", "postcode": "92264"}}},
{"geometry": {"type": "Point", "coordinates": [-116.4973283739, 33.8121586276]}, "type": "Feature", "properties": {"collection_times": [{"days": "Mon-Sat", "time": "4:00pm"}, {"days": "Sun", "time": "Closed"}], "id": "9226400043", "name": "USPS COLLECTION BOX - BLUE BOX", "address": {"city": "PALM SPRINGS", "state": "CA", "street": "700 S VELLA RD", "postcode": "92264"}}},
{"geometry": {"type": "Point", "coordinates": [-116.4933908101, 33.806353147]}, "type": "Feature", "properties": {"collection_times": [{"days": "Mon-Sat", "time": "4:00pm"}, {"days": "Sun", "time": "Closed"}], "id": "9226400046", "name": "USPS COLLECTION BOX - BLUE BOX", "address": {"city": "PALM SPRINGS", "state": "CA", "street": "1227 S GENE AUTRY TRL", "postcode": "92264"}}},
{"geometry": {"type": "Point", "coordinates": [-116.528336307, 33.8175579768]}, "type": "Feature", "properties": {"collection_times": [{"days": "Mon-Sat", "time": "2:15pm"}, {"days": "Sun", "time": "Closed"}], "id": "9226400055", "name": "USPS COLLECTION BOX - BLUE BOX", "address": {"city": "PALM SPRINGS", "state": "CA", "street": "425 S SUNRISE WAY", "postcode": "92264"}}},
{"geometry": {"type": "Point", "coordinates": [-114.7322578149, 33.4295901337]}, "type": "Feature", "properties": {"collection_times": [{"days": "Mon-Fri", "time": "3:00pm"}, {"days": "Sat", "time": "11:30am"}, {"days": "Sun", "time": "Closed"}], "id": "9226600002", "name": "USPS COLLECTION BOX - BLUE BOX", "address": {"city": "PALO VERDE", "state": "CA", "street": "15 BEN HULSE HWY", "postcode": "92266"}}},
{"geometry": {"type": "Point", "coordinates": [-114.1389555775, 34.2795429599]}, "type": "Feature", "properties": {"collection_times": [{"days": "Mon-Sat", "time": "12:45pm"}, {"days": "Sun", "time": "Closed"}], "id": "9226700001", "name": "USPS COLLECTION BOX - BLUE BOX", "address": {"city": "PARKER DAM", "state": "CA", "street": "5 PARKER DAM RD", "postcode": "92267"}}},
{"geometry": {"type": "Point", "coordinates": [-116.4374645891, 33.7587531141]}, "type": "Feature", "properties": {"collection_times": [{"days": "Mon-Sat", "time": "1:00pm"}, {"days": "Sun", "time": "Closed"}], "id": "9227000001", "name": "USPS COLLECTION BOX - BLUE BOX", "address": {"city": "RANCHO MIRAGE", "state": "CA", "street": "70313 HIGHWAY 111", "postcode": "92270"}}},
{"geometry": {"type": "Point", "coordinates": [-116.4236092437, 33.7881722506]}, "type": "Feature", "properties": {"collection_times": [{"days": "Mon-Sat", "time": "1:00pm"}, {"days": "Sun", "time": "Closed"}], "id": "9227000002", "name": "USPS COLLECTION BOX - BLUE BOX", "address": {"city": "RANCHO MIRAGE", "state": "CA", "street": "840 INVERNESS DR", "postcode": "92270"}}},
{"geometry": {"type": "Point", "coordinates": [-116.4156181055, 33.7680026534]}, "type": "Feature", "properties": {"collection_times": [{"days": "Mon-Sat", "time": "1:00pm"}, {"days": "Sun", "time": "Closed"}], "id": "9227000003", "name": "USPS COLLECTION BOX - BLUE BOX", "address": {"city": "RANCHO MIRAGE", "state": "CA", "street": "70600 MISSION HILLS DR", "postcode": "92270"}}},
{"geometry": {"type": "Point", "coordinates": [-116.4150138639, 33.7534027207]}, "type": "Feature", "properties": {"collection_times": [{"days": "Mon-Sat", "time": "1:00pm"}, {"days": "Sun", "time": "Closed"}], "id": "9227000006", "name": "USPS COLLECTION BOX - BLUE BOX", "address": {"city": "RANCHO MIRAGE", "state": "CA", "street": "22 SUNRISE DR", "postcode": "92270"}}},
{"geometry": {"type": "Point", "coordinates": [-116.4132840076, 33.7407754081]}, "type": "Feature", "properties": {"collection_times": [{"days": "Mon-Fri", "time": "5:00pm"}, {"days": "Sat", "time": "3:00pm"}, {"days": "Sun", "time": "Closed"}], "id": "9227000009", "name": "USPS COLLECTION BOX - BLUE BOX", "address": {"city": "RANCHO MIRAGE", "state": "CA", "street": "42222 RANCHO LAS PALMAS DR", "postcode": "92270"}}},
{"geometry": {"type": "Point", "coordinates": [-116.4482587579, 33.7740480222]}, "type": "Feature", "properties": {"collection_times": [{"days": "Mon-Sat", "time": "1:00pm"}, {"days": "Sun", "time": "Closed"}], "id": "9227000015", "name": "USPS COLLECTION BOX - BLUE BOX", "address": {"city": "RANCHO MIRAGE", "state": "CA", "street": "69730 HIGHWAY 111", "postcode": "92270"}}},
{"geometry": {"type": "Point", "coordinates": [-116.4080829073, 33.7606649058]}, "type": "Feature", "properties": {"collection_times": [{"days": "Mon-Sat", "time": "1:00pm"}, {"days": "Sun", "time": "Closed"}], "id": "9227000018", "name": "USPS COLLECTION BOX - BLUE BOX", "address": {"city": "RANCHO MIRAGE", "state": "CA", "street": "39700 BOB HOPE DR", "postcode": "92270"}}},
{"geometry": {"type": "Point", "coordinates": [-116.4132840076, 33.7407754081]}, "type": "Feature", "properties": {"collection_times": [{"days": "Mon-Fri", "time": "5:00pm"}, {"days": "Sat", "time": "3:00pm"}, {"days": "Sun", "time": "Closed"}], "id": "9227000019", "name": "USPS COLLECTION BOX - BLUE BOX", "address": {"city": "RANCHO MIRAGE", "state": "CA", "street": "42222 RANCHO LAS PALMAS DR", "postcode": "92270"}}},
{"geometry": {"type": "Point", "coordinates": [-116.4132840076, 33.7407754081]}, "type": "Feature", "properties": {"collection_times": [{"days": "Mon-Fri", "time": "5:00pm"}, {"days": "Sat", "time": "3:00pm"}, {"days": "Sun", "time": "Closed"}], "id": "9227000020", "name": "USPS COLLECTION BOX - BLUE BOX", "address": {"city": "RANCHO MIRAGE", "state": "CA", "street": "42222 RANCHO LAS PALMAS DR", "postcode": "92270"}}},
{"geometry": {"type": "Point", "coordinates": [-116.4132840076, 33.7407754081]}, "type": "Feature", "properties": {"collection_times": [{"days": "Mon-Fri", "time": "5:00pm"}, {"days": "Sat", "time": "3:00pm"}, {"days": "Sun", "time": "Closed"}], "id": "9227000021", "name": "USPS COLLECTION BOX - BLUE BOX", "address": {"city": "RANCHO MIRAGE", "state": "CA", "street": "42222 RANCHO LAS PALMAS DR", "postcode": "92270"}}},
{"geometry": {"type": "Point", "coordinates": [-116.4207563951, 33.766853286]}, "type": "Feature", "properties": {"collection_times": [{"days": "Mon-Fri", "time": "5:00pm"}, {"days": "Sat", "time": "3:00pm"}, {"days": "Sun", "time": "Closed"}], "id": "9227000022", "name": "USPS COLLECTION BOX - EXPRESS", "address": {"city": "RANCHO MIRAGE", "state": "CA", "street": "42222 RANCHO LAS PALMAS DR", "postcode": "92270"}}},
{"geometry": {"type": "Point", "coordinates": [-116.4452922545, 33.7724314667]}, "type": "Feature", "properties": {"collection_times": [{"days": "Mon-Sat", "time": "1:00pm"}, {"days": "Sun", "time": "Closed"}], "id": "9227000026", "name": "USPS COLLECTION BOX - BLUE BOX", "address": {"city": "RANCHO MIRAGE", "state": "CA", "street": "69900 FRANK SINATRA DR", "postcode": "92270"}}},
{"geometry": {"type": "Point", "coordinates": [-116.4060624134, 33.7862168195]}, "type": "Feature", "properties": {"collection_times": [{"days": "Mon-Sat", "time": "1:00pm"}, {"days": "Sun", "time": "Closed"}], "id": "9227000028", "name": "USPS COLLECTION BOX - BLUE BOX", "address": {"city": "RANCHO MIRAGE", "state": "CA", "street": "36101 BOB HOPE DR", "postcode": "92270"}}},
{"geometry": {"type": "Point", "coordinates": [-116.4060780001, 33.775545897]}, "type": "Feature", "properties": {"collection_times": [{"days": "Mon-Sat", "time": "1:00pm"}, {"days": "Sun", "time": "Closed"}], "id": "9227000030", "name": "USPS COLLECTION BOX - BLUE BOX", "address": {"city": "RANCHO MIRAGE", "state": "CA", "street": "38000 BOB HOPE DR", "postcode": "92270"}}},
{"geometry": {"type": "Point", "coordinates": [-116.4132840076, 33.7407754081]}, "type": "Feature", "properties": {"collection_times": [{"days": "Mon-Fri", "time": "5:00pm"}, {"days": "Sat", "time": "3:00pm"}, {"days": "Sun", "time": "Closed"}], "id": "9227000031", "name": "USPS COLLECTION BOX - APC", "address": {"city": "RANCHO MIRAGE", "state": "CA", "street": "42222 RANCHO LAS PALMAS DR", "postcode": "92270"}}},
{"geometry": {"type": "Point", "coordinates": [-115.6905104808, 32.7923354378]}, "type": "Feature", "properties": {"collection_times": [{"days": "Mon-Fri", "time": "12:45pm"}, {"days": "Sat", "time": "10:00am"}, {"days": "Sun", "time": "Closed"}], "id": "9227300001", "name": "USPS COLLECTION BOX - BLUE BOX", "address": {"city": "SEELEY", "state": "CA", "street": "1801 W PARK ST", "postcode": "92273"}}},
{"geometry": {"type": "Point", "coordinates": [-116.1440358197, 33.6420697207]}, "type": "Feature", "properties": {"collection_times": [{"days": "Mon-Fri", "time": "4:45pm"}, {"days": "Sat", "time": "9:30am"}, {"days": "Sun", "time": "Closed"}], "id": "9227400001", "name": "USPS COLLECTION BOX - BLUE BOX", "address": {"city": "THERMAL", "state": "CA", "street": "87200 AIRPORT BLVD", "postcode": "92274"}}},
{"geometry": {"type": "Point", "coordinates": [-116.0424023957, 33.4059157514]}, "type": "Feature", "properties": {"collection_times": [{"days": "Mon-Sat", "time": "11:15am"}, {"days": "Sun", "time": "Closed"}], "id": "9227400002", "name": "USPS COLLECTION BOX - BLUE BOX", "address": {"city": "THERMAL", "state": "CA", "street": "230 DESERT SHORES DR", "postcode": "92274"}}},
{"geometry": {"type": "Point", "coordinates": [-115.962207347, 33.2847889507]}, "type": "Feature", "properties": {"collection_times": [{"days": "Mon-Sat", "time": "10:00am"}, {"days": "Sun", "time": "Closed"}], "id": "9227400004", "name": "USPS COLLECTION BOX - BLUE BOX", "address": {"city": "THERMAL", "state": "CA", "street": "2113 S MARINA DR", "postcode": "92274"}}},
{"geometry": {"type": "Point", "coordinates": [-116.1808920892, 33.5692373032]}, "type": "Feature", "properties": {"collection_times": [{"days": "Mon-Sat", "time": "10:00am"}, {"days": "Sun", "time": "Closed"}], "id": "9227400008", "name": "USPS COLLECTION BOX - BLUE BOX", "address": {"city": "THERMAL", "state": "CA", "street": "65959 HIGHWAY 86", "postcode": "92274"}}},
{"geometry": {"type": "Point", "coordinates": [-116.1088588653, 33.4844018585]}, "type": "Feature", "properties": {"collection_times": [{"days": "Mon-Fri", "time": "4:45pm"}, {"days": "Sat", "time": "9:30am"}, {"days": "Sun", "time": "Closed"}], "id": "9227400010", "name": "USPS COLLECTION BOX - EXPRESS", "address": {"city": "THERMAL", "state": "CA", "street": "87200 AIRPORT BLVD", "postcode": "92274"}}},
{"geometry": {"type": "Point", "coordinates": [-116.1088588653, 33.4844018585]}, "type": "Feature", "properties": {"collection_times": [{"days": "Mon-Fri", "time": "4:45pm"}, {"days": "Sat-Sun", "time": "Closed"}], "id": "9227400011", "name": "USPS COLLECTION BOX - PO LOBBY", "address": {"city": "THERMAL", "state": "CA", "street": "87200 AIRPORT BLVD", "postcode": "92274"}}},
{"geometry": {"type": "Point", "coordinates": [-116.3606959371, 33.7930779815]}, "type": "Feature", "properties": {"collection_times": [{"days": "Mon-Sat", "time": "12:00pm"}, {"days": "Sun", "time": "Closed"}], "id": "9227600001", "name": "USPS COLLECTION BOX - BLUE BOX", "address": {"city": "THOUSAND PALMS", "state": "CA", "street": "74518 STAGE LINE DR", "postcode": "92276"}}},
{"geometry": {"type": "Point", "coordinates": [-116.3798953611, 33.8106295436]}, "type": "Feature", "properties": {"collection_times": [{"days": "Mon-Sat", "time": "12:00pm"}, {"days": "Sun", "time": "Closed"}], "id": "9227600002", "name": "USPS COLLECTION BOX - BLUE BOX", "address": {"city": "THOUSAND PALMS", "state": "CA", "street": "32700 DESERT MOON DR", "postcode": "92276"}}},
{"geometry": {"type": "Point", "coordinates": [-116.3944599519, 33.8164520677]}, "type": "Feature", "properties": {"collection_times": [{"days": "Mon-Sat", "time": "4:00pm"}, {"days": "Sun", "time": "Closed"}], "id": "9227600003", "name": "USPS COLLECTION BOX - BLUE BOX", "address": {"city": "THOUSAND PALMS", "state": "CA", "street": "72630 RAMON RD", "postcode": "92276"}}},
{"geometry": {"type": "Point", "coordinates": [-116.4031511514, 33.8186996897]}, "type": "Feature", "properties": {"collection_times": [{"days": "Mon-Sat", "time": "12:00pm"}, {"days": "Sun", "time": "Closed"}], "id": "9227600004", "name": "USPS COLLECTION BOX - BLUE BOX", "address": {"city": "THOUSAND PALMS", "state": "CA", "street": "72235 VARNER RD", "postcode": "92276"}}},
{"geometry": {"type": "Point", "coordinates": [-116.3944599519, 33.8164520677]}, "type": "Feature", "properties": {"collection_times": [{"days": "Mon-Sat", "time": "4:00pm"}, {"days": "Sun", "time": "Closed"}], "id": "9227600008", "name": "USPS COLLECTION BOX - BLUE BOX", "address": {"city": "THOUSAND PALMS", "state": "CA", "street": "72630 RAMON RD", "postcode": "92276"}}},
{"geometry": {"type": "Point", "coordinates": [-116.051210284, 34.1392488047]}, "type": "Feature", "properties": {"collection_times": [{"days": "Mon-Sat", "time": "5:00pm"}, {"days": "Sun", "time": "Closed"}], "id": "9227700001", "name": "USPS COLLECTION BOX - BLUE BOX", "address": {"city": "TWENTYNIN PLM", "state": "CA", "street": "73839 GORGONIO DR", "postcode": "92277"}}},
{"geometry": {"type": "Point", "coordinates": [-116.0550262753, 34.1505464089]}, "type": "Feature", "properties": {"collection_times": [{"days": "Mon-Sat", "time": "3:00pm"}, {"days": "Sun", "time": "Closed"}], "id": "9227700006", "name": "USPS COLLECTION BOX - BLUE BOX", "address": {"city": "TWENTYNIN PLM", "state": "CA", "street": "5668 THE PLZ", "postcode": "92277"}}},
{"geometry": {"type": "Point", "coordinates": [-116.0972935621, 34.1354274889]}, "type": "Feature", "properties": {"collection_times": [{"days": "Mon-Sat", "time": "3:00pm"}, {"days": "Sun", "time": "Closed"}], "id": "9227700007", "name": "USPS COLLECTION BOX - BLUE BOX", "address": {"city": "TWENTYNIN PLM", "state": "CA", "street": "71727 29 PALMS HWY", "postcode": "92277"}}},
{"geometry": {"type": "Point", "coordinates": [-116.0541439509, 34.1577238995]}, "type": "Feature", "properties": {"collection_times": [{"days": "Mon-Sat", "time": "3:00pm"}, {"days": "Sun", "time": "Closed"}], "id": "9227700008", "name": "USPS COLLECTION BOX - BLUE BOX", "address": {"city": "TWENTYNIN PLM", "state": "CA", "street": "6136 ADOBE RD", "postcode": "92277"}}},
{"geometry": {"type": "Point", "coordinates": [-116.088719586, 34.135422967]}, "type": "Feature", "properties": {"collection_times": [{"days": "Mon-Sat", "time": "3:00pm"}, {"days": "Sun", "time": "Closed"}], "id": "9227700011", "name": "USPS COLLECTION BOX - BLUE BOX", "address": {"city": "TWENTYNIN PLM", "state": "CA", "street": "72143 29 PALMS HWY", "postcode": "92277"}}},
{"geometry": {"type": "Point", "coordinates": [-116.0593154358, 34.2366964892]}, "type": "Feature", "properties": {"collection_times": [{"days": "Mon-Fri", "time": "4:00pm"}, {"days": "Sat", "time": "11:00am"}, {"days": "Sun", "time": "Closed"}], "id": "9227800007", "name": "USPS COLLECTION BOX - BLUE BOX", "address": {"city": "TWENTY-NINE  PAL", "state": "CA", "street": "1435 STURGIS RD", "postcode": "92278"}}},
{"geometry": {"type": "Point", "coordinates": [-115.62169518, 33.0362892075]}, "type": "Feature", "properties": {"collection_times": [{"days": "Mon-Fri", "time": "3:00pm"}, {"days": "Sat", "time": "10:00am"}, {"days": "Sun", "time": "Closed"}], "id": "9228100002", "name": "USPS COLLECTION BOX - BLUE BOX", "address": {"city": "WESTMORLAND", "state": "CA", "street": "199 S CENTER ST", "postcode": "92281"}}},
{"geometry": {"type": "Point", "coordinates": [-114.632705612, 32.7380639169]}, "type": "Feature", "properties": {"collection_times": [{"days": "Mon-Sat", "time": "10:00am"}, {"days": "Sun", "time": "Closed"}], "id": "9228300001", "name": "USPS COLLECTION BOX - BLUE BOX", "address": {"city": "WINTERHAVEN", "state": "CA", "street": "2209 WINTERHAVEN DR", "postcode": "92283"}}},
{"geometry": {"type": "Point", "coordinates": [-114.6286633454, 32.7371737016]}, "type": "Feature", "properties": {"collection_times": [{"days": "Mon-Sat", "time": "10:00am"}, {"days": "Sun", "time": "Closed"}], "id": "9228300002", "name": "USPS COLLECTION BOX - BLUE BOX", "address": {"city": "WINTERHAVEN", "state": "CA", "street": "2299 WINTERHAVEN DR", "postcode": "92283"}}},
{"geometry": {"type": "Point", "coordinates": [-114.6410563802, 32.7398744231]}, "type": "Feature", "properties": {"collection_times": [{"days": "Mon-Fri", "time": "12:45pm"}, {"days": "Sat", "time": "11:00am"}, {"days": "Sun", "time": "Closed"}], "id": "9228300004", "name": "USPS COLLECTION BOX - BLUE BOX", "address": {"city": "WINTERHAVEN", "state": "CA", "street": "2127 WINTERHAVEN DR", "postcode": "92283"}}},
{"geometry": {"type": "Point", "coordinates": [-116.408870758, 34.1250860616]}, "type": "Feature", "properties": {"collection_times": [{"days": "Mon-Sat", "time": "2:00pm"}, {"days": "Sun", "time": "Closed"}], "id": "9228400001", "name": "USPS COLLECTION BOX - BLUE BOX", "address": {"city": "YUCCA VALLEY", "state": "CA", "street": "57550 29 PALMS HWY", "postcode": "92284"}}},
{"geometry": {"type": "Point", "coordinates": [-116.4678307781, 34.1138405099]}, "type": "Feature", "properties": {"collection_times": [{"days": "Mon-Sat", "time": "2:00pm"}, {"days": "Sun", "time": "Closed"}], "id": "9228400002", "name": "USPS COLLECTION BOX - BLUE BOX", "address": {"city": "YUCCA VALLEY", "state": "CA", "street": "55727 29 PALMS HWY", "postcode": "92284"}}},
{"geometry": {"type": "Point", "coordinates": [-116.4141504783, 34.1206547113]}, "type": "Feature", "properties": {"collection_times": [{"days": "Mon-Sat", "time": "5:30pm"}, {"days": "Sun", "time": "Closed"}], "id": "9228400004", "name": "USPS COLLECTION BOX - BLUE BOX", "address": {"city": "YUCCA VALLEY", "state": "CA", "street": "57280 YUCCA TRL", "postcode": "92284"}}},
{"geometry": {"type": "Point", "coordinates": [-116.4126659949, 34.1481014486]}, "type": "Feature", "properties": {"collection_times": [{"days": "Mon-Sat", "time": "5:30pm"}, {"days": "Sun", "time": "Closed"}], "id": "9228400012", "name": "USPS COLLECTION BOX - EXPRESS", "address": {"city": "YUCCA VALLEY", "state": "CA", "street": "57280 YUCCA TRL", "postcode": "92284"}}},
{"geometry": {"type": "Point", "coordinates": [-116.4146557165, 34.1205602667]}, "type": "Feature", "properties": {"collection_times": [{"days": "Mon-Sat", "time": "5:30pm"}, {"days": "Sun", "time": "Closed"}], "id": "9228400019", "name": "USPS COLLECTION BOX - BLUE BOX", "address": {"city": "YUCCA VALLEY", "state": "CA", "street": "57280 YUCCA TRL", "postcode": "92284"}}},
{"geometry": {"type": "Point", "coordinates": [-116.3932226576, 34.2599785732]}, "type": "Feature", "properties": {"collection_times": [{"days": "Mon-Fri", "time": "3:00pm"}, {"days": "Sat", "time": "12:30pm"}, {"days": "Sun", "time": "Closed"}], "id": "9228500000", "name": "USPS COLLECTION BOX - BLUE BOX", "address": {"city": "YUCCA VALLEY", "state": "CA", "street": "890 LANDERS LN", "postcode": "92285"}}}
]}
