{"type": "FeatureCollection", "features": [
{"geometry": {"type": "Point", "coordinates": [-117.412687649, 34.5593348223]}, "type": "Feature", "properties": {"collection_times": [{"days": "Mon-Fri", "time": "5:00pm"}, {"days": "Sat", "time": "1:30pm"}, {"days": "Sun", "time": "Closed"}], "id": "9230100006", "name": "USPS COLLECTION BOX - BLUE BOX", "address": {"city": "ADELANTO", "state": "CA", "street": "11530 RANCHO RD", "postcode": "92301"}}},
{"geometry": {"type": "Point", "coordinates": [-117.4451175118, 34.5603903305]}, "type": "Feature", "properties": {"collection_times": [{"days": "Mon-Fri", "time": "5:00pm"}, {"days": "Sat", "time": "1:30pm"}, {"days": "Sun", "time": "Closed"}], "id": "9230100008", "name": "USPS COLLECTION BOX - EXPRESS", "address": {"city": "ADELANTO", "state": "CA", "street": "11530 RANCHO RD", "postcode": "92301"}}},
{"geometry": {"type": "Point", "coordinates": [-115.8345752876, 34.7081602495]}, "type": "Feature", "properties": {"collection_times": [{"days": "Mon-Sat", "time": "2:30pm"}, {"days": "Sun", "time": "Closed"}], "id": "9230400002", "name": "USPS COLLECTION BOX - BLUE BOX", "address": {"city": "AMBOY", "state": "CA", "street": "1 HWY 66 NATIONAL TRL", "postcode": "92304"}}},
{"geometry": {"type": "Point", "coordinates": [-115.8345752876, 34.7081602495]}, "type": "Feature", "properties": {"collection_times": [{"days": "Mon-Sat", "time": "2:00pm"}, {"days": "Sun", "time": "Closed"}], "id": "9230400003", "name": "USPS COLLECTION BOX - BLUE BOX", "address": {"city": "AMBOY", "state": "CA", "street": "1 HWY 66 NATIONAL TRL", "postcode": "92304"}}},
{"geometry": {"type": "Point", "coordinates": [-117.1309165824, 34.5926845269]}, "type": "Feature", "properties": {"collection_times": [{"days": "Mon-Fri", "time": "2:00pm"}, {"days": "Sat", "time": "12:30pm"}, {"days": "Sun", "time": "Closed"}], "id": "9230700001", "name": "USPS COLLECTION BOX - BLUE BOX", "address": {"city": "APPLE VALLEY", "state": "CA", "street": "18227 US HIGHWAY 18", "postcode": "92307"}}},
{"geometry": {"type": "Point", "coordinates": [-117.2818984649, 34.5362011343]}, "type": "Feature", "properties": {"collection_times": [{"days": "Mon-Fri", "time": "2:00pm"}, {"days": "Sat", "time": "12:30pm"}, {"days": "Sun", "time": "Closed"}], "id": "9230700002", "name": "USPS COLLECTION BOX - BLUE BOX", "address": {"city": "APPLE VALLEY", "state": "CA", "street": "17868 US HIGHWAY 18", "postcode": "92307"}}},
{"geometry": {"type": "Point", "coordinates": [-117.1818303412, 34.5005252972]}, "type": "Feature", "properties": {"collection_times": [{"days": "Mon-Fri", "time": "5:00pm"}, {"days": "Sat", "time": "1:30pm"}, {"days": "Sun", "time": "Closed"}], "id": "9230700006", "name": "USPS COLLECTION BOX - BLUE BOX", "address": {"city": "APPLE VALLEY", "state": "CA", "street": "22099 US HIGHWAY 18", "postcode": "92307"}}},
{"geometry": {"type": "Point", "coordinates": [-117.2600594176, 34.541007336]}, "type": "Feature", "properties": {"collection_times": [{"days": "Mon-Fri", "time": "2:00pm"}, {"days": "Sat", "time": "12:30pm"}, {"days": "Sun", "time": "Closed"}], "id": "9230700010", "name": "USPS COLLECTION BOX - BLUE BOX", "address": {"city": "APPLE VALLEY", "state": "CA", "street": "18523 CORWIN RD", "postcode": "92307"}}},
{"geometry": {"type": "Point", "coordinates": [-117.2661995738, 34.5404598332]}, "type": "Feature", "properties": {"collection_times": [{"days": "Mon-Fri", "time": "2:00pm"}, {"days": "Sat", "time": "12:30pm"}, {"days": "Sun", "time": "Closed"}], "id": "9230700014", "name": "USPS COLLECTION BOX - BLUE BOX", "address": {"city": "APPLE VALLEY", "state": "CA", "street": "18227 US HIGHWAY 18", "postcode": "92307"}}},
{"geometry": {"type": "Point", "coordinates": [-117.2055860486, 34.5318132293]}, "type": "Feature", "properties": {"collection_times": [{"days": "Mon-Fri", "time": "2:00pm"}, {"days": "Sat", "time": "12:30pm"}, {"days": "Sun", "time": "Closed"}], "id": "9230700015", "name": "USPS COLLECTION BOX - EXPRESS", "address": {"city": "APPLE VALLEY", "state": "CA", "street": "18227 US HIGHWAY 18", "postcode": "92307"}}},
{"geometry": {"type": "Point", "coordinates": [-117.1818303412, 34.5005252972]}, "type": "Feature", "properties": {"collection_times": [{"days": "Mon-Fri", "time": "5:00pm"}, {"days": "Sat", "time": "1:30pm"}, {"days": "Sun", "time": "Closed"}], "id": "9230700016", "name": "USPS COLLECTION BOX - BLUE BOX", "address": {"city": "APPLE VALLEY", "state": "CA", "street": "22099 US HIGHWAY 18", "postcode": "92307"}}},
{"geometry": {"type": "Point", "coordinates": [-119.2702268805, 36.3741071704]}, "type": "Feature", "properties": {"collection_times": [{"days": "Mon-Fri", "time": "5:00pm"}, {"days": "Sat", "time": "1:30pm"}, {"days": "Sun", "time": "Closed"}], "id": "9230700017", "name": "USPS COLLECTION BOX - EXPRESS", "address": {"city": "APPLE VALLEY", "state": "CA", "street": "22099 US HIGHWAY 18", "postcode": "92307"}}},
{"geometry": {"type": "Point", "coordinates": [-117.2656418009, 34.5405589945]}, "type": "Feature", "properties": {"collection_times": [{"days": "Mon-Fri", "time": "2:00pm"}, {"days": "Sat", "time": "12:30pm"}, {"days": "Sun", "time": "Closed"}], "id": "9230700021", "name": "USPS COLLECTION BOX - BLUE BOX", "address": {"city": "APPLE VALLEY", "state": "CA", "street": "18300 US HIGHWAY 18", "postcode": "92307"}}},
{"geometry": {"type": "Point", "coordinates": [-117.2611938752, 34.5396966174]}, "type": "Feature", "properties": {"collection_times": [{"days": "Mon-Fri", "time": "2:00pm"}, {"days": "Sat", "time": "12:30pm"}, {"days": "Sun", "time": "Closed"}], "id": "9230700024", "name": "USPS COLLECTION BOX - BLUE BOX", "address": {"city": "APPLE VALLEY", "state": "CA", "street": "18484 US HIGHWAY 18", "postcode": "92307"}}},
{"geometry": {"type": "Point", "coordinates": [-117.2425291487, 34.4991743581]}, "type": "Feature", "properties": {"collection_times": [{"days": "Mon-Fri", "time": "2:00pm"}, {"days": "Sat", "time": "12:30pm"}, {"days": "Sun", "time": "Closed"}], "id": "9230700025", "name": "USPS COLLECTION BOX - BLUE BOX", "address": {"city": "APPLE VALLEY", "state": "CA", "street": "13601 APPLE VALLEY RD", "postcode": "92307"}}},
{"geometry": {"type": "Point", "coordinates": [-117.2158120204, 34.5250291092]}, "type": "Feature", "properties": {"collection_times": [{"days": "Mon-Fri", "time": "2:00pm"}, {"days": "Sat", "time": "12:30pm"}, {"days": "Sun", "time": "Closed"}], "id": "9230700026", "name": "USPS COLLECTION BOX - BLUE BOX", "address": {"city": "APPLE VALLEY", "state": "CA", "street": "14955 DALE EVANS PKWY", "postcode": "92307"}}},
{"geometry": {"type": "Point", "coordinates": [-117.2404234817, 34.4710885463]}, "type": "Feature", "properties": {"collection_times": [{"days": "Mon-Fri", "time": "2:00pm"}, {"days": "Sat", "time": "12:30pm"}, {"days": "Sun", "time": "Closed"}], "id": "9230800000", "name": "USPS COLLECTION BOX - BLUE BOX", "address": {"city": "APPLE VALLEY", "state": "CA", "street": "21602 BEAR VALLEY RD", "postcode": "92308"}}},
{"geometry": {"type": "Point", "coordinates": [-117.2077324107, 34.4725920872]}, "type": "Feature", "properties": {"collection_times": [{"days": "Mon-Fri", "time": "2:00pm"}, {"days": "Sat", "time": "12:30pm"}, {"days": "Sun", "time": "Closed"}], "id": "9230800001", "name": "USPS COLLECTION BOX - BLUE BOX", "address": {"city": "APPLE VALLEY", "state": "CA", "street": "12165 KIOWA RD", "postcode": "92308"}}},
{"geometry": {"type": "Point", "coordinates": [-117.1927856624, 34.4570834797]}, "type": "Feature", "properties": {"collection_times": [{"days": "Mon-Fri", "time": "2:00pm"}, {"days": "Sat", "time": "12:30pm"}, {"days": "Sun", "time": "Closed"}], "id": "9230800003", "name": "USPS COLLECTION BOX - EXPRESS", "address": {"city": "APPLE VALLEY", "state": "CA", "street": "21602 BEAR VALLEY RD", "postcode": "92308"}}},
{"geometry": {"type": "Point", "coordinates": [-116.0553869315, 35.2826064396]}, "type": "Feature", "properties": {"collection_times": [{"days": "Mon-Fri", "time": "2:30pm"}, {"days": "Sat", "time": "11:30am"}, {"days": "Sun", "time": "Closed"}], "id": "9230900001", "name": "USPS COLLECTION BOX - BLUE BOX", "address": {"city": "BAKER", "state": "CA", "street": "1 LAKEVIEW DR", "postcode": "92309"}}},
{"geometry": {"type": "Point", "coordinates": [-117.0198257995, 34.9090893461]}, "type": "Feature", "properties": {"collection_times": [{"days": "Mon-Sat", "time": "1:00pm"}, {"days": "Sun", "time": "Closed"}], "id": "9231000000", "name": "USPS COLLECTION BOX - BLUE BOX", "address": {"city": "BARSTOW", "state": "CA", "street": "918 1ST ST", "postcode": "92310"}}},
{"geometry": {"type": "Point", "coordinates": [-116.6441726866, 35.3642418279]}, "type": "Feature", "properties": {"collection_times": [{"days": "Mon-Fri", "time": "3:00pm"}, {"days": "Sat", "time": "1:00pm"}, {"days": "Sun", "time": "Closed"}], "id": "9231000003", "name": "USPS COLLECTION BOX - BLUE BOX", "address": {"city": "BARSTOW", "state": "CA", "street": "306 LANKFORD LAKE RD", "postcode": "92310"}}},
{"geometry": {"type": "Point", "coordinates": [-119.2702268805, 36.3741071704]}, "type": "Feature", "properties": {"collection_times": [{"days": "Mon-Fri", "time": "3:00pm"}, {"days": "Sat", "time": "1:00pm"}, {"days": "Sun", "time": "Closed"}], "id": "9231000004", "name": "USPS COLLECTION BOX - BLUE BOX", "address": {"city": "BARSTOW", "state": "CA", "street": "306 LANKFORD LAKE RD", "postcode": "92310"}}},
{"geometry": {"type": "Point", "coordinates": [-116.6441726866, 35.3642418279]}, "type": "Feature", "properties": {"collection_times": [{"days": "Mon-Fri", "time": "3:00pm"}, {"days": "Sat", "time": "1:00pm"}, {"days": "Sun", "time": "Closed"}], "id": "9231000007", "name": "USPS COLLECTION BOX - BLUE BOX", "address": {"city": "BARSTOW", "state": "CA", "street": "306 LANKFORD LAKE RD", "postcode": "92310"}}},
{"geometry": {"type": "Point", "coordinates": [-116.6441726866, 35.3642418279]}, "type": "Feature", "properties": {"collection_times": [{"days": "Mon-Fri", "time": "3:00pm"}, {"days": "Sat", "time": "1:00pm"}, {"days": "Sun", "time": "Closed"}], "id": "9231000008", "name": "USPS COLLECTION BOX - BLUE BOX", "address": {"city": "BARSTOW", "state": "CA", "street": "306 LANKFORD LAKE RD", "postcode": "92310"}}},
{"geometry": {"type": "Point", "coordinates": [-117.0132575057, 34.8840512403]}, "type": "Feature", "properties": {"collection_times": [{"days": "Mon-Sat", "time": "1:30pm"}, {"days": "Sun", "time": "Closed"}], "id": "9231100006", "name": "USPS COLLECTION BOX - BLUE BOX", "address": {"city": "BARSTOW", "state": "CA", "street": "957 ARMORY RD", "postcode": "92311"}}},
{"geometry": {"type": "Point", "coordinates": [-117.0322159841, 34.8873519944]}, "type": "Feature", "properties": {"collection_times": [{"days": "Mon-Sat", "time": "1:45pm"}, {"days": "Sun", "time": "Closed"}], "id": "9231100021", "name": "USPS COLLECTION BOX - BLUE BOX", "address": {"city": "BARSTOW", "state": "CA", "street": "820 E MOUNTAIN VIEW ST", "postcode": "92311"}}},
{"geometry": {"type": "Point", "coordinates": [-117.0808654085, 34.8485533608]}, "type": "Feature", "properties": {"collection_times": [{"days": "Mon-Sat", "time": "12:00pm"}, {"days": "Sun", "time": "Closed"}], "id": "9231100023", "name": "USPS COLLECTION BOX - BLUE BOX", "address": {"city": "BARSTOW", "state": "CA", "street": "2550 MERCANTILE WAY", "postcode": "92311"}}},
{"geometry": {"type": "Point", "coordinates": [-117.0827740893, 34.8545943791]}, "type": "Feature", "properties": {"collection_times": [{"days": "Mon-Sat", "time": "12:00pm"}, {"days": "Sun", "time": "Closed"}], "id": "9231100024", "name": "USPS COLLECTION BOX - BLUE BOX", "address": {"city": "BARSTOW", "state": "CA", "street": "2611 FISHER BLVD", "postcode": "92311"}}},
{"geometry": {"type": "Point", "coordinates": [-117.0262120894, 34.8945334397]}, "type": "Feature", "properties": {"collection_times": [{"days": "Mon-Fri", "time": "5:00pm"}, {"days": "Sat", "time": "4:00pm"}, {"days": "Sun", "time": "Closed"}], "id": "9231100031", "name": "USPS COLLECTION BOX - BLUE BOX", "address": {"city": "BARSTOW", "state": "CA", "street": "425 S 2ND AVE", "postcode": "92311"}}},
{"geometry": {"type": "Point", "coordinates": [-117.0322159841, 34.8873519944]}, "type": "Feature", "properties": {"collection_times": [{"days": "Mon-Fri", "time": "5:00pm"}, {"days": "Sat", "time": "4:00pm"}, {"days": "Sun", "time": "Closed"}], "id": "9231100032", "name": "USPS COLLECTION BOX - EXPRESS", "address": {"city": "BARSTOW", "state": "CA", "street": "425 S 2ND AVE", "postcode": "92311"}}},
{"geometry": {"type": "Point", "coordinates": [-117.0262120894, 34.8945334397]}, "type": "Feature", "properties": {"collection_times": [{"days": "Mon-Fri", "time": "5:00pm"}, {"days": "Sat", "time": "4:00pm"}, {"days": "Sun", "time": "Closed"}], "id": "9231100033", "name": "USPS COLLECTION BOX - BLUE BOX", "address": {"city": "BARSTOW", "state": "CA", "street": "425 S 2ND AVE", "postcode": "92311"}}},
{"geometry": {"type": "Point", "coordinates": [-117.0242894804, 34.8676492464]}, "type": "Feature", "properties": {"collection_times": [{"days": "Mon-Sat", "time": "1:00pm"}, {"days": "Sun", "time": "Closed"}], "id": "9231100046", "name": "USPS COLLECTION BOX - BLUE BOX", "address": {"city": "BARSTOW", "state": "CA", "street": "100 VETERANS PKWY", "postcode": "92311"}}},
{"geometry": {"type": "Point", "coordinates": [-117.1133101073, 34.8672721104]}, "type": "Feature", "properties": {"collection_times": [{"days": "Mon-Sat", "time": "12:00pm"}, {"days": "Sun", "time": "Closed"}], "id": "9231100047", "name": "USPS COLLECTION BOX - BLUE BOX", "address": {"city": "BARSTOW", "state": "CA", "street": "2930 LENWOOD RD", "postcode": "92311"}}},
{"geometry": {"type": "Point", "coordinates": [-117.1133978989, 34.8666617098]}, "type": "Feature", "properties": {"collection_times": [{"days": "Mon-Sat", "time": "12:00pm"}, {"days": "Sun", "time": "Closed"}], "id": "9231100048", "name": "USPS COLLECTION BOX - BLUE BOX", "address": {"city": "BARSTOW", "state": "CA", "street": "2796 TANGER WAY", "postcode": "92311"}}},
{"geometry": {"type": "Point", "coordinates": [-117.0427810258, 34.8329662674]}, "type": "Feature", "properties": {"collection_times": [{"days": "Mon-Sat", "time": "2:00pm"}, {"days": "Sun", "time": "Closed"}], "id": "9231100050", "name": "USPS COLLECTION BOX - BLUE BOX", "address": {"city": "BARSTOW", "state": "CA", "street": "321 JOSEPH BOLL AVE", "postcode": "92311"}}},
{"geometry": {"type": "Point", "coordinates": [-117.3151758417, 34.0338976698]}, "type": "Feature", "properties": {"collection_times": [{"days": "Mon-Sat", "time": "2:30pm"}, {"days": "Sun", "time": "Closed"}], "id": "9231300001", "name": "USPS COLLECTION BOX - BLUE BOX", "address": {"city": "GRAND TERRACE", "state": "CA", "street": "22441 BARTON RD", "postcode": "92313"}}},
{"geometry": {"type": "Point", "coordinates": [-117.3161624294, 34.0302754495]}, "type": "Feature", "properties": {"collection_times": [{"days": "Mon-Sat", "time": "2:30pm"}, {"days": "Sun", "time": "Closed"}], "id": "9231300005", "name": "USPS COLLECTION BOX - BLUE BOX", "address": {"city": "GRAND TERRACE", "state": "CA", "street": "22491 DE BERRY ST", "postcode": "92313"}}},
{"geometry": {"type": "Point", "coordinates": [-117.3134945605, 34.0313522594]}, "type": "Feature", "properties": {"collection_times": [{"days": "Mon-Sat", "time": "2:30pm"}, {"days": "Sun", "time": "Closed"}], "id": "9231300006", "name": "USPS COLLECTION BOX - BLUE BOX", "address": {"city": "GRAND TERRACE", "state": "CA", "street": "2281 LA CROSSE AVE", "postcode": "92313"}}},
{"geometry": {"type": "Point", "coordinates": [-117.3175926268, 34.033891755]}, "type": "Feature", "properties": {"collection_times": [{"days": "Mon-Sat", "time": "2:30pm"}, {"days": "Sun", "time": "Closed"}], "id": "9231300007", "name": "USPS COLLECTION BOX - BLUE BOX", "address": {"city": "GRAND TERRACE", "state": "CA", "street": "22310 BARTON RD", "postcode": "92313"}}},
{"geometry": {"type": "Point", "coordinates": [-117.3175926268, 34.033891755]}, "type": "Feature", "properties": {"collection_times": [{"days": "Mon-Sat", "time": "2:30pm"}, {"days": "Sun", "time": "Closed"}], "id": "9231300009", "name": "USPS COLLECTION BOX - BLUE BOX", "address": {"city": "GRAND TERRACE", "state": "CA", "street": "22310 BARTON RD", "postcode": "92313"}}},
{"geometry": {"type": "Point", "coordinates": [-117.3264541724, 34.0265952641]}, "type": "Feature", "properties": {"collection_times": [{"days": "Mon-Sat", "time": "2:30pm"}, {"days": "Sun", "time": "Closed"}], "id": "9231300010", "name": "USPS COLLECTION BOX - BLUE BOX", "address": {"city": "GRAND TERRACE", "state": "CA", "street": "21935 VAN BUREN ST", "postcode": "92313"}}},
{"geometry": {"type": "Point", "coordinates": [-116.8446207905, 34.2617911655]}, "type": "Feature", "properties": {"collection_times": [{"days": "Mon-Fri", "time": "4:30pm"}, {"days": "Sat", "time": "2:00pm"}, {"days": "Sun", "time": "Closed"}], "id": "9231400003", "name": "USPS COLLECTION BOX - BLUE BOX", "address": {"city": "BIG BEAR CITY", "state": "CA", "street": "120 W COUNTRY CLUB BLVD", "postcode": "92314"}}},
{"geometry": {"type": "Point", "coordinates": [-116.9114851801, 34.2441899191]}, "type": "Feature", "properties": {"collection_times": [{"days": "Mon-Fri", "time": "4:30pm"}, {"days": "Sat", "time": "2:00pm"}, {"days": "Sun", "time": "Closed"}], "id": "9231500003", "name": "USPS COLLECTION BOX - BLUE BOX", "address": {"city": "BIG BEAR LAKE", "state": "CA", "street": "472 PINE KNOT BLVD", "postcode": "92315"}}},
{"geometry": {"type": "Point", "coordinates": [-116.9148219716, 34.2403134247]}, "type": "Feature", "properties": {"collection_times": [{"days": "Mon-Fri", "time": "3:00pm"}, {"days": "Sat", "time": "12:00pm"}, {"days": "Sun", "time": "Closed"}], "id": "9231500004", "name": "USPS COLLECTION BOX - BLUE BOX", "address": {"city": "BIG BEAR LAKE", "state": "CA", "street": "40728 VILLAGE DR", "postcode": "92315"}}},
{"geometry": {"type": "Point", "coordinates": [-116.9115464914, 34.243973995]}, "type": "Feature", "properties": {"collection_times": [{"days": "Mon-Fri", "time": "4:30pm"}, {"days": "Sat", "time": "2:00pm"}, {"days": "Sun", "time": "Closed"}], "id": "9231500005", "name": "USPS COLLECTION BOX - EXPRESS", "address": {"city": "BIG BEAR LAKE", "state": "CA", "street": "472 PINE KNOT BLVD", "postcode": "92315"}}},
{"geometry": {"type": "Point", "coordinates": [-116.9151249132, 34.2483572791]}, "type": "Feature", "properties": {"collection_times": [{"days": "Mon-Fri", "time": "4:00pm"}, {"days": "Sat", "time": "11:00am"}, {"days": "Sun", "time": "Closed"}], "id": "9231500006", "name": "USPS COLLECTION BOX - BLUE BOX", "address": {"city": "BIG BEAR LAKE", "state": "CA", "street": "42025 SANDALWOOD DR", "postcode": "92315"}}},
{"geometry": {"type": "Point", "coordinates": [-117.3963989872, 34.056408196]}, "type": "Feature", "properties": {"collection_times": [{"days": "Mon-Sat", "time": "2:00pm"}, {"days": "Sun", "time": "Closed"}], "id": "9231600003", "name": "USPS COLLECTION BOX - BLUE BOX", "address": {"city": "BLOOMINGTON", "state": "CA", "street": "10884 CEDAR AVE", "postcode": "92316"}}},
{"geometry": {"type": "Point", "coordinates": [-117.3976961218, 34.0649336983]}, "type": "Feature", "properties": {"collection_times": [{"days": "Mon-Fri", "time": "5:00pm"}, {"days": "Sat", "time": "3:00pm"}, {"days": "Sun", "time": "Closed"}], "id": "9231600005", "name": "USPS COLLECTION BOX - BLUE BOX", "address": {"city": "BLOOMINGTON", "state": "CA", "street": "10191 LINDEN AVE", "postcode": "92316"}}},
{"geometry": {"type": "Point", "coordinates": [-117.2124682214, 34.2506021194]}, "type": "Feature", "properties": {"collection_times": [{"days": "Mon-Sat", "time": "3:30pm"}, {"days": "Sun", "time": "Closed"}], "id": "9231700001", "name": "USPS COLLECTION BOX - BLUE BOX", "address": {"city": "BLUE JAY", "state": "CA", "street": "27177 STATE HIGHWAY 189", "postcode": "92317"}}},
{"geometry": {"type": "Point", "coordinates": [-117.2117298864, 34.2453209467]}, "type": "Feature", "properties": {"collection_times": [{"days": "Mon-Sat", "time": "5:00pm"}, {"days": "Sun", "time": "Closed"}], "id": "9231700005", "name": "USPS COLLECTION BOX - PO LOBBY", "address": {"city": "BLUE JAY", "state": "CA", "street": "27177 STATE HIGHWAY 189", "postcode": "92317"}}},
{"geometry": {"type": "Point", "coordinates": [-117.0278848779, 33.9627379423]}, "type": "Feature", "properties": {"collection_times": [{"days": "Mon-Sat", "time": "10:30am"}, {"days": "Sun", "time": "Closed"}], "id": "9232000003", "name": "USPS COLLECTION BOX - BLUE BOX", "address": {"city": "CALIMESA", "state": "CA", "street": "10961 DESERT LAWN DR", "postcode": "92320"}}},
{"geometry": {"type": "Point", "coordinates": [-117.0608790123, 33.9994479526]}, "type": "Feature", "properties": {"collection_times": [{"days": "Mon-Fri", "time": "5:00pm"}, {"days": "Sat", "time": "2:45pm"}, {"days": "Sun", "time": "Closed"}], "id": "9232000004", "name": "USPS COLLECTION BOX - BLUE BOX", "address": {"city": "CALIMESA", "state": "CA", "street": "600 W AVENUE L", "postcode": "92320"}}},
{"geometry": {"type": "Point", "coordinates": [-117.0608790123, 33.9994479526]}, "type": "Feature", "properties": {"collection_times": [{"days": "Mon-Fri", "time": "5:00pm"}, {"days": "Sat", "time": "2:45pm"}, {"days": "Sun", "time": "Closed"}], "id": "9232000006", "name": "USPS COLLECTION BOX - BLUE BOX", "address": {"city": "CALIMESA", "state": "CA", "street": "600 W AVENUE L", "postcode": "92320"}}},
{"geometry": {"type": "Point", "coordinates": [-117.0448860202, 33.9945315742]}, "type": "Feature", "properties": {"collection_times": [{"days": "Mon-Fri,Sun", "time": "Closed"}, {"days": "Sat", "time": "4:45pm"}], "id": "9232000008", "name": "USPS COLLECTION BOX - PO LOBBY", "address": {"city": "CALIMESA", "state": "CA", "street": "600 W AVENUE L", "postcode": "92320"}}},
{"geometry": {"type": "Point", "coordinates": [-117.1710878909, 34.2546555571]}, "type": "Feature", "properties": {"collection_times": [{"days": "Mon-Fri", "time": "3:30pm"}, {"days": "Sat", "time": "11:00am"}, {"days": "Sun", "time": "Closed"}], "id": "9232100002", "name": "USPS COLLECTION BOX - BLUE BOX", "address": {"city": "CEDAR GLEN", "state": "CA", "street": "28982 HOOK CREEK RD", "postcode": "92321"}}},
{"geometry": {"type": "Point", "coordinates": [-117.1671284049, 34.2535330071]}, "type": "Feature", "properties": {"collection_times": [{"days": "Mon-Sat", "time": "4:45pm"}, {"days": "Sun", "time": "Closed"}], "id": "9232100004", "name": "USPS COLLECTION BOX - PO LOBBY", "address": {"city": "CEDAR GLEN", "state": "CA", "street": "28982 HOOK CREEK RD", "postcode": "92321"}}},
{"geometry": {"type": "Point", "coordinates": [-117.3257349334, 34.0677752487]}, "type": "Feature", "properties": {"collection_times": [{"days": "Mon-Sat", "time": "5:00pm"}, {"days": "Sun", "time": "Closed"}], "id": "9232400003", "name": "USPS COLLECTION BOX - BLUE BOX", "address": {"city": "COLTON", "state": "CA", "street": "265 N 7TH ST", "postcode": "92324"}}},
{"geometry": {"type": "Point", "coordinates": [-117.3527662458, 34.071746366]}, "type": "Feature", "properties": {"collection_times": [{"days": "Mon-Sat", "time": "2:30pm"}, {"days": "Sun", "time": "Closed"}], "id": "9232400013", "name": "USPS COLLECTION BOX - BLUE BOX", "address": {"city": "COLTON", "state": "CA", "street": "400 N PEPPER AVE", "postcode": "92324"}}},
{"geometry": {"type": "Point", "coordinates": [-117.3011009959, 34.0484267718]}, "type": "Feature", "properties": {"collection_times": [{"days": "Mon-Sat", "time": "2:30pm"}, {"days": "Sun", "time": "Closed"}], "id": "9232400017", "name": "USPS COLLECTION BOX - BLUE BOX", "address": {"city": "COLTON", "state": "CA", "street": "1604 E WASHINGTON ST", "postcode": "92324"}}},
{"geometry": {"type": "Point", "coordinates": [-117.3399257091, 34.0193744826]}, "type": "Feature", "properties": {"collection_times": [{"days": "Mon-Sat", "time": "2:30pm"}, {"days": "Sun", "time": "Closed"}], "id": "9232400019", "name": "USPS COLLECTION BOX - BLUE BOX", "address": {"city": "COLTON", "state": "CA", "street": "2851 S LA CADENA DR", "postcode": "92324"}}},
{"geometry": {"type": "Point", "coordinates": [-117.33364538, 34.0607047029]}, "type": "Feature", "properties": {"collection_times": [{"days": "Mon-Sat", "time": "2:30pm"}, {"days": "Sun", "time": "Closed"}], "id": "9232400020", "name": "USPS COLLECTION BOX - BLUE BOX", "address": {"city": "COLTON", "state": "CA", "street": "500 S RANCHO AVE", "postcode": "92324"}}},
{"geometry": {"type": "Point", "coordinates": [-117.3356187182, 34.0268526704]}, "type": "Feature", "properties": {"collection_times": [{"days": "Mon-Sat", "time": "2:30pm"}, {"days": "Sun", "time": "Closed"}], "id": "9232400023", "name": "USPS COLLECTION BOX - BLUE BOX", "address": {"city": "COLTON", "state": "CA", "street": "2531 S LA CADENA DR", "postcode": "92324"}}},
{"geometry": {"type": "Point", "coordinates": [-117.323214681, 34.0717743]}, "type": "Feature", "properties": {"collection_times": [{"days": "Mon-Sat", "time": "2:30pm"}, {"days": "Sun", "time": "Closed"}], "id": "9232400026", "name": "USPS COLLECTION BOX - BLUE BOX", "address": {"city": "COLTON", "state": "CA", "street": "650 N LA CADENA DR", "postcode": "92324"}}},
{"geometry": {"type": "Point", "coordinates": [-117.3070370691, 34.0556877067]}, "type": "Feature", "properties": {"collection_times": [{"days": "Mon-Sat", "time": "2:30pm"}, {"days": "Sun", "time": "Closed"}], "id": "9232400043", "name": "USPS COLLECTION BOX - BLUE BOX", "address": {"city": "COLTON", "state": "CA", "street": "898 VIA LATA", "postcode": "92324"}}},
{"geometry": {"type": "Point", "coordinates": [-117.3257349334, 34.0677752487]}, "type": "Feature", "properties": {"collection_times": [{"days": "Mon-Sat", "time": "5:00pm"}, {"days": "Sun", "time": "Closed"}], "id": "9232400046", "name": "USPS COLLECTION BOX - BLUE BOX", "address": {"city": "COLTON", "state": "CA", "street": "265 N 7TH ST", "postcode": "92324"}}},
{"geometry": {"type": "Point", "coordinates": [-117.3257349334, 34.0677752487]}, "type": "Feature", "properties": {"collection_times": [{"days": "Mon-Sat", "time": "5:00pm"}, {"days": "Sun", "time": "Closed"}], "id": "9232400051", "name": "USPS COLLECTION BOX - BLUE BOX", "address": {"city": "COLTON", "state": "CA", "street": "265 N 7TH ST", "postcode": "92324"}}},
{"geometry": {"type": "Point", "coordinates": [-117.3257349334, 34.0677752487]}, "type": "Feature", "properties": {"collection_times": [{"days": "Mon-Sat", "time": "5:00pm"}, {"days": "Sun", "time": "Closed"}], "id": "9232400052", "name": "USPS COLLECTION BOX - BLUE BOX", "address": {"city": "COLTON", "state": "CA", "street": "265 N 7TH ST", "postcode": "92324"}}},
{"geometry": {"type": "Point", "coordinates": [-117.3257349334, 34.0677752487]}, "type": "Feature", "properties": {"collection_times": [{"days": "Mon-Sat", "time": "5:00pm"}, {"days": "Sun", "time": "Closed"}], "id": "9232400053", "name": "USPS COLLECTION BOX - BLUE BOX", "address": {"city": "COLTON", "state": "CA", "street": "265 N 7TH ST", "postcode": "92324"}}},
{"geometry": {"type": "Point", "coordinates": [-117.3200595635, 34.0613012737]}, "type": "Feature", "properties": {"collection_times": [{"days": "Mon-Sat", "time": "5:00pm"}, {"days": "Sun", "time": "Closed"}], "id": "9232400054", "name": "USPS COLLECTION BOX - EXPRESS", "address": {"city": "COLTON", "state": "CA", "street": "265 N 7TH ST", "postcode": "92324"}}},
{"geometry": {"type": "Point", "coordinates": [-117.3103020507, 34.0482339495]}, "type": "Feature", "properties": {"collection_times": [{"days": "Mon-Sat", "time": "2:30pm"}, {"days": "Sun", "time": "Closed"}], "id": "9232400060", "name": "USPS COLLECTION BOX - BLUE BOX", "address": {"city": "COLTON", "state": "CA", "street": "1080 E WASHINGTON ST", "postcode": "92324"}}},
{"geometry": {"type": "Point", "coordinates": [-117.2812319258, 34.2431166349]}, "type": "Feature", "properties": {"collection_times": [{"days": "Mon-Fri", "time": "4:30pm"}, {"days": "Sat", "time": "3:00pm"}, {"days": "Sun", "time": "Closed"}], "id": "9232500005", "name": "USPS COLLECTION BOX - BLUE BOX", "address": {"city": "CRESTLINE", "state": "CA", "street": "23921 LAKE DR", "postcode": "92325"}}},
{"geometry": {"type": "Point", "coordinates": [-117.2812319258, 34.2431166349]}, "type": "Feature", "properties": {"collection_times": [{"days": "Mon-Fri", "time": "4:30pm"}, {"days": "Sat", "time": "3:00pm"}, {"days": "Sun", "time": "Closed"}], "id": "9232500009", "name": "USPS COLLECTION BOX - BLUE BOX", "address": {"city": "CRESTLINE", "state": "CA", "street": "23921 LAKE DR", "postcode": "92325"}}},
{"geometry": {"type": "Point", "coordinates": [-117.3015102997, 34.2469284691]}, "type": "Feature", "properties": {"collection_times": [{"days": "Mon-Fri", "time": "1:00pm"}, {"days": "Sat", "time": "12:00pm"}, {"days": "Sun", "time": "Closed"}], "id": "9232500012", "name": "USPS COLLECTION BOX - BLUE BOX", "address": {"city": "CRESTLINE", "state": "CA", "street": "23026 WATERS DR", "postcode": "92325"}}},
{"geometry": {"type": "Point", "coordinates": [-117.2812369393, 34.2430919589]}, "type": "Feature", "properties": {"collection_times": [{"days": "Mon-Sat", "time": "4:00pm"}, {"days": "Sun", "time": "Closed"}], "id": "9232500015", "name": "USPS COLLECTION BOX - PO LOBBY", "address": {"city": "CRESTLINE", "state": "CA", "street": "23921 LAKE DR", "postcode": "92325"}}},
{"geometry": {"type": "Point", "coordinates": [-116.8858823992, 34.8620754116]}, "type": "Feature", "properties": {"collection_times": [{"days": "Mon-Sat", "time": "4:30pm"}, {"days": "Sun", "time": "Closed"}], "id": "9232700002", "name": "USPS COLLECTION BOX - BLUE BOX", "address": {"city": "DAGGETT", "state": "CA", "street": "33530 C ST", "postcode": "92327"}}},
{"geometry": {"type": "Point", "coordinates": [-117.1312902489, 36.4221114623]}, "type": "Feature", "properties": {"collection_times": [{"days": "Mon-Sat", "time": "11:00am"}, {"days": "Sun", "time": "Closed"}], "id": "9232800001", "name": "USPS COLLECTION BOX - BLUE BOX", "address": {"city": "DEATH VALLEY", "state": "CA", "street": "328 GREENLAND BLVD", "postcode": "92328"}}},
{"geometry": {"type": "Point", "coordinates": [-116.9452469762, 34.2675904458]}, "type": "Feature", "properties": {"collection_times": [{"days": "Mon-Fri", "time": "4:15pm"}, {"days": "Sat", "time": "9:00am"}, {"days": "Sun", "time": "Closed"}], "id": "9233300001", "name": "USPS COLLECTION BOX - BLUE BOX", "address": {"city": "FAWNSKIN", "state": "CA", "street": "39132 N SHORE DR", "postcode": "92333"}}},
{"geometry": {"type": "Point", "coordinates": [-117.4358076653, 34.0716984363]}, "type": "Feature", "properties": {"collection_times": [{"days": "Mon-Fri", "time": "3:00pm"}, {"days": "Sat", "time": "2:00pm"}, {"days": "Sun", "time": "Closed"}], "id": "9233500026", "name": "USPS COLLECTION BOX - BLUE BOX", "address": {"city": "FONTANA", "state": "CA", "street": "10048 SIERRA AVE", "postcode": "92335"}}},
{"geometry": {"type": "Point", "coordinates": [-117.4163031969, 34.0995260644]}, "type": "Feature", "properties": {"collection_times": [{"days": "Mon-Fri", "time": "3:00pm"}, {"days": "Sat", "time": "2:30pm"}, {"days": "Sun", "time": "Closed"}], "id": "9233500028", "name": "USPS COLLECTION BOX - BLUE BOX", "address": {"city": "FONTANA", "state": "CA", "street": "17780 ARROW BLVD", "postcode": "92335"}}},
{"geometry": {"type": "Point", "coordinates": [-117.4365746395, 34.0993649849]}, "type": "Feature", "properties": {"collection_times": [{"days": "Mon-Fri", "time": "3:00pm"}, {"days": "Sat", "time": "2:30pm"}, {"days": "Sun", "time": "Closed"}], "id": "9233500030", "name": "USPS COLLECTION BOX - BLUE BOX", "address": {"city": "FONTANA", "state": "CA", "street": "16860 ARROW BLVD", "postcode": "92335"}}},
{"geometry": {"type": "Point", "coordinates": [-117.4357595808, 34.1032119674]}, "type": "Feature", "properties": {"collection_times": [{"days": "Mon-Fri", "time": "5:00pm"}, {"days": "Sat", "time": "3:00pm"}, {"days": "Sun", "time": "Closed"}], "id": "9233500042", "name": "USPS COLLECTION BOX - BLUE BOX", "address": {"city": "FONTANA", "state": "CA", "street": "8282 SIERRA AVE", "postcode": "92335"}}},
{"geometry": {"type": "Point", "coordinates": [-117.4357595808, 34.1032119674]}, "type": "Feature", "properties": {"collection_times": [{"days": "Mon-Fri", "time": "5:00pm"}, {"days": "Sat", "time": "3:00pm"}, {"days": "Sun", "time": "Closed"}], "id": "9233500043", "name": "USPS COLLECTION BOX - BLUE BOX", "address": {"city": "FONTANA", "state": "CA", "street": "8282 SIERRA AVE", "postcode": "92335"}}},
{"geometry": {"type": "Point", "coordinates": [-117.4357595808, 34.1032119674]}, "type": "Feature", "properties": {"collection_times": [{"days": "Mon-Fri", "time": "5:30pm"}, {"days": "Sat", "time": "3:30pm"}, {"days": "Sun", "time": "Closed"}], "id": "9233500046", "name": "USPS COLLECTION BOX - APC", "address": {"city": "FONTANA", "state": "CA", "street": "8282 SIERRA AVE", "postcode": "92335"}}},
{"geometry": {"type": "Point", "coordinates": [-117.4348191284, 34.1066378166]}, "type": "Feature", "properties": {"collection_times": [{"days": "Mon-Fri", "time": "3:00pm"}, {"days": "Sat", "time": "2:30pm"}, {"days": "Sun", "time": "Closed"}], "id": "9233600000", "name": "USPS COLLECTION BOX - BLUE BOX", "address": {"city": "FONTANA", "state": "CA", "street": "16900 FOOTHILL BLVD", "postcode": "92336"}}},
{"geometry": {"type": "Point", "coordinates": [-117.4871645563, 34.0427645097]}, "type": "Feature", "properties": {"collection_times": [{"days": "Mon-Fri", "time": "3:00pm"}, {"days": "Sat", "time": "1:45pm"}, {"days": "Sun", "time": "Closed"}], "id": "9233700000", "name": "USPS COLLECTION BOX - BLUE BOX", "address": {"city": "FONTANA", "state": "CA", "street": "11647 CHERRY AVE", "postcode": "92337"}}},
{"geometry": {"type": "Point", "coordinates": [-117.4986149225, 34.0385537963]}, "type": "Feature", "properties": {"collection_times": [{"days": "Mon-Fri", "time": "2:30pm"}, {"days": "Sat", "time": "1:45pm"}, {"days": "Sun", "time": "Closed"}], "id": "9233700001", "name": "USPS COLLECTION BOX - BLUE BOX", "address": {"city": "FONTANA", "state": "CA", "street": "14050 CHERRY AVE", "postcode": "92337"}}},
{"geometry": {"type": "Point", "coordinates": [-117.4451549162, 34.0557565414]}, "type": "Feature", "properties": {"collection_times": [{"days": "Mon-Fri", "time": "5:00pm"}, {"days": "Sat", "time": "3:00pm"}, {"days": "Sun", "time": "Closed"}], "id": "9233700009", "name": "USPS COLLECTION BOX - BLUE BOX", "address": {"city": "FONTANA", "state": "CA", "street": "16731 SANTA ANA AVE", "postcode": "92337"}}},
{"geometry": {"type": "Point", "coordinates": [-117.4451549162, 34.0557565414]}, "type": "Feature", "properties": {"collection_times": [{"days": "Mon-Fri", "time": "5:00pm"}, {"days": "Sat", "time": "3:00pm"}, {"days": "Sun", "time": "Closed"}], "id": "9233700010", "name": "USPS COLLECTION BOX - BLUE BOX", "address": {"city": "FONTANA", "state": "CA", "street": "16731 SANTA ANA AVE", "postcode": "92337"}}},
{"geometry": {"type": "Point", "coordinates": [-116.7707120621, 34.079472827]}, "type": "Feature", "properties": {"collection_times": [{"days": "Mon-Fri", "time": "2:00pm"}, {"days": "Sat", "time": "10:30am"}, {"days": "Sun", "time": "Closed"}], "id": "9233900003", "name": "USPS COLLECTION BOX - BLUE BOX", "address": {"city": "FOREST FALLS", "state": "CA", "street": "40555 VALLEY OF FALLS DR", "postcode": "92339"}}},
{"geometry": {"type": "Point", "coordinates": [-117.3347666762, 34.7439282541]}, "type": "Feature", "properties": {"collection_times": [{"days": "Mon-Fri", "time": "4:30pm"}, {"days": "Sat", "time": "12:30pm"}, {"days": "Sun", "time": "Closed"}], "id": "9234200003", "name": "USPS COLLECTION BOX - BLUE BOX", "address": {"city": "HELENDALE", "state": "CA", "street": "27072 HELENDALE RD", "postcode": "92342"}}},
{"geometry": {"type": "Point", "coordinates": [-117.28997, 34.416237]}, "type": "Feature", "properties": {"collection_times": [{"days": "Mon-Sat", "time": "5:00pm"}, {"days": "Sun", "time": "Closed"}], "id": "9234500005", "name": "USPS COLLECTION BOX - BLUE BOX", "address": {"city": "HESPERIA", "state": "CA", "street": "17240 OLIVE ST", "postcode": "92345"}}},
{"geometry": {"type": "Point", "coordinates": [-117.3148982719, 34.4274482651]}, "type": "Feature", "properties": {"collection_times": [{"days": "Mon-Sat", "time": "1:00pm"}, {"days": "Sun", "time": "Closed"}], "id": "9234500014", "name": "USPS COLLECTION BOX - BLUE BOX", "address": {"city": "HESPERIA", "state": "CA", "street": "9700 7TH AVE", "postcode": "92345"}}},
{"geometry": {"type": "Point", "coordinates": [-117.3460617173, 34.426790282]}, "type": "Feature", "properties": {"collection_times": [{"days": "Mon-Sat", "time": "12:30pm"}, {"days": "Sun", "time": "Closed"}], "id": "9234500015", "name": "USPS COLLECTION BOX - BLUE BOX", "address": {"city": "HESPERIA", "state": "CA", "street": "14519 MAIN ST", "postcode": "92345"}}},
{"geometry": {"type": "Point", "coordinates": [-117.2877801727, 34.4159520184]}, "type": "Feature", "properties": {"collection_times": [{"days": "Mon-Sat", "time": "5:00pm"}, {"days": "Sun", "time": "Closed"}], "id": "9234500021", "name": "USPS COLLECTION BOX - BLUE BOX", "address": {"city": "HESPERIA", "state": "CA", "street": "17240 OLIVE ST", "postcode": "92345"}}},
{"geometry": {"type": "Point", "coordinates": [-117.2877801727, 34.4159520184]}, "type": "Feature", "properties": {"collection_times": [{"days": "Mon-Sat", "time": "5:00pm"}, {"days": "Sun", "time": "Closed"}], "id": "9234500022", "name": "USPS COLLECTION BOX - BLUE BOX", "address": {"city": "HESPERIA", "state": "CA", "street": "17240 OLIVE ST", "postcode": "92345"}}},
{"geometry": {"type": "Point", "coordinates": [-117.2877801727, 34.4159520184]}, "type": "Feature", "properties": {"collection_times": [{"days": "Mon-Sat", "time": "5:00pm"}, {"days": "Sun", "time": "Closed"}], "id": "9234500023", "name": "USPS COLLECTION BOX - BLUE BOX", "address": {"city": "HESPERIA", "state": "CA", "street": "17240 OLIVE ST", "postcode": "92345"}}},
{"geometry": {"type": "Point", "coordinates": [-117.2811113553, 34.3999974444]}, "type": "Feature", "properties": {"collection_times": [{"days": "Mon-Sat", "time": "12:00pm"}, {"days": "Sun", "time": "Closed"}], "id": "9234500026", "name": "USPS COLLECTION BOX - BLUE BOX", "address": {"city": "HESPERIA", "state": "CA", "street": "8197 I AVE", "postcode": "92345"}}},
{"geometry": {"type": "Point", "coordinates": [-117.3190949847, 34.4241250754]}, "type": "Feature", "properties": {"collection_times": [{"days": "Mon-Sat", "time": "1:00pm"}, {"days": "Sun", "time": "Closed"}], "id": "9234500027", "name": "USPS COLLECTION BOX - BLUE BOX", "address": {"city": "HESPERIA", "state": "CA", "street": "15776 MAIN ST", "postcode": "92345"}}},
{"geometry": {"type": "Point", "coordinates": [-117.3198414318, 34.4242350906]}, "type": "Feature", "properties": {"collection_times": [{"days": "Mon-Sat", "time": "1:00pm"}, {"days": "Sun", "time": "Closed"}], "id": "9234500028", "name": "USPS COLLECTION BOX - BLUE BOX", "address": {"city": "HESPERIA", "state": "CA", "street": "15755 MAIN ST", "postcode": "92345"}}},
{"geometry": {"type": "Point", "coordinates": [-117.2877801727, 34.4159520184]}, "type": "Feature", "properties": {"collection_times": [{"days": "Mon-Sat", "time": "5:00pm"}, {"days": "Sun", "time": "Closed"}], "id": "9234500032", "name": "USPS COLLECTION BOX - APC", "address": {"city": "HESPERIA", "state": "CA", "street": "17240 OLIVE ST", "postcode": "92345"}}},
{"geometry": {"type": "Point", "coordinates": [-117.2119131212, 34.1212004817]}, "type": "Feature", "properties": {"collection_times": [{"days": "Mon-Sat", "time": "3:00pm"}, {"days": "Sun", "time": "Closed"}], "id": "9234600010", "name": "USPS COLLECTION BOX - BLUE BOX", "address": {"city": "HIGHLAND", "state": "CA", "street": "27167 BASELINE ST", "postcode": "92346"}}},
{"geometry": {"type": "Point", "coordinates": [-117.1954331864, 34.1236783405]}, "type": "Feature", "properties": {"collection_times": [{"days": "Mon-Sat", "time": "3:00pm"}, {"days": "Sun", "time": "Closed"}], "id": "9234600012", "name": "USPS COLLECTION BOX - BLUE BOX", "address": {"city": "HIGHLAND", "state": "CA", "street": "7201 BOULDER AVE", "postcode": "92346"}}},
{"geometry": {"type": "Point", "coordinates": [-117.2165146981, 34.1212580064]}, "type": "Feature", "properties": {"collection_times": [{"days": "Mon-Sat", "time": "3:00pm"}, {"days": "Sun", "time": "Closed"}], "id": "9234600013", "name": "USPS COLLECTION BOX - BLUE BOX", "address": {"city": "HIGHLAND", "state": "CA", "street": "26940 BASELINE ST", "postcode": "92346"}}},
{"geometry": {"type": "Point", "coordinates": [-117.2119131212, 34.1212004817]}, "type": "Feature", "properties": {"collection_times": [{"days": "Mon-Sat", "time": "3:00pm"}, {"days": "Sun", "time": "Closed"}], "id": "9234600016", "name": "USPS COLLECTION BOX - BLUE BOX", "address": {"city": "HIGHLAND", "state": "CA", "street": "27167 BASELINE ST", "postcode": "92346"}}},
{"geometry": {"type": "Point", "coordinates": [-117.2087661133, 34.1349225765]}, "type": "Feature", "properties": {"collection_times": [{"days": "Mon-Sat", "time": "3:00pm"}, {"days": "Sun", "time": "Closed"}], "id": "9234600020", "name": "USPS COLLECTION BOX - BLUE BOX", "address": {"city": "HIGHLAND", "state": "CA", "street": "2116 PALM AVE", "postcode": "92346"}}},
{"geometry": {"type": "Point", "coordinates": [-117.1956875225, 34.1358119506]}, "type": "Feature", "properties": {"collection_times": [{"days": "Mon-Sat", "time": "3:00pm"}, {"days": "Sun", "time": "Closed"}], "id": "9234600023", "name": "USPS COLLECTION BOX - BLUE BOX", "address": {"city": "HIGHLAND", "state": "CA", "street": "4210 HIGHLAND AVE", "postcode": "92346"}}},
{"geometry": {"type": "Point", "coordinates": [-117.1894587661, 34.1134761574]}, "type": "Feature", "properties": {"collection_times": [{"days": "Mon-Fri", "time": "5:00pm"}, {"days": "Sat", "time": "4:15pm"}, {"days": "Sun", "time": "Closed"}], "id": "9234600027", "name": "USPS COLLECTION BOX - BLUE BOX", "address": {"city": "HIGHLAND", "state": "CA", "street": "7745 BOULDER AVE", "postcode": "92346"}}},
{"geometry": {"type": "Point", "coordinates": [-117.1897464722, 34.2493269163]}, "type": "Feature", "properties": {"collection_times": [{"days": "Mon-Fri", "time": "4:30pm"}, {"days": "Sat", "time": "3:00pm"}, {"days": "Sun", "time": "Closed"}], "id": "9235200001", "name": "USPS COLLECTION BOX - BLUE BOX", "address": {"city": "LAKE ARROWHEAD", "state": "CA", "street": "28150 HIGHWAY 189", "postcode": "92352"}}},
{"geometry": {"type": "Point", "coordinates": [-117.1897464722, 34.2493269163]}, "type": "Feature", "properties": {"collection_times": [{"days": "Mon-Fri", "time": "4:30pm"}, {"days": "Sat", "time": "3:00pm"}, {"days": "Sun", "time": "Closed"}], "id": "9235200003", "name": "USPS COLLECTION BOX - PO LOBBY", "address": {"city": "LAKE ARROWHEAD", "state": "CA", "street": "28150 HIGHWAY 189", "postcode": "92352"}}},
{"geometry": {"type": "Point", "coordinates": [-117.1897464722, 34.2493269163]}, "type": "Feature", "properties": {"collection_times": [{"days": "Mon-Fri", "time": "4:30pm"}, {"days": "Sat", "time": "3:00pm"}, {"days": "Sun", "time": "Closed"}], "id": "9235200006", "name": "USPS COLLECTION BOX - BLUE BOX", "address": {"city": "LAKE ARROWHEAD", "state": "CA", "street": "28150 HIGHWAY 189", "postcode": "92352"}}},
{"geometry": {"type": "Point", "coordinates": [-117.2217668491, 34.2648039513]}, "type": "Feature", "properties": {"collection_times": [{"days": "Mon-Sat", "time": "5:00pm"}, {"days": "Sun", "time": "Closed"}], "id": "9235200007", "name": "USPS COLLECTION BOX - PO LOBBY", "address": {"city": "LAKE ARROWHEAD", "state": "CA", "street": "28150 HIGHWAY 189", "postcode": "92352"}}},
{"geometry": {"type": "Point", "coordinates": [-117.2611075192, 34.0474200737]}, "type": "Feature", "properties": {"collection_times": [{"days": "Mon-Fri", "time": "3:00pm"}, {"days": "Sat-Sun", "time": "Closed"}], "id": "9235400001", "name": "USPS COLLECTION BOX - BLUE BOX", "address": {"city": "LOMA LINDA", "state": "CA", "street": "11370 ANDERSON ST", "postcode": "92354"}}},
{"geometry": {"type": "Point", "coordinates": [-117.2611157999, 34.0496665128]}, "type": "Feature", "properties": {"collection_times": [{"days": "Mon-Fri", "time": "3:00pm"}, {"days": "Sat-Sun", "time": "Closed"}], "id": "9235400002", "name": "USPS COLLECTION BOX - BLUE BOX", "address": {"city": "LOMA LINDA", "state": "CA", "street": "11234 ANDERSON ST", "postcode": "92354"}}},
{"geometry": {"type": "Point", "coordinates": [-117.2523296177, 34.051994272]}, "type": "Feature", "properties": {"collection_times": [{"days": "Mon-Fri", "time": "3:00pm"}, {"days": "Sat-Sun", "time": "Closed"}], "id": "9235400004", "name": "USPS COLLECTION BOX - BLUE BOX", "address": {"city": "LOMA LINDA", "state": "CA", "street": "25280 PROSPECT AVE", "postcode": "92354"}}},
{"geometry": {"type": "Point", "coordinates": [-117.2468254818, 34.0482204185]}, "type": "Feature", "properties": {"collection_times": [{"days": "Mon-Fri", "time": "3:00pm"}, {"days": "Sat-Sun", "time": "Closed"}], "id": "9235400009", "name": "USPS COLLECTION BOX - BLUE BOX", "address": {"city": "LOMA LINDA", "state": "CA", "street": "25581 BARTON RD", "postcode": "92354"}}},
{"geometry": {"type": "Point", "coordinates": [-117.2440177077, 34.0629777881]}, "type": "Feature", "properties": {"collection_times": [{"days": "Mon-Fri", "time": "3:00pm"}, {"days": "Sat-Sun", "time": "Closed"}], "id": "9235400012", "name": "USPS COLLECTION BOX - BLUE BOX", "address": {"city": "LOMA LINDA", "state": "CA", "street": "25685 REDLANDS BLVD", "postcode": "92354"}}},
{"geometry": {"type": "Point", "coordinates": [-117.2527828094, 34.0480233841]}, "type": "Feature", "properties": {"collection_times": [{"days": "Mon-Fri", "time": "3:00pm"}, {"days": "Sat-Sun", "time": "Closed"}], "id": "9235400016", "name": "USPS COLLECTION BOX - BLUE BOX", "address": {"city": "LOMA LINDA", "state": "CA", "street": "25271 BARTON RD", "postcode": "92354"}}},
{"geometry": {"type": "Point", "coordinates": [-117.2611075192, 34.0474200737]}, "type": "Feature", "properties": {"collection_times": [{"days": "Mon-Fri", "time": "3:00pm"}, {"days": "Sat-Sun", "time": "Closed"}], "id": "9235400021", "name": "USPS COLLECTION BOX - BLUE BOX", "address": {"city": "LOMA LINDA", "state": "CA", "street": "11370 ANDERSON ST", "postcode": "92354"}}},
{"geometry": {"type": "Point", "coordinates": [-117.2436003374, 34.050895074]}, "type": "Feature", "properties": {"collection_times": [{"days": "Mon-Fri", "time": "3:00pm"}, {"days": "Sat-Sun", "time": "Closed"}], "id": "9235400024", "name": "USPS COLLECTION BOX - BLUE BOX", "address": {"city": "LOMA LINDA", "state": "CA", "street": "11175 MOUNTAIN VIEW AVE", "postcode": "92354"}}},
{"geometry": {"type": "Point", "coordinates": [-117.2470700247, 34.0485036978]}, "type": "Feature", "properties": {"collection_times": [{"days": "Mon-Fri", "time": "3:00pm"}, {"days": "Sat-Sun", "time": "Closed"}], "id": "9235400027", "name": "USPS COLLECTION BOX - BLUE BOX", "address": {"city": "LOMA LINDA", "state": "CA", "street": "25612 BARTON RD", "postcode": "92354"}}},
{"geometry": {"type": "Point", "coordinates": [-117.2611075192, 34.0474200737]}, "type": "Feature", "properties": {"collection_times": [{"days": "Mon-Fri", "time": "3:00pm"}, {"days": "Sat-Sun", "time": "Closed"}], "id": "9235400031", "name": "USPS COLLECTION BOX - BLUE BOX", "address": {"city": "LOMA LINDA", "state": "CA", "street": "11370 ANDERSON ST", "postcode": "92354"}}},
{"geometry": {"type": "Point", "coordinates": [-117.2744359179, 34.0500781825]}, "type": "Feature", "properties": {"collection_times": [{"days": "Mon-Fri", "time": "3:00pm"}, {"days": "Sat-Sun", "time": "Closed"}], "id": "9235400036", "name": "USPS COLLECTION BOX - BLUE BOX", "address": {"city": "LOMA LINDA", "state": "CA", "street": "11171 OAKWOOD DR", "postcode": "92354"}}},
{"geometry": {"type": "Point", "coordinates": [-117.2725727575, 34.0520158693]}, "type": "Feature", "properties": {"collection_times": [{"days": "Mon-Fri", "time": "3:00pm"}, {"days": "Sat-Sun", "time": "Closed"}], "id": "9235400037", "name": "USPS COLLECTION BOX - BLUE BOX", "address": {"city": "LOMA LINDA", "state": "CA", "street": "24414 UNIVERSITY AVE", "postcode": "92354"}}},
{"geometry": {"type": "Point", "coordinates": [-117.2501651488, 34.0480860796]}, "type": "Feature", "properties": {"collection_times": [{"days": "Mon-Fri", "time": "3:00pm"}, {"days": "Sat-Sun", "time": "Closed"}], "id": "9235400038", "name": "USPS COLLECTION BOX - BLUE BOX", "address": {"city": "LOMA LINDA", "state": "CA", "street": "25455 BARTON RD", "postcode": "92354"}}},
{"geometry": {"type": "Point", "coordinates": [-117.2611075192, 34.0474200737]}, "type": "Feature", "properties": {"collection_times": [{"days": "Mon-Fri", "time": "3:00pm"}, {"days": "Sat-Sun", "time": "Closed"}], "id": "9235400039", "name": "USPS COLLECTION BOX - BLUE BOX", "address": {"city": "LOMA LINDA", "state": "CA", "street": "11370 ANDERSON ST", "postcode": "92354"}}},
{"geometry": {"type": "Point", "coordinates": [-117.2381745416, 34.0482238565]}, "type": "Feature", "properties": {"collection_times": [{"days": "Mon-Fri", "time": "5:00pm"}, {"days": "Sat-Sun", "time": "Closed"}], "id": "9235400041", "name": "USPS COLLECTION BOX - BLUE BOX", "address": {"city": "LOMA LINDA", "state": "CA", "street": "25925 BARTON RD", "postcode": "92354"}}},
{"geometry": {"type": "Point", "coordinates": [-117.2381745416, 34.0482238565]}, "type": "Feature", "properties": {"collection_times": [{"days": "Mon-Fri", "time": "5:00pm"}, {"days": "Sat-Sun", "time": "Closed"}], "id": "9235400042", "name": "USPS COLLECTION BOX - BLUE BOX", "address": {"city": "LOMA LINDA", "state": "CA", "street": "25925 BARTON RD", "postcode": "92354"}}},
{"geometry": {"type": "Point", "coordinates": [-116.9454408342, 34.4397448656]}, "type": "Feature", "properties": {"collection_times": [{"days": "Mon-Fri", "time": "3:00pm"}, {"days": "Sat", "time": "2:15pm"}, {"days": "Sun", "time": "Closed"}], "id": "9235600002", "name": "USPS COLLECTION BOX - BLUE BOX", "address": {"city": "LUCERNE VALLEY", "state": "CA", "street": "32946 STATE HIGHWAY 18", "postcode": "92356"}}},
{"geometry": {"type": "Point", "coordinates": [-117.4947440569, 34.2462586532]}, "type": "Feature", "properties": {"collection_times": [{"days": "Mon-Sat", "time": "12:15pm"}, {"days": "Sun", "time": "Closed"}], "id": "9235800001", "name": "USPS COLLECTION BOX - BLUE BOX", "address": {"city": "LYTLE CREEK", "state": "CA", "street": "375 VALLEY VISTA DR", "postcode": "92358"}}},
{"geometry": {"type": "Point", "coordinates": [-117.4947440569, 34.2462586532]}, "type": "Feature", "properties": {"collection_times": [{"days": "Mon-Sat", "time": "12:15pm"}, {"days": "Sun", "time": "Closed"}], "id": "9235800002", "name": "USPS COLLECTION BOX - PO LOBBY", "address": {"city": "LYTLE CREEK", "state": "CA", "street": "375 VALLEY VISTA DR", "postcode": "92358"}}},
{"geometry": {"type": "Point", "coordinates": [-117.1323451745, 34.0699882438]}, "type": "Feature", "properties": {"collection_times": [{"days": "Mon-Fri", "time": "5:00pm"}, {"days": "Sat", "time": "2:00pm"}, {"days": "Sun", "time": "Closed"}], "id": "9235900002", "name": "USPS COLLECTION BOX - BLUE BOX", "address": {"city": "MENTONE", "state": "CA", "street": "1842 MENTONE BLVD", "postcode": "92359"}}},
{"geometry": {"type": "Point", "coordinates": [-117.118269956, 34.0697910107]}, "type": "Feature", "properties": {"collection_times": [{"days": "Mon-Sat", "time": "10:00am"}, {"days": "Sun", "time": "Closed"}], "id": "9235900004", "name": "USPS COLLECTION BOX - BLUE BOX", "address": {"city": "MENTONE", "state": "CA", "street": "2140 MENTONE BLVD", "postcode": "92359"}}},
{"geometry": {"type": "Point", "coordinates": [-117.1124074056, 34.0723506227]}, "type": "Feature", "properties": {"collection_times": [{"days": "Mon-Fri", "time": "5:00pm"}, {"days": "Sat", "time": "4:45pm"}, {"days": "Sun", "time": "Closed"}], "id": "9235900008", "name": "USPS COLLECTION BOX - PO LOBBY", "address": {"city": "MENTONE", "state": "CA", "street": "1842 MENTONE BLVD", "postcode": "92359"}}},
{"geometry": {"type": "Point", "coordinates": [-114.604032631, 34.8370522806]}, "type": "Feature", "properties": {"collection_times": [{"days": "Mon-Sat", "time": "1:30pm"}, {"days": "Sun", "time": "Closed"}], "id": "9236300002", "name": "USPS COLLECTION BOX - BLUE BOX", "address": {"city": "NEEDLES", "state": "CA", "street": "628 3RD ST", "postcode": "92363"}}},
{"geometry": {"type": "Point", "coordinates": [-114.6061051751, 34.8464059372]}, "type": "Feature", "properties": {"collection_times": [{"days": "Mon-Sat", "time": "11:30am"}, {"days": "Sun", "time": "Closed"}], "id": "9236300003", "name": "USPS COLLECTION BOX - BLUE BOX", "address": {"city": "NEEDLES", "state": "CA", "street": "100 MARINA DR", "postcode": "92363"}}},
{"geometry": {"type": "Point", "coordinates": [-114.6081280349, 34.8403491873]}, "type": "Feature", "properties": {"collection_times": [{"days": "Mon-Sat", "time": "1:00pm"}, {"days": "Sun", "time": "Closed"}], "id": "9236300004", "name": "USPS COLLECTION BOX - BLUE BOX", "address": {"city": "NEEDLES", "state": "CA", "street": "1101 W BROADWAY ST", "postcode": "92363"}}},
{"geometry": {"type": "Point", "coordinates": [-114.5963309027, 34.8252365095]}, "type": "Feature", "properties": {"collection_times": [{"days": "Mon-Sat", "time": "10:30am"}, {"days": "Sun", "time": "Closed"}], "id": "9236300005", "name": "USPS COLLECTION BOX - BLUE BOX", "address": {"city": "NEEDLES", "state": "CA", "street": "1040 E BROADWAY ST", "postcode": "92363"}}},
{"geometry": {"type": "Point", "coordinates": [-116.6628854824, 34.8239205705]}, "type": "Feature", "properties": {"collection_times": [{"days": "Mon-Sat", "time": "4:00pm"}, {"days": "Sun", "time": "Closed"}], "id": "9236500001", "name": "USPS COLLECTION BOX - BLUE BOX", "address": {"city": "NEWBERRY SPGS", "state": "CA", "street": "31411 NEWBERRY RD", "postcode": "92365"}}},
{"geometry": {"type": "Point", "coordinates": [-116.687357447, 34.8581624688]}, "type": "Feature", "properties": {"collection_times": [{"days": "Mon-Sat", "time": "3:00pm"}, {"days": "Sun", "time": "Closed"}], "id": "9236500003", "name": "USPS COLLECTION BOX - BLUE BOX", "address": {"city": "NEWBERRY SPGS", "state": "CA", "street": "30000 CRUCERO RD", "postcode": "92365"}}},
{"geometry": {"type": "Point", "coordinates": [-117.3345042082, 34.5992810776]}, "type": "Feature", "properties": {"collection_times": [{"days": "Mon-Fri", "time": "4:00pm"}, {"days": "Sat", "time": "10:00am"}, {"days": "Sun", "time": "Closed"}], "id": "9236800002", "name": "USPS COLLECTION BOX - BLUE BOX", "address": {"city": "ORO GRANDE", "state": "CA", "street": "15155 OLIVE ST", "postcode": "92368"}}},
{"geometry": {"type": "Point", "coordinates": [-117.223, 34.1358]}, "type": "Feature", "properties": {"collection_times": [{"days": "Mon-Fri", "time": "3:30pm"}, {"days": "Sat", "time": "3:45pm"}, {"days": "Sun", "time": "Closed"}], "id": "9236900001", "name": "USPS COLLECTION BOX - PO LOBBY", "address": {"city": "PATTON", "state": "CA", "street": "2592 E HIGHLAND AVE", "postcode": "92369"}}},
{"geometry": {"type": "Point", "coordinates": [-117.5409977606, 34.4560703648]}, "type": "Feature", "properties": {"collection_times": [{"days": "Mon-Sat", "time": "3:00pm"}, {"days": "Sun", "time": "Closed"}], "id": "9237100002", "name": "USPS COLLECTION BOX - BLUE BOX", "address": {"city": "PHELAN", "state": "CA", "street": "9782 CLOVIS RD", "postcode": "92371"}}},
{"geometry": {"type": "Point", "coordinates": [-117.5409977606, 34.4560703648]}, "type": "Feature", "properties": {"collection_times": [{"days": "Mon-Sat", "time": "3:00pm"}, {"days": "Sun", "time": "Closed"}], "id": "9237100003", "name": "USPS COLLECTION BOX - BLUE BOX", "address": {"city": "PHELAN", "state": "CA", "street": "9782 CLOVIS RD", "postcode": "92371"}}},
{"geometry": {"type": "Point", "coordinates": [-117.6426626527, 34.4385607237]}, "type": "Feature", "properties": {"collection_times": [{"days": "Mon-Fri", "time": "2:30pm"}, {"days": "Sat", "time": "1:00pm"}, {"days": "Sun", "time": "Closed"}], "id": "9237200002", "name": "USPS COLLECTION BOX - BLUE BOX", "address": {"city": "PINON HILLS", "state": "CA", "street": "10353 OASIS RD", "postcode": "92372"}}},
{"geometry": {"type": "Point", "coordinates": [-117.1802144193, 34.0564259403]}, "type": "Feature", "properties": {"collection_times": [{"days": "Mon-Sat", "time": "4:00pm"}, {"days": "Sun", "time": "Closed"}], "id": "9237300001", "name": "USPS COLLECTION BOX - BLUE BOX", "address": {"city": "REDLANDS", "state": "CA", "street": "202 E STATE ST", "postcode": "92373"}}},
{"geometry": {"type": "Point", "coordinates": [-117.1816020301, 34.0555505507]}, "type": "Feature", "properties": {"collection_times": [{"days": "Mon-Sat", "time": "4:15pm"}, {"days": "Sun", "time": "Closed"}], "id": "9237300002", "name": "USPS COLLECTION BOX - BLUE BOX", "address": {"city": "REDLANDS", "state": "CA", "street": "31 E CITRUS AVE", "postcode": "92373"}}},
{"geometry": {"type": "Point", "coordinates": [-117.1807041643, 34.0546242938]}, "type": "Feature", "properties": {"collection_times": [{"days": "Mon-Sat", "time": "4:00pm"}, {"days": "Sun", "time": "Closed"}], "id": "9237300007", "name": "USPS COLLECTION BOX - BLUE BOX", "address": {"city": "REDLANDS", "state": "CA", "street": "147 E VINE ST", "postcode": "92373"}}},
{"geometry": {"type": "Point", "coordinates": [-117.195618979, 34.0578147]}, "type": "Feature", "properties": {"collection_times": [{"days": "Mon-Fri", "time": "5:00pm"}, {"days": "Sat", "time": "4:30pm"}, {"days": "Sun", "time": "Closed"}], "id": "9237300013", "name": "USPS COLLECTION BOX - BLUE BOX", "address": {"city": "REDLANDS", "state": "CA", "street": "404 NEW YORK ST", "postcode": "92373"}}},
{"geometry": {"type": "Point", "coordinates": [-117.1773790688, 34.0555587936]}, "type": "Feature", "properties": {"collection_times": [{"days": "Mon-Sat", "time": "4:00pm"}, {"days": "Sun", "time": "Closed"}], "id": "9237300016", "name": "USPS COLLECTION BOX - BLUE BOX", "address": {"city": "REDLANDS", "state": "CA", "street": "425 E CITRUS AVE", "postcode": "92373"}}},
{"geometry": {"type": "Point", "coordinates": [-117.1842998666, 34.0429827306]}, "type": "Feature", "properties": {"collection_times": [{"days": "Mon-Sat", "time": "4:15pm"}, {"days": "Sun", "time": "Closed"}], "id": "9237300018", "name": "USPS COLLECTION BOX - EXPRESS", "address": {"city": "REDLANDS", "state": "CA", "street": "220 E STATE ST", "postcode": "92373"}}},
{"geometry": {"type": "Point", "coordinates": [-117.1855581528, 34.0553142553]}, "type": "Feature", "properties": {"collection_times": [{"days": "Mon-Fri", "time": "5:00pm"}, {"days": "Sat", "time": "4:30pm"}, {"days": "Sun", "time": "Closed"}], "id": "9237300042", "name": "USPS COLLECTION BOX - EXPRESS", "address": {"city": "REDLANDS", "state": "CA", "street": "201 BROOKSIDE AVE", "postcode": "92373"}}},
{"geometry": {"type": "Point", "coordinates": [-117.195618979, 34.0578147]}, "type": "Feature", "properties": {"collection_times": [{"days": "Mon-Fri", "time": "5:00pm"}, {"days": "Sat", "time": "4:30pm"}, {"days": "Sun", "time": "Closed"}], "id": "9237300044", "name": "USPS COLLECTION BOX - BLUE BOX", "address": {"city": "REDLANDS", "state": "CA", "street": "404 NEW YORK ST", "postcode": "92373"}}},
{"geometry": {"type": "Point", "coordinates": [-117.195618979, 34.0578147]}, "type": "Feature", "properties": {"collection_times": [{"days": "Mon-Fri", "time": "5:00pm"}, {"days": "Sat", "time": "4:30pm"}, {"days": "Sun", "time": "Closed"}], "id": "9237300045", "name": "USPS COLLECTION BOX - BLUE BOX", "address": {"city": "REDLANDS", "state": "CA", "street": "404 NEW YORK ST", "postcode": "92373"}}},
{"geometry": {"type": "Point", "coordinates": [-117.1956725535, 34.057820576]}, "type": "Feature", "properties": {"collection_times": [{"days": "Mon-Fri", "time": "5:00pm"}, {"days": "Sat", "time": "4:30pm"}, {"days": "Sun", "time": "Closed"}], "id": "9237300046", "name": "USPS COLLECTION BOX - BLUE BOX", "address": {"city": "REDLANDS", "state": "CA", "street": "404 NEW YORK ST", "postcode": "92373"}}},
{"geometry": {"type": "Point", "coordinates": [-117.1795850851, 34.0564200256]}, "type": "Feature", "properties": {"collection_times": [{"days": "Mon-Sat", "time": "4:15pm"}, {"days": "Sun", "time": "Closed"}], "id": "9237300048", "name": "USPS COLLECTION BOX - BLUE BOX", "address": {"city": "REDLANDS", "state": "CA", "street": "220 E STATE ST", "postcode": "92373"}}},
{"geometry": {"type": "Point", "coordinates": [-117.1842998666, 34.0429827306]}, "type": "Feature", "properties": {"collection_times": [{"days": "Mon-Fri", "time": "4:45pm"}, {"days": "Sat", "time": "4:30pm"}, {"days": "Sun", "time": "Closed"}], "id": "9237300055", "name": "USPS COLLECTION BOX - EXPRESS", "address": {"city": "REDLANDS", "state": "CA", "street": "404 NEW YORK ST", "postcode": "92373"}}},
{"geometry": {"type": "Point", "coordinates": [-117.1817368875, 34.0573557461]}, "type": "Feature", "properties": {"collection_times": [{"days": "Mon-Sat", "time": "4:30pm"}, {"days": "Sun", "time": "Closed"}], "id": "9237300057", "name": "USPS COLLECTION BOX - BLUE BOX", "address": {"city": "REDLANDS", "state": "CA", "street": "21 E REDLANDS BLVD", "postcode": "92373"}}},
{"geometry": {"type": "Point", "coordinates": [-117.1562615402, 34.0628666761]}, "type": "Feature", "properties": {"collection_times": [{"days": "Mon-Sat", "time": "3:00pm"}, {"days": "Sun", "time": "Closed"}], "id": "9237400006", "name": "USPS COLLECTION BOX - BLUE BOX", "address": {"city": "REDLANDS", "state": "CA", "street": "1403 E COLTON AVE", "postcode": "92374"}}},
{"geometry": {"type": "Point", "coordinates": [-117.2038017328, 34.0644757142]}, "type": "Feature", "properties": {"collection_times": [{"days": "Mon-Sat", "time": "4:00pm"}, {"days": "Sun", "time": "Closed"}], "id": "9237400009", "name": "USPS COLLECTION BOX - BLUE BOX", "address": {"city": "REDLANDS", "state": "CA", "street": "1404 INDUSTRIAL PARK AVE", "postcode": "92374"}}},
{"geometry": {"type": "Point", "coordinates": [-117.2135300926, 34.0678202011]}, "type": "Feature", "properties": {"collection_times": [{"days": "Mon-Sat", "time": "4:00pm"}, {"days": "Sun", "time": "Closed"}], "id": "9237400013", "name": "USPS COLLECTION BOX - BLUE BOX", "address": {"city": "REDLANDS", "state": "CA", "street": "1722 ORANGE TREE LN", "postcode": "92374"}}},
{"geometry": {"type": "Point", "coordinates": [-117.2135793982, 34.0678278117]}, "type": "Feature", "properties": {"collection_times": [{"days": "Mon-Sat", "time": "4:00pm"}, {"days": "Sun", "time": "Closed"}], "id": "9237400014", "name": "USPS COLLECTION BOX - BLUE BOX", "address": {"city": "REDLANDS", "state": "CA", "street": "1722 ORANGE TREE LN", "postcode": "92374"}}},
{"geometry": {"type": "Point", "coordinates": [-117.1705175092, 34.0640733873]}, "type": "Feature", "properties": {"collection_times": [{"days": "Mon-Sat", "time": "4:00pm"}, {"days": "Sun", "time": "Closed"}], "id": "9237400016", "name": "USPS COLLECTION BOX - EXPRESS", "address": {"city": "REDLANDS", "state": "CA", "street": "1722 ORANGE TREE LN", "postcode": "92374"}}},
{"geometry": {"type": "Point", "coordinates": [-117.3704539163, 34.1291372126]}, "type": "Feature", "properties": {"collection_times": [{"days": "Mon-Fri", "time": "5:00pm"}, {"days": "Sat", "time": "2:00pm"}, {"days": "Sun", "time": "Closed"}], "id": "9237600002", "name": "USPS COLLECTION BOX - BLUE BOX", "address": {"city": "RIALTO", "state": "CA", "street": "1630 N RIVERSIDE AVE", "postcode": "92376"}}},
{"geometry": {"type": "Point", "coordinates": [-117.3735383052, 34.0987581269]}, "type": "Feature", "properties": {"collection_times": [{"days": "Mon-Sat", "time": "5:00pm"}, {"days": "Sun", "time": "Closed"}], "id": "9237600004", "name": "USPS COLLECTION BOX - PO LOBBY", "address": {"city": "RIALTO", "state": "CA", "street": "241 W RIALTO AVE", "postcode": "92376"}}},
{"geometry": {"type": "Point", "coordinates": [-117.3735383052, 34.0987581269]}, "type": "Feature", "properties": {"collection_times": [{"days": "Mon-Sat", "time": "5:00pm"}, {"days": "Sun", "time": "Closed"}], "id": "9237600005", "name": "USPS COLLECTION BOX - BLUE BOX", "address": {"city": "RIALTO", "state": "CA", "street": "241 W RIALTO AVE", "postcode": "92376"}}},
{"geometry": {"type": "Point", "coordinates": [-117.3702697895, 34.0912628989]}, "type": "Feature", "properties": {"collection_times": [{"days": "Mon-Sat", "time": "2:30pm"}, {"days": "Sun", "time": "Closed"}], "id": "9237600010", "name": "USPS COLLECTION BOX - BLUE BOX", "address": {"city": "RIALTO", "state": "CA", "street": "519 S RIVERSIDE AVE", "postcode": "92376"}}},
{"geometry": {"type": "Point", "coordinates": [-117.3735063653, 34.0777771667]}, "type": "Feature", "properties": {"collection_times": [{"days": "Mon-Sat", "time": "2:00pm"}, {"days": "Sun", "time": "Closed"}], "id": "9237600011", "name": "USPS COLLECTION BOX - BLUE BOX", "address": {"city": "RIALTO", "state": "CA", "street": "200 W SAN BERNARDINO AVE", "postcode": "92376"}}},
{"geometry": {"type": "Point", "coordinates": [-117.3695955029, 34.1213538261]}, "type": "Feature", "properties": {"collection_times": [{"days": "Mon-Sat", "time": "2:00pm"}, {"days": "Sun", "time": "Closed"}], "id": "9237600014", "name": "USPS COLLECTION BOX - BLUE BOX", "address": {"city": "RIALTO", "state": "CA", "street": "118 E BASE LINE RD", "postcode": "92376"}}},
{"geometry": {"type": "Point", "coordinates": [-117.3701733714, 34.1009359169]}, "type": "Feature", "properties": {"collection_times": [{"days": "Mon-Fri", "time": "3:00pm"}, {"days": "Sat", "time": "5:00pm"}, {"days": "Sun", "time": "Closed"}], "id": "9237600017", "name": "USPS COLLECTION BOX - BLUE BOX", "address": {"city": "RIALTO", "state": "CA", "street": "147 N RIVERSIDE AVE", "postcode": "92376"}}},
{"geometry": {"type": "Point", "coordinates": [-117.3627392027, 34.0995104373]}, "type": "Feature", "properties": {"collection_times": [{"days": "Mon-Sat", "time": "1:15pm"}, {"days": "Sun", "time": "Closed"}], "id": "9237600019", "name": "USPS COLLECTION BOX - BLUE BOX", "address": {"city": "RIALTO", "state": "CA", "street": "2868 E RIALTO", "postcode": "92376"}}},
{"geometry": {"type": "Point", "coordinates": [-117.3743982023, 34.1067022362]}, "type": "Feature", "properties": {"collection_times": [{"days": "Mon-Sat", "time": "5:00pm"}, {"days": "Sun", "time": "Closed"}], "id": "9237600024", "name": "USPS COLLECTION BOX - EXPRESS", "address": {"city": "RIALTO", "state": "CA", "street": "241 W RIALTO AVE", "postcode": "92376"}}},
{"geometry": {"type": "Point", "coordinates": [-117.3736061104, 34.0987064313]}, "type": "Feature", "properties": {"collection_times": [{"days": "Mon-Sat", "time": "5:00pm"}, {"days": "Sun", "time": "Closed"}], "id": "9237600028", "name": "USPS COLLECTION BOX - BLUE BOX", "address": {"city": "RIALTO", "state": "CA", "street": "241 W RIALTO AVE", "postcode": "92376"}}},
{"geometry": {"type": "Point", "coordinates": [-117.3735383052, 34.0987581269]}, "type": "Feature", "properties": {"collection_times": [{"days": "Mon-Sat", "time": "5:00pm"}, {"days": "Sun", "time": "Closed"}], "id": "9237600030", "name": "USPS COLLECTION BOX - BLUE BOX", "address": {"city": "RIALTO", "state": "CA", "street": "241 W RIALTO AVE", "postcode": "92376"}}},
{"geometry": {"type": "Point", "coordinates": [-117.3624899295, 34.1067876128]}, "type": "Feature", "properties": {"collection_times": [{"days": "Mon-Sat", "time": "3:00pm"}, {"days": "Sun", "time": "Closed"}], "id": "9237600040", "name": "USPS COLLECTION BOX - BLUE BOX", "address": {"city": "RIALTO", "state": "CA", "street": "402 E FOOTHILL BLVD", "postcode": "92376"}}},
{"geometry": {"type": "Point", "coordinates": [-117.387469095, 34.106712715]}, "type": "Feature", "properties": {"collection_times": [{"days": "Mon-Sat", "time": "3:00pm"}, {"days": "Sun", "time": "Closed"}], "id": "9237600041", "name": "USPS COLLECTION BOX - BLUE BOX", "address": {"city": "RIALTO", "state": "CA", "street": "891 W FOOTHILL BLVD", "postcode": "92376"}}},
{"geometry": {"type": "Point", "coordinates": [-117.3735477047, 34.1067372067]}, "type": "Feature", "properties": {"collection_times": [{"days": "Mon-Sat", "time": "3:00pm"}, {"days": "Sun", "time": "Closed"}], "id": "9237600042", "name": "USPS COLLECTION BOX - BLUE BOX", "address": {"city": "RIALTO", "state": "CA", "street": "235 W FOOTHILL BLVD", "postcode": "92376"}}},
{"geometry": {"type": "Point", "coordinates": [-117.4185592174, 34.1379771313]}, "type": "Feature", "properties": {"collection_times": [{"days": "Mon-Sat", "time": "1:30pm"}, {"days": "Sun", "time": "Closed"}], "id": "9237700000", "name": "USPS COLLECTION BOX - BLUE BOX", "address": {"city": "RIALTO", "state": "CA", "street": "2320 ALDER AVE", "postcode": "92377"}}},
{"geometry": {"type": "Point", "coordinates": [-117.224095772, 34.2297006519]}, "type": "Feature", "properties": {"collection_times": [{"days": "Mon-Sat", "time": "3:30pm"}, {"days": "Sun", "time": "Closed"}], "id": "9237800003", "name": "USPS COLLECTION BOX - PO LOBBY", "address": {"city": "RIMFOREST", "state": "CA", "street": "26517 STATE HIGHWAY 18", "postcode": "92378"}}},
{"geometry": {"type": "Point", "coordinates": [-117.1049565755, 34.2097557829]}, "type": "Feature", "properties": {"collection_times": [{"days": "Mon-Fri", "time": "5:00pm"}, {"days": "Sat", "time": "2:00pm"}, {"days": "Sun", "time": "Closed"}], "id": "9238200001", "name": "USPS COLLECTION BOX - BLUE BOX", "address": {"city": "GREEN VLY LK", "state": "CA", "street": "2641 PALO ALTO WAY", "postcode": "92382"}}},
{"geometry": {"type": "Point", "coordinates": [-117.1049565755, 34.2097557829]}, "type": "Feature", "properties": {"collection_times": [{"days": "Mon-Fri", "time": "5:00pm"}, {"days": "Sat", "time": "2:00pm"}, {"days": "Sun", "time": "Closed"}], "id": "9238200003", "name": "USPS COLLECTION BOX - BLUE BOX", "address": {"city": "GREEN VLY LK", "state": "CA", "street": "2641 PALO ALTO WAY", "postcode": "92382"}}},
{"geometry": {"type": "Point", "coordinates": [-116.2702751702, 35.9744764319]}, "type": "Feature", "properties": {"collection_times": [{"days": "Mon-Fri", "time": "11:30am"}, {"days": "Sat", "time": "12:00pm"}, {"days": "Sun", "time": "Closed"}], "id": "9238400001", "name": "USPS COLLECTION BOX - BLUE BOX", "address": {"city": "SHOSHONE", "state": "CA", "street": "113 N STATE HIGHWAY 127", "postcode": "92384"}}},
{"geometry": {"type": "Point", "coordinates": [-117.1234688274, 34.2098596884]}, "type": "Feature", "properties": {"collection_times": [{"days": "Mon-Fri", "time": "3:00pm"}, {"days": "Sat", "time": "11:30am"}, {"days": "Sun", "time": "Closed"}], "id": "9238500002", "name": "USPS COLLECTION BOX - BLUE BOX", "address": {"city": "SKYFOREST", "state": "CA", "street": "951 KUFFEL CANYON RD", "postcode": "92385"}}},
{"geometry": {"type": "Point", "coordinates": [-117.1786079094, 34.2341021425]}, "type": "Feature", "properties": {"collection_times": [{"days": "Mon-Sat", "time": "4:00pm"}, {"days": "Sun", "time": "Closed"}], "id": "9238500003", "name": "USPS COLLECTION BOX - PO LOBBY", "address": {"city": "SKYFOREST", "state": "CA", "street": "951 KUFFEL CANYON RD", "postcode": "92385"}}},
{"geometry": {"type": "Point", "coordinates": [-116.8251327245, 34.2432329053]}, "type": "Feature", "properties": {"collection_times": [{"days": "Mon-Fri", "time": "3:30pm"}, {"days": "Sat", "time": "12:15pm"}, {"days": "Sun", "time": "Closed"}], "id": "9238600000", "name": "USPS COLLECTION BOX - BLUE BOX", "address": {"city": "BIG BEAR CITY", "state": "CA", "street": "501 MAPLE LN", "postcode": "92386"}}},
{"geometry": {"type": "Point", "coordinates": [-116.8251327245, 34.2432329053]}, "type": "Feature", "properties": {"collection_times": [{"days": "Mon-Fri", "time": "3:30pm"}, {"days": "Sat", "time": "12:15pm"}, {"days": "Sun", "time": "Closed"}], "id": "9238600001", "name": "USPS COLLECTION BOX - PO LOBBY", "address": {"city": "BIG BEAR CITY", "state": "CA", "street": "501 MAPLE LN", "postcode": "92386"}}},
{"geometry": {"type": "Point", "coordinates": [-115.857809307, 35.9726629657]}, "type": "Feature", "properties": {"collection_times": [{"days": "Mon-Sat", "time": "1:30pm"}, {"days": "Sun", "time": "Closed"}], "id": "9238900001", "name": "USPS COLLECTION BOX - BLUE BOX", "address": {"city": "TECOPA", "state": "CA", "street": "101 OLD SPANISH TRAIL HWY", "postcode": "92389"}}},
{"geometry": {"type": "Point", "coordinates": [-117.232957362, 34.2421370823]}, "type": "Feature", "properties": {"collection_times": [{"days": "Mon-Fri", "time": "4:00pm"}, {"days": "Sat", "time": "10:00am"}, {"days": "Sun", "time": "Closed"}], "id": "9239100002", "name": "USPS COLLECTION BOX - BLUE BOX", "address": {"city": "TWIN PEAKS", "state": "CA", "street": "753 ROSE LN", "postcode": "92391"}}},
{"geometry": {"type": "Point", "coordinates": [-117.2294879238, 34.2441738652]}, "type": "Feature", "properties": {"collection_times": [{"days": "Mon-Sat", "time": "3:30pm"}, {"days": "Sun", "time": "Closed"}], "id": "9239100004", "name": "USPS COLLECTION BOX - PO LOBBY", "address": {"city": "TWIN PEAKS", "state": "CA", "street": "753 ROSE LN", "postcode": "92391"}}},
{"geometry": {"type": "Point", "coordinates": [-117.3236011288, 34.5132949941]}, "type": "Feature", "properties": {"collection_times": [{"days": "Mon-Sat", "time": "2:00pm"}, {"days": "Sun", "time": "Closed"}], "id": "9239200005", "name": "USPS COLLECTION BOX - BLUE BOX", "address": {"city": "VICTORVILLE", "state": "CA", "street": "14455 CIVIC CENTER DR", "postcode": "92392"}}},
{"geometry": {"type": "Point", "coordinates": [-117.3301875909, 34.5123324107]}, "type": "Feature", "properties": {"collection_times": [{"days": "Mon-Sat", "time": "2:30pm"}, {"days": "Sun", "time": "Closed"}], "id": "9239200008", "name": "USPS COLLECTION BOX - BLUE BOX", "address": {"city": "VICTORVILLE", "state": "CA", "street": "14397 AMARGOSA RD", "postcode": "92392"}}},
{"geometry": {"type": "Point", "coordinates": [-117.3236011288, 34.5132949941]}, "type": "Feature", "properties": {"collection_times": [{"days": "Mon-Sat", "time": "2:00pm"}, {"days": "Sun", "time": "Closed"}], "id": "9239200016", "name": "USPS COLLECTION BOX - BLUE BOX", "address": {"city": "VICTORVILLE", "state": "CA", "street": "14455 CIVIC CENTER DR", "postcode": "92392"}}},
{"geometry": {"type": "Point", "coordinates": [-117.326552358, 34.5051199099]}, "type": "Feature", "properties": {"collection_times": [{"days": "Mon-Sat", "time": "11:00am"}, {"days": "Sun", "time": "Closed"}], "id": "9239200029", "name": "USPS COLLECTION BOX - BLUE BOX", "address": {"city": "VICTORVILLE", "state": "CA", "street": "14040 PARK AVE", "postcode": "92392"}}},
{"geometry": {"type": "Point", "coordinates": [-117.3461539881, 34.5067121726]}, "type": "Feature", "properties": {"collection_times": [{"days": "Mon-Sat", "time": "3:00pm"}, {"days": "Sun", "time": "Closed"}], "id": "9239200033", "name": "USPS COLLECTION BOX - BLUE BOX", "address": {"city": "VICTORVILLE", "state": "CA", "street": "14528 PALMDALE RD", "postcode": "92392"}}},
{"geometry": {"type": "Point", "coordinates": [-117.3236011288, 34.5132949941]}, "type": "Feature", "properties": {"collection_times": [{"days": "Mon-Sat", "time": "2:00pm"}, {"days": "Sun", "time": "Closed"}], "id": "9239200038", "name": "USPS COLLECTION BOX - BLUE BOX", "address": {"city": "VICTORVILLE", "state": "CA", "street": "14455 CIVIC CENTER DR", "postcode": "92392"}}},
{"geometry": {"type": "Point", "coordinates": [-117.3502233502, 34.4705234526]}, "type": "Feature", "properties": {"collection_times": [{"days": "Mon-Sat", "time": "3:00pm"}, {"days": "Sun", "time": "Closed"}], "id": "9239200039", "name": "USPS COLLECTION BOX - BLUE BOX", "address": {"city": "VICTORVILLE", "state": "CA", "street": "14400 BEAR VALLEY RD", "postcode": "92392"}}},
{"geometry": {"type": "Point", "coordinates": [-117.3647418223, 34.4704047961]}, "type": "Feature", "properties": {"collection_times": [{"days": "Mon-Sat", "time": "3:00pm"}, {"days": "Sun", "time": "Closed"}], "id": "9239200044", "name": "USPS COLLECTION BOX - BLUE BOX", "address": {"city": "VICTORVILLE", "state": "CA", "street": "13680 BEAR VALLEY RD", "postcode": "92392"}}},
{"geometry": {"type": "Point", "coordinates": [-117.3250156943, 34.5056262163]}, "type": "Feature", "properties": {"collection_times": [{"days": "Mon-Sat", "time": "11:00am"}, {"days": "Sun", "time": "Closed"}], "id": "9239200046", "name": "USPS COLLECTION BOX - BLUE BOX", "address": {"city": "VICTORVILLE", "state": "CA", "street": "15447 ANACAPA RD", "postcode": "92392"}}},
{"geometry": {"type": "Point", "coordinates": [-117.3647418223, 34.4704047961]}, "type": "Feature", "properties": {"collection_times": [{"days": "Mon-Sat", "time": "3:00pm"}, {"days": "Sun", "time": "Closed"}], "id": "9239200052", "name": "USPS COLLECTION BOX - BLUE BOX", "address": {"city": "VICTORVILLE", "state": "CA", "street": "13680 BEAR VALLEY RD", "postcode": "92392"}}},
{"geometry": {"type": "Point", "coordinates": [-117.3311576173, 34.5214305481]}, "type": "Feature", "properties": {"collection_times": [{"days": "Mon-Sat", "time": "3:00pm"}, {"days": "Sun", "time": "Closed"}], "id": "9239400000", "name": "USPS COLLECTION BOX - BLUE BOX", "address": {"city": "VICTORVILLE", "state": "CA", "street": "15263 HOOK BLVD", "postcode": "92394"}}},
{"geometry": {"type": "Point", "coordinates": [-117.2925316412, 34.5281414743]}, "type": "Feature", "properties": {"collection_times": [{"days": "Mon-Sat", "time": "11:00am"}, {"days": "Sun", "time": "Closed"}], "id": "9239500001", "name": "USPS COLLECTION BOX - BLUE BOX", "address": {"city": "VICTORVILLE", "state": "CA", "street": "15248 ELEVENTH ST", "postcode": "92395"}}},
{"geometry": {"type": "Point", "coordinates": [-117.3073602059, 34.4998662535]}, "type": "Feature", "properties": {"collection_times": [{"days": "Mon-Sat", "time": "5:45pm"}, {"days": "Sun", "time": "Closed"}], "id": "9239500010", "name": "USPS COLLECTION BOX - APC", "address": {"city": "VICTORVILLE", "state": "CA", "street": "16333 GREENTREE BLVD", "postcode": "92395"}}},
{"geometry": {"type": "Point", "coordinates": [-117.3018887505, 34.5028233526]}, "type": "Feature", "properties": {"collection_times": [{"days": "Mon-Fri", "time": "5:30pm"}, {"days": "Sat", "time": "4:30pm"}, {"days": "Sun", "time": "Closed"}], "id": "9239500011", "name": "USPS COLLECTION BOX - BLUE BOX", "address": {"city": "VICTORVILLE", "state": "CA", "street": "16333 GREEN TREE BLVD", "postcode": "92395"}}},
{"geometry": {"type": "Point", "coordinates": [-119.2702268805, 36.3741071704]}, "type": "Feature", "properties": {"collection_times": [{"days": "Mon-Fri", "time": "5:30pm"}, {"days": "Sat", "time": "4:30pm"}, {"days": "Sun", "time": "Closed"}], "id": "9239500012", "name": "USPS COLLECTION BOX - BLUE BOX", "address": {"city": "VICTORVILLE", "state": "CA", "street": "16333 GREEN TREE BLVD", "postcode": "92395"}}},
{"geometry": {"type": "Point", "coordinates": [-119.2702268805, 36.3741071704]}, "type": "Feature", "properties": {"collection_times": [{"days": "Mon-Fri", "time": "5:30pm"}, {"days": "Sat", "time": "4:30pm"}, {"days": "Sun", "time": "Closed"}], "id": "9239500013", "name": "USPS COLLECTION BOX - BLUE BOX", "address": {"city": "VICTORVILLE", "state": "CA", "street": "16333 GREEN TREE BLVD", "postcode": "92395"}}},
{"geometry": {"type": "Point", "coordinates": [-119.2702268805, 36.3741071704]}, "type": "Feature", "properties": {"collection_times": [{"days": "Mon-Fri", "time": "5:30pm"}, {"days": "Sat", "time": "4:30pm"}, {"days": "Sun", "time": "Closed"}], "id": "9239500014", "name": "USPS COLLECTION BOX - EXPRESS", "address": {"city": "VICTORVILLE", "state": "CA", "street": "16333 GREEN TREE BLVD", "postcode": "92395"}}},
{"geometry": {"type": "Point", "coordinates": [-117.2917911088, 34.4722975304]}, "type": "Feature", "properties": {"collection_times": [{"days": "Mon-Sat", "time": "11:00am"}, {"days": "Sun", "time": "Closed"}], "id": "9239500015", "name": "USPS COLLECTION BOX - BLUE BOX", "address": {"city": "VICTORVILLE", "state": "CA", "street": "12199 HESPERIA RD", "postcode": "92395"}}},
{"geometry": {"type": "Point", "coordinates": [-117.2913161075, 34.4766219896]}, "type": "Feature", "properties": {"collection_times": [{"days": "Mon-Sat", "time": "1:00pm"}, {"days": "Sun", "time": "Closed"}], "id": "9239500016", "name": "USPS COLLECTION BOX - BLUE BOX", "address": {"city": "VICTORVILLE", "state": "CA", "street": "12380 HESPERIA RD", "postcode": "92395"}}},
{"geometry": {"type": "Point", "coordinates": [-117.294312542, 34.5029477455]}, "type": "Feature", "properties": {"collection_times": [{"days": "Mon-Fri", "time": "5:00pm"}, {"days": "Sat", "time": "4:30pm"}, {"days": "Sun", "time": "Closed"}], "id": "9239500021", "name": "USPS COLLECTION BOX - BLUE BOX", "address": {"city": "VICTORVILLE", "state": "CA", "street": "13295 SPRG VALLEY PKWY", "postcode": "92395"}}},
{"geometry": {"type": "Point", "coordinates": [-117.294312542, 34.5029477455]}, "type": "Feature", "properties": {"collection_times": [{"days": "Mon-Fri", "time": "5:00pm"}, {"days": "Sat", "time": "4:30pm"}, {"days": "Sun", "time": "Closed"}], "id": "9239500022", "name": "USPS COLLECTION BOX - BLUE BOX", "address": {"city": "VICTORVILLE", "state": "CA", "street": "13295 SPRG VALLEY PKWY", "postcode": "92395"}}},
{"geometry": {"type": "Point", "coordinates": [-117.294312542, 34.5029477455]}, "type": "Feature", "properties": {"collection_times": [{"days": "Mon-Fri", "time": "5:00pm"}, {"days": "Sat", "time": "4:30pm"}, {"days": "Sun", "time": "Closed"}], "id": "9239500023", "name": "USPS COLLECTION BOX - BLUE BOX", "address": {"city": "VICTORVILLE", "state": "CA", "street": "13295 SPRG VALLEY PKWY", "postcode": "92395"}}},
{"geometry": {"type": "Point", "coordinates": [-117.294312542, 34.5029477455]}, "type": "Feature", "properties": {"collection_times": [{"days": "Mon-Sat", "time": "11:00am"}, {"days": "Sun", "time": "Closed"}], "id": "9239500024", "name": "USPS COLLECTION BOX - BLUE BOX", "address": {"city": "VICTORVILLE", "state": "CA", "street": "14100 ST ANDREWS BLVD", "postcode": "92395"}}},
{"geometry": {"type": "Point", "coordinates": [-117.6306461555, 34.35988094]}, "type": "Feature", "properties": {"collection_times": [{"days": "Mon-Fri", "time": "3:30pm"}, {"days": "Sat", "time": "11:00am"}, {"days": "Sun", "time": "Closed"}], "id": "9239700002", "name": "USPS COLLECTION BOX - BLUE BOX", "address": {"city": "WRIGHTWOOD", "state": "CA", "street": "1440 STATE HIGHWAY 2", "postcode": "92397"}}},
{"geometry": {"type": "Point", "coordinates": [-117.6071080068, 34.3865119004]}, "type": "Feature", "properties": {"collection_times": [{"days": "Mon-Fri", "time": "3:30pm"}, {"days": "Sat", "time": "11:00am"}, {"days": "Sun", "time": "Closed"}], "id": "9239700003", "name": "USPS COLLECTION BOX - EXPRESS", "address": {"city": "WRIGHTWOOD", "state": "CA", "street": "1440 STATE HIGHWAY 2", "postcode": "92397"}}},
{"geometry": {"type": "Point", "coordinates": [-116.8267137242, 34.903496877]}, "type": "Feature", "properties": {"collection_times": [{"days": "Mon-Fri", "time": "3:30pm"}, {"days": "Sat", "time": "4:00pm"}, {"days": "Sun", "time": "Closed"}], "id": "9239800002", "name": "USPS COLLECTION BOX - BLUE BOX", "address": {"city": "YERMO", "state": "CA", "street": "485 W YERMO RD", "postcode": "92398"}}},
{"geometry": {"type": "Point", "coordinates": [-117.0848726585, 34.0338432537]}, "type": "Feature", "properties": {"collection_times": [{"days": "Mon-Sat", "time": "3:00pm"}, {"days": "Sun", "time": "Closed"}], "id": "9239900002", "name": "USPS COLLECTION BOX - BLUE BOX", "address": {"city": "YUCAIPA", "state": "CA", "street": "32999 YUCAIPA BLVD", "postcode": "92399"}}},
{"geometry": {"type": "Point", "coordinates": [-117.0562009728, 34.0346740176]}, "type": "Feature", "properties": {"collection_times": [{"days": "Mon-Sat", "time": "3:00pm"}, {"days": "Sun", "time": "Closed"}], "id": "9239900003", "name": "USPS COLLECTION BOX - BLUE BOX", "address": {"city": "YUCAIPA", "state": "CA", "street": "12041 5TH ST", "postcode": "92399"}}},
{"geometry": {"type": "Point", "coordinates": [-117.0388970353, 34.0272984406]}, "type": "Feature", "properties": {"collection_times": [{"days": "Mon-Sat", "time": "5:00pm"}, {"days": "Sun", "time": "Closed"}], "id": "9239900008", "name": "USPS COLLECTION BOX - BLUE BOX", "address": {"city": "YUCAIPA", "state": "CA", "street": "12460 CALIFORNIA ST", "postcode": "92399"}}},
{"geometry": {"type": "Point", "coordinates": [-117.0388970353, 34.0272984406]}, "type": "Feature", "properties": {"collection_times": [{"days": "Mon-Sat", "time": "5:00pm"}, {"days": "Sun", "time": "Closed"}], "id": "9239900013", "name": "USPS COLLECTION BOX - BLUE BOX", "address": {"city": "YUCAIPA", "state": "CA", "street": "12460 CALIFORNIA ST", "postcode": "92399"}}},
{"geometry": {"type": "Point", "coordinates": [-117.0388970353, 34.0272984406]}, "type": "Feature", "properties": {"collection_times": [{"days": "Mon-Sat", "time": "5:00pm"}, {"days": "Sun", "time": "Closed"}], "id": "9239900014", "name": "USPS COLLECTION BOX - BLUE BOX", "address": {"city": "YUCAIPA", "state": "CA", "street": "12460 CALIFORNIA ST", "postcode": "92399"}}},
{"geometry": {"type": "Point", "coordinates": [-117.0466066423, 34.029130853]}, "type": "Feature", "properties": {"collection_times": [{"days": "Mon-Sat", "time": "5:00pm"}, {"days": "Sun", "time": "Closed"}], "id": "9239900015", "name": "USPS COLLECTION BOX - EXPRESS", "address": {"city": "YUCAIPA", "state": "CA", "street": "12460 CALIFORNIA ST", "postcode": "92399"}}},
{"geometry": {"type": "Point", "coordinates": [-117.0486196981, 34.0042515352]}, "type": "Feature", "properties": {"collection_times": [{"days": "Mon-Sat", "time": "3:00pm"}, {"days": "Sun", "time": "Closed"}], "id": "9239900017", "name": "USPS COLLECTION BOX - BLUE BOX", "address": {"city": "YUCAIPA", "state": "CA", "street": "34664 COUNTY LINE RD", "postcode": "92399"}}}
]}
