{"type": "FeatureCollection", "features": [
{"geometry": {"type": "Point", "coordinates": [-117.2911798174, 34.1101626461]}, "type": "Feature", "properties": {"collection_times": [{"days": "Mon-Sat", "time": "5:00pm"}, {"days": "Sun", "time": "Closed"}], "id": "9240100017", "name": "USPS COLLECTION BOX - BLUE BOX", "address": {"city": "SAN BERNARDINO", "state": "CA", "street": "363 W 6TH ST", "postcode": "92401"}}},
{"geometry": {"type": "Point", "coordinates": [-117.2874703839, 34.1083628094]}, "type": "Feature", "properties": {"collection_times": [{"days": "Mon-Fri", "time": "5:00pm"}, {"days": "Sat-Sun", "time": "Closed"}], "id": "9240100037", "name": "USPS COLLECTION BOX - BLUE BOX", "address": {"city": "SAN BERNARDINO", "state": "CA", "street": "200 W 5TH ST", "postcode": "92401"}}},
{"geometry": {"type": "Point", "coordinates": [-117.2917983171, 34.1045362823]}, "type": "Feature", "properties": {"collection_times": [{"days": "Mon-Fri", "time": "3:30pm"}, {"days": "Sat", "time": "3:00pm"}, {"days": "Sun", "time": "Closed"}], "id": "9240100048", "name": "USPS COLLECTION BOX - BLUE BOX", "address": {"city": "SAN BERNARDINO", "state": "CA", "street": "399 W 3RD ST", "postcode": "92401"}}},
{"geometry": {"type": "Point", "coordinates": [-117.2911798174, 34.1101626461]}, "type": "Feature", "properties": {"collection_times": [{"days": "Mon-Sat", "time": "5:00pm"}, {"days": "Sun", "time": "Closed"}], "id": "9240100053", "name": "USPS COLLECTION BOX - BLUE BOX", "address": {"city": "SAN BERNARDINO", "state": "CA", "street": "363 W 6TH ST", "postcode": "92401"}}},
{"geometry": {"type": "Point", "coordinates": [-117.2911798174, 34.1101626461]}, "type": "Feature", "properties": {"collection_times": [{"days": "Mon-Sat", "time": "5:00pm"}, {"days": "Sun", "time": "Closed"}], "id": "9240100054", "name": "USPS COLLECTION BOX - BLUE BOX", "address": {"city": "SAN BERNARDINO", "state": "CA", "street": "363 W 6TH ST", "postcode": "92401"}}},
{"geometry": {"type": "Point", "coordinates": [-117.2911798174, 34.1101626461]}, "type": "Feature", "properties": {"collection_times": [{"days": "Mon-Sat", "time": "5:00pm"}, {"days": "Sun", "time": "Closed"}], "id": "9240100055", "name": "USPS COLLECTION BOX - BLUE BOX", "address": {"city": "SAN BERNARDINO", "state": "CA", "street": "363 W 6TH ST", "postcode": "92401"}}},
{"geometry": {"type": "Point", "coordinates": [-117.2911798174, 34.1101626461]}, "type": "Feature", "properties": {"collection_times": [{"days": "Mon-Sat", "time": "5:00pm"}, {"days": "Sun", "time": "Closed"}], "id": "9240100056", "name": "USPS COLLECTION BOX - BLUE BOX", "address": {"city": "SAN BERNARDINO", "state": "CA", "street": "363 W 6TH ST", "postcode": "92401"}}},
{"geometry": {"type": "Point", "coordinates": [-117.2911791132, 34.1101628772]}, "type": "Feature", "properties": {"collection_times": [{"days": "Mon-Sat", "time": "5:00pm"}, {"days": "Sun", "time": "Closed"}], "id": "9240100057", "name": "USPS COLLECTION BOX - BLUE BOX", "address": {"city": "SAN BERNARDINO", "state": "CA", "street": "363 W 6TH ST", "postcode": "92401"}}},
{"geometry": {"type": "Point", "coordinates": [-117.2911791132, 34.1101628772]}, "type": "Feature", "properties": {"collection_times": [{"days": "Mon-Sat", "time": "5:00pm"}, {"days": "Sun", "time": "Closed"}], "id": "9240100058", "name": "USPS COLLECTION BOX - EXPRESS", "address": {"city": "SAN BERNARDINO", "state": "CA", "street": "363 W 6TH ST", "postcode": "92401"}}},
{"geometry": {"type": "Point", "coordinates": [-117.291981369, 34.1123015582]}, "type": "Feature", "properties": {"collection_times": [{"days": "Mon-Sat", "time": "3:00pm"}, {"days": "Sun", "time": "Closed"}], "id": "9240100060", "name": "USPS COLLECTION BOX - BLUE BOX", "address": {"city": "SAN BERNARDINO", "state": "CA", "street": "710 N D ST", "postcode": "92401"}}},
{"geometry": {"type": "Point", "coordinates": [-117.2933037171, 34.1065011189]}, "type": "Feature", "properties": {"collection_times": [{"days": "Mon-Fri", "time": "3:00pm"}, {"days": "Sat-Sun", "time": "Closed"}], "id": "9240100066", "name": "USPS COLLECTION BOX - BLUE BOX", "address": {"city": "SAN BERNARDINO", "state": "CA", "street": "464 W 4TH ST", "postcode": "92401"}}},
{"geometry": {"type": "Point", "coordinates": [-117.2933037171, 34.1065011189]}, "type": "Feature", "properties": {"collection_times": [{"days": "Mon-Fri", "time": "3:00pm"}, {"days": "Sat-Sun", "time": "Closed"}], "id": "9240100067", "name": "USPS COLLECTION BOX - BLUE BOX", "address": {"city": "SAN BERNARDINO", "state": "CA", "street": "464 W 4TH ST", "postcode": "92401"}}},
{"geometry": {"type": "Point", "coordinates": [-117.2896830038, 34.1071609519]}, "type": "Feature", "properties": {"collection_times": [{"days": "Mon-Fri", "time": "5:00pm"}, {"days": "Sat-Sun", "time": "Closed"}], "id": "9240100069", "name": "USPS COLLECTION BOX - BLUE BOX", "address": {"city": "SAN BERNARDINO", "state": "CA", "street": "444 N ARROWHEAD AVE", "postcode": "92401"}}},
{"geometry": {"type": "Point", "coordinates": [-117.2874214078, 34.1054010782]}, "type": "Feature", "properties": {"collection_times": [{"days": "Mon-Fri", "time": "5:00pm"}, {"days": "Sat-Sun", "time": "Closed"}], "id": "9240100073", "name": "USPS COLLECTION BOX - BLUE BOX", "address": {"city": "SAN BERNARDINO", "state": "CA", "street": "340 N MOUNTAIN VIEW AVE", "postcode": "92401"}}},
{"geometry": {"type": "Point", "coordinates": [-117.2933037171, 34.1065011189]}, "type": "Feature", "properties": {"collection_times": [{"days": "Mon-Fri", "time": "3:00pm"}, {"days": "Sat-Sun", "time": "Closed"}], "id": "9240100075", "name": "USPS COLLECTION BOX - BLUE BOX", "address": {"city": "SAN BERNARDINO", "state": "CA", "street": "464 W 4TH ST", "postcode": "92401"}}},
{"geometry": {"type": "Point", "coordinates": [-117.2933037171, 34.1065011189]}, "type": "Feature", "properties": {"collection_times": [{"days": "Mon-Fri", "time": "3:00pm"}, {"days": "Sat-Sun", "time": "Closed"}], "id": "9240100076", "name": "USPS COLLECTION BOX - BLUE BOX", "address": {"city": "SAN BERNARDINO", "state": "CA", "street": "464 W 4TH ST", "postcode": "92401"}}},
{"geometry": {"type": "Point", "coordinates": [-117.2919426277, 34.1040705315]}, "type": "Feature", "properties": {"collection_times": [{"days": "Mon-Fri", "time": "5:00pm"}, {"days": "Sat-Sun", "time": "Closed"}], "id": "9240100078", "name": "USPS COLLECTION BOX - BLUE BOX", "address": {"city": "SAN BERNARDINO", "state": "CA", "street": "290 N D ST", "postcode": "92401"}}},
{"geometry": {"type": "Point", "coordinates": [-117.2838569777, 34.063052311]}, "type": "Feature", "properties": {"collection_times": [{"days": "Mon-Fri", "time": "8:00pm"}, {"days": "Sat", "time": "6:00pm"}, {"days": "Sun", "time": "Closed"}], "id": "9240300001", "name": "USPS COLLECTION BOX - EXPRESS", "address": {"city": "SAN BERNARDINO", "state": "CA", "street": "1900 W REDLANDS BLVD", "postcode": "92403"}}},
{"geometry": {"type": "Point", "coordinates": [-117.2918730542, 34.1084568413]}, "type": "Feature", "properties": {"collection_times": [{"days": "Mon-Fri", "time": "8:00pm"}, {"days": "Sat", "time": "6:00pm"}, {"days": "Sun", "time": "Closed"}], "id": "9240300002", "name": "USPS COLLECTION BOX - BLUE BOX", "address": {"city": "SAN BERNARDINO", "state": "CA", "street": "1900 W REDLANDS BLVD", "postcode": "92403"}}},
{"geometry": {"type": "Point", "coordinates": [-117.287396619, 34.063061329]}, "type": "Feature", "properties": {"collection_times": [{"days": "Mon-Fri", "time": "8:00pm"}, {"days": "Sat", "time": "6:00pm"}, {"days": "Sun", "time": "Closed"}], "id": "9240300004", "name": "USPS COLLECTION BOX - BLUE BOX", "address": {"city": "SAN BERNARDINO", "state": "CA", "street": "1900 W REDLANDS BLVD", "postcode": "92403"}}},
{"geometry": {"type": "Point", "coordinates": [-117.2838569777, 34.063052311]}, "type": "Feature", "properties": {"collection_times": [{"days": "Mon-Fri", "time": "8:00pm"}, {"days": "Sat", "time": "6:00pm"}, {"days": "Sun", "time": "Closed"}], "id": "9240300005", "name": "USPS COLLECTION BOX - EXPRESS", "address": {"city": "SAN BERNARDINO", "state": "CA", "street": "1900 W REDLANDS BLVD", "postcode": "92403"}}},
{"geometry": {"type": "Point", "coordinates": [-117.2918730542, 34.1084568413]}, "type": "Feature", "properties": {"collection_times": [{"days": "Mon-Fri", "time": "8:00pm"}, {"days": "Sat", "time": "6:00pm"}, {"days": "Sun", "time": "Closed"}], "id": "9240300006", "name": "USPS COLLECTION BOX - BLUE BOX", "address": {"city": "SAN BERNARDINO", "state": "CA", "street": "1900 W REDLANDS BLVD", "postcode": "92403"}}},
{"geometry": {"type": "Point", "coordinates": [-117.287396619, 34.063061329]}, "type": "Feature", "properties": {"collection_times": [{"days": "Mon-Fri", "time": "8:00pm"}, {"days": "Sat", "time": "6:00pm"}, {"days": "Sun", "time": "Closed"}], "id": "9240300008", "name": "USPS COLLECTION BOX - BLUE BOX", "address": {"city": "SAN BERNARDINO", "state": "CA", "street": "1900 W REDLANDS BLVD", "postcode": "92403"}}},
{"geometry": {"type": "Point", "coordinates": [-117.2918730542, 34.1084568413]}, "type": "Feature", "properties": {"collection_times": [{"days": "Mon-Fri", "time": "8:00pm"}, {"days": "Sat", "time": "6:00pm"}, {"days": "Sun", "time": "Closed"}], "id": "9240300011", "name": "USPS COLLECTION BOX - APC", "address": {"city": "SAN BERNARDINO", "state": "CA", "street": "1900 W REDLANDS BLVD", "postcode": "92403"}}},
{"geometry": {"type": "Point", "coordinates": [-117.287396619, 34.063061329]}, "type": "Feature", "properties": {"collection_times": [{"days": "Mon-Fri", "time": "8:00pm"}, {"days": "Sat", "time": "6:00pm"}, {"days": "Sun", "time": "Closed"}], "id": "9240300013", "name": "USPS COLLECTION BOX - BLUE BOX", "address": {"city": "SAN BERNARDINO", "state": "CA", "street": "1900 W REDLANDS BLVD", "postcode": "92403"}}},
{"geometry": {"type": "Point", "coordinates": [-117.287396619, 34.063061329]}, "type": "Feature", "properties": {"collection_times": [{"days": "Mon-Fri", "time": "8:00pm"}, {"days": "Sat", "time": "6:00pm"}, {"days": "Sun", "time": "Closed"}], "id": "9240300014", "name": "USPS COLLECTION BOX - BLUE BOX", "address": {"city": "SAN BERNARDINO", "state": "CA", "street": "1900 W REDLANDS BLVD", "postcode": "92403"}}},
{"geometry": {"type": "Point", "coordinates": [-117.2575278854, 34.1358604519]}, "type": "Feature", "properties": {"collection_times": [{"days": "Mon-Fri", "time": "5:00pm"}, {"days": "Sat", "time": "3:00pm"}, {"days": "Sun", "time": "Closed"}], "id": "9240400010", "name": "USPS COLLECTION BOX - BLUE BOX", "address": {"city": "SAN BERNARDINO", "state": "CA", "street": "1365 E HIGHLAND AVE", "postcode": "92404"}}},
{"geometry": {"type": "Point", "coordinates": [-117.2829638693, 34.1461509585]}, "type": "Feature", "properties": {"collection_times": [{"days": "Mon-Fri", "time": "1:00pm"}, {"days": "Sat-Sun", "time": "Closed"}], "id": "9240400021", "name": "USPS COLLECTION BOX - BLUE BOX", "address": {"city": "SAN BERNARDINO", "state": "CA", "street": "3007 SEPULVEDA AVE", "postcode": "92404"}}},
{"geometry": {"type": "Point", "coordinates": [-117.2788123766, 34.1307112879]}, "type": "Feature", "properties": {"collection_times": [{"days": "Mon-Fri", "time": "4:30pm"}, {"days": "Sat-Sun", "time": "Closed"}], "id": "9240400046", "name": "USPS COLLECTION BOX - BLUE BOX", "address": {"city": "SAN BERNARDINO", "state": "CA", "street": "1738 N WATERMAN AVE", "postcode": "92404"}}},
{"geometry": {"type": "Point", "coordinates": [-117.2620580851, 34.142852682]}, "type": "Feature", "properties": {"collection_times": [{"days": "Mon-Fri", "time": "5:00pm"}, {"days": "Sat", "time": "1:00pm"}, {"days": "Sun", "time": "Closed"}], "id": "9240400058", "name": "USPS COLLECTION BOX - EXPRESS", "address": {"city": "SAN BERNARDINO", "state": "CA", "street": "488 E 21ST ST", "postcode": "92404"}}},
{"geometry": {"type": "Point", "coordinates": [-117.251189747, 34.1412495326]}, "type": "Feature", "properties": {"collection_times": [{"days": "Mon-Fri", "time": "5:00pm"}, {"days": "Sat", "time": "3:30pm"}, {"days": "Sun", "time": "Closed"}], "id": "9240400059", "name": "USPS COLLECTION BOX - BLUE BOX", "address": {"city": "SAN BERNARDINO", "state": "CA", "street": "1663 E DATE PL", "postcode": "92404"}}},
{"geometry": {"type": "Point", "coordinates": [-117.2921211544, 34.13597165]}, "type": "Feature", "properties": {"collection_times": [{"days": "Mon-Fri", "time": "5:00pm"}, {"days": "Sat-Sun", "time": "Closed"}], "id": "9240400064", "name": "USPS COLLECTION BOX - BLUE BOX", "address": {"city": "SAN BERNARDINO", "state": "CA", "street": "401 E HIGHLAND AVE", "postcode": "92404"}}},
{"geometry": {"type": "Point", "coordinates": [-117.2921211544, 34.13597165]}, "type": "Feature", "properties": {"collection_times": [{"days": "Mon-Fri", "time": "5:00pm"}, {"days": "Sat-Sun", "time": "Closed"}], "id": "9240400066", "name": "USPS COLLECTION BOX - BLUE BOX", "address": {"city": "SAN BERNARDINO", "state": "CA", "street": "401 E HIGHLAND AVE", "postcode": "92404"}}},
{"geometry": {"type": "Point", "coordinates": [-117.2896930744, 34.1344709703]}, "type": "Feature", "properties": {"collection_times": [{"days": "Mon-Fri", "time": "3:45pm"}, {"days": "Sat-Sun", "time": "Closed"}], "id": "9240500036", "name": "USPS COLLECTION BOX - BLUE BOX", "address": {"city": "SAN BERNARDINO", "state": "CA", "street": "2130 N ARROWHEAD AVE", "postcode": "92405"}}},
{"geometry": {"type": "Point", "coordinates": [-117.3009382766, 34.1360128154]}, "type": "Feature", "properties": {"collection_times": [{"days": "Mon-Fri", "time": "12:30pm"}, {"days": "Sat-Sun", "time": "Closed"}], "id": "9240500042", "name": "USPS COLLECTION BOX - BLUE BOX", "address": {"city": "SAN BERNARDINO", "state": "CA", "street": "2200 N H ST", "postcode": "92405"}}},
{"geometry": {"type": "Point", "coordinates": [-117.286139737, 34.1359334289]}, "type": "Feature", "properties": {"collection_times": [{"days": "Mon-Fri", "time": "4:30pm"}, {"days": "Sat-Sun", "time": "Closed"}], "id": "9240500043", "name": "USPS COLLECTION BOX - BLUE BOX", "address": {"city": "SAN BERNARDINO", "state": "CA", "street": "155 W HIGHLAND AVE", "postcode": "92405"}}},
{"geometry": {"type": "Point", "coordinates": [-117.3598479211, 34.191351874]}, "type": "Feature", "properties": {"collection_times": [{"days": "Mon-Fri", "time": "12:00pm"}, {"days": "Sat", "time": "2:00pm"}, {"days": "Sun", "time": "Closed"}], "id": "9240700001", "name": "USPS COLLECTION BOX - BLUE BOX", "address": {"city": "SAN BERNARDINO", "state": "CA", "street": "3205 KENDALL DR", "postcode": "92407"}}},
{"geometry": {"type": "Point", "coordinates": [-117.3282353357, 34.1779984062]}, "type": "Feature", "properties": {"collection_times": [{"days": "Mon-Fri", "time": "12:00pm"}, {"days": "Sat", "time": "2:00pm"}, {"days": "Sun", "time": "Closed"}], "id": "9240700005", "name": "USPS COLLECTION BOX - BLUE BOX", "address": {"city": "SAN BERNARDINO", "state": "CA", "street": "5500 UNIVERSITY PKWY", "postcode": "92407"}}},
{"geometry": {"type": "Point", "coordinates": [-117.3120149753, 34.167279842]}, "type": "Feature", "properties": {"collection_times": [{"days": "Mon-Sat", "time": "12:00pm"}, {"days": "Sun", "time": "Closed"}], "id": "9240700006", "name": "USPS COLLECTION BOX - BLUE BOX", "address": {"city": "SAN BERNARDINO", "state": "CA", "street": "1265 KENDALL DR", "postcode": "92407"}}},
{"geometry": {"type": "Point", "coordinates": [-117.2934480182, 34.065681166]}, "type": "Feature", "properties": {"collection_times": [{"days": "Mon-Fri", "time": "5:00pm"}, {"days": "Sat-Sun", "time": "Closed"}], "id": "9240800006", "name": "USPS COLLECTION BOX - BLUE BOX", "address": {"city": "SAN BERNARDINO", "state": "CA", "street": "325 W HOSPITALITY LN", "postcode": "92408"}}},
{"geometry": {"type": "Point", "coordinates": [-117.2934480182, 34.065681166]}, "type": "Feature", "properties": {"collection_times": [{"days": "Mon-Fri", "time": "5:00pm"}, {"days": "Sat-Sun", "time": "Closed"}], "id": "9240800007", "name": "USPS COLLECTION BOX - BLUE BOX", "address": {"city": "SAN BERNARDINO", "state": "CA", "street": "325 W HOSPITALITY LN", "postcode": "92408"}}},
{"geometry": {"type": "Point", "coordinates": [-117.2715849868, 34.0658482085]}, "type": "Feature", "properties": {"collection_times": [{"days": "Mon-Fri", "time": "5:00pm"}, {"days": "Sat", "time": "12:45pm"}, {"days": "Sun", "time": "Closed"}], "id": "9240800025", "name": "USPS COLLECTION BOX - BLUE BOX", "address": {"city": "SAN BERNARDINO", "state": "CA", "street": "650 E HOSPITALITY LN", "postcode": "92408"}}},
{"geometry": {"type": "Point", "coordinates": [-117.2823412878, 34.0676649088]}, "type": "Feature", "properties": {"collection_times": [{"days": "Mon-Fri", "time": "5:00pm"}, {"days": "Sat", "time": "12:45pm"}, {"days": "Sun", "time": "Closed"}], "id": "9240800030", "name": "USPS COLLECTION BOX - BLUE BOX", "address": {"city": "SAN BERNARDINO", "state": "CA", "street": "1880 COMMERCENTER E", "postcode": "92408"}}},
{"geometry": {"type": "Point", "coordinates": [-117.2823412878, 34.0676649088]}, "type": "Feature", "properties": {"collection_times": [{"days": "Mon-Fri", "time": "5:00pm"}, {"days": "Sat", "time": "12:45pm"}, {"days": "Sun", "time": "Closed"}], "id": "9240800031", "name": "USPS COLLECTION BOX - BLUE BOX", "address": {"city": "SAN BERNARDINO", "state": "CA", "street": "1880 COMMERCENTER E", "postcode": "92408"}}},
{"geometry": {"type": "Point", "coordinates": [-117.2934480182, 34.065681166]}, "type": "Feature", "properties": {"collection_times": [{"days": "Mon-Fri", "time": "5:00pm"}, {"days": "Sat-Sun", "time": "Closed"}], "id": "9240800033", "name": "USPS COLLECTION BOX - BLUE BOX", "address": {"city": "SAN BERNARDINO", "state": "CA", "street": "325 W HOSPITALITY LN", "postcode": "92408"}}},
{"geometry": {"type": "Point", "coordinates": [-117.2865624302, 34.0658280982]}, "type": "Feature", "properties": {"collection_times": [{"days": "Mon-Fri", "time": "5:00pm"}, {"days": "Sat-Sun", "time": "Closed"}], "id": "9240800035", "name": "USPS COLLECTION BOX - BLUE BOX", "address": {"city": "SAN BERNARDINO", "state": "CA", "street": "164 W HOSPITALITY LN", "postcode": "92408"}}},
{"geometry": {"type": "Point", "coordinates": [-117.2865624302, 34.0658280982]}, "type": "Feature", "properties": {"collection_times": [{"days": "Mon-Fri", "time": "5:00pm"}, {"days": "Sat-Sun", "time": "Closed"}], "id": "9240800036", "name": "USPS COLLECTION BOX - BLUE BOX", "address": {"city": "SAN BERNARDINO", "state": "CA", "street": "164 W HOSPITALITY LN", "postcode": "92408"}}},
{"geometry": {"type": "Point", "coordinates": [-117.292623912, 34.0659463941]}, "type": "Feature", "properties": {"collection_times": [{"days": "Mon-Fri", "time": "5:00pm"}, {"days": "Sat", "time": "12:45pm"}, {"days": "Sun", "time": "Closed"}], "id": "9240800039", "name": "USPS COLLECTION BOX - BLUE BOX", "address": {"city": "SAN BERNARDINO", "state": "CA", "street": "412 W HOSPITALITY LN", "postcode": "92408"}}},
{"geometry": {"type": "Point", "coordinates": [-117.2927776966, 34.0810492312]}, "type": "Feature", "properties": {"collection_times": [{"days": "Mon-Sat", "time": "5:00pm"}, {"days": "Sun", "time": "Closed"}], "id": "9240800048", "name": "USPS COLLECTION BOX - BLUE BOX", "address": {"city": "SAN BERNARDINO", "state": "CA", "street": "1111 S E ST", "postcode": "92408"}}},
{"geometry": {"type": "Point", "coordinates": [-117.2927776966, 34.0810492312]}, "type": "Feature", "properties": {"collection_times": [{"days": "Mon-Sat", "time": "5:00pm"}, {"days": "Sun", "time": "Closed"}], "id": "9240800049", "name": "USPS COLLECTION BOX - BLUE BOX", "address": {"city": "SAN BERNARDINO", "state": "CA", "street": "1111 S E ST", "postcode": "92408"}}},
{"geometry": {"type": "Point", "coordinates": [-117.2715849868, 34.0658482085]}, "type": "Feature", "properties": {"collection_times": [{"days": "Mon-Fri", "time": "5:00pm"}, {"days": "Sat", "time": "12:45pm"}, {"days": "Sun", "time": "Closed"}], "id": "9240800054", "name": "USPS COLLECTION BOX - BLUE BOX", "address": {"city": "SAN BERNARDINO", "state": "CA", "street": "650 E HOSPITALITY LN", "postcode": "92408"}}},
{"geometry": {"type": "Point", "coordinates": [-117.2715849868, 34.0658482085]}, "type": "Feature", "properties": {"collection_times": [{"days": "Mon-Fri", "time": "5:00pm"}, {"days": "Sat", "time": "12:45pm"}, {"days": "Sun", "time": "Closed"}], "id": "9240800055", "name": "USPS COLLECTION BOX - BLUE BOX", "address": {"city": "SAN BERNARDINO", "state": "CA", "street": "650 E HOSPITALITY LN", "postcode": "92408"}}},
{"geometry": {"type": "Point", "coordinates": [-117.2715849868, 34.0658482085]}, "type": "Feature", "properties": {"collection_times": [{"days": "Mon-Fri", "time": "5:00pm"}, {"days": "Sat", "time": "12:45pm"}, {"days": "Sun", "time": "Closed"}], "id": "9240800056", "name": "USPS COLLECTION BOX - BLUE BOX", "address": {"city": "SAN BERNARDINO", "state": "CA", "street": "650 E HOSPITALITY LN", "postcode": "92408"}}},
{"geometry": {"type": "Point", "coordinates": [-117.27163, 34.06584]}, "type": "Feature", "properties": {"collection_times": [{"days": "Mon-Fri", "time": "5:00pm"}, {"days": "Sat", "time": "12:45pm"}, {"days": "Sun", "time": "Closed"}], "id": "9240800057", "name": "USPS COLLECTION BOX - EXPRESS", "address": {"city": "SAN BERNARDINO", "state": "CA", "street": "650 E HOSPITALITY LN", "postcode": "92408"}}},
{"geometry": {"type": "Point", "coordinates": [-117.2673188458, 34.1042297088]}, "type": "Feature", "properties": {"collection_times": [{"days": "Mon-Fri", "time": "5:00pm"}, {"days": "Sat", "time": "12:30pm"}, {"days": "Sun", "time": "Closed"}], "id": "9241000023", "name": "USPS COLLECTION BOX - BLUE BOX", "address": {"city": "SAN BERNARDINO", "state": "CA", "street": "825 E 3RD ST", "postcode": "92410"}}},
{"geometry": {"type": "Point", "coordinates": [-117.2777140556, 34.1213816797]}, "type": "Feature", "properties": {"collection_times": [{"days": "Mon-Fri", "time": "3:30pm"}, {"days": "Sat-Sun", "time": "Closed"}], "id": "9241000027", "name": "USPS COLLECTION BOX - BLUE BOX", "address": {"city": "SAN BERNARDINO", "state": "CA", "street": "444 E BASE LINE ST", "postcode": "92410"}}},
{"geometry": {"type": "Point", "coordinates": [-117.3224975584, 34.1312842809]}, "type": "Feature", "properties": {"collection_times": [{"days": "Mon-Sat", "time": "3:00pm"}, {"days": "Sun", "time": "Closed"}], "id": "9241100015", "name": "USPS COLLECTION BOX - BLUE BOX", "address": {"city": "SAN BERNARDINO", "state": "CA", "street": "1805 MEDICAL CENTER DR", "postcode": "92411"}}}
]}
