{"type": "FeatureCollection", "features": [
{"geometry": {"type": "Point", "coordinates": [-117.3581850052, 34.0038081869]}, "type": "Feature", "properties": {"collection_times": [{"days": "Mon-Fri", "time": "12:30pm"}, {"days": "Sat-Sun", "time": "Closed"}], "id": "9250100006", "name": "USPS COLLECTION BOX - BLUE BOX", "address": {"city": "RIVERSIDE", "state": "CA", "street": "1211 N ORANGE ST", "postcode": "92501"}}},
{"geometry": {"type": "Point", "coordinates": [-117.364211786, 34.001513068]}, "type": "Feature", "properties": {"collection_times": [{"days": "Mon-Fri", "time": "10:00am"}, {"days": "Sat-Sun", "time": "Closed"}], "id": "9250100009", "name": "USPS COLLECTION BOX - BLUE BOX", "address": {"city": "RIVERSIDE", "state": "CA", "street": "1675 MAIN ST", "postcode": "92501"}}},
{"geometry": {"type": "Point", "coordinates": [-117.3738293817, 33.9804453071]}, "type": "Feature", "properties": {"collection_times": [{"days": "Mon-Sat", "time": "5:00pm"}, {"days": "Sun", "time": "Closed"}], "id": "9250100014", "name": "USPS COLLECTION BOX - BLUE BOX", "address": {"city": "RIVERSIDE", "state": "CA", "street": "3890 ORANGE ST", "postcode": "92501"}}},
{"geometry": {"type": "Point", "coordinates": [-117.3767679173, 33.9762623982]}, "type": "Feature", "properties": {"collection_times": [{"days": "Mon-Fri", "time": "2:00pm"}, {"days": "Sat", "time": "12:45pm"}, {"days": "Sun", "time": "Closed"}], "id": "9250100016", "name": "USPS COLLECTION BOX - BLUE BOX", "address": {"city": "RIVERSIDE", "state": "CA", "street": "4333 ORANGE ST", "postcode": "92501"}}},
{"geometry": {"type": "Point", "coordinates": [-117.3785674546, 33.9786999803]}, "type": "Feature", "properties": {"collection_times": [{"days": "Mon-Fri", "time": "2:45pm"}, {"days": "Sat", "time": "12:45pm"}, {"days": "Sun", "time": "Closed"}], "id": "9250100020", "name": "USPS COLLECTION BOX - BLUE BOX", "address": {"city": "RIVERSIDE", "state": "CA", "street": "3816 12TH ST", "postcode": "92501"}}},
{"geometry": {"type": "Point", "coordinates": [-117.37440778, 33.9742623425]}, "type": "Feature", "properties": {"collection_times": [{"days": "Mon-Fri", "time": "3:00pm"}, {"days": "Sat", "time": "12:45pm"}, {"days": "Sun", "time": "Closed"}], "id": "9250100022", "name": "USPS COLLECTION BOX - BLUE BOX", "address": {"city": "RIVERSIDE", "state": "CA", "street": "3380 14TH ST", "postcode": "92501"}}},
{"geometry": {"type": "Point", "coordinates": [-117.3768434925, 33.9808076544]}, "type": "Feature", "properties": {"collection_times": [{"days": "Mon-Fri", "time": "1:45pm"}, {"days": "Sat", "time": "1:30pm"}, {"days": "Sun", "time": "Closed"}], "id": "9250100024", "name": "USPS COLLECTION BOX - BLUE BOX", "address": {"city": "RIVERSIDE", "state": "CA", "street": "3993 MARKET ST", "postcode": "92501"}}},
{"geometry": {"type": "Point", "coordinates": [-117.3761987799, 33.9793076625]}, "type": "Feature", "properties": {"collection_times": [{"days": "Mon-Fri", "time": "4:00pm"}, {"days": "Sat", "time": "3:00pm"}, {"days": "Sun", "time": "Closed"}], "id": "9250100031", "name": "USPS COLLECTION BOX - BLUE BOX", "address": {"city": "RIVERSIDE", "state": "CA", "street": "4075 MAIN ST", "postcode": "92501"}}},
{"geometry": {"type": "Point", "coordinates": [-117.3803639784, 33.9756866251]}, "type": "Feature", "properties": {"collection_times": [{"days": "Mon-Fri", "time": "2:00pm"}, {"days": "Sat", "time": "12:30pm"}, {"days": "Sun", "time": "Closed"}], "id": "9250100036", "name": "USPS COLLECTION BOX - BLUE BOX", "address": {"city": "RIVERSIDE", "state": "CA", "street": "4445 MAGNOLIA AVE", "postcode": "92501"}}},
{"geometry": {"type": "Point", "coordinates": [-117.3710777505, 33.9846735643]}, "type": "Feature", "properties": {"collection_times": [{"days": "Mon-Fri", "time": "3:00pm"}, {"days": "Sat", "time": "1:15pm"}, {"days": "Sun", "time": "Closed"}], "id": "9250100040", "name": "USPS COLLECTION BOX - BLUE BOX", "address": {"city": "RIVERSIDE", "state": "CA", "street": "3460 ORANGE ST", "postcode": "92501"}}},
{"geometry": {"type": "Point", "coordinates": [-117.3716391238, 33.9915031054]}, "type": "Feature", "properties": {"collection_times": [{"days": "Mon-Sat", "time": "5:00pm"}, {"days": "Sun", "time": "Closed"}], "id": "9250100046", "name": "USPS COLLECTION BOX - EXPRESS", "address": {"city": "RIVERSIDE", "state": "CA", "street": "3890 ORANGE ST", "postcode": "92501"}}},
{"geometry": {"type": "Point", "coordinates": [-117.3738293817, 33.9804453071]}, "type": "Feature", "properties": {"collection_times": [{"days": "Mon-Sat", "time": "5:00pm"}, {"days": "Sun", "time": "Closed"}], "id": "9250100047", "name": "USPS COLLECTION BOX - BLUE BOX", "address": {"city": "RIVERSIDE", "state": "CA", "street": "3890 ORANGE ST", "postcode": "92501"}}},
{"geometry": {"type": "Point", "coordinates": [-117.3738293817, 33.9804453071]}, "type": "Feature", "properties": {"collection_times": [{"days": "Mon-Sat", "time": "5:00pm"}, {"days": "Sun", "time": "Closed"}], "id": "9250100051", "name": "USPS COLLECTION BOX - BLUE BOX", "address": {"city": "RIVERSIDE", "state": "CA", "street": "3890 ORANGE ST", "postcode": "92501"}}},
{"geometry": {"type": "Point", "coordinates": [-117.3752666082, 33.9822757065]}, "type": "Feature", "properties": {"collection_times": [{"days": "Mon-Fri", "time": "4:00pm"}, {"days": "Sat", "time": "3:00pm"}, {"days": "Sun", "time": "Closed"}], "id": "9250100059", "name": "USPS COLLECTION BOX - BLUE BOX", "address": {"city": "RIVERSIDE", "state": "CA", "street": "3750 UNIVERSITY AVE", "postcode": "92501"}}},
{"geometry": {"type": "Point", "coordinates": [-117.3692335175, 33.9829393465]}, "type": "Feature", "properties": {"collection_times": [{"days": "Mon-Fri", "time": "3:30pm"}, {"days": "Sat", "time": "1:00pm"}, {"days": "Sun", "time": "Closed"}], "id": "9250100061", "name": "USPS COLLECTION BOX - BLUE BOX", "address": {"city": "RIVERSIDE", "state": "CA", "street": "3600 LIME ST", "postcode": "92501"}}},
{"geometry": {"type": "Point", "coordinates": [-117.3739849169, 33.9829925036]}, "type": "Feature", "properties": {"collection_times": [{"days": "Mon-Sat", "time": "10:30am"}, {"days": "Sun", "time": "Closed"}], "id": "9250100067", "name": "USPS COLLECTION BOX - BLUE BOX", "address": {"city": "RIVERSIDE", "state": "CA", "street": "3701 MAIN ST", "postcode": "92501"}}},
{"geometry": {"type": "Point", "coordinates": [-117.3742219419, 33.9826066299]}, "type": "Feature", "properties": {"collection_times": [{"days": "Mon-Sat", "time": "10:00am"}, {"days": "Sun", "time": "Closed"}], "id": "9250100068", "name": "USPS COLLECTION BOX - BLUE BOX", "address": {"city": "RIVERSIDE", "state": "CA", "street": "3737 MAIN ST", "postcode": "92501"}}},
{"geometry": {"type": "Point", "coordinates": [-117.3740982873, 33.9780265861]}, "type": "Feature", "properties": {"collection_times": [{"days": "Mon-Fri", "time": "3:00pm"}, {"days": "Sat", "time": "1:00pm"}, {"days": "Sun", "time": "Closed"}], "id": "9250100072", "name": "USPS COLLECTION BOX - BLUE BOX", "address": {"city": "RIVERSIDE", "state": "CA", "street": "4095 LEMON ST", "postcode": "92501"}}},
{"geometry": {"type": "Point", "coordinates": [-117.3739849169, 33.9829925036]}, "type": "Feature", "properties": {"collection_times": [{"days": "Mon-Sat", "time": "10:30am"}, {"days": "Sun", "time": "Closed"}], "id": "9250100073", "name": "USPS COLLECTION BOX - BLUE BOX", "address": {"city": "RIVERSIDE", "state": "CA", "street": "3701 MAIN ST", "postcode": "92501"}}},
{"geometry": {"type": "Point", "coordinates": [-117.3750974451, 34.0025066707]}, "type": "Feature", "properties": {"collection_times": [{"days": "Mon-Sat", "time": "9:30am"}, {"days": "Sun", "time": "Closed"}], "id": "9250100074", "name": "USPS COLLECTION BOX - BLUE BOX", "address": {"city": "RIVERSIDE", "state": "CA", "street": "4371 LATHAM ST", "postcode": "92501"}}},
{"geometry": {"type": "Point", "coordinates": [-117.3730986418, 33.9838777905]}, "type": "Feature", "properties": {"collection_times": [{"days": "Mon-Sat", "time": "11:30am"}, {"days": "Sun", "time": "Closed"}], "id": "9250100078", "name": "USPS COLLECTION BOX - BLUE BOX", "address": {"city": "RIVERSIDE", "state": "CA", "street": "3600 MAIN ST", "postcode": "92501"}}},
{"geometry": {"type": "Point", "coordinates": [-117.3739849169, 33.9829925036]}, "type": "Feature", "properties": {"collection_times": [{"days": "Mon-Sat", "time": "10:30am"}, {"days": "Sun", "time": "Closed"}], "id": "9250100081", "name": "USPS COLLECTION BOX - BLUE BOX", "address": {"city": "RIVERSIDE", "state": "CA", "street": "3701 MAIN ST", "postcode": "92501"}}},
{"geometry": {"type": "Point", "coordinates": [-117.3750974451, 34.0025066707]}, "type": "Feature", "properties": {"collection_times": [{"days": "Mon-Sat", "time": "9:30am"}, {"days": "Sun", "time": "Closed"}], "id": "9250100084", "name": "USPS COLLECTION BOX - BLUE BOX", "address": {"city": "RIVERSIDE", "state": "CA", "street": "4371 LATHAM ST", "postcode": "92501"}}},
{"geometry": {"type": "Point", "coordinates": [-117.3738656233, 33.976513913]}, "type": "Feature", "properties": {"collection_times": [{"days": "Mon-Fri", "time": "3:00pm"}, {"days": "Sat-Sun", "time": "Closed"}], "id": "9250100085", "name": "USPS COLLECTION BOX - BLUE BOX", "address": {"city": "RIVERSIDE", "state": "CA", "street": "3420 12TH ST", "postcode": "92501"}}},
{"geometry": {"type": "Point", "coordinates": [-117.3738293817, 33.9804453071]}, "type": "Feature", "properties": {"collection_times": [{"days": "Mon-Sat", "time": "5:00pm"}, {"days": "Sun", "time": "Closed"}], "id": "9250100088", "name": "USPS COLLECTION BOX - BLUE BOX", "address": {"city": "RIVERSIDE", "state": "CA", "street": "3890 ORANGE ST", "postcode": "92501"}}},
{"geometry": {"type": "Point", "coordinates": [-117.3761987799, 33.9793076625]}, "type": "Feature", "properties": {"collection_times": [{"days": "Mon-Fri", "time": "4:00pm"}, {"days": "Sat", "time": "3:00pm"}, {"days": "Sun", "time": "Closed"}], "id": "9250100092", "name": "USPS COLLECTION BOX - BLUE BOX", "address": {"city": "RIVERSIDE", "state": "CA", "street": "4075 MAIN ST", "postcode": "92501"}}},
{"geometry": {"type": "Point", "coordinates": [-117.4413597085, 33.9272728465]}, "type": "Feature", "properties": {"collection_times": [{"days": "Mon-Sat", "time": "11:00am"}, {"days": "Sun", "time": "Closed"}], "id": "9250300002", "name": "USPS COLLECTION BOX - BLUE BOX", "address": {"city": "RIVERSIDE", "state": "CA", "street": "3975 JACKSON ST", "postcode": "92503"}}},
{"geometry": {"type": "Point", "coordinates": [-117.4581872883, 33.9135710867]}, "type": "Feature", "properties": {"collection_times": [{"days": "Mon-Sat", "time": "5:00pm"}, {"days": "Sun", "time": "Closed"}], "id": "9250300006", "name": "USPS COLLECTION BOX - EXPRESS", "address": {"city": "RIVERSIDE", "state": "CA", "street": "10275 HOLE AVE", "postcode": "92503"}}},
{"geometry": {"type": "Point", "coordinates": [-117.4399712523, 33.925678935]}, "type": "Feature", "properties": {"collection_times": [{"days": "Mon-Sat", "time": "11:00am"}, {"days": "Sun", "time": "Closed"}], "id": "9250300007", "name": "USPS COLLECTION BOX - BLUE BOX", "address": {"city": "RIVERSIDE", "state": "CA", "street": "3865 JACKSON ST", "postcode": "92503"}}},
{"geometry": {"type": "Point", "coordinates": [-117.4897602677, 33.8934036417]}, "type": "Feature", "properties": {"collection_times": [{"days": "Mon-Sat", "time": "2:00pm"}, {"days": "Sun", "time": "Closed"}], "id": "9250300014", "name": "USPS COLLECTION BOX - BLUE BOX", "address": {"city": "RIVERSIDE", "state": "CA", "street": "3700 PIERCE ST", "postcode": "92503"}}},
{"geometry": {"type": "Point", "coordinates": [-117.4375174578, 33.9094089831]}, "type": "Feature", "properties": {"collection_times": [{"days": "Mon-Sat", "time": "2:00pm"}, {"days": "Sun", "time": "Closed"}], "id": "9250300018", "name": "USPS COLLECTION BOX - BLUE BOX", "address": {"city": "RIVERSIDE", "state": "CA", "street": "2995 VAN BUREN BLVD", "postcode": "92503"}}},
{"geometry": {"type": "Point", "coordinates": [-117.4715447536, 33.8975620027]}, "type": "Feature", "properties": {"collection_times": [{"days": "Mon-Sat", "time": "9:00am"}, {"days": "Sun", "time": "Closed"}], "id": "9250300019", "name": "USPS COLLECTION BOX - BLUE BOX", "address": {"city": "RIVERSIDE", "state": "CA", "street": "3420 LA SIERRA AVE", "postcode": "92503"}}},
{"geometry": {"type": "Point", "coordinates": [-117.4413597085, 33.9272728465]}, "type": "Feature", "properties": {"collection_times": [{"days": "Mon-Sat", "time": "11:00am"}, {"days": "Sun", "time": "Closed"}], "id": "9250300024", "name": "USPS COLLECTION BOX - BLUE BOX", "address": {"city": "RIVERSIDE", "state": "CA", "street": "3975 JACKSON ST", "postcode": "92503"}}},
{"geometry": {"type": "Point", "coordinates": [-117.4636980901, 33.9151976851]}, "type": "Feature", "properties": {"collection_times": [{"days": "Mon-Sat", "time": "5:00pm"}, {"days": "Sun", "time": "Closed"}], "id": "9250300026", "name": "USPS COLLECTION BOX - BLUE BOX", "address": {"city": "RIVERSIDE", "state": "CA", "street": "10275 HOLE AVE", "postcode": "92503"}}},
{"geometry": {"type": "Point", "coordinates": [-117.4399712523, 33.925678935]}, "type": "Feature", "properties": {"collection_times": [{"days": "Mon-Sat", "time": "11:00am"}, {"days": "Sun", "time": "Closed"}], "id": "9250300031", "name": "USPS COLLECTION BOX - BLUE BOX", "address": {"city": "RIVERSIDE", "state": "CA", "street": "3865 JACKSON ST", "postcode": "92503"}}},
{"geometry": {"type": "Point", "coordinates": [-117.4636980901, 33.9151976851]}, "type": "Feature", "properties": {"collection_times": [{"days": "Mon-Sat", "time": "5:00pm"}, {"days": "Sun", "time": "Closed"}], "id": "9250300038", "name": "USPS COLLECTION BOX - BLUE BOX", "address": {"city": "RIVERSIDE", "state": "CA", "street": "10275 HOLE AVE", "postcode": "92503"}}},
{"geometry": {"type": "Point", "coordinates": [-117.4636980901, 33.9151976851]}, "type": "Feature", "properties": {"collection_times": [{"days": "Mon-Sat", "time": "5:00pm"}, {"days": "Sun", "time": "Closed"}], "id": "9250300039", "name": "USPS COLLECTION BOX - BLUE BOX", "address": {"city": "RIVERSIDE", "state": "CA", "street": "10275 HOLE AVE", "postcode": "92503"}}},
{"geometry": {"type": "Point", "coordinates": [-117.4636980901, 33.9151976851]}, "type": "Feature", "properties": {"collection_times": [{"days": "Mon-Sat", "time": "5:00pm"}, {"days": "Sun", "time": "Closed"}], "id": "9250300040", "name": "USPS COLLECTION BOX - BLUE BOX", "address": {"city": "RIVERSIDE", "state": "CA", "street": "10275 HOLE AVE", "postcode": "92503"}}},
{"geometry": {"type": "Point", "coordinates": [-117.4606774284, 33.9111680431]}, "type": "Feature", "properties": {"collection_times": [{"days": "Mon-Sat", "time": "10:00am"}, {"days": "Sun", "time": "Closed"}], "id": "9250300041", "name": "USPS COLLECTION BOX - BLUE BOX", "address": {"city": "RIVERSIDE", "state": "CA", "street": "3700 TYLER ST", "postcode": "92503"}}},
{"geometry": {"type": "Point", "coordinates": [-117.4468423378, 33.8897312509]}, "type": "Feature", "properties": {"collection_times": [{"days": "Mon-Sat", "time": "10:00am"}, {"days": "Sun", "time": "Closed"}], "id": "9250300043", "name": "USPS COLLECTION BOX - BLUE BOX", "address": {"city": "RIVERSIDE", "state": "CA", "street": "12321 BUCHANNAN ST", "postcode": "92503"}}},
{"geometry": {"type": "Point", "coordinates": [-117.4380793633, 33.9252369741]}, "type": "Feature", "properties": {"collection_times": [{"days": "Mon-Sat", "time": "10:45am"}, {"days": "Sun", "time": "Closed"}], "id": "9250300045", "name": "USPS COLLECTION BOX - BLUE BOX", "address": {"city": "RIVERSIDE", "state": "CA", "street": "9041 MAGNOLIA AVE", "postcode": "92503"}}},
{"geometry": {"type": "Point", "coordinates": [-117.4636980901, 33.9151976851]}, "type": "Feature", "properties": {"collection_times": [{"days": "Mon-Fri", "time": "5:00pm"}, {"days": "Sat", "time": "4:30pm"}, {"days": "Sun", "time": "Closed"}], "id": "9250300046", "name": "USPS COLLECTION BOX - APC", "address": {"city": "RIVERSIDE", "state": "CA", "street": "10275 HOLE AVE", "postcode": "92503"}}},
{"geometry": {"type": "Point", "coordinates": [-117.4396570904, 33.9120704224]}, "type": "Feature", "properties": {"collection_times": [{"days": "Mon-Sat", "time": "2:00pm"}, {"days": "Sun", "time": "Closed"}], "id": "9250300050", "name": "USPS COLLECTION BOX - BLUE BOX", "address": {"city": "RIVERSIDE", "state": "CA", "street": "3211 VAN BUREN BLVD", "postcode": "92503"}}},
{"geometry": {"type": "Point", "coordinates": [-117.4351551256, 33.9359652905]}, "type": "Feature", "properties": {"collection_times": [{"days": "Mon-Fri", "time": "3:30pm"}, {"days": "Sat", "time": "3:00pm"}, {"days": "Sun", "time": "Closed"}], "id": "9250400013", "name": "USPS COLLECTION BOX - BLUE BOX", "address": {"city": "RIVERSIDE", "state": "CA", "street": "8616 CALIFORNIA AVE", "postcode": "92504"}}},
{"geometry": {"type": "Point", "coordinates": [-117.4023554234, 33.9453759762]}, "type": "Feature", "properties": {"collection_times": [{"days": "Mon-Fri", "time": "12:30pm"}, {"days": "Sat", "time": "1:45pm"}, {"days": "Sun", "time": "Closed"}], "id": "9250400023", "name": "USPS COLLECTION BOX - BLUE BOX", "address": {"city": "RIVERSIDE", "state": "CA", "street": "7112 MAGNOLIA AVE", "postcode": "92504"}}},
{"geometry": {"type": "Point", "coordinates": [-117.4271263462, 33.931322115]}, "type": "Feature", "properties": {"collection_times": [{"days": "Mon-Fri", "time": "3:30pm"}, {"days": "Sat-Sun", "time": "Closed"}], "id": "9250400024", "name": "USPS COLLECTION BOX - BLUE BOX", "address": {"city": "RIVERSIDE", "state": "CA", "street": "8432 MAGNOLIA AVE", "postcode": "92504"}}},
{"geometry": {"type": "Point", "coordinates": [-117.4151027514, 33.921780368]}, "type": "Feature", "properties": {"collection_times": [{"days": "Mon-Fri", "time": "3:45pm"}, {"days": "Sat", "time": "1:00pm"}, {"days": "Sun", "time": "Closed"}], "id": "9250400030", "name": "USPS COLLECTION BOX - BLUE BOX", "address": {"city": "RIVERSIDE", "state": "CA", "street": "2900 ADAMS ST", "postcode": "92504"}}},
{"geometry": {"type": "Point", "coordinates": [-117.3639409591, 33.8824079448]}, "type": "Feature", "properties": {"collection_times": [{"days": "Mon-Fri", "time": "1:30pm"}, {"days": "Sat", "time": "3:00pm"}, {"days": "Sun", "time": "Closed"}], "id": "9250400032", "name": "USPS COLLECTION BOX - BLUE BOX", "address": {"city": "RIVERSIDE", "state": "CA", "street": "17130 VAN BUREN BLVD", "postcode": "92504"}}},
{"geometry": {"type": "Point", "coordinates": [-117.3639409591, 33.8824079448]}, "type": "Feature", "properties": {"collection_times": [{"days": "Mon-Fri", "time": "1:30pm"}, {"days": "Sat", "time": "3:00pm"}, {"days": "Sun", "time": "Closed"}], "id": "9250400033", "name": "USPS COLLECTION BOX - BLUE BOX", "address": {"city": "RIVERSIDE", "state": "CA", "street": "17130 VAN BUREN BLVD", "postcode": "92504"}}},
{"geometry": {"type": "Point", "coordinates": [-117.4078199846, 33.9242206952]}, "type": "Feature", "properties": {"collection_times": [{"days": "Mon-Fri", "time": "5:00pm"}, {"days": "Sat", "time": "4:00pm"}, {"days": "Sun", "time": "Closed"}], "id": "9250400036", "name": "USPS COLLECTION BOX - EXPRESS", "address": {"city": "RIVERSIDE", "state": "CA", "street": "5172 ARLINGTON AVE", "postcode": "92504"}}},
{"geometry": {"type": "Point", "coordinates": [-117.4164614039, 33.9459697554]}, "type": "Feature", "properties": {"collection_times": [{"days": "Mon-Fri", "time": "5:00pm"}, {"days": "Sat", "time": "4:00pm"}, {"days": "Sun", "time": "Closed"}], "id": "9250400039", "name": "USPS COLLECTION BOX - BLUE BOX", "address": {"city": "RIVERSIDE", "state": "CA", "street": "5172 ARLINGTON AVE", "postcode": "92504"}}},
{"geometry": {"type": "Point", "coordinates": [-117.4164614042, 33.9459697551]}, "type": "Feature", "properties": {"collection_times": [{"days": "Mon-Fri", "time": "5:00pm"}, {"days": "Sat", "time": "4:00pm"}, {"days": "Sun", "time": "Closed"}], "id": "9250400041", "name": "USPS COLLECTION BOX - BLUE BOX", "address": {"city": "RIVERSIDE", "state": "CA", "street": "5172 ARLINGTON AVE", "postcode": "92504"}}},
{"geometry": {"type": "Point", "coordinates": [-117.4164614039, 33.9459697554]}, "type": "Feature", "properties": {"collection_times": [{"days": "Mon-Fri", "time": "5:00pm"}, {"days": "Sat", "time": "4:00pm"}, {"days": "Sun", "time": "Closed"}], "id": "9250400045", "name": "USPS COLLECTION BOX - BLUE BOX", "address": {"city": "RIVERSIDE", "state": "CA", "street": "5172 ARLINGTON AVE", "postcode": "92504"}}},
{"geometry": {"type": "Point", "coordinates": [-117.4629203186, 33.9076641187]}, "type": "Feature", "properties": {"collection_times": [{"days": "Mon-Sat", "time": "1:30pm"}, {"days": "Sun", "time": "Closed"}], "id": "9250500007", "name": "USPS COLLECTION BOX - BLUE BOX", "address": {"city": "RIVERSIDE", "state": "CA", "street": "3625 BANBURY DR", "postcode": "92505"}}},
{"geometry": {"type": "Point", "coordinates": [-117.4776448435, 33.9049992497]}, "type": "Feature", "properties": {"collection_times": [{"days": "Mon-Sat", "time": "11:00am"}, {"days": "Sun", "time": "Closed"}], "id": "9250500009", "name": "USPS COLLECTION BOX - BLUE BOX", "address": {"city": "RIVERSIDE", "state": "CA", "street": "3860 LA SIERRA AVE", "postcode": "92505"}}},
{"geometry": {"type": "Point", "coordinates": [-117.4792605308, 33.9465964812]}, "type": "Feature", "properties": {"collection_times": [{"days": "Mon-Sat", "time": "12:00pm"}, {"days": "Sun", "time": "Closed"}], "id": "9250500015", "name": "USPS COLLECTION BOX - BLUE BOX", "address": {"city": "RIVERSIDE", "state": "CA", "street": "10370 ARLINGTON AVE", "postcode": "92505"}}},
{"geometry": {"type": "Point", "coordinates": [-117.4788680883, 33.9337068176]}, "type": "Feature", "properties": {"collection_times": [{"days": "Mon-Sat", "time": "12:00pm"}, {"days": "Sun", "time": "Closed"}], "id": "9250500016", "name": "USPS COLLECTION BOX - BLUE BOX", "address": {"city": "RIVERSIDE", "state": "CA", "street": "10365 KELLER AVE", "postcode": "92505"}}},
{"geometry": {"type": "Point", "coordinates": [-117.4708204492, 33.906411809]}, "type": "Feature", "properties": {"collection_times": [{"days": "Mon-Sat", "time": "10:30am"}, {"days": "Sun", "time": "Closed"}], "id": "9250500021", "name": "USPS COLLECTION BOX - BLUE BOX", "address": {"city": "RIVERSIDE", "state": "CA", "street": "10800 MAGNOLIA AVE", "postcode": "92505"}}},
{"geometry": {"type": "Point", "coordinates": [-117.3906828087, 33.9438768567]}, "type": "Feature", "properties": {"collection_times": [{"days": "Mon-Fri", "time": "3:00pm"}, {"days": "Sat", "time": "2:00pm"}, {"days": "Sun", "time": "Closed"}], "id": "9250600008", "name": "USPS COLLECTION BOX - BLUE BOX", "address": {"city": "RIVERSIDE", "state": "CA", "street": "6700 INDIANA AVE", "postcode": "92506"}}},
{"geometry": {"type": "Point", "coordinates": [-117.3943169794, 33.942854782]}, "type": "Feature", "properties": {"collection_times": [{"days": "Mon-Fri", "time": "2:45pm"}, {"days": "Sat", "time": "2:00pm"}, {"days": "Sun", "time": "Closed"}], "id": "9250600009", "name": "USPS COLLECTION BOX - BLUE BOX", "address": {"city": "RIVERSIDE", "state": "CA", "street": "7177 BROCKTON AVE", "postcode": "92506"}}},
{"geometry": {"type": "Point", "coordinates": [-117.3967467771, 33.9480172149]}, "type": "Feature", "properties": {"collection_times": [{"days": "Mon-Fri", "time": "3:30pm"}, {"days": "Sat", "time": "3:00pm"}, {"days": "Sun", "time": "Closed"}], "id": "9250600013", "name": "USPS COLLECTION BOX - BLUE BOX", "address": {"city": "RIVERSIDE", "state": "CA", "street": "6926 BROCKTON AVE", "postcode": "92506"}}},
{"geometry": {"type": "Point", "coordinates": [-117.393899921, 33.9545577476]}, "type": "Feature", "properties": {"collection_times": [{"days": "Mon-Fri", "time": "5:00pm"}, {"days": "Sat", "time": "3:00pm"}, {"days": "Sun", "time": "Closed"}], "id": "9250600021", "name": "USPS COLLECTION BOX - BLUE BOX", "address": {"city": "RIVERSIDE", "state": "CA", "street": "3681 SUNNYSIDE DR", "postcode": "92506"}}},
{"geometry": {"type": "Point", "coordinates": [-117.3932679734, 33.9587511414]}, "type": "Feature", "properties": {"collection_times": [{"days": "Mon-Fri", "time": "4:00pm"}, {"days": "Sat", "time": "2:15pm"}, {"days": "Sun", "time": "Closed"}], "id": "9250600038", "name": "USPS COLLECTION BOX - BLUE BOX", "address": {"city": "RIVERSIDE", "state": "CA", "street": "6155 MAGNOLIA AVE", "postcode": "92506"}}},
{"geometry": {"type": "Point", "coordinates": [-117.3922692774, 33.9427494986]}, "type": "Feature", "properties": {"collection_times": [{"days": "Mon-Fri", "time": "3:00pm"}, {"days": "Sat", "time": "2:00pm"}, {"days": "Sun", "time": "Closed"}], "id": "9250600042", "name": "USPS COLLECTION BOX - BLUE BOX", "address": {"city": "RIVERSIDE", "state": "CA", "street": "6820 INDIANA AVE", "postcode": "92506"}}},
{"geometry": {"type": "Point", "coordinates": [-117.3967467771, 33.9480172149]}, "type": "Feature", "properties": {"collection_times": [{"days": "Mon-Fri", "time": "3:30pm"}, {"days": "Sat", "time": "3:00pm"}, {"days": "Sun", "time": "Closed"}], "id": "9250600050", "name": "USPS COLLECTION BOX - BLUE BOX", "address": {"city": "RIVERSIDE", "state": "CA", "street": "6926 BROCKTON AVE", "postcode": "92506"}}},
{"geometry": {"type": "Point", "coordinates": [-117.3916096733, 33.9535227656]}, "type": "Feature", "properties": {"collection_times": [{"days": "Mon-Fri", "time": "1:30pm"}, {"days": "Sat", "time": "2:00pm"}, {"days": "Sun", "time": "Closed"}], "id": "9250600056", "name": "USPS COLLECTION BOX - BLUE BOX", "address": {"city": "RIVERSIDE", "state": "CA", "street": "3610 CENTRAL AVE", "postcode": "92506"}}},
{"geometry": {"type": "Point", "coordinates": [-117.3939076756, 33.9545684416]}, "type": "Feature", "properties": {"collection_times": [{"days": "Mon-Fri", "time": "5:00pm"}, {"days": "Sat", "time": "3:00pm"}, {"days": "Sun", "time": "Closed"}], "id": "9250600059", "name": "USPS COLLECTION BOX - BLUE BOX", "address": {"city": "RIVERSIDE", "state": "CA", "street": "3681 SUNNYSIDE DR", "postcode": "92506"}}},
{"geometry": {"type": "Point", "coordinates": [-117.393899921, 33.9545577476]}, "type": "Feature", "properties": {"collection_times": [{"days": "Mon-Fri", "time": "5:00pm"}, {"days": "Sat", "time": "3:00pm"}, {"days": "Sun", "time": "Closed"}], "id": "9250600060", "name": "USPS COLLECTION BOX - BLUE BOX", "address": {"city": "RIVERSIDE", "state": "CA", "street": "3681 SUNNYSIDE DR", "postcode": "92506"}}},
{"geometry": {"type": "Point", "coordinates": [-117.3939076756, 33.9545684416]}, "type": "Feature", "properties": {"collection_times": [{"days": "Mon-Fri", "time": "5:00pm"}, {"days": "Sat", "time": "3:00pm"}, {"days": "Sun", "time": "Closed"}], "id": "9250600061", "name": "USPS COLLECTION BOX - BLUE BOX", "address": {"city": "RIVERSIDE", "state": "CA", "street": "3681 SUNNYSIDE DR", "postcode": "92506"}}},
{"geometry": {"type": "Point", "coordinates": [-117.3745893825, 33.9439426752]}, "type": "Feature", "properties": {"collection_times": [{"days": "Mon-Fri", "time": "1:00pm"}, {"days": "Sat", "time": "3:00pm"}, {"days": "Sun", "time": "Closed"}], "id": "9250600064", "name": "USPS COLLECTION BOX - BLUE BOX", "address": {"city": "RIVERSIDE", "state": "CA", "street": "3333 ARLINGTON AVE", "postcode": "92506"}}},
{"geometry": {"type": "Point", "coordinates": [-117.3939076756, 33.9545684416]}, "type": "Feature", "properties": {"collection_times": [{"days": "Mon-Fri", "time": "5:00pm"}, {"days": "Sat", "time": "3:00pm"}, {"days": "Sun", "time": "Closed"}], "id": "9250600068", "name": "USPS COLLECTION BOX - BLUE BOX", "address": {"city": "RIVERSIDE", "state": "CA", "street": "3681 SUNNYSIDE DR", "postcode": "92506"}}},
{"geometry": {"type": "Point", "coordinates": [-117.3939076756, 33.9545684416]}, "type": "Feature", "properties": {"collection_times": [{"days": "Mon-Fri", "time": "5:00pm"}, {"days": "Sat", "time": "3:00pm"}, {"days": "Sun", "time": "Closed"}], "id": "9250600070", "name": "USPS COLLECTION BOX - APC", "address": {"city": "RIVERSIDE", "state": "CA", "street": "3681 SUNNYSIDE DR", "postcode": "92506"}}},
{"geometry": {"type": "Point", "coordinates": [-117.3310500525, 33.9583009571]}, "type": "Feature", "properties": {"collection_times": [{"days": "Mon-Fri", "time": "4:00pm"}, {"days": "Sat", "time": "3:00pm"}, {"days": "Sun", "time": "Closed"}], "id": "9250700002", "name": "USPS COLLECTION BOX - BLUE BOX", "address": {"city": "RIVERSIDE", "state": "CA", "street": "800 EL CERRITO DR", "postcode": "92507"}}},
{"geometry": {"type": "Point", "coordinates": [-117.3510288589, 33.9811985485]}, "type": "Feature", "properties": {"collection_times": [{"days": "Mon-Fri", "time": "3:00pm"}, {"days": "Sat", "time": "12:15pm"}, {"days": "Sun", "time": "Closed"}], "id": "9250700023", "name": "USPS COLLECTION BOX - BLUE BOX", "address": {"city": "RIVERSIDE", "state": "CA", "street": "2299 ATLANTA AVE", "postcode": "92507"}}},
{"geometry": {"type": "Point", "coordinates": [-117.3311066251, 33.9758853988]}, "type": "Feature", "properties": {"collection_times": [{"days": "Mon-Fri", "time": "11:30am"}, {"days": "Sat-Sun", "time": "Closed"}], "id": "9250700029", "name": "USPS COLLECTION BOX - BLUE BOX", "address": {"city": "RIVERSIDE", "state": "CA", "street": "900 UNIVERSITY AVE", "postcode": "92507"}}},
{"geometry": {"type": "Point", "coordinates": [-117.3483531088, 33.9938166542]}, "type": "Feature", "properties": {"collection_times": [{"days": "Mon-Sat", "time": "3:00pm"}, {"days": "Sun", "time": "Closed"}], "id": "9250700032", "name": "USPS COLLECTION BOX - BLUE BOX", "address": {"city": "RIVERSIDE", "state": "CA", "street": "1960 CHICAGO AVE", "postcode": "92507"}}},
{"geometry": {"type": "Point", "coordinates": [-117.3510288589, 33.9811985485]}, "type": "Feature", "properties": {"collection_times": [{"days": "Mon-Fri", "time": "3:00pm"}, {"days": "Sat", "time": "12:15pm"}, {"days": "Sun", "time": "Closed"}], "id": "9250700033", "name": "USPS COLLECTION BOX - BLUE BOX", "address": {"city": "RIVERSIDE", "state": "CA", "street": "2299 ATLANTA AVE", "postcode": "92507"}}},
{"geometry": {"type": "Point", "coordinates": [-117.33707895, 33.9757915655]}, "type": "Feature", "properties": {"collection_times": [{"days": "Mon-Sat", "time": "5:00pm"}, {"days": "Sun", "time": "Closed"}], "id": "9250700035", "name": "USPS COLLECTION BOX - EXPRESS", "address": {"city": "RIVERSIDE", "state": "CA", "street": "4150 CHICAGO AVE", "postcode": "92507"}}},
{"geometry": {"type": "Point", "coordinates": [-117.2948330191, 33.9386076012]}, "type": "Feature", "properties": {"collection_times": [{"days": "Mon-Fri", "time": "3:30pm"}, {"days": "Sat", "time": "3:00pm"}, {"days": "Sun", "time": "Closed"}], "id": "9250700036", "name": "USPS COLLECTION BOX - BLUE BOX", "address": {"city": "RIVERSIDE", "state": "CA", "street": "6200 BOX SPRINGS BLVD", "postcode": "92507"}}},
{"geometry": {"type": "Point", "coordinates": [-117.3484381677, 33.9719877509]}, "type": "Feature", "properties": {"collection_times": [{"days": "Mon-Sat", "time": "5:00pm"}, {"days": "Sun", "time": "Closed"}], "id": "9250700038", "name": "USPS COLLECTION BOX - BLUE BOX", "address": {"city": "RIVERSIDE", "state": "CA", "street": "4150 CHICAGO AVE", "postcode": "92507"}}},
{"geometry": {"type": "Point", "coordinates": [-117.3484381677, 33.9719877509]}, "type": "Feature", "properties": {"collection_times": [{"days": "Mon-Sat", "time": "5:00pm"}, {"days": "Sun", "time": "Closed"}], "id": "9250700039", "name": "USPS COLLECTION BOX - BLUE BOX", "address": {"city": "RIVERSIDE", "state": "CA", "street": "4150 CHICAGO AVE", "postcode": "92507"}}},
{"geometry": {"type": "Point", "coordinates": [-117.2847731308, 33.9347473287]}, "type": "Feature", "properties": {"collection_times": [{"days": "Mon-Fri", "time": "3:30pm"}, {"days": "Sat-Sun", "time": "Closed"}], "id": "9250700057", "name": "USPS COLLECTION BOX - BLUE BOX", "address": {"city": "RIVERSIDE", "state": "CA", "street": "2724 GATEWAY DR", "postcode": "92507"}}},
{"geometry": {"type": "Point", "coordinates": [-117.3372924425, 34.0047732201]}, "type": "Feature", "properties": {"collection_times": [{"days": "Mon-Fri", "time": "3:00pm"}, {"days": "Sat-Sun", "time": "Closed"}], "id": "9250700065", "name": "USPS COLLECTION BOX - BLUE BOX", "address": {"city": "RIVERSIDE", "state": "CA", "street": "1180 PALMYRITA AVE", "postcode": "92507"}}},
{"geometry": {"type": "Point", "coordinates": [-117.3510288589, 33.9811985485]}, "type": "Feature", "properties": {"collection_times": [{"days": "Mon-Fri", "time": "3:00pm"}, {"days": "Sat", "time": "12:15pm"}, {"days": "Sun", "time": "Closed"}], "id": "9250700067", "name": "USPS COLLECTION BOX - BLUE BOX", "address": {"city": "RIVERSIDE", "state": "CA", "street": "2299 ATLANTA AVE", "postcode": "92507"}}},
{"geometry": {"type": "Point", "coordinates": [-117.2948330191, 33.9386076012]}, "type": "Feature", "properties": {"collection_times": [{"days": "Mon-Fri", "time": "3:30pm"}, {"days": "Sat", "time": "3:00pm"}, {"days": "Sun", "time": "Closed"}], "id": "9250700069", "name": "USPS COLLECTION BOX - BLUE BOX", "address": {"city": "RIVERSIDE", "state": "CA", "street": "6200 BOX SPRINGS BLVD", "postcode": "92507"}}},
{"geometry": {"type": "Point", "coordinates": [-117.284772248, 33.934747398]}, "type": "Feature", "properties": {"collection_times": [{"days": "Mon-Fri", "time": "3:30pm"}, {"days": "Sat-Sun", "time": "Closed"}], "id": "9250700070", "name": "USPS COLLECTION BOX - BLUE BOX", "address": {"city": "RIVERSIDE", "state": "CA", "street": "2724 GATEWAY DR", "postcode": "92507"}}},
{"geometry": {"type": "Point", "coordinates": [-117.3484381677, 33.9719877509]}, "type": "Feature", "properties": {"collection_times": [{"days": "Mon-Sat", "time": "5:00pm"}, {"days": "Sun", "time": "Closed"}], "id": "9250700072", "name": "USPS COLLECTION BOX - APC", "address": {"city": "RIVERSIDE", "state": "CA", "street": "4150 CHICAGO AVE", "postcode": "92507"}}},
{"geometry": {"type": "Point", "coordinates": [-117.3483531088, 33.9938166542]}, "type": "Feature", "properties": {"collection_times": [{"days": "Mon-Sat", "time": "3:00pm"}, {"days": "Sun", "time": "Closed"}], "id": "9250700073", "name": "USPS COLLECTION BOX - BLUE BOX", "address": {"city": "RIVERSIDE", "state": "CA", "street": "1960 CHICAGO AVE", "postcode": "92507"}}},
{"geometry": {"type": "Point", "coordinates": [-117.3484381673, 33.971987751]}, "type": "Feature", "properties": {"collection_times": [{"days": "Mon-Sat", "time": "5:00pm"}, {"days": "Sun", "time": "Closed"}], "id": "9250700075", "name": "USPS COLLECTION BOX - BLUE BOX", "address": {"city": "RIVERSIDE", "state": "CA", "street": "4150 CHICAGO AVE", "postcode": "92507"}}},
{"geometry": {"type": "Point", "coordinates": [-117.3484381673, 33.971987751]}, "type": "Feature", "properties": {"collection_times": [{"days": "Mon-Sat", "time": "5:00pm"}, {"days": "Sun", "time": "Closed"}], "id": "9250700076", "name": "USPS COLLECTION BOX - BLUE BOX", "address": {"city": "RIVERSIDE", "state": "CA", "street": "4150 CHICAGO AVE", "postcode": "92507"}}},
{"geometry": {"type": "Point", "coordinates": [-117.3258544122, 33.9162973532]}, "type": "Feature", "properties": {"collection_times": [{"days": "Mon-Fri", "time": "2:00pm"}, {"days": "Sat-Sun", "time": "Closed"}], "id": "9250800001", "name": "USPS COLLECTION BOX - BLUE BOX", "address": {"city": "RIVERSIDE", "state": "CA", "street": "361 E ALESSANDRO BLVD", "postcode": "92508"}}},
{"geometry": {"type": "Point", "coordinates": [-117.4804398091, 34.0117533294]}, "type": "Feature", "properties": {"collection_times": [{"days": "Mon-Sat", "time": "2:30pm"}, {"days": "Sun", "time": "Closed"}], "id": "9250900006", "name": "USPS COLLECTION BOX - BLUE BOX", "address": {"city": "RIVERSIDE", "state": "CA", "street": "9036 MISSION BLVD", "postcode": "92509"}}},
{"geometry": {"type": "Point", "coordinates": [-117.4829123252, 33.9976801981]}, "type": "Feature", "properties": {"collection_times": [{"days": "Mon-Sat", "time": "10:45am"}, {"days": "Sun", "time": "Closed"}], "id": "9250900007", "name": "USPS COLLECTION BOX - BLUE BOX", "address": {"city": "RIVERSIDE", "state": "CA", "street": "9155 JURUPA RD", "postcode": "92509"}}},
{"geometry": {"type": "Point", "coordinates": [-117.478209003, 33.9755126384]}, "type": "Feature", "properties": {"collection_times": [{"days": "Mon-Sat", "time": "12:45pm"}, {"days": "Sun", "time": "Closed"}], "id": "9250900008", "name": "USPS COLLECTION BOX - BLUE BOX", "address": {"city": "RIVERSIDE", "state": "CA", "street": "8930 LIMONITE AVE", "postcode": "92509"}}},
{"geometry": {"type": "Point", "coordinates": [-117.4520217177, 33.978457115]}, "type": "Feature", "properties": {"collection_times": [{"days": "Mon-Sat", "time": "12:30pm"}, {"days": "Sun", "time": "Closed"}], "id": "9250900010", "name": "USPS COLLECTION BOX - BLUE BOX", "address": {"city": "RIVERSIDE", "state": "CA", "street": "7770 LIMONITE AVE", "postcode": "92509"}}},
{"geometry": {"type": "Point", "coordinates": [-117.4134631702, 33.9954798945]}, "type": "Feature", "properties": {"collection_times": [{"days": "Mon-Sat", "time": "5:00pm"}, {"days": "Sun", "time": "Closed"}], "id": "9250900016", "name": "USPS COLLECTION BOX - BLUE BOX", "address": {"city": "RIVERSIDE", "state": "CA", "street": "5757 TILTON AVE", "postcode": "92509"}}},
{"geometry": {"type": "Point", "coordinates": [-117.4559790328, 33.978392639]}, "type": "Feature", "properties": {"collection_times": [{"days": "Mon-Sat", "time": "11:30am"}, {"days": "Sun", "time": "Closed"}], "id": "9250900019", "name": "USPS COLLECTION BOX - BLUE BOX", "address": {"city": "RIVERSIDE", "state": "CA", "street": "7900 LIMONITE AVE STE G", "postcode": "92509"}}},
{"geometry": {"type": "Point", "coordinates": [-117.407502667, 33.997094992]}, "type": "Feature", "properties": {"collection_times": [{"days": "Mon-Sat", "time": "3:00pm"}, {"days": "Sun", "time": "Closed"}], "id": "9250900025", "name": "USPS COLLECTION BOX - BLUE BOX", "address": {"city": "RIVERSIDE", "state": "CA", "street": "5600 MISSION BLVD", "postcode": "92509"}}},
{"geometry": {"type": "Point", "coordinates": [-117.250613298, 33.8920160829]}, "type": "Feature", "properties": {"collection_times": [{"days": "Mon-Fri", "time": "3:15pm"}, {"days": "Sat", "time": "3:00pm"}, {"days": "Sun", "time": "Closed"}], "id": "9251800001", "name": "USPS COLLECTION BOX - BLUE BOX", "address": {"city": "RIVERSIDE", "state": "CA", "street": "1486 GRAEBER ST", "postcode": "92518"}}},
{"geometry": {"type": "Point", "coordinates": [-117.250613298, 33.8920160829]}, "type": "Feature", "properties": {"collection_times": [{"days": "Mon-Fri", "time": "3:15pm"}, {"days": "Sat", "time": "3:00pm"}, {"days": "Sun", "time": "Closed"}], "id": "9251800009", "name": "USPS COLLECTION BOX - BLUE BOX", "address": {"city": "RIVERSIDE", "state": "CA", "street": "1486 GRAEBER ST", "postcode": "92518"}}},
{"geometry": {"type": "Point", "coordinates": [-117.3355266452, 33.6832424031]}, "type": "Feature", "properties": {"collection_times": [{"days": "Mon-Sat", "time": "12:30pm"}, {"days": "Sun", "time": "Closed"}], "id": "9253000001", "name": "USPS COLLECTION BOX - BLUE BOX", "address": {"city": "LAKE ELSINORE", "state": "CA", "street": "565 CHANEY ST", "postcode": "92530"}}},
{"geometry": {"type": "Point", "coordinates": [-117.3744876155, 33.6573579273]}, "type": "Feature", "properties": {"collection_times": [{"days": "Mon-Sat", "time": "1:00pm"}, {"days": "Sun", "time": "Closed"}], "id": "9253000002", "name": "USPS COLLECTION BOX - BLUE BOX", "address": {"city": "LAKE ELSINORE", "state": "CA", "street": "15899 GRAND AVE", "postcode": "92530"}}},
{"geometry": {"type": "Point", "coordinates": [-117.2965760749, 33.6526162815]}, "type": "Feature", "properties": {"collection_times": [{"days": "Mon-Sat", "time": "1:45pm"}, {"days": "Sun", "time": "Closed"}], "id": "9253000003", "name": "USPS COLLECTION BOX - BLUE BOX", "address": {"city": "LAKE ELSINORE", "state": "CA", "street": "32295 MISSION TRAIL STE #8", "postcode": "92530"}}},
{"geometry": {"type": "Point", "coordinates": [-117.301012274, 33.6603121309]}, "type": "Feature", "properties": {"collection_times": [{"days": "Mon-Sat", "time": "2:00pm"}, {"days": "Sun", "time": "Closed"}], "id": "9253000004", "name": "USPS COLLECTION BOX - BLUE BOX", "address": {"city": "LAKE ELSINORE", "state": "CA", "street": "2505 E LAKESHORE DR", "postcode": "92530"}}},
{"geometry": {"type": "Point", "coordinates": [-117.3329651786, 33.6695167346]}, "type": "Feature", "properties": {"collection_times": [{"days": "Mon-Fri", "time": "5:00pm"}, {"days": "Sat", "time": "4:00pm"}, {"days": "Sun", "time": "Closed"}], "id": "9253000008", "name": "USPS COLLECTION BOX - BLUE BOX", "address": {"city": "LAKE ELSINORE", "state": "CA", "street": "500 W GRAHAM AVE", "postcode": "92530"}}},
{"geometry": {"type": "Point", "coordinates": [-117.3657671554, 33.685559804]}, "type": "Feature", "properties": {"collection_times": [{"days": "Mon-Sat", "time": "12:30pm"}, {"days": "Sun", "time": "Closed"}], "id": "9253000010", "name": "USPS COLLECTION BOX - BLUE BOX", "address": {"city": "LAKE ELSINORE", "state": "CA", "street": "30871 RIVERSIDE DR", "postcode": "92530"}}},
{"geometry": {"type": "Point", "coordinates": [-117.3727613698, 33.677780418]}, "type": "Feature", "properties": {"collection_times": [{"days": "Mon-Sat", "time": "12:45pm"}, {"days": "Sun", "time": "Closed"}], "id": "9253000011", "name": "USPS COLLECTION BOX - BLUE BOX", "address": {"city": "LAKE ELSINORE", "state": "CA", "street": "31735 RIVERSIDE DR", "postcode": "92530"}}},
{"geometry": {"type": "Point", "coordinates": [-117.3598056671, 33.7060311971]}, "type": "Feature", "properties": {"collection_times": [{"days": "Mon-Sat", "time": "12:30pm"}, {"days": "Sun", "time": "Closed"}], "id": "9253000013", "name": "USPS COLLECTION BOX - BLUE BOX", "address": {"city": "LAKE ELSINORE", "state": "CA", "street": "17600 COLLIER AVE", "postcode": "92530"}}},
{"geometry": {"type": "Point", "coordinates": [-117.3494795957, 33.6764511016]}, "type": "Feature", "properties": {"collection_times": [{"days": "Mon-Sat", "time": "1:45pm"}, {"days": "Sun", "time": "Closed"}], "id": "9253000016", "name": "USPS COLLECTION BOX - EXPRESS", "address": {"city": "LAKE ELSINORE", "state": "CA", "street": "32295 MISSION TRAIL STE #8", "postcode": "92530"}}},
{"geometry": {"type": "Point", "coordinates": [-117.3329651786, 33.6695167346]}, "type": "Feature", "properties": {"collection_times": [{"days": "Mon-Fri", "time": "5:00pm"}, {"days": "Sat", "time": "4:00pm"}, {"days": "Sun", "time": "Closed"}], "id": "9253000020", "name": "USPS COLLECTION BOX - BLUE BOX", "address": {"city": "LAKE ELSINORE", "state": "CA", "street": "500 W GRAHAM AVE", "postcode": "92530"}}},
{"geometry": {"type": "Point", "coordinates": [-117.3494795957, 33.6764511016]}, "type": "Feature", "properties": {"collection_times": [{"days": "Mon-Sat", "time": "12:45pm"}, {"days": "Sun", "time": "Closed"}], "id": "9253000021", "name": "USPS COLLECTION BOX - EXPRESS", "address": {"city": "LAKE ELSINORE", "state": "CA", "street": "31735 RIVERSIDE DR", "postcode": "92530"}}},
{"geometry": {"type": "Point", "coordinates": [-117.3758296967, 33.6902812133]}, "type": "Feature", "properties": {"collection_times": [{"days": "Mon-Sat", "time": "12:45pm"}, {"days": "Sun", "time": "Closed"}], "id": "9253000029", "name": "USPS COLLECTION BOX - BLUE BOX", "address": {"city": "LAKE ELSINORE", "state": "CA", "street": "16331 LAKESHORE DR", "postcode": "92530"}}},
{"geometry": {"type": "Point", "coordinates": [-117.3494795957, 33.6764511016]}, "type": "Feature", "properties": {"collection_times": [{"days": "Mon-Fri", "time": "5:00pm"}, {"days": "Sat", "time": "4:00pm"}, {"days": "Sun", "time": "Closed"}], "id": "9253000030", "name": "USPS COLLECTION BOX - EXPRESS", "address": {"city": "LAKE ELSINORE", "state": "CA", "street": "500 W GRAHAM AVE", "postcode": "92530"}}},
{"geometry": {"type": "Point", "coordinates": [-117.2949082057, 33.6595574031]}, "type": "Feature", "properties": {"collection_times": [{"days": "Mon-Sat", "time": "1:30pm"}, {"days": "Sun", "time": "Closed"}], "id": "9253200000", "name": "USPS COLLECTION BOX - BLUE BOX", "address": {"city": "LAKE ELSINORE", "state": "CA", "street": "31564 GRAPE ST", "postcode": "92532"}}},
{"geometry": {"type": "Point", "coordinates": [-116.8079735699, 33.4828241065]}, "type": "Feature", "properties": {"collection_times": [{"days": "Mon-Sat", "time": "12:00pm"}, {"days": "Sun", "time": "Closed"}], "id": "9253600000", "name": "USPS COLLECTION BOX - BLUE BOX", "address": {"city": "AGUANGA", "state": "CA", "street": "41000 MEADOWVIEW", "postcode": "92536"}}},
{"geometry": {"type": "Point", "coordinates": [-116.8016707379, 33.5080014545]}, "type": "Feature", "properties": {"collection_times": [{"days": "Mon-Sat", "time": "12:00pm"}, {"days": "Sun", "time": "Closed"}], "id": "9253600001", "name": "USPS COLLECTION BOX - BLUE BOX", "address": {"city": "AGUANGA", "state": "CA", "street": "42000 LAKESHORE BLVD", "postcode": "92536"}}},
{"geometry": {"type": "Point", "coordinates": [-116.8652909958, 33.4428480427]}, "type": "Feature", "properties": {"collection_times": [{"days": "Mon-Sat", "time": "4:15pm"}, {"days": "Sun", "time": "Closed"}], "id": "9253600002", "name": "USPS COLLECTION BOX - BLUE BOX", "address": {"city": "AGUANGA", "state": "CA", "street": "45600 HIGHWAY 79", "postcode": "92536"}}},
{"geometry": {"type": "Point", "coordinates": [-116.872453449, 33.4442328464]}, "type": "Feature", "properties": {"collection_times": [{"days": "Mon-Sat", "time": "11:00am"}, {"days": "Sun", "time": "Closed"}], "id": "9253600005", "name": "USPS COLLECTION BOX - BLUE BOX", "address": {"city": "AGUANGA", "state": "CA", "street": "45120 HIGHWAY 79", "postcode": "92536"}}},
{"geometry": {"type": "Point", "coordinates": [-116.6733, 33.55508]}, "type": "Feature", "properties": {"collection_times": [{"days": "Mon-Sat", "time": "10:30am"}, {"days": "Sun", "time": "Closed"}], "id": "9253900002", "name": "USPS COLLECTION BOX - BLUE BOX", "address": {"city": "ANZA", "state": "CA", "street": "56595 US HIGHWAY 371", "postcode": "92539"}}},
{"geometry": {"type": "Point", "coordinates": [-116.6746378679, 33.5578785312]}, "type": "Feature", "properties": {"collection_times": [{"days": "Mon-Fri", "time": "3:30pm"}, {"days": "Sat", "time": "1:00pm"}, {"days": "Sun", "time": "Closed"}], "id": "9253900003", "name": "USPS COLLECTION BOX - BLUE BOX", "address": {"city": "ANZA", "state": "CA", "street": "38775 CONTRERAS RD", "postcode": "92539"}}},
{"geometry": {"type": "Point", "coordinates": [-116.9587504692, 33.7560265592]}, "type": "Feature", "properties": {"collection_times": [{"days": "Mon-Fri", "time": "1:30pm"}, {"days": "Sat", "time": "1:00pm"}, {"days": "Sun", "time": "Closed"}], "id": "9254300005", "name": "USPS COLLECTION BOX - BLUE BOX", "address": {"city": "HEMET", "state": "CA", "street": "567 N SAN JACINTO ST", "postcode": "92543"}}},
{"geometry": {"type": "Point", "coordinates": [-116.9603484831, 33.7584941761]}, "type": "Feature", "properties": {"collection_times": [{"days": "Mon-Fri", "time": "1:30pm"}, {"days": "Sat", "time": "1:00pm"}, {"days": "Sun", "time": "Closed"}], "id": "9254300006", "name": "USPS COLLECTION BOX - BLUE BOX", "address": {"city": "HEMET", "state": "CA", "street": "1101 E MENLO AVE", "postcode": "92543"}}},
{"geometry": {"type": "Point", "coordinates": [-116.9513882844, 33.7475857905]}, "type": "Feature", "properties": {"collection_times": [{"days": "Mon-Fri", "time": "5:00pm"}, {"days": "Sat", "time": "12:00pm"}, {"days": "Sun", "time": "Closed"}], "id": "9254300008", "name": "USPS COLLECTION BOX - BLUE BOX", "address": {"city": "HEMET", "state": "CA", "street": "1957 E FLORIDA AVE", "postcode": "92543"}}},
{"geometry": {"type": "Point", "coordinates": [-116.985959953, 33.739613012]}, "type": "Feature", "properties": {"collection_times": [{"days": "Mon-Sat", "time": "1:30pm"}, {"days": "Sun", "time": "Closed"}], "id": "9254300013", "name": "USPS COLLECTION BOX - BLUE BOX", "address": {"city": "HEMET", "state": "CA", "street": "1401 TEAKWOOD PL", "postcode": "92543"}}},
{"geometry": {"type": "Point", "coordinates": [-116.9673815335, 33.7481399561]}, "type": "Feature", "properties": {"collection_times": [{"days": "Mon-Fri", "time": "3:45pm"}, {"days": "Sat", "time": "12:15pm"}, {"days": "Sun", "time": "Closed"}], "id": "9254300018", "name": "USPS COLLECTION BOX - BLUE BOX", "address": {"city": "HEMET", "state": "CA", "street": "115 N BUENA VISTA ST", "postcode": "92543"}}},
{"geometry": {"type": "Point", "coordinates": [-116.9816795991, 33.7351378343]}, "type": "Feature", "properties": {"collection_times": [{"days": "Mon-Sat", "time": "1:30pm"}, {"days": "Sun", "time": "Closed"}], "id": "9254300021", "name": "USPS COLLECTION BOX - BLUE BOX", "address": {"city": "HEMET", "state": "CA", "street": "800 SAN JUAN DR", "postcode": "92543"}}},
{"geometry": {"type": "Point", "coordinates": [-116.9607427087, 33.7476023528]}, "type": "Feature", "properties": {"collection_times": [{"days": "Mon-Fri", "time": "4:00pm"}, {"days": "Sat", "time": "1:00pm"}, {"days": "Sun", "time": "Closed"}], "id": "9254300024", "name": "USPS COLLECTION BOX - BLUE BOX", "address": {"city": "HEMET", "state": "CA", "street": "100 LAURSEN ST", "postcode": "92543"}}},
{"geometry": {"type": "Point", "coordinates": [-116.9694392942, 33.7511270579]}, "type": "Feature", "properties": {"collection_times": [{"days": "Mon-Fri", "time": "1:30pm"}, {"days": "Sat", "time": "1:00pm"}, {"days": "Sun", "time": "Closed"}], "id": "9254300026", "name": "USPS COLLECTION BOX - BLUE BOX", "address": {"city": "HEMET", "state": "CA", "street": "305 E DEVONSHIRE AVE", "postcode": "92543"}}},
{"geometry": {"type": "Point", "coordinates": [-116.9715427864, 33.7428142549]}, "type": "Feature", "properties": {"collection_times": [{"days": "Mon-Sat", "time": "5:15pm"}, {"days": "Sun", "time": "Closed"}], "id": "9254300028", "name": "USPS COLLECTION BOX - APC", "address": {"city": "HEMET", "state": "CA", "street": "324 S STATE ST", "postcode": "92543"}}},
{"geometry": {"type": "Point", "coordinates": [-116.9715427864, 33.7428142549]}, "type": "Feature", "properties": {"collection_times": [{"days": "Mon-Sat", "time": "5:15pm"}, {"days": "Sun", "time": "Closed"}], "id": "9254300029", "name": "USPS COLLECTION BOX - BLUE BOX", "address": {"city": "HEMET", "state": "CA", "street": "324 S STATE ST", "postcode": "92543"}}},
{"geometry": {"type": "Point", "coordinates": [-116.979303193, 33.7021151693]}, "type": "Feature", "properties": {"collection_times": [{"days": "Mon-Fri", "time": "1:30pm"}, {"days": "Sat", "time": "1:45pm"}, {"days": "Sun", "time": "Closed"}], "id": "9254300030", "name": "USPS COLLECTION BOX - BLUE BOX", "address": {"city": "HEMET", "state": "CA", "street": "332 N LYON AVE", "postcode": "92543"}}},
{"geometry": {"type": "Point", "coordinates": [-116.9717409906, 33.7616854883]}, "type": "Feature", "properties": {"collection_times": [{"days": "Mon-Fri", "time": "1:30pm"}, {"days": "Sat", "time": "1:00pm"}, {"days": "Sun", "time": "Closed"}], "id": "9254300031", "name": "USPS COLLECTION BOX - BLUE BOX", "address": {"city": "HEMET", "state": "CA", "street": "880 N STATE ST", "postcode": "92543"}}},
{"geometry": {"type": "Point", "coordinates": [-116.9715427864, 33.7428142549]}, "type": "Feature", "properties": {"collection_times": [{"days": "Mon-Sat", "time": "5:15pm"}, {"days": "Sun", "time": "Closed"}], "id": "9254300037", "name": "USPS COLLECTION BOX - BLUE BOX", "address": {"city": "HEMET", "state": "CA", "street": "324 S STATE ST", "postcode": "92543"}}},
{"geometry": {"type": "Point", "coordinates": [-116.9715427864, 33.7428142549]}, "type": "Feature", "properties": {"collection_times": [{"days": "Mon-Sat", "time": "5:15pm"}, {"days": "Sun", "time": "Closed"}], "id": "9254300038", "name": "USPS COLLECTION BOX - BLUE BOX", "address": {"city": "HEMET", "state": "CA", "street": "324 S STATE ST", "postcode": "92543"}}},
{"geometry": {"type": "Point", "coordinates": [-116.9742579558, 33.7411221635]}, "type": "Feature", "properties": {"collection_times": [{"days": "Mon-Sat", "time": "5:15pm"}, {"days": "Sun", "time": "Closed"}], "id": "9254300039", "name": "USPS COLLECTION BOX - EXPRESS", "address": {"city": "HEMET", "state": "CA", "street": "324 S STATE ST", "postcode": "92543"}}},
{"geometry": {"type": "Point", "coordinates": [-116.9629332484, 33.7385021696]}, "type": "Feature", "properties": {"collection_times": [{"days": "Mon-Fri", "time": "1:30pm"}, {"days": "Sat", "time": "12:15pm"}, {"days": "Sun", "time": "Closed"}], "id": "9254300046", "name": "USPS COLLECTION BOX - BLUE BOX", "address": {"city": "HEMET", "state": "CA", "street": "600 S SANTA FE ST", "postcode": "92543"}}},
{"geometry": {"type": "Point", "coordinates": [-116.9705905418, 33.7485679675]}, "type": "Feature", "properties": {"collection_times": [{"days": "Mon-Fri", "time": "1:30pm"}, {"days": "Sat", "time": "1:00pm"}, {"days": "Sun", "time": "Closed"}], "id": "9254300048", "name": "USPS COLLECTION BOX - BLUE BOX", "address": {"city": "HEMET", "state": "CA", "street": "145 N HARVARD ST", "postcode": "92543"}}},
{"geometry": {"type": "Point", "coordinates": [-116.9556663315, 33.7476156855]}, "type": "Feature", "properties": {"collection_times": [{"days": "Mon-Fri", "time": "4:00pm"}, {"days": "Sat", "time": "1:00pm"}, {"days": "Sun", "time": "Closed"}], "id": "9254400001", "name": "USPS COLLECTION BOX - BLUE BOX", "address": {"city": "HEMET", "state": "CA", "street": "1600 E FLORIDA AVE", "postcode": "92544"}}},
{"geometry": {"type": "Point", "coordinates": [-116.931047459, 33.7476826254]}, "type": "Feature", "properties": {"collection_times": [{"days": "Mon-Fri", "time": "4:00pm"}, {"days": "Sat", "time": "12:45pm"}, {"days": "Sun", "time": "Closed"}], "id": "9254400002", "name": "USPS COLLECTION BOX - BLUE BOX", "address": {"city": "HEMET", "state": "CA", "street": "41871 STATE HIGHWAY 74", "postcode": "92544"}}},
{"geometry": {"type": "Point", "coordinates": [-116.9038053663, 33.7478694694]}, "type": "Feature", "properties": {"collection_times": [{"days": "Mon-Fri", "time": "1:30pm"}, {"days": "Sat", "time": "1:00pm"}, {"days": "Sun", "time": "Closed"}], "id": "9254400003", "name": "USPS COLLECTION BOX - BLUE BOX", "address": {"city": "HEMET", "state": "CA", "street": "43396 STATE HIGHWAY 74", "postcode": "92544"}}},
{"geometry": {"type": "Point", "coordinates": [-116.931047459, 33.7476826254]}, "type": "Feature", "properties": {"collection_times": [{"days": "Mon-Fri", "time": "4:00pm"}, {"days": "Sat", "time": "12:45pm"}, {"days": "Sun", "time": "Closed"}], "id": "9254400006", "name": "USPS COLLECTION BOX - BLUE BOX", "address": {"city": "HEMET", "state": "CA", "street": "41871 STATE HIGHWAY 74", "postcode": "92544"}}},
{"geometry": {"type": "Point", "coordinates": [-116.8931422184, 33.7476499913]}, "type": "Feature", "properties": {"collection_times": [{"days": "Mon-Fri", "time": "1:30pm"}, {"days": "Sat", "time": "1:00pm"}, {"days": "Sun", "time": "Closed"}], "id": "9254400008", "name": "USPS COLLECTION BOX - BLUE BOX", "address": {"city": "HEMET", "state": "CA", "street": "25757 FAIRVIEW AVE", "postcode": "92544"}}},
{"geometry": {"type": "Point", "coordinates": [-116.9955805499, 33.7474122166]}, "type": "Feature", "properties": {"collection_times": [{"days": "Mon-Fri", "time": "1:30pm"}, {"days": "Sat", "time": "1:00pm"}, {"days": "Sun", "time": "Closed"}], "id": "9254500000", "name": "USPS COLLECTION BOX - BLUE BOX", "address": {"city": "HEMET", "state": "CA", "street": "2200 W FLORIDA AVE", "postcode": "92545"}}},
{"geometry": {"type": "Point", "coordinates": [-117.0046306384, 33.7474189618]}, "type": "Feature", "properties": {"collection_times": [{"days": "Mon-Fri", "time": "4:00pm"}, {"days": "Sat", "time": "1:00pm"}, {"days": "Sun", "time": "Closed"}], "id": "9254500002", "name": "USPS COLLECTION BOX - BLUE BOX", "address": {"city": "HEMET", "state": "CA", "street": "3120 W FLORIDA AVE", "postcode": "92545"}}},
{"geometry": {"type": "Point", "coordinates": [-117.0046306384, 33.7474189618]}, "type": "Feature", "properties": {"collection_times": [{"days": "Mon-Fri", "time": "4:00pm"}, {"days": "Sat", "time": "1:00pm"}, {"days": "Sun", "time": "Closed"}], "id": "9254500003", "name": "USPS COLLECTION BOX - BLUE BOX", "address": {"city": "HEMET", "state": "CA", "street": "3120 W FLORIDA AVE", "postcode": "92545"}}},
{"geometry": {"type": "Point", "coordinates": [-117.0044503763, 33.7473625323]}, "type": "Feature", "properties": {"collection_times": [{"days": "Mon-Fri", "time": "1:30pm"}, {"days": "Sat", "time": "1:00pm"}, {"days": "Sun", "time": "Closed"}], "id": "9254500004", "name": "USPS COLLECTION BOX - BLUE BOX", "address": {"city": "HEMET", "state": "CA", "street": "3055 W FLORIDA AVE", "postcode": "92545"}}},
{"geometry": {"type": "Point", "coordinates": [-117.0103284993, 33.7470230231]}, "type": "Feature", "properties": {"collection_times": [{"days": "Mon-Fri", "time": "10:30am"}, {"days": "Sat", "time": "10:00am"}, {"days": "Sun", "time": "Closed"}], "id": "9254500006", "name": "USPS COLLECTION BOX - BLUE BOX", "address": {"city": "HEMET", "state": "CA", "street": "3600 W FLORIDA AVE", "postcode": "92545"}}},
{"geometry": {"type": "Point", "coordinates": [-117.0153347817, 33.7274888217]}, "type": "Feature", "properties": {"collection_times": [{"days": "Mon-Sat", "time": "1:00pm"}, {"days": "Sun", "time": "Closed"}], "id": "9254500009", "name": "USPS COLLECTION BOX - BLUE BOX", "address": {"city": "HEMET", "state": "CA", "street": "1295 S CAWSTON AVE", "postcode": "92545"}}},
{"geometry": {"type": "Point", "coordinates": [-116.9904094892, 33.7473958015]}, "type": "Feature", "properties": {"collection_times": [{"days": "Mon-Fri", "time": "1:30pm"}, {"days": "Sat", "time": "1:00pm"}, {"days": "Sun", "time": "Closed"}], "id": "9254500010", "name": "USPS COLLECTION BOX - BLUE BOX", "address": {"city": "HEMET", "state": "CA", "street": "1761 W FLORIDA AVE", "postcode": "92545"}}},
{"geometry": {"type": "Point", "coordinates": [-117.0135866522, 33.7457715094]}, "type": "Feature", "properties": {"collection_times": [{"days": "Mon-Fri", "time": "2:00pm"}, {"days": "Sat", "time": "1:00pm"}, {"days": "Sun", "time": "Closed"}], "id": "9254500011", "name": "USPS COLLECTION BOX - BLUE BOX", "address": {"city": "HEMET", "state": "CA", "street": "3881 W FLORIDA AVE", "postcode": "92545"}}},
{"geometry": {"type": "Point", "coordinates": [-116.9950791696, 33.7209246353]}, "type": "Feature", "properties": {"collection_times": [{"days": "Mon-Fri", "time": "1:45pm"}, {"days": "Sat", "time": "1:30pm"}, {"days": "Sun", "time": "Closed"}], "id": "9254500013", "name": "USPS COLLECTION BOX - BLUE BOX", "address": {"city": "HEMET", "state": "CA", "street": "1497 SEVEN HILLS DR", "postcode": "92545"}}},
{"geometry": {"type": "Point", "coordinates": [-117.1225735607, 33.7414642989]}, "type": "Feature", "properties": {"collection_times": [{"days": "Mon-Sat", "time": "11:00am"}, {"days": "Sun", "time": "Closed"}], "id": "9254800002", "name": "USPS COLLECTION BOX - BLUE BOX", "address": {"city": "HOMELAND", "state": "CA", "street": "30777 BUTIA PALM AVE", "postcode": "92548"}}},
{"geometry": {"type": "Point", "coordinates": [-117.108987277, 33.7433487525]}, "type": "Feature", "properties": {"collection_times": [{"days": "Mon-Fri", "time": "5:00pm"}, {"days": "Sat", "time": "11:00am"}, {"days": "Sun", "time": "Closed"}], "id": "9254800004", "name": "USPS COLLECTION BOX - BLUE BOX", "address": {"city": "HOMELAND", "state": "CA", "street": "31610 US HIGHWAY 74", "postcode": "92548"}}},
{"geometry": {"type": "Point", "coordinates": [-116.7128486255, 33.7438479612]}, "type": "Feature", "properties": {"collection_times": [{"days": "Mon-Fri", "time": "3:30pm"}, {"days": "Sat", "time": "2:15pm"}, {"days": "Sun", "time": "Closed"}], "id": "9254900002", "name": "USPS COLLECTION BOX - BLUE BOX", "address": {"city": "IDYLLWILD", "state": "CA", "street": "54391 VILLAGE CENTER DR", "postcode": "92549"}}},
{"geometry": {"type": "Point", "coordinates": [-116.7385066313, 33.760317835]}, "type": "Feature", "properties": {"collection_times": [{"days": "Mon-Sat", "time": "2:00pm"}, {"days": "Sun", "time": "Closed"}], "id": "9254900003", "name": "USPS COLLECTION BOX - BLUE BOX", "address": {"city": "IDYLLWILD", "state": "CA", "street": "24917 MARION RIDGE", "postcode": "92549"}}},
{"geometry": {"type": "Point", "coordinates": [-117.2602143852, 33.9330728943]}, "type": "Feature", "properties": {"collection_times": [{"days": "Mon-Sat", "time": "1:00pm"}, {"days": "Sun", "time": "Closed"}], "id": "9255300019", "name": "USPS COLLECTION BOX - BLUE BOX", "address": {"city": "MORENO VALLEY", "state": "CA", "street": "23025 ATLANTIC CIR", "postcode": "92553"}}},
{"geometry": {"type": "Point", "coordinates": [-117.2590313877, 33.9244678252]}, "type": "Feature", "properties": {"collection_times": [{"days": "Mon-Sat", "time": "2:45pm"}, {"days": "Sun", "time": "Closed"}], "id": "9255300023", "name": "USPS COLLECTION BOX - BLUE BOX", "address": {"city": "MORENO VALLEY", "state": "CA", "street": "23119 COTTONWOOD AVE", "postcode": "92553"}}},
{"geometry": {"type": "Point", "coordinates": [-117.2260703029, 33.8889671873]}, "type": "Feature", "properties": {"collection_times": [{"days": "Mon-Sat", "time": "1:45pm"}, {"days": "Sun", "time": "Closed"}], "id": "9255300031", "name": "USPS COLLECTION BOX - BLUE BOX", "address": {"city": "MORENO VALLEY", "state": "CA", "street": "15952 PERRIS BLVD", "postcode": "92553"}}},
{"geometry": {"type": "Point", "coordinates": [-117.24304, 33.92448]}, "type": "Feature", "properties": {"collection_times": [{"days": "Mon-Sat", "time": "1:00pm"}, {"days": "Sun", "time": "Closed"}], "id": "9255300037", "name": "USPS COLLECTION BOX - BLUE BOX", "address": {"city": "MORENO VALLEY", "state": "CA", "street": "22520 MARCH MEMORIAL DR", "postcode": "92553"}}},
{"geometry": {"type": "Point", "coordinates": [-117.2510391239, 33.9173758064]}, "type": "Feature", "properties": {"collection_times": [{"days": "Mon-Sat", "time": "5:00pm"}, {"days": "Sun", "time": "Closed"}], "id": "9255300041", "name": "USPS COLLECTION BOX - BLUE BOX", "address": {"city": "MORENO VALLEY", "state": "CA", "street": "23580 ALESSANDRO BLVD", "postcode": "92553"}}},
{"geometry": {"type": "Point", "coordinates": [-117.243039996, 33.9244813956]}, "type": "Feature", "properties": {"collection_times": [{"days": "Mon-Sat", "time": "5:00pm"}, {"days": "Sun", "time": "Closed"}], "id": "9255300045", "name": "USPS COLLECTION BOX - EXPRESS", "address": {"city": "MORENO VALLEY", "state": "CA", "street": "23580 ALESSANDRO BLVD", "postcode": "92553"}}},
{"geometry": {"type": "Point", "coordinates": [-117.2590313877, 33.9244678252]}, "type": "Feature", "properties": {"collection_times": [{"days": "Mon-Sat", "time": "2:45pm"}, {"days": "Sun", "time": "Closed"}], "id": "9255300048", "name": "USPS COLLECTION BOX - BLUE BOX", "address": {"city": "MORENO VALLEY", "state": "CA", "street": "23119 COTTONWOOD AVE", "postcode": "92553"}}},
{"geometry": {"type": "Point", "coordinates": [-117.2510391239, 33.9173758064]}, "type": "Feature", "properties": {"collection_times": [{"days": "Mon-Sat", "time": "5:30pm"}, {"days": "Sun", "time": "Closed"}], "id": "9255300064", "name": "USPS COLLECTION BOX - APC", "address": {"city": "MORENO VALLEY", "state": "CA", "street": "23580 ALESSANDRO BLVD", "postcode": "92553"}}},
{"geometry": {"type": "Point", "coordinates": [-117.2003131149, 33.9100884186]}, "type": "Feature", "properties": {"collection_times": [{"days": "Mon-Sat", "time": "2:15pm"}, {"days": "Sun", "time": "Closed"}], "id": "9255500001", "name": "USPS COLLECTION BOX - BLUE BOX", "address": {"city": "MORENO VALLEY", "state": "CA", "street": "26520 CACTUS AVE", "postcode": "92555"}}},
{"geometry": {"type": "Point", "coordinates": [-117.2428520965, 33.9400440715]}, "type": "Feature", "properties": {"collection_times": [{"days": "Mon-Sat", "time": "5:00pm"}, {"days": "Sun", "time": "Closed"}], "id": "9255700016", "name": "USPS COLLECTION BOX - BLUE BOX", "address": {"city": "MORENO VALLEY", "state": "CA", "street": "24040 POSTAL AVE", "postcode": "92557"}}},
{"geometry": {"type": "Point", "coordinates": [-117.2262800243, 33.9411631506]}, "type": "Feature", "properties": {"collection_times": [{"days": "Mon-Sat", "time": "1:45pm"}, {"days": "Sun", "time": "Closed"}], "id": "9255700019", "name": "USPS COLLECTION BOX - BLUE BOX", "address": {"city": "MORENO VALLEY", "state": "CA", "street": "12350 PERRIS BLVD", "postcode": "92557"}}},
{"geometry": {"type": "Point", "coordinates": [-117.255203154, 33.9727763323]}, "type": "Feature", "properties": {"collection_times": [{"days": "Mon-Sat", "time": "1:30pm"}, {"days": "Sun", "time": "Closed"}], "id": "9255700023", "name": "USPS COLLECTION BOX - BLUE BOX", "address": {"city": "MORENO VALLEY", "state": "CA", "street": "23579 SUNNYMEAD RANCH PKWY", "postcode": "92557"}}},
{"geometry": {"type": "Point", "coordinates": [-116.4569171077, 33.592700966]}, "type": "Feature", "properties": {"collection_times": [{"days": "Mon-Sat", "time": "11:00am"}, {"days": "Sun", "time": "Closed"}], "id": "9256100001", "name": "USPS COLLECTION BOX - BLUE BOX", "address": {"city": "MOUNTAIN CENTER", "state": "CA", "street": "63270 PINYON DR", "postcode": "92561"}}},
{"geometry": {"type": "Point", "coordinates": [-116.7250085507, 33.7061804923]}, "type": "Feature", "properties": {"collection_times": [{"days": "Mon-Fri", "time": "3:30pm"}, {"days": "Sat", "time": "9:30am"}, {"days": "Sun", "time": "Closed"}], "id": "9256100002", "name": "USPS COLLECTION BOX - BLUE BOX", "address": {"city": "MOUNTAIN CENTER", "state": "CA", "street": "29480 US HIGHWAY 243", "postcode": "92561"}}},
{"geometry": {"type": "Point", "coordinates": [-116.4741757598, 33.5270716141]}, "type": "Feature", "properties": {"collection_times": [{"days": "Mon-Sat", "time": "10:45am"}, {"days": "Sun", "time": "Closed"}], "id": "9256100007", "name": "USPS COLLECTION BOX - BLUE BOX", "address": {"city": "MOUNTAIN CENTER", "state": "CA", "street": "CORNER PYRAMID & HWY.74", "postcode": "92561"}}},
{"geometry": {"type": "Point", "coordinates": [-116.4352825193, 33.6124815544]}, "type": "Feature", "properties": {"collection_times": [{"days": "Mon-Sat", "time": "10:00am"}, {"days": "Sun", "time": "Closed"}], "id": "9256100008", "name": "USPS COLLECTION BOX - BLUE BOX", "address": {"city": "MOUNTAIN CENTER", "state": "CA", "street": "60000 CARRIZO RD", "postcode": "92561"}}},
{"geometry": {"type": "Point", "coordinates": [-117.2121483965, 33.5518040369]}, "type": "Feature", "properties": {"collection_times": [{"days": "Mon-Fri", "time": "5:00pm"}, {"days": "Sat", "time": "1:00pm"}, {"days": "Sun", "time": "Closed"}], "id": "9256200001", "name": "USPS COLLECTION BOX - BLUE BOX", "address": {"city": "MURRIETA", "state": "CA", "street": "24930 WASHINGTON AVE", "postcode": "92562"}}},
{"geometry": {"type": "Point", "coordinates": [-117.2069841128, 33.5820845379]}, "type": "Feature", "properties": {"collection_times": [{"days": "Mon-Sat", "time": "12:00pm"}, {"days": "Sun", "time": "Closed"}], "id": "9256200002", "name": "USPS COLLECTION BOX - BLUE BOX", "address": {"city": "MURRIETA", "state": "CA", "street": "40710 AVENIDA FLORITA", "postcode": "92562"}}},
{"geometry": {"type": "Point", "coordinates": [-117.1820515545, 33.5723721444]}, "type": "Feature", "properties": {"collection_times": [{"days": "Mon-Fri", "time": "3:00pm"}, {"days": "Sat", "time": "12:00pm"}, {"days": "Sun", "time": "Closed"}], "id": "9256200003", "name": "USPS COLLECTION BOX - BLUE BOX", "address": {"city": "MURRIETA", "state": "CA", "street": "39840 LOS ALAMOS RD", "postcode": "92562"}}},
{"geometry": {"type": "Point", "coordinates": [-117.2022732657, 33.5738721155]}, "type": "Feature", "properties": {"collection_times": [{"days": "Mon-Fri", "time": "3:00pm"}, {"days": "Sat", "time": "12:00pm"}, {"days": "Sun", "time": "Closed"}], "id": "9256200004", "name": "USPS COLLECTION BOX - BLUE BOX", "address": {"city": "MURRIETA", "state": "CA", "street": "40575 CALIFORNIA OAKS RD", "postcode": "92562"}}},
{"geometry": {"type": "Point", "coordinates": [-117.185150907, 33.5585989532]}, "type": "Feature", "properties": {"collection_times": [{"days": "Mon-Fri", "time": "3:00pm"}, {"days": "Sat", "time": "12:00pm"}, {"days": "Sun", "time": "Closed"}], "id": "9256200005", "name": "USPS COLLECTION BOX - BLUE BOX", "address": {"city": "MURRIETA", "state": "CA", "street": "25405 HANCOCK AVE", "postcode": "92562"}}},
{"geometry": {"type": "Point", "coordinates": [-117.2215365638, 33.5672306983]}, "type": "Feature", "properties": {"collection_times": [{"days": "Mon-Fri", "time": "5:00pm"}, {"days": "Sat", "time": "1:00pm"}, {"days": "Sun", "time": "Closed"}], "id": "9256200007", "name": "USPS COLLECTION BOX - EXPRESS", "address": {"city": "MURRIETA", "state": "CA", "street": "24930 WASHINGTON AVE", "postcode": "92562"}}},
{"geometry": {"type": "Point", "coordinates": [-117.2677140258, 33.5487527934]}, "type": "Feature", "properties": {"collection_times": [{"days": "Mon-Fri", "time": "1:00pm"}, {"days": "Sat", "time": "12:00pm"}, {"days": "Sun", "time": "Closed"}], "id": "9256200011", "name": "USPS COLLECTION BOX - BLUE BOX", "address": {"city": "MURRIETA", "state": "CA", "street": "1 CALLE DE OSO ORO", "postcode": "92562"}}},
{"geometry": {"type": "Point", "coordinates": [-117.2121483965, 33.5518040369]}, "type": "Feature", "properties": {"collection_times": [{"days": "Mon-Fri", "time": "5:00pm"}, {"days": "Sat", "time": "1:00pm"}, {"days": "Sun", "time": "Closed"}], "id": "9256200012", "name": "USPS COLLECTION BOX - BLUE BOX", "address": {"city": "MURRIETA", "state": "CA", "street": "24930 WASHINGTON AVE", "postcode": "92562"}}},
{"geometry": {"type": "Point", "coordinates": [-117.1604169996, 33.5577276987]}, "type": "Feature", "properties": {"collection_times": [{"days": "Mon-Sat", "time": "12:00pm"}, {"days": "Sun", "time": "Closed"}], "id": "9256300001", "name": "USPS COLLECTION BOX - BLUE BOX", "address": {"city": "MURRIETA", "state": "CA", "street": "28386 VIA PRINCESA", "postcode": "92563"}}},
{"geometry": {"type": "Point", "coordinates": [-117.1576262048, 33.5635822142]}, "type": "Feature", "properties": {"collection_times": [{"days": "Mon-Sat", "time": "12:00pm"}, {"days": "Sun", "time": "Closed"}], "id": "9256300003", "name": "USPS COLLECTION BOX - BLUE BOX", "address": {"city": "MURRIETA", "state": "CA", "street": "38441 VIA LA PALOMA", "postcode": "92563"}}},
{"geometry": {"type": "Point", "coordinates": [-117.178263671, 33.556531924]}, "type": "Feature", "properties": {"collection_times": [{"days": "Mon-Fri", "time": "3:00pm"}, {"days": "Sat", "time": "12:00pm"}, {"days": "Sun", "time": "Closed"}], "id": "9256300004", "name": "USPS COLLECTION BOX - BLUE BOX", "address": {"city": "MURRIETA", "state": "CA", "street": "40485 MURRIETA HOT SPRINGS RD", "postcode": "92563"}}},
{"geometry": {"type": "Point", "coordinates": [-117.1786935042, 33.5741638794]}, "type": "Feature", "properties": {"collection_times": [{"days": "Mon-Fri", "time": "5:00pm"}, {"days": "Sat", "time": "12:00pm"}, {"days": "Sun", "time": "Closed"}], "id": "9256300005", "name": "USPS COLLECTION BOX - BLUE BOX", "address": {"city": "MURRIETA", "state": "CA", "street": "39571 LOS ALAMOS RD", "postcode": "92563"}}},
{"geometry": {"type": "Point", "coordinates": [-117.1376699702, 33.5544581372]}, "type": "Feature", "properties": {"collection_times": [{"days": "Mon-Fri", "time": "3:00pm"}, {"days": "Sat-Sun", "time": "Closed"}], "id": "9256300009", "name": "USPS COLLECTION BOX - BLUE BOX", "address": {"city": "MURRIETA", "state": "CA", "street": "38900 SKY CYN", "postcode": "92563"}}},
{"geometry": {"type": "Point", "coordinates": [-117.1397890848, 33.5688912707]}, "type": "Feature", "properties": {"collection_times": [{"days": "Mon-Sat", "time": "12:00pm"}, {"days": "Sun", "time": "Closed"}], "id": "9256300010", "name": "USPS COLLECTION BOX - BLUE BOX", "address": {"city": "MURRIETA", "state": "CA", "street": "29800 HUNTER RD", "postcode": "92563"}}},
{"geometry": {"type": "Point", "coordinates": [-117.1786935042, 33.5741638794]}, "type": "Feature", "properties": {"collection_times": [{"days": "Mon-Fri", "time": "5:00pm"}, {"days": "Sat", "time": "12:00pm"}, {"days": "Sun", "time": "Closed"}], "id": "9256300011", "name": "USPS COLLECTION BOX - BLUE BOX", "address": {"city": "MURRIETA", "state": "CA", "street": "39571 LOS ALAMOS RD", "postcode": "92563"}}},
{"geometry": {"type": "Point", "coordinates": [-117.1786935042, 33.5741638794]}, "type": "Feature", "properties": {"collection_times": [{"days": "Mon-Fri", "time": "5:00pm"}, {"days": "Sat", "time": "12:00pm"}, {"days": "Sun", "time": "Closed"}], "id": "9256300012", "name": "USPS COLLECTION BOX - APC", "address": {"city": "MURRIETA", "state": "CA", "street": "39571 LOS ALAMOS RD", "postcode": "92563"}}},
{"geometry": {"type": "Point", "coordinates": [-117.1352841429, 33.8157718487]}, "type": "Feature", "properties": {"collection_times": [{"days": "Mon-Fri", "time": "4:00pm"}, {"days": "Sat", "time": "2:00pm"}, {"days": "Sun", "time": "Closed"}], "id": "9256700004", "name": "USPS COLLECTION BOX - BLUE BOX", "address": {"city": "NUEVO", "state": "CA", "street": "29245 LAKEVIEW AVE", "postcode": "92567"}}},
{"geometry": {"type": "Point", "coordinates": [-117.2273647977, 33.782368654]}, "type": "Feature", "properties": {"collection_times": [{"days": "Mon-Sat", "time": "3:30pm"}, {"days": "Sun", "time": "Closed"}], "id": "9257000006", "name": "USPS COLLECTION BOX - BLUE BOX", "address": {"city": "PERRIS", "state": "CA", "street": "155 E 4TH ST", "postcode": "92570"}}},
{"geometry": {"type": "Point", "coordinates": [-117.2172660215, 33.7785574405]}, "type": "Feature", "properties": {"collection_times": [{"days": "Mon-Fri", "time": "5:15pm"}, {"days": "Sat", "time": "4:15pm"}, {"days": "Sun", "time": "Closed"}], "id": "9257000007", "name": "USPS COLLECTION BOX - BLUE BOX", "address": {"city": "PERRIS", "state": "CA", "street": "778 S REDLANDS AVE", "postcode": "92570"}}},
{"geometry": {"type": "Point", "coordinates": [-117.3515589276, 33.834747711]}, "type": "Feature", "properties": {"collection_times": [{"days": "Mon-Sat", "time": "12:30pm"}, {"days": "Sun", "time": "Closed"}], "id": "9257000009", "name": "USPS COLLECTION BOX - BLUE BOX", "address": {"city": "PERRIS", "state": "CA", "street": "17679 CAJALCO RD", "postcode": "92570"}}},
{"geometry": {"type": "Point", "coordinates": [-117.2974872599, 33.7959300628]}, "type": "Feature", "properties": {"collection_times": [{"days": "Mon-Fri", "time": "5:15pm"}, {"days": "Sat", "time": "4:15pm"}, {"days": "Sun", "time": "Closed"}], "id": "9257000013", "name": "USPS COLLECTION BOX - EXPRESS", "address": {"city": "PERRIS", "state": "CA", "street": "778 S REDLANDS AVE", "postcode": "92570"}}},
{"geometry": {"type": "Point", "coordinates": [-117.2561553696, 33.8374269642]}, "type": "Feature", "properties": {"collection_times": [{"days": "Mon-Sat", "time": "11:45am"}, {"days": "Sun", "time": "Closed"}], "id": "9257000015", "name": "USPS COLLECTION BOX - BLUE BOX", "address": {"city": "PERRIS", "state": "CA", "street": "23261 CAJALCO RD", "postcode": "92570"}}},
{"geometry": {"type": "Point", "coordinates": [-117.226203132, 33.8194532346]}, "type": "Feature", "properties": {"collection_times": [{"days": "Mon-Sat", "time": "2:30pm"}, {"days": "Sun", "time": "Closed"}], "id": "9257100001", "name": "USPS COLLECTION BOX - BLUE BOX", "address": {"city": "PERRIS", "state": "CA", "street": "2560 N PERRIS BLVD", "postcode": "92571"}}},
{"geometry": {"type": "Point", "coordinates": [-117.2243494353, 33.8102403501]}, "type": "Feature", "properties": {"collection_times": [{"days": "Mon-Sat", "time": "2:30pm"}, {"days": "Sun", "time": "Closed"}], "id": "9257100002", "name": "USPS COLLECTION BOX - BLUE BOX", "address": {"city": "PERRIS", "state": "CA", "street": "126 AVOCADO AVE", "postcode": "92571"}}},
{"geometry": {"type": "Point", "coordinates": [-117.1895950035, 33.8339768055]}, "type": "Feature", "properties": {"collection_times": [{"days": "Mon-Sat", "time": "3:30pm"}, {"days": "Sun", "time": "Closed"}], "id": "9257100004", "name": "USPS COLLECTION BOX - BLUE BOX", "address": {"city": "PERRIS", "state": "CA", "street": "425 INDIAN AVE", "postcode": "92571"}}},
{"geometry": {"type": "Point", "coordinates": [-117.2131023537, 33.7897499464]}, "type": "Feature", "properties": {"collection_times": [{"days": "Mon-Sat", "time": "2:30pm"}, {"days": "Sun", "time": "Closed"}], "id": "9257100006", "name": "USPS COLLECTION BOX - BLUE BOX", "address": {"city": "PERRIS", "state": "CA", "street": "290 WILSON AVE", "postcode": "92571"}}},
{"geometry": {"type": "Point", "coordinates": [-116.9725105468, 33.8055430352]}, "type": "Feature", "properties": {"collection_times": [{"days": "Mon-Sat", "time": "12:30pm"}, {"days": "Sun", "time": "Closed"}], "id": "9258300002", "name": "USPS COLLECTION BOX - BLUE BOX", "address": {"city": "SAN JACINTO", "state": "CA", "street": "800 W COMMUNITY COLLEGE DR", "postcode": "92583"}}},
{"geometry": {"type": "Point", "coordinates": [-116.9584271613, 33.7730597243]}, "type": "Feature", "properties": {"collection_times": [{"days": "Mon-Fri", "time": "5:00pm"}, {"days": "Sat", "time": "4:00pm"}, {"days": "Sun", "time": "Closed"}], "id": "9258300009", "name": "USPS COLLECTION BOX - BLUE BOX", "address": {"city": "SAN JACINTO", "state": "CA", "street": "315 E ESPLANADE AVE", "postcode": "92583"}}},
{"geometry": {"type": "Point", "coordinates": [-116.9584271613, 33.7730597243]}, "type": "Feature", "properties": {"collection_times": [{"days": "Mon-Fri", "time": "5:00pm"}, {"days": "Sat", "time": "4:00pm"}, {"days": "Sun", "time": "Closed"}], "id": "9258300021", "name": "USPS COLLECTION BOX - BLUE BOX", "address": {"city": "SAN JACINTO", "state": "CA", "street": "315 E ESPLANADE AVE", "postcode": "92583"}}},
{"geometry": {"type": "Point", "coordinates": [-116.9584271613, 33.7730597243]}, "type": "Feature", "properties": {"collection_times": [{"days": "Mon-Fri", "time": "5:00pm"}, {"days": "Sat", "time": "4:00pm"}, {"days": "Sun", "time": "Closed"}], "id": "9258300022", "name": "USPS COLLECTION BOX - BLUE BOX", "address": {"city": "SAN JACINTO", "state": "CA", "street": "315 E ESPLANADE AVE", "postcode": "92583"}}},
{"geometry": {"type": "Point", "coordinates": [-116.9550240635, 33.7729258954]}, "type": "Feature", "properties": {"collection_times": [{"days": "Mon-Fri", "time": "5:00pm"}, {"days": "Sat", "time": "4:00pm"}, {"days": "Sun", "time": "Closed"}], "id": "9258300023", "name": "USPS COLLECTION BOX - EXPRESS", "address": {"city": "SAN JACINTO", "state": "CA", "street": "315 E ESPLANADE AVE", "postcode": "92583"}}},
{"geometry": {"type": "Point", "coordinates": [-117.1898082165, 33.6850170459]}, "type": "Feature", "properties": {"collection_times": [{"days": "Mon-Fri", "time": "1:15pm"}, {"days": "Sat", "time": "12:00pm"}, {"days": "Sun", "time": "Closed"}], "id": "9258400000", "name": "USPS COLLECTION BOX - BLUE BOX", "address": {"city": "SUN CITY", "state": "CA", "street": "26900 NEWPORT RD  STE #121", "postcode": "92584"}}},
{"geometry": {"type": "Point", "coordinates": [-117.167335545, 33.6832213142]}, "type": "Feature", "properties": {"collection_times": [{"days": "Mon-Fri", "time": "1:15pm"}, {"days": "Sat", "time": "12:00pm"}, {"days": "Sun", "time": "Closed"}], "id": "9258400002", "name": "USPS COLLECTION BOX - BLUE BOX", "address": {"city": "SUN CITY", "state": "CA", "street": "30125 ANTELOPE RD", "postcode": "92584"}}},
{"geometry": {"type": "Point", "coordinates": [-117.2079286119, 33.6849645147]}, "type": "Feature", "properties": {"collection_times": [{"days": "Mon-Fri", "time": "12:45pm"}, {"days": "Sat", "time": "11:30am"}, {"days": "Sun", "time": "Closed"}], "id": "9258400003", "name": "USPS COLLECTION BOX - BLUE BOX", "address": {"city": "SUN CITY", "state": "CA", "street": "25906 NEWPORT RD", "postcode": "92584"}}},
{"geometry": {"type": "Point", "coordinates": [-117.1640697914, 33.7430181296]}, "type": "Feature", "properties": {"collection_times": [{"days": "Mon-Fri", "time": "4:45pm"}, {"days": "Sat", "time": "12:00pm"}, {"days": "Sun", "time": "Closed"}], "id": "9258500000", "name": "USPS COLLECTION BOX - BLUE BOX", "address": {"city": "SUN CITY", "state": "CA", "street": "28480 US HIGHWAY 74", "postcode": "92585"}}},
{"geometry": {"type": "Point", "coordinates": [-117.206921617, 33.7329128941]}, "type": "Feature", "properties": {"collection_times": [{"days": "Mon-Sat", "time": "9:00am"}, {"days": "Sun", "time": "Closed"}], "id": "9258500001", "name": "USPS COLLECTION BOX - BLUE BOX", "address": {"city": "SUN CITY", "state": "CA", "street": "26681 CALLE GREGORIO", "postcode": "92585"}}},
{"geometry": {"type": "Point", "coordinates": [-117.1917769026, 33.6938737895]}, "type": "Feature", "properties": {"collection_times": [{"days": "Mon-Sat", "time": "9:30am"}, {"days": "Sun", "time": "Closed"}], "id": "9258600002", "name": "USPS COLLECTION BOX - BLUE BOX", "address": {"city": "SUN CITY", "state": "CA", "street": "26820 POTOMAC DR", "postcode": "92586"}}},
{"geometry": {"type": "Point", "coordinates": [-117.1879462391, 33.693633719]}, "type": "Feature", "properties": {"collection_times": [{"days": "Mon-Sat", "time": "11:30am"}, {"days": "Sun", "time": "Closed"}], "id": "9258600003", "name": "USPS COLLECTION BOX - BLUE BOX", "address": {"city": "SUN CITY", "state": "CA", "street": "26958 TERRYTOWN RD", "postcode": "92586"}}},
{"geometry": {"type": "Point", "coordinates": [-117.2007591109, 33.7042909652]}, "type": "Feature", "properties": {"collection_times": [{"days": "Mon-Sat", "time": "9:00am"}, {"days": "Sun", "time": "Closed"}], "id": "9258600005", "name": "USPS COLLECTION BOX - BLUE BOX", "address": {"city": "SUN CITY", "state": "CA", "street": "26561 RIDGEMOOR RD", "postcode": "92586"}}},
{"geometry": {"type": "Point", "coordinates": [-117.1982711049, 33.7147838424]}, "type": "Feature", "properties": {"collection_times": [{"days": "Mon-Sat", "time": "10:00am"}, {"days": "Sun", "time": "Closed"}], "id": "9258600007", "name": "USPS COLLECTION BOX - BLUE BOX", "address": {"city": "SUN CITY", "state": "CA", "street": "26465 MCCALL BLVD", "postcode": "92586"}}},
{"geometry": {"type": "Point", "coordinates": [-117.200357227, 33.7178281564]}, "type": "Feature", "properties": {"collection_times": [{"days": "Mon-Sat", "time": "9:30am"}, {"days": "Sun", "time": "Closed"}], "id": "9258600008", "name": "USPS COLLECTION BOX - BLUE BOX", "address": {"city": "SUN CITY", "state": "CA", "street": "27751 GROSSE PT DR", "postcode": "92586"}}},
{"geometry": {"type": "Point", "coordinates": [-117.1859576143, 33.7148191724]}, "type": "Feature", "properties": {"collection_times": [{"days": "Mon-Fri", "time": "1:00pm"}, {"days": "Sat", "time": "12:00pm"}, {"days": "Sun", "time": "Closed"}], "id": "9258600013", "name": "USPS COLLECTION BOX - BLUE BOX", "address": {"city": "SUN CITY", "state": "CA", "street": "27924 ENCANTO DR", "postcode": "92586"}}},
{"geometry": {"type": "Point", "coordinates": [-117.2051246117, 33.7048930293]}, "type": "Feature", "properties": {"collection_times": [{"days": "Mon-Sat", "time": "9:00am"}, {"days": "Sun", "time": "Closed"}], "id": "9258600015", "name": "USPS COLLECTION BOX - BLUE BOX", "address": {"city": "SUN CITY", "state": "CA", "street": "26001 SUN CITY BLVD", "postcode": "92586"}}},
{"geometry": {"type": "Point", "coordinates": [-117.2002096883, 33.7069160018]}, "type": "Feature", "properties": {"collection_times": [{"days": "Mon-Sat", "time": "10:00am"}, {"days": "Sun", "time": "Closed"}], "id": "9258600016", "name": "USPS COLLECTION BOX - BLUE BOX", "address": {"city": "SUN CITY", "state": "CA", "street": "27300 CABRILLO DR", "postcode": "92586"}}},
{"geometry": {"type": "Point", "coordinates": [-117.1933843014, 33.7113296022]}, "type": "Feature", "properties": {"collection_times": [{"days": "Mon-Fri", "time": "1:00pm"}, {"days": "Sat", "time": "12:30pm"}, {"days": "Sun", "time": "Closed"}], "id": "9258600020", "name": "USPS COLLECTION BOX - BLUE BOX", "address": {"city": "SUN CITY", "state": "CA", "street": "27160 SUN CITY BLVD", "postcode": "92586"}}},
{"geometry": {"type": "Point", "coordinates": [-117.190946223, 33.7105346538]}, "type": "Feature", "properties": {"collection_times": [{"days": "Mon-Fri", "time": "5:00pm"}, {"days": "Sat", "time": "3:00pm"}, {"days": "Sun", "time": "Closed"}], "id": "9258600027", "name": "USPS COLLECTION BOX - BLUE BOX", "address": {"city": "SUN CITY", "state": "CA", "street": "26822 CHERRY HILLS BLVD", "postcode": "92586"}}},
{"geometry": {"type": "Point", "coordinates": [-117.1987184736, 33.7263355661]}, "type": "Feature", "properties": {"collection_times": [{"days": "Mon-Sat", "time": "10:30am"}, {"days": "Sun", "time": "Closed"}], "id": "9258600036", "name": "USPS COLLECTION BOX - BLUE BOX", "address": {"city": "SUN CITY", "state": "CA", "street": "26449 BLUEBELL ST", "postcode": "92586"}}},
{"geometry": {"type": "Point", "coordinates": [-117.183019215, 33.7078860087]}, "type": "Feature", "properties": {"collection_times": [{"days": "Mon-Sat", "time": "9:30am"}, {"days": "Sun", "time": "Closed"}], "id": "9258600039", "name": "USPS COLLECTION BOX - BLUE BOX", "address": {"city": "SUN CITY", "state": "CA", "street": "28415 ENCANTO DR", "postcode": "92586"}}},
{"geometry": {"type": "Point", "coordinates": [-117.190946223, 33.7105346538]}, "type": "Feature", "properties": {"collection_times": [{"days": "Mon-Fri", "time": "5:00pm"}, {"days": "Sat", "time": "3:00pm"}, {"days": "Sun", "time": "Closed"}], "id": "9258600043", "name": "USPS COLLECTION BOX - BLUE BOX", "address": {"city": "SUN CITY", "state": "CA", "street": "26822 CHERRY HILLS BLVD", "postcode": "92586"}}},
{"geometry": {"type": "Point", "coordinates": [-117.1970872178, 33.7057016786]}, "type": "Feature", "properties": {"collection_times": [{"days": "Mon-Fri", "time": "5:00pm"}, {"days": "Sat", "time": "3:00pm"}, {"days": "Sun", "time": "Closed"}], "id": "9258600044", "name": "USPS COLLECTION BOX - EXPRESS", "address": {"city": "SUN CITY", "state": "CA", "street": "26822 CHERRY HILLS BLVD", "postcode": "92586"}}},
{"geometry": {"type": "Point", "coordinates": [-117.1764566395, 33.6893771939]}, "type": "Feature", "properties": {"collection_times": [{"days": "Mon-Fri", "time": "5:00pm"}, {"days": "Sat", "time": "12:30pm"}, {"days": "Sun", "time": "Closed"}], "id": "9258600047", "name": "USPS COLLECTION BOX - BLUE BOX", "address": {"city": "SUN CITY", "state": "CA", "street": "29700 HAUN RD", "postcode": "92586"}}},
{"geometry": {"type": "Point", "coordinates": [-117.190946223, 33.7105346538]}, "type": "Feature", "properties": {"collection_times": [{"days": "Mon-Fri", "time": "5:00pm"}, {"days": "Sat", "time": "3:00pm"}, {"days": "Sun", "time": "Closed"}], "id": "9258600048", "name": "USPS COLLECTION BOX - APC", "address": {"city": "SUN CITY", "state": "CA", "street": "26822 CHERRY HILLS BLVD", "postcode": "92586"}}},
{"geometry": {"type": "Point", "coordinates": [-117.1764566395, 33.6893771939]}, "type": "Feature", "properties": {"collection_times": [{"days": "Mon-Fri", "time": "5:00pm"}, {"days": "Sat", "time": "12:30pm"}, {"days": "Sun", "time": "Closed"}], "id": "9258600049", "name": "USPS COLLECTION BOX - BLUE BOX", "address": {"city": "SUN CITY", "state": "CA", "street": "29700 HAUN RD", "postcode": "92586"}}},
{"geometry": {"type": "Point", "coordinates": [-117.1764566395, 33.6893771939]}, "type": "Feature", "properties": {"collection_times": [{"days": "Mon-Fri", "time": "5:00pm"}, {"days": "Sat", "time": "12:00pm"}, {"days": "Sun", "time": "Closed"}], "id": "9258600051", "name": "USPS COLLECTION BOX - BLUE BOX", "address": {"city": "SUN CITY", "state": "CA", "street": "29700 HAUN RD", "postcode": "92586"}}},
{"geometry": {"type": "Point", "coordinates": [-117.2523320998, 33.6732364977]}, "type": "Feature", "properties": {"collection_times": [{"days": "Mon-Fri", "time": "5:00pm"}, {"days": "Sat", "time": "11:30am"}, {"days": "Sun", "time": "Closed"}], "id": "9258700000", "name": "USPS COLLECTION BOX - BLUE BOX", "address": {"city": "CANYON LAKE", "state": "CA", "street": "31566 RAILROAD CANYON RD", "postcode": "92587"}}},
{"geometry": {"type": "Point", "coordinates": [-117.2523320998, 33.6732364977]}, "type": "Feature", "properties": {"collection_times": [{"days": "Mon-Fri", "time": "5:00pm"}, {"days": "Sat", "time": "11:30am"}, {"days": "Sun", "time": "Closed"}], "id": "9258700001", "name": "USPS COLLECTION BOX - BLUE BOX", "address": {"city": "CANYON LAKE", "state": "CA", "street": "31566 RAILROAD CANYON RD", "postcode": "92587"}}},
{"geometry": {"type": "Point", "coordinates": [-117.2534218348, 33.6732868248]}, "type": "Feature", "properties": {"collection_times": [{"days": "Mon-Fri", "time": "12:45pm"}, {"days": "Sat", "time": "11:30am"}, {"days": "Sun", "time": "Closed"}], "id": "9258700003", "name": "USPS COLLECTION BOX - BLUE BOX", "address": {"city": "CANYON LAKE", "state": "CA", "street": "31582 RAILROAD CANYON RD", "postcode": "92587"}}},
{"geometry": {"type": "Point", "coordinates": [-117.2369386441, 33.6817257013]}, "type": "Feature", "properties": {"collection_times": [{"days": "Mon-Fri", "time": "12:45pm"}, {"days": "Sat", "time": "11:30am"}, {"days": "Sun", "time": "Closed"}], "id": "9258700006", "name": "USPS COLLECTION BOX - BLUE BOX", "address": {"city": "CANYON LAKE", "state": "CA", "street": "24311 CANYON LAKE DR N", "postcode": "92587"}}},
{"geometry": {"type": "Point", "coordinates": [-117.2547384681, 33.6747631576]}, "type": "Feature", "properties": {"collection_times": [{"days": "Mon-Fri", "time": "12:45pm"}, {"days": "Sat", "time": "11:30am"}, {"days": "Sun", "time": "Closed"}], "id": "9258700007", "name": "USPS COLLECTION BOX - BLUE BOX", "address": {"city": "CANYON LAKE", "state": "CA", "street": "23283 CANYON LAKE DR S", "postcode": "92587"}}},
{"geometry": {"type": "Point", "coordinates": [-117.2547384681, 33.6747631576]}, "type": "Feature", "properties": {"collection_times": [{"days": "Mon-Fri", "time": "12:45pm"}, {"days": "Sat", "time": "11:30am"}, {"days": "Sun", "time": "Closed"}], "id": "9258700008", "name": "USPS COLLECTION BOX - BLUE BOX", "address": {"city": "CANYON LAKE", "state": "CA", "street": "23283 CANYON LAKE DR S", "postcode": "92587"}}},
{"geometry": {"type": "Point", "coordinates": [-117.2512390214, 33.6906723046]}, "type": "Feature", "properties": {"collection_times": [{"days": "Mon-Sat", "time": "11:00am"}, {"days": "Sun", "time": "Closed"}], "id": "9258700013", "name": "USPS COLLECTION BOX - BLUE BOX", "address": {"city": "CANYON LAKE", "state": "CA", "street": "23971 NEWPORT DR", "postcode": "92587"}}},
{"geometry": {"type": "Point", "coordinates": [-117.1656212603, 33.5183663381]}, "type": "Feature", "properties": {"collection_times": [{"days": "Mon-Fri", "time": "3:30pm"}, {"days": "Sat", "time": "12:00pm"}, {"days": "Sun", "time": "Closed"}], "id": "9259000001", "name": "USPS COLLECTION BOX - BLUE BOX", "address": {"city": "TEMECULA", "state": "CA", "street": "41630 ENTERPRISE CIR S", "postcode": "92590"}}},
{"geometry": {"type": "Point", "coordinates": [-117.1590264412, 33.5131792437]}, "type": "Feature", "properties": {"collection_times": [{"days": "Mon-Fri", "time": "3:30pm"}, {"days": "Sat", "time": "11:45am"}, {"days": "Sun", "time": "Closed"}], "id": "9259000003", "name": "USPS COLLECTION BOX - BLUE BOX", "address": {"city": "TEMECULA", "state": "CA", "street": "27715 JEFFERSON AVE", "postcode": "92590"}}},
{"geometry": {"type": "Point", "coordinates": [-117.168028599, 33.5121969043]}, "type": "Feature", "properties": {"collection_times": [{"days": "Mon-Fri", "time": "3:15pm"}, {"days": "Sat", "time": "12:00pm"}, {"days": "Sun", "time": "Closed"}], "id": "9259000005", "name": "USPS COLLECTION BOX - BLUE BOX", "address": {"city": "TEMECULA", "state": "CA", "street": "42030 AVENIDA ALVARADO", "postcode": "92590"}}},
{"geometry": {"type": "Point", "coordinates": [-117.1528537614, 33.4969431319]}, "type": "Feature", "properties": {"collection_times": [{"days": "Mon-Fri", "time": "5:00pm"}, {"days": "Sat", "time": "3:30pm"}, {"days": "Sun", "time": "Closed"}], "id": "9259000007", "name": "USPS COLLECTION BOX - BLUE BOX", "address": {"city": "TEMECULA", "state": "CA", "street": "28360 FRONT ST", "postcode": "92590"}}},
{"geometry": {"type": "Point", "coordinates": [-117.1528537614, 33.4969431319]}, "type": "Feature", "properties": {"collection_times": [{"days": "Mon-Fri", "time": "5:00pm"}, {"days": "Sat", "time": "3:30pm"}, {"days": "Sun", "time": "Closed"}], "id": "9259000011", "name": "USPS COLLECTION BOX - BLUE BOX", "address": {"city": "TEMECULA", "state": "CA", "street": "28360 FRONT ST", "postcode": "92590"}}},
{"geometry": {"type": "Point", "coordinates": [-117.182227299, 33.4960942683]}, "type": "Feature", "properties": {"collection_times": [{"days": "Mon-Fri", "time": "5:00pm"}, {"days": "Sat", "time": "3:30pm"}, {"days": "Sun", "time": "Closed"}], "id": "9259000013", "name": "USPS COLLECTION BOX - EXPRESS", "address": {"city": "TEMECULA", "state": "CA", "street": "28360 FRONT ST", "postcode": "92590"}}},
{"geometry": {"type": "Point", "coordinates": [-117.1693738203, 33.5110665194]}, "type": "Feature", "properties": {"collection_times": [{"days": "Mon-Fri", "time": "3:15pm"}, {"days": "Sat", "time": "12:00pm"}, {"days": "Sun", "time": "Closed"}], "id": "9259000018", "name": "USPS COLLECTION BOX - BLUE BOX", "address": {"city": "TEMECULA", "state": "CA", "street": "27460 AQUA VISTA WAY", "postcode": "92590"}}},
{"geometry": {"type": "Point", "coordinates": [-117.1528537614, 33.4969431319]}, "type": "Feature", "properties": {"collection_times": [{"days": "Mon-Fri", "time": "5:00pm"}, {"days": "Sat", "time": "3:30pm"}, {"days": "Sun", "time": "Closed"}], "id": "9259000019", "name": "USPS COLLECTION BOX - BLUE BOX", "address": {"city": "TEMECULA", "state": "CA", "street": "28360 FRONT ST", "postcode": "92590"}}},
{"geometry": {"type": "Point", "coordinates": [-117.1625825451, 33.5273752095]}, "type": "Feature", "properties": {"collection_times": [{"days": "Mon-Sat", "time": "1:00pm"}, {"days": "Sun", "time": "Closed"}], "id": "9259100003", "name": "USPS COLLECTION BOX - BLUE BOX", "address": {"city": "TEMECULA", "state": "CA", "street": "26200 YNEZ RD", "postcode": "92591"}}},
{"geometry": {"type": "Point", "coordinates": [-117.1496067712, 33.5041122275]}, "type": "Feature", "properties": {"collection_times": [{"days": "Mon-Fri", "time": "1:00pm"}, {"days": "Sat", "time": "1:15pm"}, {"days": "Sun", "time": "Closed"}], "id": "9259100011", "name": "USPS COLLECTION BOX - BLUE BOX", "address": {"city": "TEMECULA", "state": "CA", "street": "27555 YNEZ RD", "postcode": "92591"}}},
{"geometry": {"type": "Point", "coordinates": [-117.1232608599, 33.5077056926]}, "type": "Feature", "properties": {"collection_times": [{"days": "Mon-Sat", "time": "5:00pm"}, {"days": "Sun", "time": "Closed"}], "id": "9259100013", "name": "USPS COLLECTION BOX - BLUE BOX", "address": {"city": "TEMECULA", "state": "CA", "street": "30777 RANCHO CA RD", "postcode": "92591"}}},
{"geometry": {"type": "Point", "coordinates": [-117.1331461172, 33.5211128564]}, "type": "Feature", "properties": {"collection_times": [{"days": "Mon-Sat", "time": "5:00pm"}, {"days": "Sun", "time": "Closed"}], "id": "9259100016", "name": "USPS COLLECTION BOX - EXPRESS", "address": {"city": "TEMECULA", "state": "CA", "street": "30777 RANCHO CALIFORNIA RD", "postcode": "92591"}}},
{"geometry": {"type": "Point", "coordinates": [-117.1516589728, 33.5308207108]}, "type": "Feature", "properties": {"collection_times": [{"days": "Mon-Fri", "time": "1:45pm"}, {"days": "Sat", "time": "2:00pm"}, {"days": "Sun", "time": "Closed"}], "id": "9259100017", "name": "USPS COLLECTION BOX - BLUE BOX", "address": {"city": "TEMECULA", "state": "CA", "street": "40435 WINCHESTER RD", "postcode": "92591"}}},
{"geometry": {"type": "Point", "coordinates": [-117.1496067712, 33.5041122275]}, "type": "Feature", "properties": {"collection_times": [{"days": "Mon-Fri", "time": "1:00pm"}, {"days": "Sat", "time": "1:15pm"}, {"days": "Sun", "time": "Closed"}], "id": "9259100020", "name": "USPS COLLECTION BOX - BLUE BOX", "address": {"city": "TEMECULA", "state": "CA", "street": "27555 YNEZ RD", "postcode": "92591"}}},
{"geometry": {"type": "Point", "coordinates": [-117.1232608599, 33.5077056926]}, "type": "Feature", "properties": {"collection_times": [{"days": "Mon-Sat", "time": "5:00pm"}, {"days": "Sun", "time": "Closed"}], "id": "9259100021", "name": "USPS COLLECTION BOX - APC", "address": {"city": "TEMECULA", "state": "CA", "street": "30777 RANCHO CA RD", "postcode": "92591"}}},
{"geometry": {"type": "Point", "coordinates": [-117.151297402, 33.511389075]}, "type": "Feature", "properties": {"collection_times": [{"days": "Mon-Sat", "time": "1:00pm"}, {"days": "Sun", "time": "Closed"}], "id": "9259100023", "name": "USPS COLLECTION BOX - BLUE BOX", "address": {"city": "TEMECULA", "state": "CA", "street": "27450 YNEZ RD", "postcode": "92591"}}},
{"geometry": {"type": "Point", "coordinates": [-117.0931233112, 33.4726930355]}, "type": "Feature", "properties": {"collection_times": [{"days": "Mon-Sat", "time": "2:00pm"}, {"days": "Sun", "time": "Closed"}], "id": "9259200001", "name": "USPS COLLECTION BOX - BLUE BOX", "address": {"city": "TEMECULA", "state": "CA", "street": "45100 REDHAWK PKWY", "postcode": "92592"}}},
{"geometry": {"type": "Point", "coordinates": [-117.1244948115, 33.4722787968]}, "type": "Feature", "properties": {"collection_times": [{"days": "Mon-Fri", "time": "2:30pm"}, {"days": "Sat", "time": "3:00pm"}, {"days": "Sun", "time": "Closed"}], "id": "9259200002", "name": "USPS COLLECTION BOX - BLUE BOX", "address": {"city": "TEMECULA", "state": "CA", "street": "44564 PECHANGA PKWY", "postcode": "92592"}}},
{"geometry": {"type": "Point", "coordinates": [-117.2751746558, 33.6052714717]}, "type": "Feature", "properties": {"collection_times": [{"days": "Mon-Fri", "time": "4:30pm"}, {"days": "Sat", "time": "1:30pm"}, {"days": "Sun", "time": "Closed"}], "id": "9259500004", "name": "USPS COLLECTION BOX - BLUE BOX", "address": {"city": "WILDOMAR", "state": "CA", "street": "21392 PALOMAR ST", "postcode": "92595"}}},
{"geometry": {"type": "Point", "coordinates": [-117.2751746558, 33.6052714717]}, "type": "Feature", "properties": {"collection_times": [{"days": "Mon-Fri", "time": "4:30pm"}, {"days": "Sat", "time": "1:30pm"}, {"days": "Sun", "time": "Closed"}], "id": "9259500005", "name": "USPS COLLECTION BOX - BLUE BOX", "address": {"city": "WILDOMAR", "state": "CA", "street": "21392 PALOMAR ST", "postcode": "92595"}}},
{"geometry": {"type": "Point", "coordinates": [-117.2367811511, 33.5917016939]}, "type": "Feature", "properties": {"collection_times": [{"days": "Mon-Sat", "time": "12:00pm"}, {"days": "Sun", "time": "Closed"}], "id": "9259500006", "name": "USPS COLLECTION BOX - BLUE BOX", "address": {"city": "WILDOMAR", "state": "CA", "street": "36450 INLAND VALLEY DR", "postcode": "92595"}}},
{"geometry": {"type": "Point", "coordinates": [-117.2518212913, 33.5899213407]}, "type": "Feature", "properties": {"collection_times": [{"days": "Mon-Sat", "time": "12:15pm"}, {"days": "Sun", "time": "Closed"}], "id": "9259500007", "name": "USPS COLLECTION BOX - BLUE BOX", "address": {"city": "WILDOMAR", "state": "CA", "street": "32395 CLINTON KEITH RD", "postcode": "92595"}}},
{"geometry": {"type": "Point", "coordinates": [-117.2326916619, 33.6351943632]}, "type": "Feature", "properties": {"collection_times": [{"days": "Mon-Sat", "time": "12:30pm"}, {"days": "Sun", "time": "Closed"}], "id": "9259500009", "name": "USPS COLLECTION BOX - BLUE BOX", "address": {"city": "WILDOMAR", "state": "CA", "street": "33430 HARVEST WAY", "postcode": "92595"}}},
{"geometry": {"type": "Point", "coordinates": [-117.2902929288, 33.6286784717]}, "type": "Feature", "properties": {"collection_times": [{"days": "Mon-Sat", "time": "12:30pm"}, {"days": "Sun", "time": "Closed"}], "id": "9259500010", "name": "USPS COLLECTION BOX - BLUE BOX", "address": {"city": "WILDOMAR", "state": "CA", "street": "33900 MISSION TRL", "postcode": "92595"}}},
{"geometry": {"type": "Point", "coordinates": [-117.0849247087, 33.7077700787]}, "type": "Feature", "properties": {"collection_times": [{"days": "Mon-Fri", "time": "4:00pm"}, {"days": "Sat", "time": "2:00pm"}, {"days": "Sun", "time": "Closed"}], "id": "9259600003", "name": "USPS COLLECTION BOX - BLUE BOX", "address": {"city": "WINCHESTER", "state": "CA", "street": "28453 WINCHESTER RD", "postcode": "92596"}}},
{"geometry": {"type": "Point", "coordinates": [-117.1156859349, 33.5974777321]}, "type": "Feature", "properties": {"collection_times": [{"days": "Mon-Sat", "time": "11:00am"}, {"days": "Sun", "time": "Closed"}], "id": "9259600005", "name": "USPS COLLECTION BOX - BLUE BOX", "address": {"city": "WINCHESTER", "state": "CA", "street": "31238 THOMPSON RD", "postcode": "92596"}}}
]}
