{"type": "FeatureCollection", "features": [
{"geometry": {"type": "Point", "coordinates": [-117.8686610481, 33.7494019535]}, "type": "Feature", "properties": {"collection_times": [{"days": "Mon-Fri", "time": "3:45pm"}, {"days": "Sat", "time": "10:00am"}, {"days": "Sun", "time": "Closed"}], "id": "9270100004", "name": "USPS COLLECTION BOX - BLUE BOX", "address": {"city": "SANTA ANA", "state": "CA", "street": "515 N SYCAMORE ST", "postcode": "92701"}}},
{"geometry": {"type": "Point", "coordinates": [-117.8641928662, 33.7513430611]}, "type": "Feature", "properties": {"collection_times": [{"days": "Mon-Fri", "time": "3:30pm"}, {"days": "Sat", "time": "11:30am"}, {"days": "Sun", "time": "Closed"}], "id": "9270100012", "name": "USPS COLLECTION BOX - BLUE BOX", "address": {"city": "SANTA ANA", "state": "CA", "street": "433 W CIVIC CENTER DR", "postcode": "92701"}}},
{"geometry": {"type": "Point", "coordinates": [-117.8665860355, 33.7501802521]}, "type": "Feature", "properties": {"collection_times": [{"days": "Mon-Fri", "time": "5:00pm"}, {"days": "Sat", "time": "3:45pm"}, {"days": "Sun", "time": "Closed"}], "id": "9270100043", "name": "USPS COLLECTION BOX - BLUE BOX", "address": {"city": "SANTA ANA", "state": "CA", "street": "615 N BUSH ST", "postcode": "92701"}}},
{"geometry": {"type": "Point", "coordinates": [-117.8464072241, 33.7481101623]}, "type": "Feature", "properties": {"collection_times": [{"days": "Mon-Fri", "time": "3:00pm"}, {"days": "Sat", "time": "2:30pm"}, {"days": "Sun", "time": "Closed"}], "id": "9270100048", "name": "USPS COLLECTION BOX - BLUE BOX", "address": {"city": "SANTA ANA", "state": "CA", "street": "1633 E 4TH ST", "postcode": "92701"}}},
{"geometry": {"type": "Point", "coordinates": [-117.8464072241, 33.7481101623]}, "type": "Feature", "properties": {"collection_times": [{"days": "Mon-Fri", "time": "3:00pm"}, {"days": "Sat", "time": "2:30pm"}, {"days": "Sun", "time": "Closed"}], "id": "9270100049", "name": "USPS COLLECTION BOX - BLUE BOX", "address": {"city": "SANTA ANA", "state": "CA", "street": "1633 E 4TH ST", "postcode": "92701"}}},
{"geometry": {"type": "Point", "coordinates": [-117.8734153602, 33.7482556663]}, "type": "Feature", "properties": {"collection_times": [{"days": "Mon-Fri", "time": "3:30pm"}, {"days": "Sat", "time": "10:00am"}, {"days": "Sun", "time": "Closed"}], "id": "9270100060", "name": "USPS COLLECTION BOX - BLUE BOX", "address": {"city": "SANTA ANA", "state": "CA", "street": "500 W SANTA ANA BLVD", "postcode": "92701"}}},
{"geometry": {"type": "Point", "coordinates": [-117.8739630702, 33.7485679675]}, "type": "Feature", "properties": {"collection_times": [{"days": "Mon-Fri", "time": "3:30pm"}, {"days": "Sat-Sun", "time": "Closed"}], "id": "9270100064", "name": "USPS COLLECTION BOX - BLUE BOX", "address": {"city": "SANTA ANA", "state": "CA", "street": "28 CIVIC CENTER PLZ", "postcode": "92701"}}},
{"geometry": {"type": "Point", "coordinates": [-117.8665860355, 33.7501802521]}, "type": "Feature", "properties": {"collection_times": [{"days": "Mon-Fri", "time": "5:00pm"}, {"days": "Sat", "time": "3:45pm"}, {"days": "Sun", "time": "Closed"}], "id": "9270100076", "name": "USPS COLLECTION BOX - BLUE BOX", "address": {"city": "SANTA ANA", "state": "CA", "street": "615 N BUSH ST", "postcode": "92701"}}},
{"geometry": {"type": "Point", "coordinates": [-117.8665860355, 33.7501802521]}, "type": "Feature", "properties": {"collection_times": [{"days": "Mon-Fri", "time": "5:00pm"}, {"days": "Sat", "time": "3:45pm"}, {"days": "Sun", "time": "Closed"}], "id": "9270100077", "name": "USPS COLLECTION BOX - BLUE BOX", "address": {"city": "SANTA ANA", "state": "CA", "street": "615 N BUSH ST", "postcode": "92701"}}},
{"geometry": {"type": "Point", "coordinates": [-117.8665860355, 33.7501802521]}, "type": "Feature", "properties": {"collection_times": [{"days": "Mon-Fri", "time": "5:00pm"}, {"days": "Sat", "time": "3:45pm"}, {"days": "Sun", "time": "Closed"}], "id": "9270100078", "name": "USPS COLLECTION BOX - BLUE BOX", "address": {"city": "SANTA ANA", "state": "CA", "street": "615 N BUSH ST", "postcode": "92701"}}},
{"geometry": {"type": "Point", "coordinates": [-117.8665860355, 33.7501802521]}, "type": "Feature", "properties": {"collection_times": [{"days": "Mon-Fri", "time": "5:00pm"}, {"days": "Sat", "time": "3:45pm"}, {"days": "Sun", "time": "Closed"}], "id": "9270100079", "name": "USPS COLLECTION BOX - BLUE BOX", "address": {"city": "SANTA ANA", "state": "CA", "street": "615 N BUSH ST", "postcode": "92701"}}},
{"geometry": {"type": "Point", "coordinates": [-117.8417540263, 33.7602076836]}, "type": "Feature", "properties": {"collection_times": [{"days": "Mon-Fri", "time": "3:00pm"}, {"days": "Sat", "time": "1:45pm"}, {"days": "Sun", "time": "Closed"}], "id": "9270100083", "name": "USPS COLLECTION BOX - BLUE BOX", "address": {"city": "SANTA ANA", "state": "CA", "street": "1708 SHERRY LN", "postcode": "92701"}}},
{"geometry": {"type": "Point", "coordinates": [-117.8665208635, 33.7498665012]}, "type": "Feature", "properties": {"collection_times": [{"days": "Mon-Fri", "time": "5:00pm"}, {"days": "Sat", "time": "3:45pm"}, {"days": "Sun", "time": "Closed"}], "id": "9270100099", "name": "USPS COLLECTION BOX - PO LOBBY", "address": {"city": "SANTA ANA", "state": "CA", "street": "615 N BUSH", "postcode": "92701"}}},
{"geometry": {"type": "Point", "coordinates": [-117.8734153602, 33.7482556663]}, "type": "Feature", "properties": {"collection_times": [{"days": "Mon-Fri", "time": "3:40pm"}, {"days": "Sat", "time": "10:00am"}, {"days": "Sun", "time": "Closed"}], "id": "9270100107", "name": "USPS COLLECTION BOX - BLUE BOX", "address": {"city": "SANTA ANA", "state": "CA", "street": "500 W SANTA ANA BLVD", "postcode": "92701"}}},
{"geometry": {"type": "Point", "coordinates": [-117.8739630702, 33.7485679675]}, "type": "Feature", "properties": {"collection_times": [{"days": "Mon-Fri", "time": "3:30pm"}, {"days": "Sat-Sun", "time": "Closed"}], "id": "9270100109", "name": "USPS COLLECTION BOX - BLUE BOX", "address": {"city": "SANTA ANA", "state": "CA", "street": "28 CIVIC CENTER PLZ", "postcode": "92701"}}},
{"geometry": {"type": "Point", "coordinates": [-117.867547583, 33.755722232]}, "type": "Feature", "properties": {"collection_times": [{"days": "Mon-Sat", "time": "10:30am"}, {"days": "Sun", "time": "Closed"}], "id": "9270100114", "name": "USPS COLLECTION BOX - BLUE BOX", "address": {"city": "SANTA ANA", "state": "CA", "street": "1303 N MAIN ST", "postcode": "92701"}}},
{"geometry": {"type": "Point", "coordinates": [-117.844869666, 33.745627923]}, "type": "Feature", "properties": {"collection_times": [{"days": "Mon-Sat", "time": "11:00am"}, {"days": "Sun", "time": "Closed"}], "id": "9270100115", "name": "USPS COLLECTION BOX - BLUE BOX", "address": {"city": "SANTA ANA", "state": "CA", "street": "1647 E 1ST ST", "postcode": "92701"}}},
{"geometry": {"type": "Point", "coordinates": [-117.8453330973, 33.7454579683]}, "type": "Feature", "properties": {"collection_times": [{"days": "Mon-Fri", "time": "5:00pm"}, {"days": "Sat", "time": "3:00pm"}, {"days": "Sun", "time": "Closed"}], "id": "9270300021", "name": "USPS COLLECTION BOX - BLUE BOX", "address": {"city": "SANTA ANA", "state": "CA", "street": "1620 W 1ST ST", "postcode": "92703"}}},
{"geometry": {"type": "Point", "coordinates": [-117.8766060619, 33.7472695123]}, "type": "Feature", "properties": {"collection_times": [{"days": "Mon-Fri", "time": "3:30pm"}, {"days": "Sat-Sun", "time": "Closed"}], "id": "9270300022", "name": "USPS COLLECTION BOX - BLUE BOX", "address": {"city": "SANTA ANA", "state": "CA", "street": "320 N FLOWER ST", "postcode": "92703"}}},
{"geometry": {"type": "Point", "coordinates": [-117.8453330973, 33.7454579683]}, "type": "Feature", "properties": {"collection_times": [{"days": "Mon-Fri", "time": "5:00pm"}, {"days": "Sat", "time": "3:00pm"}, {"days": "Sun", "time": "Closed"}], "id": "9270300023", "name": "USPS COLLECTION BOX - BLUE BOX", "address": {"city": "SANTA ANA", "state": "CA", "street": "1620 W 1ST ST", "postcode": "92703"}}},
{"geometry": {"type": "Point", "coordinates": [-117.8453330973, 33.7454579683]}, "type": "Feature", "properties": {"collection_times": [{"days": "Mon-Fri", "time": "5:00pm"}, {"days": "Sat", "time": "3:00pm"}, {"days": "Sun", "time": "Closed"}], "id": "9270300026", "name": "USPS COLLECTION BOX - PO LOBBY", "address": {"city": "SANTA ANA", "state": "CA", "street": "1620 W 1ST ST", "postcode": "92703"}}},
{"geometry": {"type": "Point", "coordinates": [-117.8854164789, 33.710267305]}, "type": "Feature", "properties": {"collection_times": [{"days": "Mon-Fri", "time": "3:00pm"}, {"days": "Sat", "time": "11:45am"}, {"days": "Sun", "time": "Closed"}], "id": "9270400014", "name": "USPS COLLECTION BOX - BLUE BOX", "address": {"city": "SANTA ANA", "state": "CA", "street": "2701 S BRISTOL ST", "postcode": "92704"}}},
{"geometry": {"type": "Point", "coordinates": [-117.8845942845, 33.7097591472]}, "type": "Feature", "properties": {"collection_times": [{"days": "Mon-Fri", "time": "3:00pm"}, {"days": "Sat", "time": "11:45am"}, {"days": "Sun", "time": "Closed"}], "id": "9270400039", "name": "USPS COLLECTION BOX - BLUE BOX", "address": {"city": "SANTA ANA", "state": "CA", "street": "1220 HEMLOCK", "postcode": "92704"}}},
{"geometry": {"type": "Point", "coordinates": [-117.9002815413, 33.7267187154]}, "type": "Feature", "properties": {"collection_times": [{"days": "Mon-Fri", "time": "5:00pm"}, {"days": "Sat", "time": "2:45pm"}, {"days": "Sun", "time": "Closed"}], "id": "9270400052", "name": "USPS COLLECTION BOX - BLUE BOX", "address": {"city": "SANTA ANA", "state": "CA", "street": "1517 S GREENVILLE ST", "postcode": "92704"}}},
{"geometry": {"type": "Point", "coordinates": [-117.9071480166, 33.7215522587]}, "type": "Feature", "properties": {"collection_times": [{"days": "Mon-Fri", "time": "2:30pm"}, {"days": "Sat-Sun", "time": "Closed"}], "id": "9270400066", "name": "USPS COLLECTION BOX - EXPRESS", "address": {"city": "SANTA ANA", "state": "CA", "street": "7 HUTTON CENTRE DR", "postcode": "92704"}}},
{"geometry": {"type": "Point", "coordinates": [-117.8854164789, 33.710267305]}, "type": "Feature", "properties": {"collection_times": [{"days": "Mon-Fri", "time": "3:00pm"}, {"days": "Sat", "time": "11:45am"}, {"days": "Sun", "time": "Closed"}], "id": "9270400080", "name": "USPS COLLECTION BOX - BLUE BOX", "address": {"city": "SANTA ANA", "state": "CA", "street": "2701 S BRISTOL ST", "postcode": "92704"}}},
{"geometry": {"type": "Point", "coordinates": [-117.9002815413, 33.7267187154]}, "type": "Feature", "properties": {"collection_times": [{"days": "Mon-Fri", "time": "5:00pm"}, {"days": "Sat", "time": "2:45pm"}, {"days": "Sun", "time": "Closed"}], "id": "9270400090", "name": "USPS COLLECTION BOX - BLUE BOX", "address": {"city": "SANTA ANA", "state": "CA", "street": "1517 S GREENVILLE ST", "postcode": "92704"}}},
{"geometry": {"type": "Point", "coordinates": [-117.9002815413, 33.7267187154]}, "type": "Feature", "properties": {"collection_times": [{"days": "Mon-Fri", "time": "4:00pm"}, {"days": "Sat-Sun", "time": "Closed"}], "id": "9270400102", "name": "USPS COLLECTION BOX - PO LOBBY", "address": {"city": "SANTA ANA", "state": "CA", "street": "1517 S GREENVILLE ST", "postcode": "92704"}}},
{"geometry": {"type": "Point", "coordinates": [-117.8381974889, 33.7467911631]}, "type": "Feature", "properties": {"collection_times": [{"days": "Mon-Fri", "time": "4:50pm"}, {"days": "Sat", "time": "2:30pm"}, {"days": "Sun", "time": "Closed"}], "id": "9270500004", "name": "USPS COLLECTION BOX - BLUE BOX", "address": {"city": "SANTA ANA", "state": "CA", "street": "250 N GOLDEN CIRCLE DR", "postcode": "92705"}}},
{"geometry": {"type": "Point", "coordinates": [-117.8357617764, 33.7681530361]}, "type": "Feature", "properties": {"collection_times": [{"days": "Mon-Fri", "time": "5:25pm"}, {"days": "Sat", "time": "1:30pm"}, {"days": "Sun", "time": "Closed"}], "id": "9270500006", "name": "USPS COLLECTION BOX - BLUE BOX", "address": {"city": "SANTA ANA", "state": "CA", "street": "2360 N TUSTIN AVE", "postcode": "92705"}}},
{"geometry": {"type": "Point", "coordinates": [-117.8539222523, 33.7055966874]}, "type": "Feature", "properties": {"collection_times": [{"days": "Mon-Fri", "time": "4:00pm"}, {"days": "Sat", "time": "11:30am"}, {"days": "Sun", "time": "Closed"}], "id": "9270500012", "name": "USPS COLLECTION BOX - BLUE BOX", "address": {"city": "SANTA ANA", "state": "CA", "street": "1700 E GARRY AVE", "postcode": "92705"}}},
{"geometry": {"type": "Point", "coordinates": [-117.8407952668, 33.7081994928]}, "type": "Feature", "properties": {"collection_times": [{"days": "Mon-Fri", "time": "3:45pm"}, {"days": "Sat", "time": "11:30am"}, {"days": "Sun", "time": "Closed"}], "id": "9270500013", "name": "USPS COLLECTION BOX - BLUE BOX", "address": {"city": "SANTA ANA", "state": "CA", "street": "2500 RED HILL AVE", "postcode": "92705"}}},
{"geometry": {"type": "Point", "coordinates": [-117.8341409277, 33.7536647248]}, "type": "Feature", "properties": {"collection_times": [{"days": "Mon-Fri", "time": "5:05pm"}, {"days": "Sat", "time": "1:30pm"}, {"days": "Sun", "time": "Closed"}], "id": "9270500020", "name": "USPS COLLECTION BOX - BLUE BOX", "address": {"city": "SANTA ANA", "state": "CA", "street": "1001 N TUSTIN AVE", "postcode": "92705"}}},
{"geometry": {"type": "Point", "coordinates": [-117.8506365686, 33.7169126095]}, "type": "Feature", "properties": {"collection_times": [{"days": "Mon-Fri", "time": "5:00pm"}, {"days": "Sat", "time": "1:00pm"}, {"days": "Sun", "time": "Closed"}], "id": "9270500023", "name": "USPS COLLECTION BOX - BLUE BOX", "address": {"city": "SANTA ANA", "state": "CA", "street": "2230 S GRAND AVE", "postcode": "92705"}}},
{"geometry": {"type": "Point", "coordinates": [-117.8515140579, 33.7661609332]}, "type": "Feature", "properties": {"collection_times": [{"days": "Mon-Fri", "time": "5:15pm"}, {"days": "Sat", "time": "4:30pm"}, {"days": "Sun", "time": "Closed"}], "id": "9270500024", "name": "USPS COLLECTION BOX - BLUE BOX", "address": {"city": "SANTA ANA", "state": "CA", "street": "2201 N GRAND AVE", "postcode": "92705"}}},
{"geometry": {"type": "Point", "coordinates": [-117.8361901897, 33.7554252983]}, "type": "Feature", "properties": {"collection_times": [{"days": "Mon-Fri", "time": "3:30pm"}, {"days": "Sat", "time": "2:00pm"}, {"days": "Sun", "time": "Closed"}], "id": "9270500028", "name": "USPS COLLECTION BOX - BLUE BOX", "address": {"city": "SANTA ANA", "state": "CA", "street": "2223 E WELLINGTON AVE", "postcode": "92705"}}},
{"geometry": {"type": "Point", "coordinates": [-117.7866344398, 33.765256276]}, "type": "Feature", "properties": {"collection_times": [{"days": "Mon-Fri", "time": "4:00pm"}, {"days": "Sat", "time": "11:30am"}, {"days": "Sun", "time": "Closed"}], "id": "9270500032", "name": "USPS COLLECTION BOX - BLUE BOX", "address": {"city": "SANTA ANA", "state": "CA", "street": "2865 DEERE", "postcode": "92705"}}},
{"geometry": {"type": "Point", "coordinates": [-117.8364609051, 33.7514094349]}, "type": "Feature", "properties": {"collection_times": [{"days": "Mon-Fri", "time": "3:38pm"}, {"days": "Sat", "time": "2:15pm"}, {"days": "Sun", "time": "Closed"}], "id": "9270500033", "name": "USPS COLLECTION BOX - BLUE BOX", "address": {"city": "SANTA ANA", "state": "CA", "street": "801 PARKCENTER DR", "postcode": "92705"}}},
{"geometry": {"type": "Point", "coordinates": [-117.8674236731, 33.7732929928]}, "type": "Feature", "properties": {"collection_times": [{"days": "Mon-Fri", "time": "3:20pm"}, {"days": "Sat", "time": "10:15am"}, {"days": "Sun", "time": "Closed"}], "id": "9270500045", "name": "USPS COLLECTION BOX - BLUE BOX", "address": {"city": "SANTA ANA", "state": "CA", "street": "2700 N MAIN ST", "postcode": "92705"}}},
{"geometry": {"type": "Point", "coordinates": [-117.8381974889, 33.7467911631]}, "type": "Feature", "properties": {"collection_times": [{"days": "Mon-Fri", "time": "4:47pm"}, {"days": "Sat", "time": "2:30pm"}, {"days": "Sun", "time": "Closed"}], "id": "9270500050", "name": "USPS COLLECTION BOX - BLUE BOX", "address": {"city": "SANTA ANA", "state": "CA", "street": "250 N GOLDEN CIRCLE DR", "postcode": "92705"}}},
{"geometry": {"type": "Point", "coordinates": [-117.8495389621, 33.7147768987]}, "type": "Feature", "properties": {"collection_times": [{"days": "Mon-Fri", "time": "3:00pm"}, {"days": "Sat", "time": "11:30am"}, {"days": "Sun", "time": "Closed"}], "id": "9270500051", "name": "USPS COLLECTION BOX - BLUE BOX", "address": {"city": "SANTA ANA", "state": "CA", "street": "1526 BROOKHOLLOW DR", "postcode": "92705"}}},
{"geometry": {"type": "Point", "coordinates": [-117.8495389621, 33.7147768987]}, "type": "Feature", "properties": {"collection_times": [{"days": "Mon-Fri", "time": "3:00pm"}, {"days": "Sat", "time": "11:30am"}, {"days": "Sun", "time": "Closed"}], "id": "9270500052", "name": "USPS COLLECTION BOX - BLUE BOX", "address": {"city": "SANTA ANA", "state": "CA", "street": "1526 BROOKHOLLOW DR", "postcode": "92705"}}},
{"geometry": {"type": "Point", "coordinates": [-117.8358682427, 33.7316481054]}, "type": "Feature", "properties": {"collection_times": [{"days": "Mon-Fri", "time": "3:00pm"}, {"days": "Sat", "time": "2:45pm"}, {"days": "Sun", "time": "Closed"}], "id": "9270500059", "name": "USPS COLLECTION BOX - BLUE BOX", "address": {"city": "SANTA ANA", "state": "CA", "street": "1400 VILLAGE WAY", "postcode": "92705"}}},
{"geometry": {"type": "Point", "coordinates": [-117.8342061853, 33.7531531164]}, "type": "Feature", "properties": {"collection_times": [{"days": "Mon-Fri", "time": "5:01pm"}, {"days": "Sat", "time": "1:15pm"}, {"days": "Sun", "time": "Closed"}], "id": "9270500061", "name": "USPS COLLECTION BOX - BLUE BOX", "address": {"city": "SANTA ANA", "state": "CA", "street": "999 N TUSTIN AVE", "postcode": "92705"}}},
{"geometry": {"type": "Point", "coordinates": [-117.8506365686, 33.7169126095]}, "type": "Feature", "properties": {"collection_times": [{"days": "Mon-Fri", "time": "5:00pm"}, {"days": "Sat", "time": "1:00pm"}, {"days": "Sun", "time": "Closed"}], "id": "9270500062", "name": "USPS COLLECTION BOX - BLUE BOX", "address": {"city": "SANTA ANA", "state": "CA", "street": "2230 S GRAND AVE", "postcode": "92705"}}},
{"geometry": {"type": "Point", "coordinates": [-117.8369056977, 33.748235556]}, "type": "Feature", "properties": {"collection_times": [{"days": "Mon-Fri", "time": "3:44pm"}, {"days": "Sat", "time": "2:15pm"}, {"days": "Sun", "time": "Closed"}], "id": "9270500074", "name": "USPS COLLECTION BOX - BLUE BOX", "address": {"city": "SANTA ANA", "state": "CA", "street": "2101 E 4TH ST", "postcode": "92705"}}},
{"geometry": {"type": "Point", "coordinates": [-117.8356399316, 33.7481089794]}, "type": "Feature", "properties": {"collection_times": [{"days": "Mon-Fri", "time": "4:52pm"}, {"days": "Sat", "time": "2:45pm"}, {"days": "Sun", "time": "Closed"}], "id": "9270500078", "name": "USPS COLLECTION BOX - BLUE BOX", "address": {"city": "SANTA ANA", "state": "CA", "street": "2204 E 4TH ST", "postcode": "92705"}}},
{"geometry": {"type": "Point", "coordinates": [-117.8527679944, 33.7032973108]}, "type": "Feature", "properties": {"collection_times": [{"days": "Mon-Fri", "time": "4:00pm"}, {"days": "Sat", "time": "11:30am"}, {"days": "Sun", "time": "Closed"}], "id": "9270500086", "name": "USPS COLLECTION BOX - BLUE BOX", "address": {"city": "SANTA ANA", "state": "CA", "street": "3050 DAIMLER ST", "postcode": "92705"}}},
{"geometry": {"type": "Point", "coordinates": [-117.8404572038, 33.7497514048]}, "type": "Feature", "properties": {"collection_times": [{"days": "Mon-Fri", "time": "3:57pm"}, {"days": "Sat", "time": "2:20pm"}, {"days": "Sun", "time": "Closed"}], "id": "9270500089", "name": "USPS COLLECTION BOX - BLUE BOX", "address": {"city": "SANTA ANA", "state": "CA", "street": "515 CABRILLO PARK DR", "postcode": "92705"}}},
{"geometry": {"type": "Point", "coordinates": [-117.8383735212, 33.7491438845]}, "type": "Feature", "properties": {"collection_times": [{"days": "Mon-Fri", "time": "3:50pm"}, {"days": "Sat", "time": "2:15pm"}, {"days": "Sun", "time": "Closed"}], "id": "9270500091", "name": "USPS COLLECTION BOX - BLUE BOX", "address": {"city": "SANTA ANA", "state": "CA", "street": "501 N GOLDEN CIRCLE DR", "postcode": "92705"}}},
{"geometry": {"type": "Point", "coordinates": [-117.8383735212, 33.7491438845]}, "type": "Feature", "properties": {"collection_times": [{"days": "Mon-Fri", "time": "3:49pm"}, {"days": "Sat", "time": "2:15pm"}, {"days": "Sun", "time": "Closed"}], "id": "9270500092", "name": "USPS COLLECTION BOX - BLUE BOX", "address": {"city": "SANTA ANA", "state": "CA", "street": "501 N GOLDEN CIRCLE DR", "postcode": "92705"}}},
{"geometry": {"type": "Point", "coordinates": [-117.8674236731, 33.7732929928]}, "type": "Feature", "properties": {"collection_times": [{"days": "Mon-Fri", "time": "3:20pm"}, {"days": "Sat", "time": "10:15am"}, {"days": "Sun", "time": "Closed"}], "id": "9270500094", "name": "USPS COLLECTION BOX - BLUE BOX", "address": {"city": "SANTA ANA", "state": "CA", "street": "2700 N MAIN ST", "postcode": "92705"}}},
{"geometry": {"type": "Point", "coordinates": [-117.8674366856, 33.7763544906]}, "type": "Feature", "properties": {"collection_times": [{"days": "Mon-Fri", "time": "3:00pm"}, {"days": "Sat", "time": "10:00am"}, {"days": "Sun", "time": "Closed"}], "id": "9270500101", "name": "USPS COLLECTION BOX - BLUE BOX", "address": {"city": "SANTA ANA", "state": "CA", "street": "2800 N MAIN ST", "postcode": "92705"}}},
{"geometry": {"type": "Point", "coordinates": [-117.8506365686, 33.7169126095]}, "type": "Feature", "properties": {"collection_times": [{"days": "Mon-Fri", "time": "5:00pm"}, {"days": "Sat-Sun", "time": "Closed"}], "id": "9270500117", "name": "USPS COLLECTION BOX - PO LOBBY", "address": {"city": "SANTA ANA", "state": "CA", "street": "2230 S GRAND AVE", "postcode": "92705"}}},
{"geometry": {"type": "Point", "coordinates": [-117.8515140579, 33.7661609332]}, "type": "Feature", "properties": {"collection_times": [{"days": "Mon-Fri", "time": "5:15pm"}, {"days": "Sat", "time": "4:30pm"}, {"days": "Sun", "time": "Closed"}], "id": "9270500120", "name": "USPS COLLECTION BOX - PO LOBBY", "address": {"city": "SANTA ANA", "state": "CA", "street": "2201 N GRAND AVE", "postcode": "92705"}}},
{"geometry": {"type": "Point", "coordinates": [-117.8515140579, 33.7661609332]}, "type": "Feature", "properties": {"collection_times": [{"days": "Mon-Fri", "time": "5:15pm"}, {"days": "Sat", "time": "4:30pm"}, {"days": "Sun", "time": "Closed"}], "id": "9270500121", "name": "USPS COLLECTION BOX - PO LOBBY", "address": {"city": "SANTA ANA", "state": "CA", "street": "2201 N GRAND AVE", "postcode": "92705"}}},
{"geometry": {"type": "Point", "coordinates": [-117.8515140579, 33.7661609332]}, "type": "Feature", "properties": {"collection_times": [{"days": "Mon-Fri", "time": "5:15pm"}, {"days": "Sat", "time": "4:30pm"}, {"days": "Sun", "time": "Closed"}], "id": "9270500122", "name": "USPS COLLECTION BOX - PO LOBBY", "address": {"city": "SANTA ANA", "state": "CA", "street": "2201 N GRAND AVE", "postcode": "92705"}}},
{"geometry": {"type": "Point", "coordinates": [-117.8358682427, 33.7316481054]}, "type": "Feature", "properties": {"collection_times": [{"days": "Mon-Fri", "time": "3:00pm"}, {"days": "Sat", "time": "2:45pm"}, {"days": "Sun", "time": "Closed"}], "id": "9270500127", "name": "USPS COLLECTION BOX - BLUE BOX", "address": {"city": "SANTA ANA", "state": "CA", "street": "1400 VILLAGE WAY", "postcode": "92705"}}},
{"geometry": {"type": "Point", "coordinates": [-117.8538350159, 33.7055732563]}, "type": "Feature", "properties": {"collection_times": [{"days": "Mon-Fri", "time": "4:00pm"}, {"days": "Sat", "time": "11:30am"}, {"days": "Sun", "time": "Closed"}], "id": "9270500128", "name": "USPS COLLECTION BOX - BLUE BOX", "address": {"city": "SANTA ANA", "state": "CA", "street": "1700 E GARRY AVE", "postcode": "92705"}}},
{"geometry": {"type": "Point", "coordinates": [-117.8364609051, 33.7514094349]}, "type": "Feature", "properties": {"collection_times": [{"days": "Mon-Fri", "time": "3:37pm"}, {"days": "Sat", "time": "2:15pm"}, {"days": "Sun", "time": "Closed"}], "id": "9270500129", "name": "USPS COLLECTION BOX - BLUE BOX", "address": {"city": "SANTA ANA", "state": "CA", "street": "801 PARKCENTER DR", "postcode": "92705"}}},
{"geometry": {"type": "Point", "coordinates": [-117.852593411, 33.7033956424]}, "type": "Feature", "properties": {"collection_times": [{"days": "Mon-Fri", "time": "4:00pm"}, {"days": "Sat", "time": "11:30am"}, {"days": "Sun", "time": "Closed"}], "id": "9270500132", "name": "USPS COLLECTION BOX - BLUE BOX", "address": {"city": "SANTA ANA", "state": "CA", "street": "3050 DAIMLER ST", "postcode": "92705"}}},
{"geometry": {"type": "Point", "coordinates": [-117.8515140579, 33.7661609332]}, "type": "Feature", "properties": {"collection_times": [{"days": "Mon-Fri", "time": "5:15pm"}, {"days": "Sat", "time": "4:30pm"}, {"days": "Sun", "time": "Closed"}], "id": "9270500134", "name": "USPS COLLECTION BOX - APC", "address": {"city": "SANTA ANA", "state": "CA", "street": "2201 N GRAND AVE", "postcode": "92705"}}},
{"geometry": {"type": "Point", "coordinates": [-117.8434048742, 33.7267956077]}, "type": "Feature", "properties": {"collection_times": [{"days": "Mon-Fri", "time": "2:30pm"}, {"days": "Sat", "time": "12:15pm"}, {"days": "Sun", "time": "Closed"}], "id": "9270500136", "name": "USPS COLLECTION BOX - BLUE BOX", "address": {"city": "SANTA ANA", "state": "CA", "street": "1701 E EDINGER AVE", "postcode": "92705"}}},
{"geometry": {"type": "Point", "coordinates": [-117.8832209071, 33.7731096341]}, "type": "Feature", "properties": {"collection_times": [{"days": "Mon-Sat", "time": "10:00am"}, {"days": "Sun", "time": "Closed"}], "id": "9270600015", "name": "USPS COLLECTION BOX - BLUE BOX", "address": {"city": "SANTA ANA", "state": "CA", "street": "1211 W MEMORY LN", "postcode": "92706"}}},
{"geometry": {"type": "Point", "coordinates": [-117.8979262895, 33.7595210029]}, "type": "Feature", "properties": {"collection_times": [{"days": "Mon-Fri", "time": "5:00pm"}, {"days": "Sat", "time": "4:15pm"}, {"days": "Sun", "time": "Closed"}], "id": "9270600021", "name": "USPS COLLECTION BOX - BLUE BOX", "address": {"city": "SANTA ANA", "state": "CA", "street": "1609 N KING ST", "postcode": "92706"}}},
{"geometry": {"type": "Point", "coordinates": [-117.8696621612, 33.7606513735]}, "type": "Feature", "properties": {"collection_times": [{"days": "Mon-Fri", "time": "3:35pm"}, {"days": "Sat", "time": "10:45am"}, {"days": "Sun", "time": "Closed"}], "id": "9270600024", "name": "USPS COLLECTION BOX - BLUE BOX", "address": {"city": "SANTA ANA", "state": "CA", "street": "1770 N BROADWAY", "postcode": "92706"}}},
{"geometry": {"type": "Point", "coordinates": [-117.8695075197, 33.7642000181]}, "type": "Feature", "properties": {"collection_times": [{"days": "Mon-Fri", "time": "3:30pm"}, {"days": "Sat", "time": "10:30am"}, {"days": "Sun", "time": "Closed"}], "id": "9270600028", "name": "USPS COLLECTION BOX - BLUE BOX", "address": {"city": "SANTA ANA", "state": "CA", "street": "2107 N BROADWAY", "postcode": "92706"}}},
{"geometry": {"type": "Point", "coordinates": [-117.8695330239, 33.7641834725]}, "type": "Feature", "properties": {"collection_times": [{"days": "Mon-Fri", "time": "3:30pm"}, {"days": "Sat", "time": "10:30am"}, {"days": "Sun", "time": "Closed"}], "id": "9270600029", "name": "USPS COLLECTION BOX - BLUE BOX", "address": {"city": "SANTA ANA", "state": "CA", "street": "2107 N BROADWAY", "postcode": "92706"}}},
{"geometry": {"type": "Point", "coordinates": [-117.8697352081, 33.7571050016]}, "type": "Feature", "properties": {"collection_times": [{"days": "Mon-Fri", "time": "3:15pm"}, {"days": "Sat", "time": "11:15am"}, {"days": "Sun", "time": "Closed"}], "id": "9270600031", "name": "USPS COLLECTION BOX - BLUE BOX", "address": {"city": "SANTA ANA", "state": "CA", "street": "1428 N BROADWAY", "postcode": "92706"}}},
{"geometry": {"type": "Point", "coordinates": [-117.8979262895, 33.7595210029]}, "type": "Feature", "properties": {"collection_times": [{"days": "Mon-Fri", "time": "5:00pm"}, {"days": "Sat", "time": "4:15pm"}, {"days": "Sun", "time": "Closed"}], "id": "9270600035", "name": "USPS COLLECTION BOX - BLUE BOX", "address": {"city": "SANTA ANA", "state": "CA", "street": "1609 N KING ST", "postcode": "92706"}}},
{"geometry": {"type": "Point", "coordinates": [-117.8979262895, 33.7595210029]}, "type": "Feature", "properties": {"collection_times": [{"days": "Mon-Fri", "time": "5:00pm"}, {"days": "Sat", "time": "4:15pm"}, {"days": "Sun", "time": "Closed"}], "id": "9270600040", "name": "USPS COLLECTION BOX - PO LOBBY", "address": {"city": "SANTA ANA", "state": "CA", "street": "1609 N KING ST", "postcode": "92706"}}},
{"geometry": {"type": "Point", "coordinates": [-117.8770431154, 33.7599209539]}, "type": "Feature", "properties": {"collection_times": [{"days": "Mon-Fri", "time": "3:00pm"}, {"days": "Sat", "time": "12:00pm"}, {"days": "Sun", "time": "Closed"}], "id": "9270600041", "name": "USPS COLLECTION BOX - BLUE BOX", "address": {"city": "SANTA ANA", "state": "CA", "street": "930 W 17TH ST", "postcode": "92706"}}},
{"geometry": {"type": "Point", "coordinates": [-117.8677336083, 33.7293318717]}, "type": "Feature", "properties": {"collection_times": [{"days": "Mon-Fri", "time": "5:00pm"}, {"days": "Sat-Sun", "time": "Closed"}], "id": "9270700000", "name": "USPS COLLECTION BOX - PO LOBBY", "address": {"city": "SANTA ANA", "state": "CA", "street": "1415 S MAIN ST", "postcode": "92707"}}},
{"geometry": {"type": "Point", "coordinates": [-117.8622044581, 33.7026076458]}, "type": "Feature", "properties": {"collection_times": [{"days": "Mon-Fri", "time": "2:15pm"}, {"days": "Sat", "time": "11:30am"}, {"days": "Sun", "time": "Closed"}], "id": "9270700001", "name": "USPS COLLECTION BOX - BLUE BOX", "address": {"city": "SANTA ANA", "state": "CA", "street": "2 FIRST AMERICAN WAY", "postcode": "92707"}}},
{"geometry": {"type": "Point", "coordinates": [-117.8711670261, 33.7116021961]}, "type": "Feature", "properties": {"collection_times": [{"days": "Mon-Fri", "time": "2:15pm"}, {"days": "Sat-Sun", "time": "Closed"}], "id": "9270700002", "name": "USPS COLLECTION BOX - EXPRESS", "address": {"city": "SANTA ANA", "state": "CA", "street": "2 FIRST AMERICAN WAY", "postcode": "92707"}}},
{"geometry": {"type": "Point", "coordinates": [-117.85645586, 33.725550565]}, "type": "Feature", "properties": {"collection_times": [{"days": "Mon-Fri", "time": "3:00pm"}, {"days": "Sat", "time": "2:45pm"}, {"days": "Sun", "time": "Closed"}], "id": "9270700008", "name": "USPS COLLECTION BOX - BLUE BOX", "address": {"city": "SANTA ANA", "state": "CA", "street": "1629 S STANDARD AVE", "postcode": "92707"}}},
{"geometry": {"type": "Point", "coordinates": [-117.9222416832, 33.7309527393]}, "type": "Feature", "properties": {"collection_times": [{"days": "Mon-Sat", "time": "10:00am"}, {"days": "Sun", "time": "Closed"}], "id": "9270800002", "name": "USPS COLLECTION BOX - BLUE BOX", "address": {"city": "FOUNTAIN VALLEY", "state": "CA", "street": "11890 LILAC", "postcode": "92708"}}},
{"geometry": {"type": "Point", "coordinates": [-117.9514227687, 33.7103571431]}, "type": "Feature", "properties": {"collection_times": [{"days": "Mon-Sat", "time": "10:00am"}, {"days": "Sun", "time": "Closed"}], "id": "9270800004", "name": "USPS COLLECTION BOX - BLUE BOX", "address": {"city": "FOUNTAIN VALLEY", "state": "CA", "street": "18262 TOUCAN", "postcode": "92708"}}},
{"geometry": {"type": "Point", "coordinates": [-117.9713205319, 33.6878629663]}, "type": "Feature", "properties": {"collection_times": [{"days": "Mon-Sat", "time": "3:30pm"}, {"days": "Sun", "time": "Closed"}], "id": "9270800006", "name": "USPS COLLECTION BOX - BLUE BOX", "address": {"city": "FOUNTAIN VALLEY", "state": "CA", "street": "18926 MAGNOLIA ST", "postcode": "92708"}}},
{"geometry": {"type": "Point", "coordinates": [-117.9635237105, 33.724971485]}, "type": "Feature", "properties": {"collection_times": [{"days": "Mon-Sat", "time": "10:00am"}, {"days": "Sun", "time": "Closed"}], "id": "9270800009", "name": "USPS COLLECTION BOX - BLUE BOX", "address": {"city": "FOUNTAIN VALLEY", "state": "CA", "street": "9486 HOLLYHOCK CIR", "postcode": "92708"}}},
{"geometry": {"type": "Point", "coordinates": [-117.9541854324, 33.6891621342]}, "type": "Feature", "properties": {"collection_times": [{"days": "Mon-Sat", "time": "3:15pm"}, {"days": "Sun", "time": "Closed"}], "id": "9270800012", "name": "USPS COLLECTION BOX - BLUE BOX", "address": {"city": "FOUNTAIN VALLEY", "state": "CA", "street": "18837 BROOKHURST ST", "postcode": "92708"}}},
{"geometry": {"type": "Point", "coordinates": [-117.9387430861, 33.7094072939]}, "type": "Feature", "properties": {"collection_times": [{"days": "Mon-Sat", "time": "10:00am"}, {"days": "Sun", "time": "Closed"}], "id": "9270800013", "name": "USPS COLLECTION BOX - BLUE BOX", "address": {"city": "FOUNTAIN VALLEY", "state": "CA", "street": "10889 SLATER AVE", "postcode": "92708"}}},
{"geometry": {"type": "Point", "coordinates": [-117.9370112342, 33.7154356528]}, "type": "Feature", "properties": {"collection_times": [{"days": "Mon-Sat", "time": "10:30am"}, {"days": "Sun", "time": "Closed"}], "id": "9270800016", "name": "USPS COLLECTION BOX - BLUE BOX", "address": {"city": "FOUNTAIN VALLEY", "state": "CA", "street": "17100 EUCLID ST", "postcode": "92708"}}},
{"geometry": {"type": "Point", "coordinates": [-117.9529957611, 33.7125990243]}, "type": "Feature", "properties": {"collection_times": [{"days": "Mon-Sat", "time": "1:30pm"}, {"days": "Sun", "time": "Closed"}], "id": "9270800019", "name": "USPS COLLECTION BOX - BLUE BOX", "address": {"city": "FOUNTAIN VALLEY", "state": "CA", "street": "10100 LA ALAMEDA", "postcode": "92708"}}},
{"geometry": {"type": "Point", "coordinates": [-117.9735858973, 33.7156753041]}, "type": "Feature", "properties": {"collection_times": [{"days": "Mon-Sat", "time": "3:30pm"}, {"days": "Sun", "time": "Closed"}], "id": "9270800027", "name": "USPS COLLECTION BOX - BLUE BOX", "address": {"city": "FOUNTAIN VALLEY", "state": "CA", "street": "8900 WARNER AVE", "postcode": "92708"}}},
{"geometry": {"type": "Point", "coordinates": [-117.9503088759, 33.7090997246]}, "type": "Feature", "properties": {"collection_times": [{"days": "Mon-Sat", "time": "1:45pm"}, {"days": "Sun", "time": "Closed"}], "id": "9270800029", "name": "USPS COLLECTION BOX - BLUE BOX", "address": {"city": "FOUNTAIN VALLEY", "state": "CA", "street": "10221 SLATER AVE", "postcode": "92708"}}},
{"geometry": {"type": "Point", "coordinates": [-117.9747145023, 33.6991025383]}, "type": "Feature", "properties": {"collection_times": [{"days": "Mon-Sat", "time": "11:00am"}, {"days": "Sun", "time": "Closed"}], "id": "9270800031", "name": "USPS COLLECTION BOX - BLUE BOX", "address": {"city": "FOUNTAIN VALLEY", "state": "CA", "street": "8825 RHINE RIVER AVE", "postcode": "92708"}}},
{"geometry": {"type": "Point", "coordinates": [-117.9543451319, 33.6987500166]}, "type": "Feature", "properties": {"collection_times": [{"days": "Mon-Sat", "time": "3:00pm"}, {"days": "Sun", "time": "Closed"}], "id": "9270800032", "name": "USPS COLLECTION BOX - BLUE BOX", "address": {"city": "FOUNTAIN VALLEY", "state": "CA", "street": "18175 BROOKHURST ST", "postcode": "92708"}}},
{"geometry": {"type": "Point", "coordinates": [-117.953391667, 33.6953052401]}, "type": "Feature", "properties": {"collection_times": [{"days": "Mon-Sat", "time": "1:30pm"}, {"days": "Sun", "time": "Closed"}], "id": "9270800033", "name": "USPS COLLECTION BOX - BLUE BOX", "address": {"city": "FOUNTAIN VALLEY", "state": "CA", "street": "18420 BROOKHURST ST", "postcode": "92708"}}},
{"geometry": {"type": "Point", "coordinates": [-117.9514227687, 33.7103571431]}, "type": "Feature", "properties": {"collection_times": [{"days": "Mon-Sat", "time": "12:00pm"}, {"days": "Sun", "time": "Closed"}], "id": "9270800034", "name": "USPS COLLECTION BOX - BLUE BOX", "address": {"city": "FOUNTAIN VALLEY", "state": "CA", "street": "18210 ADOBE RIV", "postcode": "92708"}}},
{"geometry": {"type": "Point", "coordinates": [-117.9547260447, 33.7300132561]}, "type": "Feature", "properties": {"collection_times": [{"days": "Mon-Sat", "time": "3:00pm"}, {"days": "Sun", "time": "Closed"}], "id": "9270800041", "name": "USPS COLLECTION BOX - BLUE BOX", "address": {"city": "FOUNTAIN VALLEY", "state": "CA", "street": "16027 BROOKHURST ST", "postcode": "92708"}}},
{"geometry": {"type": "Point", "coordinates": [-117.9716175157, 33.7018115144]}, "type": "Feature", "properties": {"collection_times": [{"days": "Mon-Sat", "time": "3:15pm"}, {"days": "Sun", "time": "Closed"}], "id": "9270800042", "name": "USPS COLLECTION BOX - BLUE BOX", "address": {"city": "FOUNTAIN VALLEY", "state": "CA", "street": "17970 MAGNOLIA ST", "postcode": "92708"}}},
{"geometry": {"type": "Point", "coordinates": [-117.9284063907, 33.714276353]}, "type": "Feature", "properties": {"collection_times": [{"days": "Mon-Fri", "time": "5:00pm"}, {"days": "Sat", "time": "4:00pm"}, {"days": "Sun", "time": "Closed"}], "id": "9270800045", "name": "USPS COLLECTION BOX - BLUE BOX", "address": {"city": "FOUNTAIN VALLEY", "state": "CA", "street": "17227 NEWHOPE", "postcode": "92708"}}},
{"geometry": {"type": "Point", "coordinates": [-117.9529957611, 33.7125990243]}, "type": "Feature", "properties": {"collection_times": [{"days": "Mon-Sat", "time": "1:30pm"}, {"days": "Sun", "time": "Closed"}], "id": "9270800047", "name": "USPS COLLECTION BOX - BLUE BOX", "address": {"city": "FOUNTAIN VALLEY", "state": "CA", "street": "10100 LA ALAMEDA", "postcode": "92708"}}},
{"geometry": {"type": "Point", "coordinates": [-117.9355017785, 33.7163193231]}, "type": "Feature", "properties": {"collection_times": [{"days": "Mon-Sat", "time": "3:30pm"}, {"days": "Sun", "time": "Closed"}], "id": "9270800048", "name": "USPS COLLECTION BOX - BLUE BOX", "address": {"city": "FOUNTAIN VALLEY", "state": "CA", "street": "11100 WARNER AVE", "postcode": "92708"}}},
{"geometry": {"type": "Point", "coordinates": [-117.9509074531, 33.7089778798]}, "type": "Feature", "properties": {"collection_times": [{"days": "Mon-Sat", "time": "3:00pm"}, {"days": "Sun", "time": "Closed"}], "id": "9270800052", "name": "USPS COLLECTION BOX - BLUE BOX", "address": {"city": "FOUNTAIN VALLEY", "state": "CA", "street": "10200 SLATER AVE", "postcode": "92708"}}},
{"geometry": {"type": "Point", "coordinates": [-117.9276291866, 33.7140527737]}, "type": "Feature", "properties": {"collection_times": [{"days": "Mon-Fri", "time": "5:00pm"}, {"days": "Sat", "time": "4:00pm"}, {"days": "Sun", "time": "Closed"}], "id": "9270800055", "name": "USPS COLLECTION BOX - BLUE BOX", "address": {"city": "FOUNTAIN VALLEY", "state": "CA", "street": "17150 NEWHOPE ST", "postcode": "92708"}}},
{"geometry": {"type": "Point", "coordinates": [-117.9239300234, 33.7156725154]}, "type": "Feature", "properties": {"collection_times": [{"days": "Mon-Sat", "time": "10:00am"}, {"days": "Sun", "time": "Closed"}], "id": "9270800057", "name": "USPS COLLECTION BOX - BLUE BOX", "address": {"city": "FOUNTAIN VALLEY", "state": "CA", "street": "11770 WARNER AVE", "postcode": "92708"}}},
{"geometry": {"type": "Point", "coordinates": [-117.9284063907, 33.714276353]}, "type": "Feature", "properties": {"collection_times": [{"days": "Mon-Fri", "time": "5:00pm"}, {"days": "Sat", "time": "4:00pm"}, {"days": "Sun", "time": "Closed"}], "id": "9270800059", "name": "USPS COLLECTION BOX - BLUE BOX", "address": {"city": "FOUNTAIN VALLEY", "state": "CA", "street": "17227 NEWHOPE", "postcode": "92708"}}},
{"geometry": {"type": "Point", "coordinates": [-117.92837, 33.71311]}, "type": "Feature", "properties": {"collection_times": [{"days": "Mon-Fri", "time": "5:00pm"}, {"days": "Sat", "time": "4:00pm"}, {"days": "Sun", "time": "Closed"}], "id": "9270800061", "name": "USPS COLLECTION BOX - PO LOBBY", "address": {"city": "FOUNTAIN VALLEY", "state": "CA", "street": "17227 NEWHOPE ST", "postcode": "92708"}}},
{"geometry": {"type": "Point", "coordinates": [-117.9512063724, 33.7104116646]}, "type": "Feature", "properties": {"collection_times": [{"days": "Mon-Sat", "time": "3:00pm"}, {"days": "Sun", "time": "Closed"}], "id": "9270800062", "name": "USPS COLLECTION BOX - EXPRESS", "address": {"city": "FOUNTAIN VALLEY", "state": "CA", "street": "17227 NEWHOPE ST", "postcode": "92708"}}},
{"geometry": {"type": "Point", "coordinates": [-117.9283341573, 33.7139370033]}, "type": "Feature", "properties": {"collection_times": [{"days": "Mon-Sat", "time": "2:00pm"}, {"days": "Sun", "time": "Closed"}], "id": "9270800063", "name": "USPS COLLECTION BOX - BLUE BOX", "address": {"city": "FOUNTAIN VALLEY", "state": "CA", "street": "17220 NEWHOPE ST", "postcode": "92708"}}},
{"geometry": {"type": "Point", "coordinates": [-117.9196715721, 33.7237683053]}, "type": "Feature", "properties": {"collection_times": [{"days": "Mon-Sat", "time": "3:30pm"}, {"days": "Sun", "time": "Closed"}], "id": "9270800064", "name": "USPS COLLECTION BOX - BLUE BOX", "address": {"city": "FOUNTAIN VALLEY", "state": "CA", "street": "16600 HARBOR BLVD", "postcode": "92708"}}},
{"geometry": {"type": "Point", "coordinates": [-117.9284063907, 33.714276353]}, "type": "Feature", "properties": {"collection_times": [{"days": "Mon-Fri", "time": "5:00pm"}, {"days": "Sat", "time": "4:00pm"}, {"days": "Sun", "time": "Closed"}], "id": "9270800065", "name": "USPS COLLECTION BOX - APC", "address": {"city": "FOUNTAIN VALLEY", "state": "CA", "street": "17227 NEWHOPE", "postcode": "92708"}}},
{"geometry": {"type": "Point", "coordinates": [-117.9624933532, 33.7159727161]}, "type": "Feature", "properties": {"collection_times": [{"days": "Mon-Sat", "time": "3:30pm"}, {"days": "Sun", "time": "Closed"}], "id": "9270800066", "name": "USPS COLLECTION BOX - BLUE BOX", "address": {"city": "FOUNTAIN VALLEY", "state": "CA", "street": "9550 WARNER AVE", "postcode": "92708"}}},
{"geometry": {"type": "Point", "coordinates": [-117.815245719, 33.7447895965]}, "type": "Feature", "properties": {"collection_times": [{"days": "Mon-Fri", "time": "3:00pm"}, {"days": "Sat", "time": "10:00am"}, {"days": "Sun", "time": "Closed"}], "id": "9278000000", "name": "USPS COLLECTION BOX - BLUE BOX", "address": {"city": "TUSTIN", "state": "CA", "street": "13400 NEWPORT AVE", "postcode": "92780"}}},
{"geometry": {"type": "Point", "coordinates": [-117.8252050506, 33.7420877182]}, "type": "Feature", "properties": {"collection_times": [{"days": "Mon-Fri", "time": "3:00pm"}, {"days": "Sat", "time": "10:00am"}, {"days": "Sun", "time": "Closed"}], "id": "9278000002", "name": "USPS COLLECTION BOX - BLUE BOX", "address": {"city": "TUSTIN", "state": "CA", "street": "210 W MAIN ST", "postcode": "92780"}}},
{"geometry": {"type": "Point", "coordinates": [-117.8048628882, 33.745092434]}, "type": "Feature", "properties": {"collection_times": [{"days": "Mon-Fri", "time": "3:00pm"}, {"days": "Sat", "time": "10:00am"}, {"days": "Sun", "time": "Closed"}], "id": "9278000005", "name": "USPS COLLECTION BOX - BLUE BOX", "address": {"city": "TUSTIN", "state": "CA", "street": "1442 IRVINE BLVD", "postcode": "92780"}}},
{"geometry": {"type": "Point", "coordinates": [-117.8177677875, 33.7470963665]}, "type": "Feature", "properties": {"collection_times": [{"days": "Mon-Fri", "time": "3:00pm"}, {"days": "Sat", "time": "10:00am"}, {"days": "Sun", "time": "Closed"}], "id": "9278000008", "name": "USPS COLLECTION BOX - BLUE BOX", "address": {"city": "TUSTIN", "state": "CA", "street": "202 FASHION LN", "postcode": "92780"}}},
{"geometry": {"type": "Point", "coordinates": [-117.8245473254, 33.7482544833]}, "type": "Feature", "properties": {"collection_times": [{"days": "Mon-Fri", "time": "3:00pm"}, {"days": "Sat", "time": "10:00am"}, {"days": "Sun", "time": "Closed"}], "id": "9278000019", "name": "USPS COLLECTION BOX - BLUE BOX", "address": {"city": "TUSTIN", "state": "CA", "street": "17632 IRVINE BLVD", "postcode": "92780"}}},
{"geometry": {"type": "Point", "coordinates": [-117.8041897845, 33.7095965673]}, "type": "Feature", "properties": {"collection_times": [{"days": "Mon-Fri", "time": "3:00pm"}, {"days": "Sat", "time": "10:00am"}, {"days": "Sun", "time": "Closed"}], "id": "9278000028", "name": "USPS COLLECTION BOX - BLUE BOX", "address": {"city": "TUSTIN", "state": "CA", "street": "3002 DOW AVE", "postcode": "92780"}}},
{"geometry": {"type": "Point", "coordinates": [-117.8078451277, 33.7186994366]}, "type": "Feature", "properties": {"collection_times": [{"days": "Mon-Fri", "time": "3:00pm"}, {"days": "Sat", "time": "10:00am"}, {"days": "Sun", "time": "Closed"}], "id": "9278000029", "name": "USPS COLLECTION BOX - BLUE BOX", "address": {"city": "TUSTIN", "state": "CA", "street": "14451 CHAMBERS RD", "postcode": "92780"}}},
{"geometry": {"type": "Point", "coordinates": [-117.8374875494, 33.7157765141]}, "type": "Feature", "properties": {"collection_times": [{"days": "Mon-Fri", "time": "3:00pm"}, {"days": "Sat", "time": "10:00am"}, {"days": "Sun", "time": "Closed"}], "id": "9278000035", "name": "USPS COLLECTION BOX - BLUE BOX", "address": {"city": "TUSTIN", "state": "CA", "street": "1342 BELL AVE", "postcode": "92780"}}},
{"geometry": {"type": "Point", "coordinates": [-117.8277791784, 33.7209160392]}, "type": "Feature", "properties": {"collection_times": [{"days": "Mon-Fri", "time": "3:00pm"}, {"days": "Sat", "time": "10:00am"}, {"days": "Sun", "time": "Closed"}], "id": "9278000037", "name": "USPS COLLECTION BOX - BLUE BOX", "address": {"city": "TUSTIN", "state": "CA", "street": "15032 RED HILL AVE", "postcode": "92780"}}},
{"geometry": {"type": "Point", "coordinates": [-117.8224267996, 33.7447204923]}, "type": "Feature", "properties": {"collection_times": [{"days": "Mon-Sat", "time": "5:00pm"}, {"days": "Sun", "time": "Closed"}], "id": "9278000054", "name": "USPS COLLECTION BOX - BLUE BOX", "address": {"city": "TUSTIN", "state": "CA", "street": "155 S PROSPECT AVE", "postcode": "92780"}}},
{"geometry": {"type": "Point", "coordinates": [-117.8177677875, 33.7470963665]}, "type": "Feature", "properties": {"collection_times": [{"days": "Mon-Fri", "time": "3:00pm"}, {"days": "Sat", "time": "10:00am"}, {"days": "Sun", "time": "Closed"}], "id": "9278000059", "name": "USPS COLLECTION BOX - BLUE BOX", "address": {"city": "TUSTIN", "state": "CA", "street": "202 FASHION LN", "postcode": "92780"}}},
{"geometry": {"type": "Point", "coordinates": [-117.8041897845, 33.7095965673]}, "type": "Feature", "properties": {"collection_times": [{"days": "Mon-Fri", "time": "3:00pm"}, {"days": "Sat", "time": "10:00am"}, {"days": "Sun", "time": "Closed"}], "id": "9278000064", "name": "USPS COLLECTION BOX - BLUE BOX", "address": {"city": "TUSTIN", "state": "CA", "street": "3002 DOW AVE", "postcode": "92780"}}},
{"geometry": {"type": "Point", "coordinates": [-117.8188087914, 33.7434918905]}, "type": "Feature", "properties": {"collection_times": [{"days": "Mon-Fri", "time": "3:00pm"}, {"days": "Sat", "time": "10:00am"}, {"days": "Sun", "time": "Closed"}], "id": "9278000068", "name": "USPS COLLECTION BOX - BLUE BOX", "address": {"city": "TUSTIN", "state": "CA", "street": "275 CENTENNIAL WAY", "postcode": "92780"}}},
{"geometry": {"type": "Point", "coordinates": [-117.8129555105, 33.7492079483]}, "type": "Feature", "properties": {"collection_times": [{"days": "Mon-Fri", "time": "3:00pm"}, {"days": "Sat", "time": "10:00am"}, {"days": "Sun", "time": "Closed"}], "id": "9278000074", "name": "USPS COLLECTION BOX - BLUE BOX", "address": {"city": "TUSTIN", "state": "CA", "street": "14772 PLAZA DR", "postcode": "92780"}}},
{"geometry": {"type": "Point", "coordinates": [-117.8216301486, 33.7598143583]}, "type": "Feature", "properties": {"collection_times": [{"days": "Mon-Fri", "time": "3:00pm"}, {"days": "Sat", "time": "10:00am"}, {"days": "Sun", "time": "Closed"}], "id": "9278000076", "name": "USPS COLLECTION BOX - BLUE BOX", "address": {"city": "TUSTIN", "state": "CA", "street": "17782 17TH ST", "postcode": "92780"}}},
{"geometry": {"type": "Point", "coordinates": [-117.8288556619, 33.7598687745]}, "type": "Feature", "properties": {"collection_times": [{"days": "Mon-Fri", "time": "3:00pm"}, {"days": "Sat", "time": "10:00am"}, {"days": "Sun", "time": "Closed"}], "id": "9278000079", "name": "USPS COLLECTION BOX - BLUE BOX", "address": {"city": "TUSTIN", "state": "CA", "street": "17245 17TH ST", "postcode": "92780"}}},
{"geometry": {"type": "Point", "coordinates": [-117.8207381975, 33.7598368346]}, "type": "Feature", "properties": {"collection_times": [{"days": "Mon-Fri", "time": "3:00pm"}, {"days": "Sat", "time": "10:00am"}, {"days": "Sun", "time": "Closed"}], "id": "9278000080", "name": "USPS COLLECTION BOX - BLUE BOX", "address": {"city": "TUSTIN", "state": "CA", "street": "17862 17TH ST", "postcode": "92780"}}},
{"geometry": {"type": "Point", "coordinates": [-117.8224266728, 33.7447210777]}, "type": "Feature", "properties": {"collection_times": [{"days": "Mon-Sat", "time": "5:00pm"}, {"days": "Sun", "time": "Closed"}], "id": "9278000084", "name": "USPS COLLECTION BOX - BLUE BOX", "address": {"city": "TUSTIN", "state": "CA", "street": "155 S PROSPECT AVE", "postcode": "92780"}}},
{"geometry": {"type": "Point", "coordinates": [-117.8209049947, 33.7456555225]}, "type": "Feature", "properties": {"collection_times": [{"days": "Mon-Fri", "time": "5:15pm"}, {"days": "Sat", "time": "5:00pm"}, {"days": "Sun", "time": "Closed"}], "id": "9278000091", "name": "USPS COLLECTION BOX - PO LOBBY", "address": {"city": "TUSTIN", "state": "CA", "street": "340 E 1ST ST", "postcode": "92780"}}},
{"geometry": {"type": "Point", "coordinates": [-117.8096007273, 33.7479724311]}, "type": "Feature", "properties": {"collection_times": [{"days": "Mon-Fri", "time": "3:00pm"}, {"days": "Sat", "time": "10:00am"}, {"days": "Sun", "time": "Closed"}], "id": "9278000092", "name": "USPS COLLECTION BOX - BLUE BOX", "address": {"city": "TUSTIN", "state": "CA", "street": "1106 IRVINE BLVD", "postcode": "92780"}}},
{"geometry": {"type": "Point", "coordinates": [-117.8248986642, 33.7437817155]}, "type": "Feature", "properties": {"collection_times": [{"days": "Mon-Fri", "time": "3:00pm"}, {"days": "Sat", "time": "10:00am"}, {"days": "Sun", "time": "Closed"}], "id": "9278000093", "name": "USPS COLLECTION BOX - BLUE BOX", "address": {"city": "TUSTIN", "state": "CA", "street": "200 S C ST", "postcode": "92780"}}},
{"geometry": {"type": "Point", "coordinates": [-117.8173880577, 33.7239245663]}, "type": "Feature", "properties": {"collection_times": [{"days": "Mon-Sat", "time": "3:00pm"}, {"days": "Sun", "time": "Closed"}], "id": "9278000094", "name": "USPS COLLECTION BOX - BLUE BOX", "address": {"city": "TUSTIN", "state": "CA", "street": "1831 ROANOKE AVE", "postcode": "92780"}}},
{"geometry": {"type": "Point", "coordinates": [-117.8209049947, 33.7456555225]}, "type": "Feature", "properties": {"collection_times": [{"days": "Mon-Fri", "time": "5:15pm"}, {"days": "Sat", "time": "5:00pm"}, {"days": "Sun", "time": "Closed"}], "id": "9278000096", "name": "USPS COLLECTION BOX - APC", "address": {"city": "TUSTIN", "state": "CA", "street": "340 E 1ST ST", "postcode": "92780"}}},
{"geometry": {"type": "Point", "coordinates": [-117.7941016087, 33.7242617963]}, "type": "Feature", "properties": {"collection_times": [{"days": "Mon-Fri", "time": "3:00pm"}, {"days": "Sat", "time": "10:00am"}, {"days": "Sun", "time": "Closed"}], "id": "9278200001", "name": "USPS COLLECTION BOX - BLUE BOX", "address": {"city": "TUSTIN", "state": "CA", "street": "2913 EL CAMINO REAL", "postcode": "92782"}}},
{"geometry": {"type": "Point", "coordinates": [-117.7880684224, 33.729729848]}, "type": "Feature", "properties": {"collection_times": [{"days": "Mon-Fri", "time": "3:00pm"}, {"days": "Sat", "time": "10:00am"}, {"days": "Sun", "time": "Closed"}], "id": "9278200005", "name": "USPS COLLECTION BOX - BLUE BOX", "address": {"city": "TUSTIN", "state": "CA", "street": "13201 JAMBOREE RD", "postcode": "92782"}}},
{"geometry": {"type": "Point", "coordinates": [-117.7708249835, 33.7500974235]}, "type": "Feature", "properties": {"collection_times": [{"days": "Mon-Sat", "time": "3:00pm"}, {"days": "Sun", "time": "Closed"}], "id": "9278200006", "name": "USPS COLLECTION BOX - BLUE BOX", "address": {"city": "TUSTIN", "state": "CA", "street": "11491 PIONEER RD", "postcode": "92782"}}},
{"geometry": {"type": "Point", "coordinates": [-117.9135641981, 33.6997544061]}, "type": "Feature", "properties": {"collection_times": [{"days": "Mon-Sat", "time": "8:00pm"}, {"days": "Sun", "time": "Closed"}], "id": "9279900001", "name": "USPS COLLECTION BOX - BLUE BOX", "address": {"city": "SANTA ANA", "state": "CA", "street": "3721 SUSAN ST", "postcode": "92799"}}},
{"geometry": {"type": "Point", "coordinates": [-117.9094388132, 33.6958262567]}, "type": "Feature", "properties": {"collection_times": [{"days": "Mon-Sat", "time": "8:00pm"}, {"days": "Sun", "time": "Closed"}], "id": "9279900003", "name": "USPS COLLECTION BOX - PO LOBBY", "address": {"city": "SANTA ANA", "state": "CA", "street": "3101 W SUNFLOWER AVE", "postcode": "92799"}}},
{"geometry": {"type": "Point", "coordinates": [-117.9094388132, 33.6958262567]}, "type": "Feature", "properties": {"collection_times": [{"days": "Mon-Sat", "time": "8:00pm"}, {"days": "Sun", "time": "Closed"}], "id": "9279900004", "name": "USPS COLLECTION BOX - PO LOBBY", "address": {"city": "SANTA ANA", "state": "CA", "street": "3101 W SUNFLOWER AVE", "postcode": "92799"}}},
{"geometry": {"type": "Point", "coordinates": [-117.9135641981, 33.6997544061]}, "type": "Feature", "properties": {"collection_times": [{"days": "Mon-Sat", "time": "8:00pm"}, {"days": "Sun", "time": "Closed"}], "id": "9279900005", "name": "USPS COLLECTION BOX - BLUE BOX", "address": {"city": "SANTA ANA", "state": "CA", "street": "3721 SUSAN ST", "postcode": "92799"}}},
{"geometry": {"type": "Point", "coordinates": [-117.8515276012, 33.7653542591]}, "type": "Feature", "properties": {"collection_times": [{"days": "Mon-Sat", "time": "4:30pm"}, {"days": "Sun", "time": "Closed"}], "id": "9279900006", "name": "USPS COLLECTION BOX - EXPRESS", "address": {"city": "SANTA ANA", "state": "CA", "street": "3721 S SUSAN ST", "postcode": "92799"}}},
{"geometry": {"type": "Point", "coordinates": [-117.9094388132, 33.6958262567]}, "type": "Feature", "properties": {"collection_times": [{"days": "Mon-Sat", "time": "5:00pm"}, {"days": "Sun", "time": "Closed"}], "id": "9279900009", "name": "USPS COLLECTION BOX - BLUE BOX", "address": {"city": "SANTA ANA", "state": "CA", "street": "3101 W SUNFLOWER AVE", "postcode": "92799"}}},
{"geometry": {"type": "Point", "coordinates": [-117.9094388132, 33.6958262567]}, "type": "Feature", "properties": {"collection_times": [{"days": "Mon-Sat", "time": "8:00pm"}, {"days": "Sun", "time": "Closed"}], "id": "9279900011", "name": "USPS COLLECTION BOX - APC", "address": {"city": "SANTA ANA", "state": "CA", "street": "3101 W SUNFLOWER AVE", "postcode": "92799"}}}
]}
