{"type": "FeatureCollection", "features": [
{"geometry": {"type": "Point", "coordinates": [-117.9578789259, 33.8398197311]}, "type": "Feature", "properties": {"collection_times": [{"days": "Mon-Fri", "time": "1:00pm"}, {"days": "Sat", "time": "11:00am"}, {"days": "Sun", "time": "Closed"}], "id": "9280100002", "name": "USPS COLLECTION BOX - BLUE BOX", "address": {"city": "ANAHEIM", "state": "CA", "street": "2141 W CRESCENT AVE", "postcode": "92801"}}},
{"geometry": {"type": "Point", "coordinates": [-117.9778315992, 33.8482180648]}, "type": "Feature", "properties": {"collection_times": [{"days": "Mon-Fri", "time": "1:00pm"}, {"days": "Sat", "time": "10:30am"}, {"days": "Sun", "time": "Closed"}], "id": "9280100012", "name": "USPS COLLECTION BOX - BLUE BOX", "address": {"city": "ANAHEIM", "state": "CA", "street": "2660 W WOODLAND DR", "postcode": "92801"}}},
{"geometry": {"type": "Point", "coordinates": [-117.973570581, 33.8493111188]}, "type": "Feature", "properties": {"collection_times": [{"days": "Mon-Fri", "time": "1:00pm"}, {"days": "Sat", "time": "10:45am"}, {"days": "Sun", "time": "Closed"}], "id": "9280100014", "name": "USPS COLLECTION BOX - BLUE BOX", "address": {"city": "ANAHEIM", "state": "CA", "street": "2544 W WOODLAND DR", "postcode": "92801"}}},
{"geometry": {"type": "Point", "coordinates": [-117.9590237346, 33.8383959565]}, "type": "Feature", "properties": {"collection_times": [{"days": "Mon-Fri", "time": "1:00pm"}, {"days": "Sat", "time": "11:00am"}, {"days": "Sun", "time": "Closed"}], "id": "9280100027", "name": "USPS COLLECTION BOX - BLUE BOX", "address": {"city": "ANAHEIM", "state": "CA", "street": "501 N BROOKHURST ST", "postcode": "92801"}}},
{"geometry": {"type": "Point", "coordinates": [-117.9464039284, 33.8507070104]}, "type": "Feature", "properties": {"collection_times": [{"days": "Mon-Fri", "time": "1:00pm"}, {"days": "Sat", "time": "10:30am"}, {"days": "Sun", "time": "Closed"}], "id": "9280100030", "name": "USPS COLLECTION BOX - BLUE BOX", "address": {"city": "ANAHEIM", "state": "CA", "street": "1801 W ROMNEYA DR", "postcode": "92801"}}},
{"geometry": {"type": "Point", "coordinates": [-117.9159758579, 33.8595070422]}, "type": "Feature", "properties": {"collection_times": [{"days": "Mon-Fri", "time": "3:00pm"}, {"days": "Sat", "time": "10:00am"}, {"days": "Sun", "time": "Closed"}], "id": "9280100038", "name": "USPS COLLECTION BOX - BLUE BOX", "address": {"city": "ANAHEIM", "state": "CA", "street": "146 E ORANGETHORPE AVE", "postcode": "92801"}}},
{"geometry": {"type": "Point", "coordinates": [-117.9372632044, 33.8412705468]}, "type": "Feature", "properties": {"collection_times": [{"days": "Mon-Fri", "time": "5:30pm"}, {"days": "Sat", "time": "4:30pm"}, {"days": "Sun", "time": "Closed"}], "id": "9280100046", "name": "USPS COLLECTION BOX - BLUE BOX", "address": {"city": "ANAHEIM", "state": "CA", "street": "701 N LOARA ST", "postcode": "92801"}}},
{"geometry": {"type": "Point", "coordinates": [-117.9372632044, 33.8412705468]}, "type": "Feature", "properties": {"collection_times": [{"days": "Mon-Fri", "time": "5:30pm"}, {"days": "Sat", "time": "4:30pm"}, {"days": "Sun", "time": "Closed"}], "id": "9280100047", "name": "USPS COLLECTION BOX - BLUE BOX", "address": {"city": "ANAHEIM", "state": "CA", "street": "701 N LOARA ST", "postcode": "92801"}}},
{"geometry": {"type": "Point", "coordinates": [-117.9526576042, 33.8421913364]}, "type": "Feature", "properties": {"collection_times": [{"days": "Mon-Fri", "time": "4:00pm"}, {"days": "Sat", "time": "10:00am"}, {"days": "Sun", "time": "Closed"}], "id": "9280100058", "name": "USPS COLLECTION BOX - EXPRESS", "address": {"city": "ANAHEIM", "state": "CA", "street": "701 N LOARA ST", "postcode": "92801"}}},
{"geometry": {"type": "Point", "coordinates": [-117.9372632044, 33.8412705468]}, "type": "Feature", "properties": {"collection_times": [{"days": "Mon-Fri", "time": "5:30pm"}, {"days": "Sat", "time": "4:30pm"}, {"days": "Sun", "time": "Closed"}], "id": "9280100066", "name": "USPS COLLECTION BOX - APC", "address": {"city": "ANAHEIM", "state": "CA", "street": "701 N LOARA ST", "postcode": "92801"}}},
{"geometry": {"type": "Point", "coordinates": [-117.914962062, 33.7910267306]}, "type": "Feature", "properties": {"collection_times": [{"days": "Mon-Sat", "time": "2:00pm"}, {"days": "Sun", "time": "Closed"}], "id": "9280200005", "name": "USPS COLLECTION BOX - BLUE BOX", "address": {"city": "ANAHEIM", "state": "CA", "street": "2260 S HARBOR BLVD", "postcode": "92802"}}},
{"geometry": {"type": "Point", "coordinates": [-117.9273995467, 33.8179635667]}, "type": "Feature", "properties": {"collection_times": [{"days": "Mon-Fri", "time": "5:30pm"}, {"days": "Sat", "time": "3:45pm"}, {"days": "Sun", "time": "Closed"}], "id": "9280200030", "name": "USPS COLLECTION BOX - BLUE BOX", "address": {"city": "ANAHEIM", "state": "CA", "street": "1180 W BALL RD", "postcode": "92802"}}},
{"geometry": {"type": "Point", "coordinates": [-117.9277741286, 33.8179159995]}, "type": "Feature", "properties": {"collection_times": [{"days": "Mon-Fri", "time": "5:30pm"}, {"days": "Sat", "time": "3:45pm"}, {"days": "Sun", "time": "Closed"}], "id": "9280200031", "name": "USPS COLLECTION BOX - BLUE BOX", "address": {"city": "ANAHEIM", "state": "CA", "street": "1180 W BALL RD", "postcode": "92802"}}},
{"geometry": {"type": "Point", "coordinates": [-117.9947928648, 33.8247386952]}, "type": "Feature", "properties": {"collection_times": [{"days": "Mon-Fri", "time": "1:00pm"}, {"days": "Sat", "time": "10:00am"}, {"days": "Sun", "time": "Closed"}], "id": "9280400014", "name": "USPS COLLECTION BOX - BLUE BOX", "address": {"city": "ANAHEIM", "state": "CA", "street": "3033 W ORANGE AVE", "postcode": "92804"}}},
{"geometry": {"type": "Point", "coordinates": [-117.9622224556, 33.8177426759]}, "type": "Feature", "properties": {"collection_times": [{"days": "Mon-Fri", "time": "5:10pm"}, {"days": "Sat", "time": "10:00am"}, {"days": "Sun", "time": "Closed"}], "id": "9280400027", "name": "USPS COLLECTION BOX - BLUE BOX", "address": {"city": "ANAHEIM", "state": "CA", "street": "2255 W BALL RD", "postcode": "92804"}}},
{"geometry": {"type": "Point", "coordinates": [-117.9622224556, 33.8177426759]}, "type": "Feature", "properties": {"collection_times": [{"days": "Mon-Fri", "time": "5:10pm"}, {"days": "Sat", "time": "10:00am"}, {"days": "Sun", "time": "Closed"}], "id": "9280400028", "name": "USPS COLLECTION BOX - BLUE BOX", "address": {"city": "ANAHEIM", "state": "CA", "street": "2255 W BALL RD", "postcode": "92804"}}},
{"geometry": {"type": "Point", "coordinates": [-117.9629099534, 33.817790592]}, "type": "Feature", "properties": {"collection_times": [{"days": "Mon-Fri", "time": "5:10pm"}, {"days": "Sat", "time": "10:00am"}, {"days": "Sun", "time": "Closed"}], "id": "9280400032", "name": "USPS COLLECTION BOX - BLUE BOX", "address": {"city": "ANAHEIM", "state": "CA", "street": "2293 W BALL RD", "postcode": "92804"}}},
{"geometry": {"type": "Point", "coordinates": [-117.8919192633, 33.8405120814]}, "type": "Feature", "properties": {"collection_times": [{"days": "Mon-Fri", "time": "3:00pm"}, {"days": "Sat", "time": "11:15am"}, {"days": "Sun", "time": "Closed"}], "id": "9280500025", "name": "USPS COLLECTION BOX - BLUE BOX", "address": {"city": "ANAHEIM", "state": "CA", "street": "1775 E CENTER ST", "postcode": "92805"}}},
{"geometry": {"type": "Point", "coordinates": [-117.9006187739, 33.8181202861]}, "type": "Feature", "properties": {"collection_times": [{"days": "Mon-Fri", "time": "4:00pm"}, {"days": "Sat", "time": "10:30am"}, {"days": "Sun", "time": "Closed"}], "id": "9280500038", "name": "USPS COLLECTION BOX - BLUE BOX", "address": {"city": "ANAHEIM", "state": "CA", "street": "711 E BALL RD STE 100", "postcode": "92805"}}},
{"geometry": {"type": "Point", "coordinates": [-117.9166560593, 33.8326361293]}, "type": "Feature", "properties": {"collection_times": [{"days": "Mon-Fri", "time": "5:00pm"}, {"days": "Sat", "time": "10:45am"}, {"days": "Sun", "time": "Closed"}], "id": "9280500044", "name": "USPS COLLECTION BOX - BLUE BOX", "address": {"city": "ANAHEIM", "state": "CA", "street": "333 W BROADWAY", "postcode": "92805"}}},
{"geometry": {"type": "Point", "coordinates": [-117.9166560593, 33.8326361293]}, "type": "Feature", "properties": {"collection_times": [{"days": "Mon-Fri", "time": "5:00pm"}, {"days": "Sat", "time": "10:45am"}, {"days": "Sun", "time": "Closed"}], "id": "9280500045", "name": "USPS COLLECTION BOX - BLUE BOX", "address": {"city": "ANAHEIM", "state": "CA", "street": "333 W BROADWAY", "postcode": "92805"}}},
{"geometry": {"type": "Point", "coordinates": [-117.9166560593, 33.8326361293]}, "type": "Feature", "properties": {"collection_times": [{"days": "Mon-Fri", "time": "5:00pm"}, {"days": "Sat", "time": "10:45am"}, {"days": "Sun", "time": "Closed"}], "id": "9280500046", "name": "USPS COLLECTION BOX - BLUE BOX", "address": {"city": "ANAHEIM", "state": "CA", "street": "333 W BROADWAY", "postcode": "92805"}}},
{"geometry": {"type": "Point", "coordinates": [-117.9078562525, 33.8328539196]}, "type": "Feature", "properties": {"collection_times": [{"days": "Mon-Fri", "time": "3:25pm"}, {"days": "Sat", "time": "10:30am"}, {"days": "Sun", "time": "Closed"}], "id": "9280500047", "name": "USPS COLLECTION BOX - EXPRESS", "address": {"city": "ANAHEIM", "state": "CA", "street": "711 E BALL RD STE 100", "postcode": "92805"}}},
{"geometry": {"type": "Point", "coordinates": [-117.8643716389, 33.8518355533]}, "type": "Feature", "properties": {"collection_times": [{"days": "Mon-Fri", "time": "3:00pm"}, {"days": "Sat", "time": "10:00am"}, {"days": "Sun", "time": "Closed"}], "id": "9280600001", "name": "USPS COLLECTION BOX - BLUE BOX", "address": {"city": "ANAHEIM", "state": "CA", "street": "1150 N RED GUM ST", "postcode": "92806"}}},
{"geometry": {"type": "Point", "coordinates": [-117.8828553728, 33.7942763189]}, "type": "Feature", "properties": {"collection_times": [{"days": "Mon-Fri", "time": "3:00pm"}, {"days": "Sat", "time": "10:30am"}, {"days": "Sun", "time": "Closed"}], "id": "9280600013", "name": "USPS COLLECTION BOX - BLUE BOX", "address": {"city": "ANAHEIM", "state": "CA", "street": "2150 S TOWNE CENTRE PL", "postcode": "92806"}}},
{"geometry": {"type": "Point", "coordinates": [-117.811907815, 33.8595021506]}, "type": "Feature", "properties": {"collection_times": [{"days": "Mon-Fri", "time": "2:00pm"}, {"days": "Sat", "time": "10:30am"}, {"days": "Sun", "time": "Closed"}], "id": "9280700000", "name": "USPS COLLECTION BOX - BLUE BOX", "address": {"city": "ANAHEIM", "state": "CA", "street": "4887 E LA PALMA AVE", "postcode": "92807"}}},
{"geometry": {"type": "Point", "coordinates": [-117.8371777782, 33.8560421553]}, "type": "Feature", "properties": {"collection_times": [{"days": "Mon-Fri", "time": "2:00pm"}, {"days": "Sat", "time": "10:30am"}, {"days": "Sun", "time": "Closed"}], "id": "9280700005", "name": "USPS COLLECTION BOX - BLUE BOX", "address": {"city": "ANAHEIM", "state": "CA", "street": "1100 N TUSTIN AVE", "postcode": "92807"}}},
{"geometry": {"type": "Point", "coordinates": [-117.8312109332, 33.859770842]}, "type": "Feature", "properties": {"collection_times": [{"days": "Mon-Fri", "time": "2:00pm"}, {"days": "Sat", "time": "10:30am"}, {"days": "Sun", "time": "Closed"}], "id": "9280700012", "name": "USPS COLLECTION BOX - BLUE BOX", "address": {"city": "ANAHEIM", "state": "CA", "street": "1200 N VAN BUREN ST", "postcode": "92807"}}},
{"geometry": {"type": "Point", "coordinates": [-117.8057016061, 33.8594892978]}, "type": "Feature", "properties": {"collection_times": [{"days": "Mon-Fri", "time": "2:00pm"}, {"days": "Sat", "time": "10:30am"}, {"days": "Sun", "time": "Closed"}], "id": "9280700014", "name": "USPS COLLECTION BOX - BLUE BOX", "address": {"city": "ANAHEIM", "state": "CA", "street": "5101 E LA PALMA AVE", "postcode": "92807"}}},
{"geometry": {"type": "Point", "coordinates": [-117.8057016061, 33.8594892978]}, "type": "Feature", "properties": {"collection_times": [{"days": "Mon-Fri", "time": "2:00pm"}, {"days": "Sat", "time": "10:30am"}, {"days": "Sun", "time": "Closed"}], "id": "9280700015", "name": "USPS COLLECTION BOX - BLUE BOX", "address": {"city": "ANAHEIM", "state": "CA", "street": "5101 E LA PALMA AVE", "postcode": "92807"}}},
{"geometry": {"type": "Point", "coordinates": [-117.7953274726, 33.8515963721]}, "type": "Feature", "properties": {"collection_times": [{"days": "Mon-Fri", "time": "6:00pm"}, {"days": "Sat", "time": "5:00pm"}, {"days": "Sun", "time": "Closed"}], "id": "9280700023", "name": "USPS COLLECTION BOX - BLUE BOX", "address": {"city": "ANAHEIM", "state": "CA", "street": "5505 E SANTA ANA CANYON RD", "postcode": "92807"}}},
{"geometry": {"type": "Point", "coordinates": [-117.8312109332, 33.859770842]}, "type": "Feature", "properties": {"collection_times": [{"days": "Mon-Fri", "time": "2:00pm"}, {"days": "Sat", "time": "10:30am"}, {"days": "Sun", "time": "Closed"}], "id": "9280700043", "name": "USPS COLLECTION BOX - BLUE BOX", "address": {"city": "ANAHEIM", "state": "CA", "street": "1200 N VAN BUREN ST", "postcode": "92807"}}},
{"geometry": {"type": "Point", "coordinates": [-117.789257209, 33.8499876318]}, "type": "Feature", "properties": {"collection_times": [{"days": "Mon-Fri", "time": "6:00pm"}, {"days": "Sat", "time": "5:00pm"}, {"days": "Sun", "time": "Closed"}], "id": "9280700050", "name": "USPS COLLECTION BOX - APC", "address": {"city": "ANAHEIM", "state": "CA", "street": "5505 E SANTA ANA CYN RD", "postcode": "92807"}}},
{"geometry": {"type": "Point", "coordinates": [-117.8419919552, 33.8622698174]}, "type": "Feature", "properties": {"collection_times": [{"days": "Mon-Fri", "time": "2:00pm"}, {"days": "Sat", "time": "10:30am"}, {"days": "Sun", "time": "Closed"}], "id": "9280700051", "name": "USPS COLLECTION BOX - BLUE BOX", "address": {"city": "ANAHEIM", "state": "CA", "street": "1283 N TUSTIN AVE", "postcode": "92807"}}},
{"geometry": {"type": "Point", "coordinates": [-117.7413686768, 33.8582505224]}, "type": "Feature", "properties": {"collection_times": [{"days": "Mon-Sat", "time": "12:00pm"}, {"days": "Sun", "time": "Closed"}], "id": "9280800005", "name": "USPS COLLECTION BOX - BLUE BOX", "address": {"city": "ANAHEIM", "state": "CA", "street": "751 S WEIR CANYON RD", "postcode": "92808"}}},
{"geometry": {"type": "Point", "coordinates": [-117.7435047519, 33.865817357]}, "type": "Feature", "properties": {"collection_times": [{"days": "Mon-Fri", "time": "5:15pm"}, {"days": "Sat", "time": "4:00pm"}, {"days": "Sun", "time": "Closed"}], "id": "9280800009", "name": "USPS COLLECTION BOX - BLUE BOX", "address": {"city": "ANAHEIM", "state": "CA", "street": "8161 E KAISER BLVD", "postcode": "92808"}}},
{"geometry": {"type": "Point", "coordinates": [-117.8292608318, 33.8685999155]}, "type": "Feature", "properties": {"collection_times": [{"days": "Mon-Fri", "time": "4:30pm"}, {"days": "Sat", "time": "10:00am"}, {"days": "Sun", "time": "Closed"}], "id": "9281100000", "name": "USPS COLLECTION BOX - BLUE BOX", "address": {"city": "ATWOOD", "state": "CA", "street": "1679 E ORANGETHORPE AVE", "postcode": "92811"}}},
{"geometry": {"type": "Point", "coordinates": [-117.8292608318, 33.8685999155]}, "type": "Feature", "properties": {"collection_times": [{"days": "Mon-Fri", "time": "4:30pm"}, {"days": "Sat", "time": "9:45am"}, {"days": "Sun", "time": "Closed"}], "id": "9281100001", "name": "USPS COLLECTION BOX - PO LOBBY", "address": {"city": "ATWOOD", "state": "CA", "street": "1679 E ORANGETHORPE AVE", "postcode": "92811"}}},
{"geometry": {"type": "Point", "coordinates": [-117.8896952415, 33.9146731505]}, "type": "Feature", "properties": {"collection_times": [{"days": "Mon-Fri", "time": "3:00pm"}, {"days": "Sat", "time": "10:00am"}, {"days": "Sun", "time": "Closed"}], "id": "9282100011", "name": "USPS COLLECTION BOX - BLUE BOX", "address": {"city": "BREA", "state": "CA", "street": "259 S RANDOLPH AVE", "postcode": "92821"}}},
{"geometry": {"type": "Point", "coordinates": [-117.8583615528, 33.908698662]}, "type": "Feature", "properties": {"collection_times": [{"days": "Mon-Fri", "time": "2:30pm"}, {"days": "Sat", "time": "10:00am"}, {"days": "Sun", "time": "Closed"}], "id": "9282100017", "name": "USPS COLLECTION BOX - BLUE BOX", "address": {"city": "BREA", "state": "CA", "street": "2881 SATURN ST", "postcode": "92821"}}},
{"geometry": {"type": "Point", "coordinates": [-117.9001729217, 33.9284320553]}, "type": "Feature", "properties": {"collection_times": [{"days": "Mon-Fri", "time": "3:00pm"}, {"days": "Sat", "time": "10:00am"}, {"days": "Sun", "time": "Closed"}], "id": "9282100023", "name": "USPS COLLECTION BOX - BLUE BOX", "address": {"city": "BREA", "state": "CA", "street": "595 TAMARACK AVE", "postcode": "92821"}}},
{"geometry": {"type": "Point", "coordinates": [-117.8537539624, 33.9166382682]}, "type": "Feature", "properties": {"collection_times": [{"days": "Mon-Fri", "time": "2:30pm"}, {"days": "Sat", "time": "10:00am"}, {"days": "Sun", "time": "Closed"}], "id": "9282100025", "name": "USPS COLLECTION BOX - BLUE BOX", "address": {"city": "BREA", "state": "CA", "street": "3199 ENTERPRISE ST", "postcode": "92821"}}},
{"geometry": {"type": "Point", "coordinates": [-117.9041023712, 33.9318926834]}, "type": "Feature", "properties": {"collection_times": [{"days": "Mon-Fri", "time": "3:00pm"}, {"days": "Sat", "time": "10:00am"}, {"days": "Sun", "time": "Closed"}], "id": "9282100028", "name": "USPS COLLECTION BOX - BLUE BOX", "address": {"city": "BREA", "state": "CA", "street": "510 W CENTRAL AVE", "postcode": "92821"}}},
{"geometry": {"type": "Point", "coordinates": [-117.8793271676, 33.9271323724]}, "type": "Feature", "properties": {"collection_times": [{"days": "Mon-Fri", "time": "3:00pm"}, {"days": "Sat", "time": "10:00am"}, {"days": "Sun", "time": "Closed"}], "id": "9282100030", "name": "USPS COLLECTION BOX - BLUE BOX", "address": {"city": "BREA", "state": "CA", "street": "555 POINTE DR/LAMBERT", "postcode": "92821"}}},
{"geometry": {"type": "Point", "coordinates": [-117.8637490102, 33.9109020086]}, "type": "Feature", "properties": {"collection_times": [{"days": "Mon-Fri", "time": "2:30pm"}, {"days": "Sat", "time": "10:00am"}, {"days": "Sun", "time": "Closed"}], "id": "9282100032", "name": "USPS COLLECTION BOX - BLUE BOX", "address": {"city": "BREA", "state": "CA", "street": "2500 E IMPERIAL HWY", "postcode": "92821"}}},
{"geometry": {"type": "Point", "coordinates": [-117.8896952415, 33.9146731505]}, "type": "Feature", "properties": {"collection_times": [{"days": "Mon-Fri", "time": "3:00pm"}, {"days": "Sat", "time": "10:00am"}, {"days": "Sun", "time": "Closed"}], "id": "9282100048", "name": "USPS COLLECTION BOX - BLUE BOX", "address": {"city": "BREA", "state": "CA", "street": "259 S RANDOLPH AVE", "postcode": "92821"}}},
{"geometry": {"type": "Point", "coordinates": [-117.9067595212, 33.9258462976]}, "type": "Feature", "properties": {"collection_times": [{"days": "Mon-Fri", "time": "3:00pm"}, {"days": "Sat", "time": "10:00am"}, {"days": "Sun", "time": "Closed"}], "id": "9282100049", "name": "USPS COLLECTION BOX - BLUE BOX", "address": {"city": "BREA", "state": "CA", "street": "501 N BERRY ST", "postcode": "92821"}}},
{"geometry": {"type": "Point", "coordinates": [-117.9001706726, 33.9248396607]}, "type": "Feature", "properties": {"collection_times": [{"days": "Mon-Fri", "time": "3:00pm"}, {"days": "Sat", "time": "10:00am"}, {"days": "Sun", "time": "Closed"}], "id": "9282100050", "name": "USPS COLLECTION BOX - BLUE BOX", "address": {"city": "BREA", "state": "CA", "street": "451 W LAMBERT RD", "postcode": "92821"}}},
{"geometry": {"type": "Point", "coordinates": [-117.9033051844, 33.9175039713]}, "type": "Feature", "properties": {"collection_times": [{"days": "Mon-Fri", "time": "3:00pm"}, {"days": "Sat", "time": "10:00am"}, {"days": "Sun", "time": "Closed"}], "id": "9282100062", "name": "USPS COLLECTION BOX - BLUE BOX", "address": {"city": "BREA", "state": "CA", "street": "305 W IMPERIAL HWY", "postcode": "92821"}}},
{"geometry": {"type": "Point", "coordinates": [-117.9041023712, 33.9318926834]}, "type": "Feature", "properties": {"collection_times": [{"days": "Mon-Fri", "time": "3:00pm"}, {"days": "Sat", "time": "10:00am"}, {"days": "Sun", "time": "Closed"}], "id": "9282100063", "name": "USPS COLLECTION BOX - BLUE BOX", "address": {"city": "BREA", "state": "CA", "street": "510 W CENTRAL AVE", "postcode": "92821"}}},
{"geometry": {"type": "Point", "coordinates": [-117.8904087663, 33.9177005975]}, "type": "Feature", "properties": {"collection_times": [{"days": "Mon-Fri", "time": "5:25pm"}, {"days": "Sat", "time": "3:30pm"}, {"days": "Sun", "time": "Closed"}], "id": "9282200000", "name": "USPS COLLECTION BOX - BLUE BOX", "address": {"city": "BREA", "state": "CA", "street": "700 E BIRCH ST", "postcode": "92822"}}},
{"geometry": {"type": "Point", "coordinates": [-117.8903280162, 33.9176231364]}, "type": "Feature", "properties": {"collection_times": [{"days": "Mon-Fri", "time": "5:25pm"}, {"days": "Sat", "time": "3:30pm"}, {"days": "Sun", "time": "Closed"}], "id": "9282200001", "name": "USPS COLLECTION BOX - BLUE BOX", "address": {"city": "BREA", "state": "CA", "street": "700 E BIRCH ST", "postcode": "92822"}}},
{"geometry": {"type": "Point", "coordinates": [-117.8904762305, 33.917690152]}, "type": "Feature", "properties": {"collection_times": [{"days": "Mon-Fri", "time": "5:25pm"}, {"days": "Sat", "time": "3:30pm"}, {"days": "Sun", "time": "Closed"}], "id": "9282200006", "name": "USPS COLLECTION BOX - EXPRESS", "address": {"city": "BREA", "state": "CA", "street": "700 E BIRCH ST", "postcode": "92822"}}},
{"geometry": {"type": "Point", "coordinates": [-117.8903280162, 33.9176231364]}, "type": "Feature", "properties": {"collection_times": [{"days": "Mon-Fri", "time": "5:25pm"}, {"days": "Sat", "time": "3:30pm"}, {"days": "Sun", "time": "Closed"}], "id": "9282200010", "name": "USPS COLLECTION BOX - APC", "address": {"city": "BREA", "state": "CA", "street": "700 E BIRCH ST", "postcode": "92822"}}},
{"geometry": {"type": "Point", "coordinates": [-117.8879066075, 33.8742206858]}, "type": "Feature", "properties": {"collection_times": [{"days": "Mon-Fri", "time": "1:30pm"}, {"days": "Sat", "time": "4:00pm"}, {"days": "Sun", "time": "Closed"}], "id": "9283100012", "name": "USPS COLLECTION BOX - BLUE BOX", "address": {"city": "FULLERTON", "state": "CA", "street": "2450 E CHAPMAN AVE", "postcode": "92831"}}},
{"geometry": {"type": "Point", "coordinates": [-117.8894183667, 33.8657684204]}, "type": "Feature", "properties": {"collection_times": [{"days": "Mon-Fri", "time": "2:00pm"}, {"days": "Sat", "time": "5:00pm"}, {"days": "Sun", "time": "Closed"}], "id": "9283100013", "name": "USPS COLLECTION BOX - BLUE BOX", "address": {"city": "FULLERTON", "state": "CA", "street": "660 S STATE COLLEGE BLVD", "postcode": "92831"}}},
{"geometry": {"type": "Point", "coordinates": [-117.8861605601, 33.8597081452]}, "type": "Feature", "properties": {"collection_times": [{"days": "Mon-Fri", "time": "2:00pm"}, {"days": "Sat", "time": "5:00pm"}, {"days": "Sun", "time": "Closed"}], "id": "9283100029", "name": "USPS COLLECTION BOX - BLUE BOX", "address": {"city": "FULLERTON", "state": "CA", "street": "2495 E ORANGETHORPE AVE", "postcode": "92831"}}},
{"geometry": {"type": "Point", "coordinates": [-117.8834088832, 33.8780331694]}, "type": "Feature", "properties": {"collection_times": [{"days": "Mon-Fri", "time": "1:45pm"}, {"days": "Sat", "time": "4:00pm"}, {"days": "Sun", "time": "Closed"}], "id": "9283100030", "name": "USPS COLLECTION BOX - BLUE BOX", "address": {"city": "FULLERTON", "state": "CA", "street": "2600 NUTWOOD AVE", "postcode": "92831"}}},
{"geometry": {"type": "Point", "coordinates": [-117.9033290653, 33.8741030412]}, "type": "Feature", "properties": {"collection_times": [{"days": "Mon-Fri", "time": "5:15pm"}, {"days": "Sat", "time": "5:00pm"}, {"days": "Sun", "time": "Closed"}], "id": "9283100045", "name": "USPS COLLECTION BOX - BLUE BOX", "address": {"city": "FULLERTON", "state": "CA", "street": "1350 E CHAPMAN AVE", "postcode": "92831"}}},
{"geometry": {"type": "Point", "coordinates": [-117.9033548687, 33.8741201343]}, "type": "Feature", "properties": {"collection_times": [{"days": "Mon-Fri", "time": "5:15pm"}, {"days": "Sat", "time": "5:00pm"}, {"days": "Sun", "time": "Closed"}], "id": "9283100048", "name": "USPS COLLECTION BOX - APC", "address": {"city": "FULLERTON", "state": "CA", "street": "1350 E CHAPMAN AVE", "postcode": "92831"}}},
{"geometry": {"type": "Point", "coordinates": [-117.8963744534, 33.8793467333]}, "type": "Feature", "properties": {"collection_times": [{"days": "Mon-Fri", "time": "4:45pm"}, {"days": "Sat-Sun", "time": "Closed"}], "id": "9283100049", "name": "USPS COLLECTION BOX - BLUE BOX", "address": {"city": "FULLERTON", "state": "CA", "street": "2400 ARTS DR", "postcode": "92831"}}},
{"geometry": {"type": "Point", "coordinates": [-117.8917493171, 33.881391976]}, "type": "Feature", "properties": {"collection_times": [{"days": "Mon-Fri", "time": "12:00pm"}, {"days": "Sat-Sun", "time": "Closed"}], "id": "9283100058", "name": "USPS COLLECTION BOX - BLUE BOX", "address": {"city": "FULLERTON", "state": "CA", "street": "800 N STATE COLLEGE BLVD", "postcode": "92831"}}},
{"geometry": {"type": "Point", "coordinates": [-117.9243216334, 33.8751895292]}, "type": "Feature", "properties": {"collection_times": [{"days": "Mon-Fri", "time": "2:45pm"}, {"days": "Sat", "time": "4:15pm"}, {"days": "Sun", "time": "Closed"}], "id": "9283200010", "name": "USPS COLLECTION BOX - BLUE BOX", "address": {"city": "FULLERTON", "state": "CA", "street": "529 N HARBOR BLVD", "postcode": "92832"}}},
{"geometry": {"type": "Point", "coordinates": [-117.9246339345, 33.8817040842]}, "type": "Feature", "properties": {"collection_times": [{"days": "Mon-Fri", "time": "4:45pm"}, {"days": "Sat", "time": "4:15pm"}, {"days": "Sun", "time": "Closed"}], "id": "9283200011", "name": "USPS COLLECTION BOX - BLUE BOX", "address": {"city": "FULLERTON", "state": "CA", "street": "1235 N HARBOR BLVD", "postcode": "92832"}}},
{"geometry": {"type": "Point", "coordinates": [-117.9216496601, 33.8703428409]}, "type": "Feature", "properties": {"collection_times": [{"days": "Mon-Fri", "time": "5:00pm"}, {"days": "Sat", "time": "4:30pm"}, {"days": "Sun", "time": "Closed"}], "id": "9283200016", "name": "USPS COLLECTION BOX - BLUE BOX", "address": {"city": "FULLERTON", "state": "CA", "street": "202 E COMMONWEALTH", "postcode": "92832"}}},
{"geometry": {"type": "Point", "coordinates": [-117.9260499364, 33.8723894653]}, "type": "Feature", "properties": {"collection_times": [{"days": "Mon-Fri", "time": "3:00pm"}, {"days": "Sat", "time": "4:30pm"}, {"days": "Sun", "time": "Closed"}], "id": "9283200025", "name": "USPS COLLECTION BOX - BLUE BOX", "address": {"city": "FULLERTON", "state": "CA", "street": "141 W WILSHIRE AVE", "postcode": "92832"}}},
{"geometry": {"type": "Point", "coordinates": [-117.9651494511, 33.870053618]}, "type": "Feature", "properties": {"collection_times": [{"days": "Mon-Fri", "time": "5:00pm"}, {"days": "Sat", "time": "4:15pm"}, {"days": "Sun", "time": "Closed"}], "id": "9283300002", "name": "USPS COLLECTION BOX - BLUE BOX", "address": {"city": "FULLERTON", "state": "CA", "street": "1920 W COMMONWEALTH AVE", "postcode": "92833"}}},
{"geometry": {"type": "Point", "coordinates": [-117.9651494322, 33.8700528581]}, "type": "Feature", "properties": {"collection_times": [{"days": "Mon-Fri", "time": "5:00pm"}, {"days": "Sat", "time": "4:15pm"}, {"days": "Sun", "time": "Closed"}], "id": "9283300003", "name": "USPS COLLECTION BOX - BLUE BOX", "address": {"city": "FULLERTON", "state": "CA", "street": "1920 W COMMONWEALTH AVE", "postcode": "92833"}}},
{"geometry": {"type": "Point", "coordinates": [-117.9605639472, 33.8591923751]}, "type": "Feature", "properties": {"collection_times": [{"days": "Mon-Fri", "time": "5:00pm"}, {"days": "Sat", "time": "4:00pm"}, {"days": "Sun", "time": "Closed"}], "id": "9283300020", "name": "USPS COLLECTION BOX - BLUE BOX", "address": {"city": "FULLERTON", "state": "CA", "street": "1821 W ORANGETHORPE AVE", "postcode": "92833"}}},
{"geometry": {"type": "Point", "coordinates": [-117.9305009244, 33.8917775865]}, "type": "Feature", "properties": {"collection_times": [{"days": "Mon-Fri", "time": "5:00pm"}, {"days": "Sat", "time": "4:00pm"}, {"days": "Sun", "time": "Closed"}], "id": "9283500001", "name": "USPS COLLECTION BOX - BLUE BOX", "address": {"city": "FULLERTON", "state": "CA", "street": "1820 SUNNYCREST DR", "postcode": "92835"}}},
{"geometry": {"type": "Point", "coordinates": [-117.9305009244, 33.8917775865]}, "type": "Feature", "properties": {"collection_times": [{"days": "Mon-Fri", "time": "5:00pm"}, {"days": "Sat", "time": "4:00pm"}, {"days": "Sun", "time": "Closed"}], "id": "9283500002", "name": "USPS COLLECTION BOX - BLUE BOX", "address": {"city": "FULLERTON", "state": "CA", "street": "1820 SUNNYCREST DR", "postcode": "92835"}}},
{"geometry": {"type": "Point", "coordinates": [-117.9235799181, 33.8849134518]}, "type": "Feature", "properties": {"collection_times": [{"days": "Mon-Fri", "time": "4:30pm"}, {"days": "Sat", "time": "4:15pm"}, {"days": "Sun", "time": "Closed"}], "id": "9283500026", "name": "USPS COLLECTION BOX - BLUE BOX", "address": {"city": "FULLERTON", "state": "CA", "street": "1370 BREA BLVD", "postcode": "92835"}}},
{"geometry": {"type": "Point", "coordinates": [-117.9378475862, 33.7746959821]}, "type": "Feature", "properties": {"collection_times": [{"days": "Mon-Fri", "time": "4:30pm"}, {"days": "Sat", "time": "2:15pm"}, {"days": "Sun", "time": "Closed"}], "id": "9284000002", "name": "USPS COLLECTION BOX - BLUE BOX", "address": {"city": "GARDEN GROVE", "state": "CA", "street": "12966 EUCLID ST", "postcode": "92840"}}},
{"geometry": {"type": "Point", "coordinates": [-117.9228133607, 33.7888761112]}, "type": "Feature", "properties": {"collection_times": [{"days": "Mon-Fri", "time": "2:00pm"}, {"days": "Sat", "time": "1:45pm"}, {"days": "Sun", "time": "Closed"}], "id": "9284000004", "name": "USPS COLLECTION BOX - BLUE BOX", "address": {"city": "GARDEN GROVE", "state": "CA", "street": "12055 CHAPMAN AVE", "postcode": "92840"}}},
{"geometry": {"type": "Point", "coordinates": [-117.9495614505, 33.7967723918]}, "type": "Feature", "properties": {"collection_times": [{"days": "Mon-Sat", "time": "2:00pm"}, {"days": "Sun", "time": "Closed"}], "id": "9284000011", "name": "USPS COLLECTION BOX - BLUE BOX", "address": {"city": "GARDEN GROVE", "state": "CA", "street": "11452 PALMWOOD DR", "postcode": "92840"}}},
{"geometry": {"type": "Point", "coordinates": [-117.9077152554, 33.7888855749]}, "type": "Feature", "properties": {"collection_times": [{"days": "Mon-Sat", "time": "1:45pm"}, {"days": "Sun", "time": "Closed"}], "id": "9284000014", "name": "USPS COLLECTION BOX - BLUE BOX", "address": {"city": "GARDEN GROVE", "state": "CA", "street": "12961 CHAPMAN AVE", "postcode": "92840"}}},
{"geometry": {"type": "Point", "coordinates": [-117.8975252469, 33.7830145496]}, "type": "Feature", "properties": {"collection_times": [{"days": "Mon-Fri", "time": "3:00pm"}, {"days": "Sat", "time": "1:30pm"}, {"days": "Sun", "time": "Closed"}], "id": "9284000024", "name": "USPS COLLECTION BOX - BLUE BOX", "address": {"city": "GARDEN GROVE", "state": "CA", "street": "12377 LEWIS ST", "postcode": "92840"}}},
{"geometry": {"type": "Point", "coordinates": [-117.9412580569, 33.7877049819]}, "type": "Feature", "properties": {"collection_times": [{"days": "Mon-Sat", "time": "2:15pm"}, {"days": "Sun", "time": "Closed"}], "id": "9284000025", "name": "USPS COLLECTION BOX - BLUE BOX", "address": {"city": "GARDEN GROVE", "state": "CA", "street": "12051 EUCLID ST", "postcode": "92840"}}},
{"geometry": {"type": "Point", "coordinates": [-117.8975252469, 33.7830145496]}, "type": "Feature", "properties": {"collection_times": [{"days": "Mon-Fri", "time": "3:00pm"}, {"days": "Sat", "time": "1:30pm"}, {"days": "Sun", "time": "Closed"}], "id": "9284000028", "name": "USPS COLLECTION BOX - BLUE BOX", "address": {"city": "GARDEN GROVE", "state": "CA", "street": "12377 LEWIS ST", "postcode": "92840"}}},
{"geometry": {"type": "Point", "coordinates": [-117.8975252469, 33.7830145496]}, "type": "Feature", "properties": {"collection_times": [{"days": "Mon-Fri", "time": "3:00pm"}, {"days": "Sat", "time": "1:30pm"}, {"days": "Sun", "time": "Closed"}], "id": "9284000029", "name": "USPS COLLECTION BOX - BLUE BOX", "address": {"city": "GARDEN GROVE", "state": "CA", "street": "12377 LEWIS ST", "postcode": "92840"}}},
{"geometry": {"type": "Point", "coordinates": [-117.950363292, 33.777726723]}, "type": "Feature", "properties": {"collection_times": [{"days": "Mon-Fri", "time": "5:20pm"}, {"days": "Sat", "time": "4:30pm"}, {"days": "Sun", "time": "Closed"}], "id": "9284000031", "name": "USPS COLLECTION BOX - APC", "address": {"city": "GARDEN GROVE", "state": "CA", "street": "10441 STANFORD AVE", "postcode": "92840"}}},
{"geometry": {"type": "Point", "coordinates": [-118.0064707201, 33.7883490385]}, "type": "Feature", "properties": {"collection_times": [{"days": "Mon-Fri", "time": "3:30pm"}, {"days": "Sat-Sun", "time": "Closed"}], "id": "9284100002", "name": "USPS COLLECTION BOX - BLUE BOX", "address": {"city": "GARDEN GROVE", "state": "CA", "street": "7271 CHAPMAN AVE", "postcode": "92841"}}},
{"geometry": {"type": "Point", "coordinates": [-118.0042524689, 33.7738548006]}, "type": "Feature", "properties": {"collection_times": [{"days": "Mon-Fri", "time": "3:00pm"}, {"days": "Sat", "time": "10:30am"}, {"days": "Sun", "time": "Closed"}], "id": "9284100006", "name": "USPS COLLECTION BOX - BLUE BOX", "address": {"city": "GARDEN GROVE", "state": "CA", "street": "7231 GARDEN GROVE BLVD", "postcode": "92841"}}},
{"geometry": {"type": "Point", "coordinates": [-117.9980873746, 33.7752521547]}, "type": "Feature", "properties": {"collection_times": [{"days": "Mon-Sat", "time": "10:30am"}, {"days": "Sun", "time": "Closed"}], "id": "9284100012", "name": "USPS COLLECTION BOX - BLUE BOX", "address": {"city": "GARDEN GROVE", "state": "CA", "street": "12670 HOOVER ST", "postcode": "92841"}}},
{"geometry": {"type": "Point", "coordinates": [-117.9536069655, 33.7599634112]}, "type": "Feature", "properties": {"collection_times": [{"days": "Mon-Fri", "time": "4:30pm"}, {"days": "Sat", "time": "11:30am"}, {"days": "Sun", "time": "Closed"}], "id": "9284300000", "name": "USPS COLLECTION BOX - BLUE BOX", "address": {"city": "GARDEN GROVE", "state": "CA", "street": "13952 BROOKHURST ST", "postcode": "92843"}}},
{"geometry": {"type": "Point", "coordinates": [-117.9276588095, 33.7742932381]}, "type": "Feature", "properties": {"collection_times": [{"days": "Mon-Sat", "time": "1:00pm"}, {"days": "Sun", "time": "Closed"}], "id": "9284300005", "name": "USPS COLLECTION BOX - BLUE BOX", "address": {"city": "GARDEN GROVE", "state": "CA", "street": "11752 GARDEN GROVE BLVD", "postcode": "92843"}}},
{"geometry": {"type": "Point", "coordinates": [-117.912253086, 33.7744747688]}, "type": "Feature", "properties": {"collection_times": [{"days": "Mon-Fri", "time": "3:30pm"}, {"days": "Sat", "time": "1:15pm"}, {"days": "Sun", "time": "Closed"}], "id": "9284300006", "name": "USPS COLLECTION BOX - BLUE BOX", "address": {"city": "GARDEN GROVE", "state": "CA", "street": "12665 GARDEN GROVE BLVD", "postcode": "92843"}}},
{"geometry": {"type": "Point", "coordinates": [-117.9087699152, 33.7743013701]}, "type": "Feature", "properties": {"collection_times": [{"days": "Mon-Fri", "time": "3:15pm"}, {"days": "Sat", "time": "1:15pm"}, {"days": "Sun", "time": "Closed"}], "id": "9284300010", "name": "USPS COLLECTION BOX - BLUE BOX", "address": {"city": "GARDEN GROVE", "state": "CA", "street": "12900 GARDEN GROVE BLVD", "postcode": "92843"}}},
{"geometry": {"type": "Point", "coordinates": [-117.9203090365, 33.7712476567]}, "type": "Feature", "properties": {"collection_times": [{"days": "Mon-Sat", "time": "1:00pm"}, {"days": "Sun", "time": "Closed"}], "id": "9284300012", "name": "USPS COLLECTION BOX - BLUE BOX", "address": {"city": "GARDEN GROVE", "state": "CA", "street": "13220 HARBOR BLVD", "postcode": "92843"}}},
{"geometry": {"type": "Point", "coordinates": [-117.9409493046, 33.7743493751]}, "type": "Feature", "properties": {"collection_times": [{"days": "Mon-Sat", "time": "2:15pm"}, {"days": "Sun", "time": "Closed"}], "id": "9284300014", "name": "USPS COLLECTION BOX - BLUE BOX", "address": {"city": "GARDEN GROVE", "state": "CA", "street": "12966 MAIN ST", "postcode": "92843"}}},
{"geometry": {"type": "Point", "coordinates": [-117.9017673377, 33.774381315]}, "type": "Feature", "properties": {"collection_times": [{"days": "Mon-Fri", "time": "3:15pm"}, {"days": "Sat-Sun", "time": "Closed"}], "id": "9284300015", "name": "USPS COLLECTION BOX - BLUE BOX", "address": {"city": "GARDEN GROVE", "state": "CA", "street": "13252 GARDEN GROVE BLVD", "postcode": "92843"}}},
{"geometry": {"type": "Point", "coordinates": [-117.9608194663, 33.7739448032]}, "type": "Feature", "properties": {"collection_times": [{"days": "Mon-Sat", "time": "3:00pm"}, {"days": "Sun", "time": "Closed"}], "id": "9284400003", "name": "USPS COLLECTION BOX - BLUE BOX", "address": {"city": "GARDEN GROVE", "state": "CA", "street": "9828 GARDEN GROVE BLVD", "postcode": "92844"}}},
{"geometry": {"type": "Point", "coordinates": [-118.0354227734, 33.7845796043]}, "type": "Feature", "properties": {"collection_times": [{"days": "Mon-Sat", "time": "10:45am"}, {"days": "Sun", "time": "Closed"}], "id": "9284500000", "name": "USPS COLLECTION BOX - BLUE BOX", "address": {"city": "GARDEN GROVE", "state": "CA", "street": "12252 BLACKMER ST", "postcode": "92845"}}},
{"geometry": {"type": "Point", "coordinates": [-118.0301361298, 33.7812897954]}, "type": "Feature", "properties": {"collection_times": [{"days": "Mon-Fri", "time": "3:15pm"}, {"days": "Sat", "time": "11:00am"}, {"days": "Sun", "time": "Closed"}], "id": "9284500007", "name": "USPS COLLECTION BOX - BLUE BOX", "address": {"city": "GARDEN GROVE", "state": "CA", "street": "12431 VALLEY VIEW ST", "postcode": "92845"}}},
{"geometry": {"type": "Point", "coordinates": [-118.0351016048, 33.776718012]}, "type": "Feature", "properties": {"collection_times": [{"days": "Mon-Sat", "time": "11:00am"}, {"days": "Sun", "time": "Closed"}], "id": "9284500008", "name": "USPS COLLECTION BOX - BLUE BOX", "address": {"city": "GARDEN GROVE", "state": "CA", "street": "12832 VALLEY VIEW ST", "postcode": "92845"}}},
{"geometry": {"type": "Point", "coordinates": [-118.0286388741, 33.7890242214]}, "type": "Feature", "properties": {"collection_times": [{"days": "Mon-Sat", "time": "5:00pm"}, {"days": "Sun", "time": "Closed"}], "id": "9284500010", "name": "USPS COLLECTION BOX - BLUE BOX", "address": {"city": "GARDEN GROVE", "state": "CA", "street": "11947 VALLEY VIEW ST", "postcode": "92845"}}},
{"geometry": {"type": "Point", "coordinates": [-118.0286388741, 33.7890242214]}, "type": "Feature", "properties": {"collection_times": [{"days": "Mon-Sat", "time": "5:00pm"}, {"days": "Sun", "time": "Closed"}], "id": "9284500011", "name": "USPS COLLECTION BOX - BLUE BOX", "address": {"city": "GARDEN GROVE", "state": "CA", "street": "11947 VALLEY VIEW ST", "postcode": "92845"}}},
{"geometry": {"type": "Point", "coordinates": [-118.0286388741, 33.7890242214]}, "type": "Feature", "properties": {"collection_times": [{"days": "Mon-Sat", "time": "5:00pm"}, {"days": "Sun", "time": "Closed"}], "id": "9284500012", "name": "USPS COLLECTION BOX - APC", "address": {"city": "GARDEN GROVE", "state": "CA", "street": "11947 VALLEY VIEW ST", "postcode": "92845"}}},
{"geometry": {"type": "Point", "coordinates": [-117.5524237137, 33.9247308689]}, "type": "Feature", "properties": {"collection_times": [{"days": "Mon-Fri", "time": "5:00pm"}, {"days": "Sat", "time": "4:00pm"}, {"days": "Sun", "time": "Closed"}], "id": "9286000000", "name": "USPS COLLECTION BOX - PO LOBBY", "address": {"city": "NORCO", "state": "CA", "street": "1801 TOWN AND COUNTRY DR", "postcode": "92860"}}},
{"geometry": {"type": "Point", "coordinates": [-117.5593918052, 33.9208115246]}, "type": "Feature", "properties": {"collection_times": [{"days": "Mon-Fri", "time": "3:00pm"}, {"days": "Sat", "time": "1:00pm"}, {"days": "Sun", "time": "Closed"}], "id": "9286000001", "name": "USPS COLLECTION BOX - BLUE BOX", "address": {"city": "NORCO", "state": "CA", "street": "2678 HAMNER AVE", "postcode": "92860"}}},
{"geometry": {"type": "Point", "coordinates": [-117.5884960826, 33.9148664332]}, "type": "Feature", "properties": {"collection_times": [{"days": "Mon-Fri", "time": "3:00pm"}, {"days": "Sat", "time": "1:00pm"}, {"days": "Sun", "time": "Closed"}], "id": "9286000005", "name": "USPS COLLECTION BOX - BLUE BOX", "address": {"city": "NORCO", "state": "CA", "street": "2085 RIVER RD", "postcode": "92860"}}},
{"geometry": {"type": "Point", "coordinates": [-117.5608475629, 33.9279050977]}, "type": "Feature", "properties": {"collection_times": [{"days": "Mon-Fri", "time": "5:00pm"}, {"days": "Sat", "time": "4:00pm"}, {"days": "Sun", "time": "Closed"}], "id": "9286000010", "name": "USPS COLLECTION BOX - BLUE BOX", "address": {"city": "NORCO", "state": "CA", "street": "1801 TOWN AND COUNTRY DR", "postcode": "92860"}}},
{"geometry": {"type": "Point", "coordinates": [-117.5524237137, 33.9247308689]}, "type": "Feature", "properties": {"collection_times": [{"days": "Mon-Fri", "time": "5:00pm"}, {"days": "Sat", "time": "4:00pm"}, {"days": "Sun", "time": "Closed"}], "id": "9286000011", "name": "USPS COLLECTION BOX - APC", "address": {"city": "NORCO", "state": "CA", "street": "1801 TOWN AND COUNTRY DR", "postcode": "92860"}}},
{"geometry": {"type": "Point", "coordinates": [-117.820752393, 33.8140624906]}, "type": "Feature", "properties": {"collection_times": [{"days": "Mon-Fri", "time": "4:30pm"}, {"days": "Sat", "time": "11:30am"}, {"days": "Sun", "time": "Closed"}], "id": "9286100001", "name": "USPS COLLECTION BOX - BLUE BOX", "address": {"city": "ORANGE", "state": "CA", "street": "17821 SANTIAGO BLVD", "postcode": "92861"}}},
{"geometry": {"type": "Point", "coordinates": [-117.8466959551, 33.8289043096]}, "type": "Feature", "properties": {"collection_times": [{"days": "Mon-Fri", "time": "3:00pm"}, {"days": "Sat", "time": "11:30am"}, {"days": "Sun", "time": "Closed"}], "id": "9286500009", "name": "USPS COLLECTION BOX - BLUE BOX", "address": {"city": "ORANGE", "state": "CA", "street": "2200 N TUSTIN ST", "postcode": "92865"}}},
{"geometry": {"type": "Point", "coordinates": [-117.8470941748, 33.8337478954]}, "type": "Feature", "properties": {"collection_times": [{"days": "Mon-Fri", "time": "5:00pm"}, {"days": "Sat", "time": "11:30am"}, {"days": "Sun", "time": "Closed"}], "id": "9286500016", "name": "USPS COLLECTION BOX - BLUE BOX", "address": {"city": "ORANGE", "state": "CA", "street": "2683 N ORANGE OLIVE RD", "postcode": "92865"}}},
{"geometry": {"type": "Point", "coordinates": [-117.8470941748, 33.8337478954]}, "type": "Feature", "properties": {"collection_times": [{"days": "Mon-Fri", "time": "4:30pm"}, {"days": "Sat-Sun", "time": "Closed"}], "id": "9286500019", "name": "USPS COLLECTION BOX - PO LOBBY", "address": {"city": "ORANGE", "state": "CA", "street": "2683 N ORANGE OLIVE RD", "postcode": "92865"}}},
{"geometry": {"type": "Point", "coordinates": [-117.851888215, 33.815732749]}, "type": "Feature", "properties": {"collection_times": [{"days": "Mon-Fri", "time": "5:00pm"}, {"days": "Sat", "time": "11:30am"}, {"days": "Sun", "time": "Closed"}], "id": "9286500020", "name": "USPS COLLECTION BOX - BLUE BOX", "address": {"city": "ORANGE", "state": "CA", "street": "140 E TAFT AVE", "postcode": "92865"}}},
{"geometry": {"type": "Point", "coordinates": [-117.8499745887, 33.7878172618]}, "type": "Feature", "properties": {"collection_times": [{"days": "Mon-Fri", "time": "3:00pm"}, {"days": "Sat", "time": "11:15am"}, {"days": "Sun", "time": "Closed"}], "id": "9286600001", "name": "USPS COLLECTION BOX - BLUE BOX", "address": {"city": "ORANGE", "state": "CA", "street": "390 E CHAPMAN AVE", "postcode": "92866"}}},
{"geometry": {"type": "Point", "coordinates": [-117.8486275047, 33.7860983485]}, "type": "Feature", "properties": {"collection_times": [{"days": "Mon-Sat", "time": "10:00am"}, {"days": "Sun", "time": "Closed"}], "id": "9286600005", "name": "USPS COLLECTION BOX - BLUE BOX", "address": {"city": "ORANGE", "state": "CA", "street": "507 E ALMOND AVE", "postcode": "92866"}}},
{"geometry": {"type": "Point", "coordinates": [-117.855295907, 33.787465234]}, "type": "Feature", "properties": {"collection_times": [{"days": "Mon-Fri", "time": "5:00pm"}, {"days": "Sat", "time": "11:45am"}, {"days": "Sun", "time": "Closed"}], "id": "9286600007", "name": "USPS COLLECTION BOX - BLUE BOX", "address": {"city": "ORANGE", "state": "CA", "street": "120 S LEMON ST", "postcode": "92866"}}},
{"geometry": {"type": "Point", "coordinates": [-117.8454927968, 33.7883615241]}, "type": "Feature", "properties": {"collection_times": [{"days": "Mon-Sat", "time": "10:00am"}, {"days": "Sun", "time": "Closed"}], "id": "9286600010", "name": "USPS COLLECTION BOX - BLUE BOX", "address": {"city": "ORANGE", "state": "CA", "street": "127 N PINE ST", "postcode": "92866"}}},
{"geometry": {"type": "Point", "coordinates": [-117.855295907, 33.787465234]}, "type": "Feature", "properties": {"collection_times": [{"days": "Mon-Fri", "time": "4:30pm"}, {"days": "Sat-Sun", "time": "Closed"}], "id": "9286600011", "name": "USPS COLLECTION BOX - PO LOBBY", "address": {"city": "ORANGE", "state": "CA", "street": "120 S LEMON ST", "postcode": "92866"}}},
{"geometry": {"type": "Point", "coordinates": [-117.855295907, 33.787465234]}, "type": "Feature", "properties": {"collection_times": [{"days": "Mon-Fri", "time": "5:00pm"}, {"days": "Sat", "time": "11:45am"}, {"days": "Sun", "time": "Closed"}], "id": "9286600013", "name": "USPS COLLECTION BOX - BLUE BOX", "address": {"city": "ORANGE", "state": "CA", "street": "120 S LEMON ST", "postcode": "92866"}}},
{"geometry": {"type": "Point", "coordinates": [-117.8624754872, 33.8133108152]}, "type": "Feature", "properties": {"collection_times": [{"days": "Mon-Fri", "time": "3:00pm"}, {"days": "Sat", "time": "11:30am"}, {"days": "Sun", "time": "Closed"}], "id": "9286700008", "name": "USPS COLLECTION BOX - BLUE BOX", "address": {"city": "ORANGE", "state": "CA", "street": "1570 N BATAVIA ST", "postcode": "92867"}}},
{"geometry": {"type": "Point", "coordinates": [-117.823434161, 33.8102947663]}, "type": "Feature", "properties": {"collection_times": [{"days": "Mon-Sat", "time": "10:00am"}, {"days": "Sun", "time": "Closed"}], "id": "9286700010", "name": "USPS COLLECTION BOX - BLUE BOX", "address": {"city": "ORANGE", "state": "CA", "street": "2808 E KATELLA AVE", "postcode": "92867"}}},
{"geometry": {"type": "Point", "coordinates": [-117.8711808688, 33.8061342415]}, "type": "Feature", "properties": {"collection_times": [{"days": "Mon-Fri", "time": "3:00pm"}, {"days": "Sat", "time": "11:00am"}, {"days": "Sun", "time": "Closed"}], "id": "9286700014", "name": "USPS COLLECTION BOX - BLUE BOX", "address": {"city": "ORANGE", "state": "CA", "street": "1740 W KATELLA AVE", "postcode": "92867"}}},
{"geometry": {"type": "Point", "coordinates": [-117.835656621, 33.8055016773]}, "type": "Feature", "properties": {"collection_times": [{"days": "Mon-Fri", "time": "5:15pm"}, {"days": "Sat", "time": "4:45pm"}, {"days": "Sun", "time": "Closed"}], "id": "9286700017", "name": "USPS COLLECTION BOX - BLUE BOX", "address": {"city": "ORANGE", "state": "CA", "street": "1075 N TUSTIN ST", "postcode": "92867"}}},
{"geometry": {"type": "Point", "coordinates": [-117.8710458934, 33.8063578788]}, "type": "Feature", "properties": {"collection_times": [{"days": "Mon-Fri", "time": "3:00pm"}, {"days": "Sat", "time": "11:00am"}, {"days": "Sun", "time": "Closed"}], "id": "9286700021", "name": "USPS COLLECTION BOX - BLUE BOX", "address": {"city": "ORANGE", "state": "CA", "street": "1855 W KATELLA AVE", "postcode": "92867"}}},
{"geometry": {"type": "Point", "coordinates": [-117.8504943473, 33.8090999777]}, "type": "Feature", "properties": {"collection_times": [{"days": "Mon-Fri", "time": "3:00pm"}, {"days": "Sat", "time": "11:45am"}, {"days": "Sun", "time": "Closed"}], "id": "9286700030", "name": "USPS COLLECTION BOX - BLUE BOX", "address": {"city": "ORANGE", "state": "CA", "street": "320 W KATELLA AVE", "postcode": "92867"}}},
{"geometry": {"type": "Point", "coordinates": [-117.8356560211, 33.8055016386]}, "type": "Feature", "properties": {"collection_times": [{"days": "Mon-Fri", "time": "5:15pm"}, {"days": "Sat", "time": "4:45pm"}, {"days": "Sun", "time": "Closed"}], "id": "9286700033", "name": "USPS COLLECTION BOX - APC", "address": {"city": "ORANGE", "state": "CA", "street": "1075 N TUSTIN ST", "postcode": "92867"}}},
{"geometry": {"type": "Point", "coordinates": [-117.835656021, 33.805501639]}, "type": "Feature", "properties": {"collection_times": [{"days": "Mon-Fri", "time": "5:15pm"}, {"days": "Sat", "time": "4:45pm"}, {"days": "Sun", "time": "Closed"}], "id": "9286700034", "name": "USPS COLLECTION BOX - PO LOBBY", "address": {"city": "ORANGE", "state": "CA", "street": "1075 N TUSTIN ST", "postcode": "92867"}}},
{"geometry": {"type": "Point", "coordinates": [-117.8939591314, 33.7874504638]}, "type": "Feature", "properties": {"collection_times": [{"days": "Mon-Fri", "time": "3:00pm"}, {"days": "Sat", "time": "11:00am"}, {"days": "Sun", "time": "Closed"}], "id": "9286800010", "name": "USPS COLLECTION BOX - BLUE BOX", "address": {"city": "ORANGE", "state": "CA", "street": "341 CITY BLVD W", "postcode": "92868"}}},
{"geometry": {"type": "Point", "coordinates": [-117.8892208749, 33.7778272745]}, "type": "Feature", "properties": {"collection_times": [{"days": "Mon-Fri", "time": "3:00pm"}, {"days": "Sat", "time": "11:00am"}, {"days": "Sun", "time": "Closed"}], "id": "9286800011", "name": "USPS COLLECTION BOX - BLUE BOX", "address": {"city": "ORANGE", "state": "CA", "street": "625 THE CITY DR S", "postcode": "92868"}}},
{"geometry": {"type": "Point", "coordinates": [-117.8890493034, 33.778168362]}, "type": "Feature", "properties": {"collection_times": [{"days": "Mon-Fri", "time": "3:00pm"}, {"days": "Sat", "time": "11:00am"}, {"days": "Sun", "time": "Closed"}], "id": "9286800012", "name": "USPS COLLECTION BOX - BLUE BOX", "address": {"city": "ORANGE", "state": "CA", "street": "625 THE CITY DR S", "postcode": "92868"}}},
{"geometry": {"type": "Point", "coordinates": [-117.8773371959, 33.7878866554]}, "type": "Feature", "properties": {"collection_times": [{"days": "Mon-Fri", "time": "3:00pm"}, {"days": "Sat", "time": "11:30am"}, {"days": "Sun", "time": "Closed"}], "id": "9286800014", "name": "USPS COLLECTION BOX - BLUE BOX", "address": {"city": "ORANGE", "state": "CA", "street": "2310 W CHAPMAN AVE", "postcode": "92868"}}},
{"geometry": {"type": "Point", "coordinates": [-117.873769838, 33.7959693222]}, "type": "Feature", "properties": {"collection_times": [{"days": "Mon-Fri", "time": "3:00pm"}, {"days": "Sat", "time": "11:00am"}, {"days": "Sun", "time": "Closed"}], "id": "9286800036", "name": "USPS COLLECTION BOX - BLUE BOX", "address": {"city": "ORANGE", "state": "CA", "street": "604 N ECKHOFF ST", "postcode": "92868"}}},
{"geometry": {"type": "Point", "coordinates": [-117.8902973676, 33.7758020488]}, "type": "Feature", "properties": {"collection_times": [{"days": "Mon-Fri", "time": "3:00pm"}, {"days": "Sat", "time": "11:00am"}, {"days": "Sun", "time": "Closed"}], "id": "9286800042", "name": "USPS COLLECTION BOX - BLUE BOX", "address": {"city": "ORANGE", "state": "CA", "street": "770 THE CITY DR S", "postcode": "92868"}}},
{"geometry": {"type": "Point", "coordinates": [-117.8902973676, 33.7758020488]}, "type": "Feature", "properties": {"collection_times": [{"days": "Mon-Fri", "time": "3:00pm"}, {"days": "Sat", "time": "11:00am"}, {"days": "Sun", "time": "Closed"}], "id": "9286800043", "name": "USPS COLLECTION BOX - BLUE BOX", "address": {"city": "ORANGE", "state": "CA", "street": "770 THE CITY DR S", "postcode": "92868"}}},
{"geometry": {"type": "Point", "coordinates": [-117.8901187408, 33.7758777581]}, "type": "Feature", "properties": {"collection_times": [{"days": "Mon-Fri", "time": "3:00pm"}, {"days": "Sat", "time": "11:00am"}, {"days": "Sun", "time": "Closed"}], "id": "9286800045", "name": "USPS COLLECTION BOX - BLUE BOX", "address": {"city": "ORANGE", "state": "CA", "street": "765 THE CITY DR S", "postcode": "92868"}}},
{"geometry": {"type": "Point", "coordinates": [-117.8812560122, 33.7841986915]}, "type": "Feature", "properties": {"collection_times": [{"days": "Mon-Fri", "time": "3:00pm"}, {"days": "Sat", "time": "11:15am"}, {"days": "Sun", "time": "Closed"}], "id": "9286800050", "name": "USPS COLLECTION BOX - BLUE BOX", "address": {"city": "ORANGE", "state": "CA", "street": "333 S ANITA DR", "postcode": "92868"}}},
{"geometry": {"type": "Point", "coordinates": [-117.8812560122, 33.7841986915]}, "type": "Feature", "properties": {"collection_times": [{"days": "Mon-Fri", "time": "3:00pm"}, {"days": "Sat", "time": "11:15am"}, {"days": "Sun", "time": "Closed"}], "id": "9286800052", "name": "USPS COLLECTION BOX - BLUE BOX", "address": {"city": "ORANGE", "state": "CA", "street": "333 S ANITA DR", "postcode": "92868"}}},
{"geometry": {"type": "Point", "coordinates": [-117.8811779369, 33.7862274661]}, "type": "Feature", "properties": {"collection_times": [{"days": "Mon-Fri", "time": "3:00pm"}, {"days": "Sat", "time": "11:15am"}, {"days": "Sun", "time": "Closed"}], "id": "9286800054", "name": "USPS COLLECTION BOX - BLUE BOX", "address": {"city": "ORANGE", "state": "CA", "street": "171 S ANITA DR", "postcode": "92868"}}},
{"geometry": {"type": "Point", "coordinates": [-117.8694576814, 33.7891183603]}, "type": "Feature", "properties": {"collection_times": [{"days": "Mon-Fri", "time": "3:00pm"}, {"days": "Sat", "time": "11:15am"}, {"days": "Sun", "time": "Closed"}], "id": "9286800064", "name": "USPS COLLECTION BOX - BLUE BOX", "address": {"city": "ORANGE", "state": "CA", "street": "725 TOWN & COUNTRY RD", "postcode": "92868"}}},
{"geometry": {"type": "Point", "coordinates": [-117.867426039, 33.7794041588]}, "type": "Feature", "properties": {"collection_times": [{"days": "Mon-Fri", "time": "3:00pm"}, {"days": "Sat", "time": "11:00am"}, {"days": "Sun", "time": "Closed"}], "id": "9286800071", "name": "USPS COLLECTION BOX - BLUE BOX", "address": {"city": "ORANGE", "state": "CA", "street": "500 S MAIN ST", "postcode": "92868"}}},
{"geometry": {"type": "Point", "coordinates": [-117.867426039, 33.7794041588]}, "type": "Feature", "properties": {"collection_times": [{"days": "Mon-Fri", "time": "3:00pm"}, {"days": "Sat", "time": "11:00am"}, {"days": "Sun", "time": "Closed"}], "id": "9286800072", "name": "USPS COLLECTION BOX - BLUE BOX", "address": {"city": "ORANGE", "state": "CA", "street": "500 S MAIN ST", "postcode": "92868"}}},
{"geometry": {"type": "Point", "coordinates": [-117.8652020761, 33.7803315986]}, "type": "Feature", "properties": {"collection_times": [{"days": "Mon-Fri", "time": "3:00pm"}, {"days": "Sat", "time": "11:30am"}, {"days": "Sun", "time": "Closed"}], "id": "9286800085", "name": "USPS COLLECTION BOX - BLUE BOX", "address": {"city": "ORANGE", "state": "CA", "street": "1140 W LA VETA AVE", "postcode": "92868"}}},
{"geometry": {"type": "Point", "coordinates": [-117.8760073622, 33.7860104153]}, "type": "Feature", "properties": {"collection_times": [{"days": "Mon-Fri", "time": "3:00pm"}, {"days": "Sat", "time": "11:00am"}, {"days": "Sun", "time": "Closed"}], "id": "9286800086", "name": "USPS COLLECTION BOX - BLUE BOX", "address": {"city": "ORANGE", "state": "CA", "street": "1 CITY BLVD W", "postcode": "92868"}}},
{"geometry": {"type": "Point", "coordinates": [-117.8933908053, 33.7874944152]}, "type": "Feature", "properties": {"collection_times": [{"days": "Mon-Fri", "time": "3:00pm"}, {"days": "Sat-Sun", "time": "Closed"}], "id": "9286800088", "name": "USPS COLLECTION BOX - BLUE BOX", "address": {"city": "ORANGE", "state": "CA", "street": "333 CITY BLVD W", "postcode": "92868"}}},
{"geometry": {"type": "Point", "coordinates": [-117.8933908053, 33.7874944152]}, "type": "Feature", "properties": {"collection_times": [{"days": "Mon-Fri", "time": "3:00pm"}, {"days": "Sat-Sun", "time": "Closed"}], "id": "9286800089", "name": "USPS COLLECTION BOX - BLUE BOX", "address": {"city": "ORANGE", "state": "CA", "street": "333 CITY BLVD W", "postcode": "92868"}}},
{"geometry": {"type": "Point", "coordinates": [-117.8694576814, 33.7891183603]}, "type": "Feature", "properties": {"collection_times": [{"days": "Mon-Fri", "time": "3:00pm"}, {"days": "Sat", "time": "11:00am"}, {"days": "Sun", "time": "Closed"}], "id": "9286800091", "name": "USPS COLLECTION BOX - BLUE BOX", "address": {"city": "ORANGE", "state": "CA", "street": "500 ECKHOFF", "postcode": "92868"}}},
{"geometry": {"type": "Point", "coordinates": [-117.8760073622, 33.7860104153]}, "type": "Feature", "properties": {"collection_times": [{"days": "Mon-Fri", "time": "3:00pm"}, {"days": "Sat", "time": "11:00am"}, {"days": "Sun", "time": "Closed"}], "id": "9286800093", "name": "USPS COLLECTION BOX - BLUE BOX", "address": {"city": "ORANGE", "state": "CA", "street": "1 CITY BLVD W", "postcode": "92868"}}},
{"geometry": {"type": "Point", "coordinates": [-117.7989660693, 33.7919613128]}, "type": "Feature", "properties": {"collection_times": [{"days": "Mon-Fri", "time": "3:00pm"}, {"days": "Sat", "time": "11:15am"}, {"days": "Sun", "time": "Closed"}], "id": "9286900001", "name": "USPS COLLECTION BOX - BLUE BOX", "address": {"city": "ORANGE", "state": "CA", "street": "100 S CHAPMAN", "postcode": "92869"}}},
{"geometry": {"type": "Point", "coordinates": [-117.8129099776, 33.7877426713]}, "type": "Feature", "properties": {"collection_times": [{"days": "Mon-Fri", "time": "5:00pm"}, {"days": "Sat", "time": "11:15am"}, {"days": "Sun", "time": "Closed"}], "id": "9286900006", "name": "USPS COLLECTION BOX - BLUE BOX", "address": {"city": "ORANGE", "state": "CA", "street": "3744 E CHAPMAN AVE", "postcode": "92869"}}},
{"geometry": {"type": "Point", "coordinates": [-117.8129176558, 33.7877783253]}, "type": "Feature", "properties": {"collection_times": [{"days": "Mon-Fri", "time": "5:00pm"}, {"days": "Sat", "time": "11:15am"}, {"days": "Sun", "time": "Closed"}], "id": "9286900007", "name": "USPS COLLECTION BOX - BLUE BOX", "address": {"city": "ORANGE", "state": "CA", "street": "3744 E CHAPMAN AVE", "postcode": "92869"}}},
{"geometry": {"type": "Point", "coordinates": [-117.7629045167, 33.7926367378]}, "type": "Feature", "properties": {"collection_times": [{"days": "Mon-Fri", "time": "3:00pm"}, {"days": "Sat", "time": "11:15am"}, {"days": "Sun", "time": "Closed"}], "id": "9286900009", "name": "USPS COLLECTION BOX - BLUE BOX", "address": {"city": "ORANGE", "state": "CA", "street": "8440 E CHAPMAN AVE", "postcode": "92869"}}},
{"geometry": {"type": "Point", "coordinates": [-117.8129176558, 33.7877783253]}, "type": "Feature", "properties": {"collection_times": [{"days": "Mon-Fri", "time": "5:00pm"}, {"days": "Sat-Sun", "time": "Closed"}], "id": "9286900012", "name": "USPS COLLECTION BOX - PO LOBBY", "address": {"city": "ORANGE", "state": "CA", "street": "3744 E CHAPMAN AVE", "postcode": "92869"}}},
{"geometry": {"type": "Point", "coordinates": [-117.8767599829, 33.8733782743]}, "type": "Feature", "properties": {"collection_times": [{"days": "Mon-Fri", "time": "2:30pm"}, {"days": "Sat", "time": "10:00am"}, {"days": "Sun", "time": "Closed"}], "id": "9287000001", "name": "USPS COLLECTION BOX - BLUE BOX", "address": {"city": "PLACENTIA", "state": "CA", "street": "638 W CHAPMAN AVE", "postcode": "92870"}}},
{"geometry": {"type": "Point", "coordinates": [-117.8428902001, 33.8882311367]}, "type": "Feature", "properties": {"collection_times": [{"days": "Mon-Fri", "time": "2:30pm"}, {"days": "Sat", "time": "10:00am"}, {"days": "Sun", "time": "Closed"}], "id": "9287000003", "name": "USPS COLLECTION BOX - BLUE BOX", "address": {"city": "PLACENTIA", "state": "CA", "street": "1158 E YORBA LINDA BLVD", "postcode": "92870"}}},
{"geometry": {"type": "Point", "coordinates": [-117.872256596, 33.8949743499]}, "type": "Feature", "properties": {"collection_times": [{"days": "Mon-Fri", "time": "2:30pm"}, {"days": "Sat", "time": "10:00am"}, {"days": "Sun", "time": "Closed"}], "id": "9287000007", "name": "USPS COLLECTION BOX - BLUE BOX", "address": {"city": "PLACENTIA", "state": "CA", "street": "1828 N PLACENTIA AVE", "postcode": "92870"}}},
{"geometry": {"type": "Point", "coordinates": [-117.8747237128, 33.8648173449]}, "type": "Feature", "properties": {"collection_times": [{"days": "Mon-Fri", "time": "2:30pm"}, {"days": "Sat", "time": "10:00am"}, {"days": "Sun", "time": "Closed"}], "id": "9287000009", "name": "USPS COLLECTION BOX - BLUE BOX", "address": {"city": "PLACENTIA", "state": "CA", "street": "580 S MELROSE ST", "postcode": "92870"}}},
{"geometry": {"type": "Point", "coordinates": [-117.8819977275, 33.8636403008]}, "type": "Feature", "properties": {"collection_times": [{"days": "Mon-Fri", "time": "2:30pm"}, {"days": "Sat", "time": "10:00am"}, {"days": "Sun", "time": "Closed"}], "id": "9287000010", "name": "USPS COLLECTION BOX - BLUE BOX", "address": {"city": "PLACENTIA", "state": "CA", "street": "620 S PLACENTIA AVE", "postcode": "92870"}}},
{"geometry": {"type": "Point", "coordinates": [-117.862005721, 33.8711035889]}, "type": "Feature", "properties": {"collection_times": [{"days": "Mon-Fri", "time": "2:30pm"}, {"days": "Sat", "time": "10:00am"}, {"days": "Sun", "time": "Closed"}], "id": "9287000013", "name": "USPS COLLECTION BOX - BLUE BOX", "address": {"city": "PLACENTIA", "state": "CA", "street": "401 E CHAPMAN AVE", "postcode": "92870"}}},
{"geometry": {"type": "Point", "coordinates": [-117.8626598973, 33.8717956199]}, "type": "Feature", "properties": {"collection_times": [{"days": "Mon-Fri", "time": "2:30pm"}, {"days": "Sat", "time": "10:00am"}, {"days": "Sun", "time": "Closed"}], "id": "9287000014", "name": "USPS COLLECTION BOX - BLUE BOX", "address": {"city": "PLACENTIA", "state": "CA", "street": "151 N KRAEMER BLVD", "postcode": "92870"}}},
{"geometry": {"type": "Point", "coordinates": [-117.8631508978, 33.8872193178]}, "type": "Feature", "properties": {"collection_times": [{"days": "Mon-Fri", "time": "5:40pm"}, {"days": "Sat", "time": "3:00pm"}, {"days": "Sun", "time": "Closed"}], "id": "9287000018", "name": "USPS COLLECTION BOX - BLUE BOX", "address": {"city": "PLACENTIA", "state": "CA", "street": "1400 N KRAEMER BLVD", "postcode": "92870"}}},
{"geometry": {"type": "Point", "coordinates": [-117.8723453691, 33.8586117886]}, "type": "Feature", "properties": {"collection_times": [{"days": "Mon-Fri", "time": "2:30pm"}, {"days": "Sat", "time": "10:00am"}, {"days": "Sun", "time": "Closed"}], "id": "9287000019", "name": "USPS COLLECTION BOX - BLUE BOX", "address": {"city": "PLACENTIA", "state": "CA", "street": "1005 ORTEGA WAY", "postcode": "92870"}}},
{"geometry": {"type": "Point", "coordinates": [-117.8629639178, 33.8703252019]}, "type": "Feature", "properties": {"collection_times": [{"days": "Mon-Fri", "time": "2:30pm"}, {"days": "Sat", "time": "10:00am"}, {"days": "Sun", "time": "Closed"}], "id": "9287000023", "name": "USPS COLLECTION BOX - BLUE BOX", "address": {"city": "PLACENTIA", "state": "CA", "street": "101 S KRAEMER BLVD", "postcode": "92870"}}},
{"geometry": {"type": "Point", "coordinates": [-117.8631508978, 33.8872193178]}, "type": "Feature", "properties": {"collection_times": [{"days": "Mon-Fri", "time": "5:40pm"}, {"days": "Sat", "time": "3:00pm"}, {"days": "Sun", "time": "Closed"}], "id": "9287000025", "name": "USPS COLLECTION BOX - APC", "address": {"city": "PLACENTIA", "state": "CA", "street": "1400 N KRAEMER BLVD", "postcode": "92870"}}},
{"geometry": {"type": "Point", "coordinates": [-117.5384699549, 33.8802318595]}, "type": "Feature", "properties": {"collection_times": [{"days": "Mon-Sat", "time": "1:05pm"}, {"days": "Sun", "time": "Closed"}], "id": "9287900001", "name": "USPS COLLECTION BOX - EXPRESS", "address": {"city": "CORONA", "state": "CA", "street": "496 CORONA MALL", "postcode": "92879"}}},
{"geometry": {"type": "Point", "coordinates": [-117.5205757748, 33.8893795127]}, "type": "Feature", "properties": {"collection_times": [{"days": "Mon-Sat", "time": "1:00pm"}, {"days": "Sun", "time": "Closed"}], "id": "9287900005", "name": "USPS COLLECTION BOX - BLUE BOX", "address": {"city": "CORONA", "state": "CA", "street": "430 N MCKINLEY ST", "postcode": "92879"}}},
{"geometry": {"type": "Point", "coordinates": [-117.5253074893, 33.8811264261]}, "type": "Feature", "properties": {"collection_times": [{"days": "Mon-Sat", "time": "1:00pm"}, {"days": "Sun", "time": "Closed"}], "id": "9287900006", "name": "USPS COLLECTION BOX - BLUE BOX", "address": {"city": "CORONA", "state": "CA", "street": "1901 SAMPSON AVE", "postcode": "92879"}}},
{"geometry": {"type": "Point", "coordinates": [-117.5454269746, 33.8641749982]}, "type": "Feature", "properties": {"collection_times": [{"days": "Mon-Sat", "time": "1:00pm"}, {"days": "Sun", "time": "Closed"}], "id": "9287900011", "name": "USPS COLLECTION BOX - BLUE BOX", "address": {"city": "CORONA", "state": "CA", "street": "1193 MAGNOLIA AVE", "postcode": "92879"}}},
{"geometry": {"type": "Point", "coordinates": [-117.5402533164, 33.8704692837]}, "type": "Feature", "properties": {"collection_times": [{"days": "Mon-Sat", "time": "1:00pm"}, {"days": "Sun", "time": "Closed"}], "id": "9287900017", "name": "USPS COLLECTION BOX - BLUE BOX", "address": {"city": "CORONA", "state": "CA", "street": "1288 CORONA POINTE CT", "postcode": "92879"}}},
{"geometry": {"type": "Point", "coordinates": [-117.5605759471, 33.8862206215]}, "type": "Feature", "properties": {"collection_times": [{"days": "Mon-Sat", "time": "1:00pm"}, {"days": "Sun", "time": "Closed"}], "id": "9287900018", "name": "USPS COLLECTION BOX - BLUE BOX", "address": {"city": "CORONA", "state": "CA", "street": "495 E RINCON ST", "postcode": "92879"}}},
{"geometry": {"type": "Point", "coordinates": [-117.5218435047, 33.8210762543]}, "type": "Feature", "properties": {"collection_times": [{"days": "Mon-Sat", "time": "1:20pm"}, {"days": "Sun", "time": "Closed"}], "id": "9288000006", "name": "USPS COLLECTION BOX - BLUE BOX", "address": {"city": "CORONA", "state": "CA", "street": "2279 EAGLE GLEN PKWY", "postcode": "92880"}}},
{"geometry": {"type": "Point", "coordinates": [-117.5439991322, 33.8617077322]}, "type": "Feature", "properties": {"collection_times": [{"days": "Mon-Sat", "time": "1:30pm"}, {"days": "Sun", "time": "Closed"}], "id": "9288100003", "name": "USPS COLLECTION BOX - BLUE BOX", "address": {"city": "CORONA", "state": "CA", "street": "1101 CALIFORNIA AVE", "postcode": "92881"}}},
{"geometry": {"type": "Point", "coordinates": [-117.5391177037, 33.8531921934]}, "type": "Feature", "properties": {"collection_times": [{"days": "Mon-Fri", "time": "5:15pm"}, {"days": "Sat", "time": "4:30pm"}, {"days": "Sun", "time": "Closed"}], "id": "9288100005", "name": "USPS COLLECTION BOX - BLUE BOX", "address": {"city": "CORONA", "state": "CA", "street": "1941 CALIFORNIA AVE", "postcode": "92881"}}},
{"geometry": {"type": "Point", "coordinates": [-117.539045473, 33.8550218358]}, "type": "Feature", "properties": {"collection_times": [{"days": "Mon-Fri", "time": "5:15pm"}, {"days": "Sat", "time": "4:30pm"}, {"days": "Sun", "time": "Closed"}], "id": "9288100006", "name": "USPS COLLECTION BOX - BLUE BOX", "address": {"city": "CORONA", "state": "CA", "street": "1941 CALIFORNIA AVE", "postcode": "92881"}}},
{"geometry": {"type": "Point", "coordinates": [-117.544018527, 33.8394105329]}, "type": "Feature", "properties": {"collection_times": [{"days": "Mon-Fri", "time": "5:15pm"}, {"days": "Sat", "time": "4:30pm"}, {"days": "Sun", "time": "Closed"}], "id": "9288100007", "name": "USPS COLLECTION BOX - EXPRESS", "address": {"city": "CORONA", "state": "CA", "street": "1941 CALIFORNIA AVE", "postcode": "92881"}}},
{"geometry": {"type": "Point", "coordinates": [-117.5417775462, 33.8475733521]}, "type": "Feature", "properties": {"collection_times": [{"days": "Mon-Sat", "time": "1:15pm"}, {"days": "Sun", "time": "Closed"}], "id": "9288100009", "name": "USPS COLLECTION BOX - BLUE BOX", "address": {"city": "CORONA", "state": "CA", "street": "1260 E ONTARIO AVE", "postcode": "92881"}}},
{"geometry": {"type": "Point", "coordinates": [-117.5389848727, 33.8532196632]}, "type": "Feature", "properties": {"collection_times": [{"days": "Mon-Fri", "time": "5:15pm"}, {"days": "Sat", "time": "4:30pm"}, {"days": "Sun", "time": "Closed"}], "id": "9288100011", "name": "USPS COLLECTION BOX - APC", "address": {"city": "CORONA", "state": "CA", "street": "1941 CALIFORNIA AVE", "postcode": "92881"}}},
{"geometry": {"type": "Point", "coordinates": [-117.5733828024, 33.8781237421]}, "type": "Feature", "properties": {"collection_times": [{"days": "Mon-Fri", "time": "5:15pm"}, {"days": "Sat", "time": "5:00pm"}, {"days": "Sun", "time": "Closed"}], "id": "9288200000", "name": "USPS COLLECTION BOX - BLUE BOX", "address": {"city": "CORONA", "state": "CA", "street": "414 W GRAND BLVD", "postcode": "92882"}}},
{"geometry": {"type": "Point", "coordinates": [-117.5733828024, 33.8781237421]}, "type": "Feature", "properties": {"collection_times": [{"days": "Mon-Fri", "time": "5:15pm"}, {"days": "Sat", "time": "5:00pm"}, {"days": "Sun", "time": "Closed"}], "id": "9288200001", "name": "USPS COLLECTION BOX - BLUE BOX", "address": {"city": "CORONA", "state": "CA", "street": "414 W GRAND BLVD", "postcode": "92882"}}},
{"geometry": {"type": "Point", "coordinates": [-117.5734191992, 33.8780245476]}, "type": "Feature", "properties": {"collection_times": [{"days": "Mon-Fri", "time": "5:15pm"}, {"days": "Sat", "time": "5:00pm"}, {"days": "Sun", "time": "Closed"}], "id": "9288200002", "name": "USPS COLLECTION BOX - PO LOBBY", "address": {"city": "CORONA", "state": "CA", "street": "414 W GRAND BLVD", "postcode": "92882"}}},
{"geometry": {"type": "Point", "coordinates": [-117.5733828024, 33.8781237421]}, "type": "Feature", "properties": {"collection_times": [{"days": "Mon-Fri", "time": "5:15pm"}, {"days": "Sat", "time": "5:00pm"}, {"days": "Sun", "time": "Closed"}], "id": "9288200004", "name": "USPS COLLECTION BOX - BLUE BOX", "address": {"city": "CORONA", "state": "CA", "street": "414 W GRAND BLVD", "postcode": "92882"}}},
{"geometry": {"type": "Point", "coordinates": [-117.6217808465, 33.8703726967]}, "type": "Feature", "properties": {"collection_times": [{"days": "Mon-Sat", "time": "1:25pm"}, {"days": "Sun", "time": "Closed"}], "id": "9288200006", "name": "USPS COLLECTION BOX - BLUE BOX", "address": {"city": "CORONA", "state": "CA", "street": "2621 GREEN RIVER RD STE 105", "postcode": "92882"}}},
{"geometry": {"type": "Point", "coordinates": [-117.5933462764, 33.8687199266]}, "type": "Feature", "properties": {"collection_times": [{"days": "Mon-Sat", "time": "1:15pm"}, {"days": "Sun", "time": "Closed"}], "id": "9288200009", "name": "USPS COLLECTION BOX - BLUE BOX", "address": {"city": "CORONA", "state": "CA", "street": "1288 BORDER AVE", "postcode": "92882"}}},
{"geometry": {"type": "Point", "coordinates": [-117.5978663626, 33.8787490527]}, "type": "Feature", "properties": {"collection_times": [{"days": "Mon-Sat", "time": "1:20pm"}, {"days": "Sun", "time": "Closed"}], "id": "9288200014", "name": "USPS COLLECTION BOX - BLUE BOX", "address": {"city": "CORONA", "state": "CA", "street": "1690 W 6TH ST", "postcode": "92882"}}},
{"geometry": {"type": "Point", "coordinates": [-117.592208983, 33.8662930819]}, "type": "Feature", "properties": {"collection_times": [{"days": "Mon-Fri", "time": "5:15pm"}, {"days": "Sat", "time": "5:00pm"}, {"days": "Sun", "time": "Closed"}], "id": "9288200027", "name": "USPS COLLECTION BOX - BLUE BOX", "address": {"city": "CORONA", "state": "CA", "street": "414 W GRAND BLVD", "postcode": "92882"}}},
{"geometry": {"type": "Point", "coordinates": [-117.592208983, 33.8662930819]}, "type": "Feature", "properties": {"collection_times": [{"days": "Mon-Sat", "time": "5:00pm"}, {"days": "Sun", "time": "Closed"}], "id": "9288200028", "name": "USPS COLLECTION BOX - EXPRESS", "address": {"city": "CORONA", "state": "CA", "street": "414 W GRAND BLVD", "postcode": "92882"}}},
{"geometry": {"type": "Point", "coordinates": [-117.5733828024, 33.8781237421]}, "type": "Feature", "properties": {"collection_times": [{"days": "Mon-Fri", "time": "5:15pm"}, {"days": "Sat", "time": "5:00pm"}, {"days": "Sun", "time": "Closed"}], "id": "9288200031", "name": "USPS COLLECTION BOX - APC", "address": {"city": "CORONA", "state": "CA", "street": "414 W GRAND BLVD", "postcode": "92882"}}},
{"geometry": {"type": "Point", "coordinates": [-117.8200131759, 33.8922021524]}, "type": "Feature", "properties": {"collection_times": [{"days": "Mon-Fri", "time": "5:00pm"}, {"days": "Sat", "time": "4:00pm"}, {"days": "Sun", "time": "Closed"}], "id": "9288500000", "name": "USPS COLLECTION BOX - BLUE BOX", "address": {"city": "YORBA LINDA", "state": "CA", "street": "4770 EUREKA AVE", "postcode": "92885"}}},
{"geometry": {"type": "Point", "coordinates": [-117.8200131759, 33.8922021524]}, "type": "Feature", "properties": {"collection_times": [{"days": "Mon-Fri", "time": "5:00pm"}, {"days": "Sat", "time": "4:00pm"}, {"days": "Sun", "time": "Closed"}], "id": "9288500006", "name": "USPS COLLECTION BOX - APC", "address": {"city": "YORBA LINDA", "state": "CA", "street": "4770 EUREKA AVE", "postcode": "92885"}}},
{"geometry": {"type": "Point", "coordinates": [-117.8145158333, 33.8914315557]}, "type": "Feature", "properties": {"collection_times": [{"days": "Mon-Fri", "time": "1:30pm"}, {"days": "Sat", "time": "11:00am"}, {"days": "Sun", "time": "Closed"}], "id": "9288600000", "name": "USPS COLLECTION BOX - BLUE BOX", "address": {"city": "YORBA LINDA", "state": "CA", "street": "18311 LEMON DR", "postcode": "92886"}}},
{"geometry": {"type": "Point", "coordinates": [-117.8374948112, 33.9043624802]}, "type": "Feature", "properties": {"collection_times": [{"days": "Mon-Fri", "time": "1:30pm"}, {"days": "Sat", "time": "11:00am"}, {"days": "Sun", "time": "Closed"}], "id": "9288600001", "name": "USPS COLLECTION BOX - BLUE BOX", "address": {"city": "YORBA LINDA", "state": "CA", "street": "3811 PROSPECT AVE", "postcode": "92886"}}},
{"geometry": {"type": "Point", "coordinates": [-117.8299794729, 33.8883925342]}, "type": "Feature", "properties": {"collection_times": [{"days": "Mon-Fri", "time": "1:30pm"}, {"days": "Sat", "time": "11:00am"}, {"days": "Sun", "time": "Closed"}], "id": "9288600005", "name": "USPS COLLECTION BOX - BLUE BOX", "address": {"city": "YORBA LINDA", "state": "CA", "street": "17300 YORBA LINDA BLVD", "postcode": "92886"}}},
{"geometry": {"type": "Point", "coordinates": [-117.8099685391, 33.888657517]}, "type": "Feature", "properties": {"collection_times": [{"days": "Mon-Fri", "time": "1:30pm"}, {"days": "Sat", "time": "11:00am"}, {"days": "Sun", "time": "Closed"}], "id": "9288600007", "name": "USPS COLLECTION BOX - BLUE BOX", "address": {"city": "YORBA LINDA", "state": "CA", "street": "18527 YORBA LINDA BLVD", "postcode": "92886"}}},
{"geometry": {"type": "Point", "coordinates": [-117.777086278, 33.8910518246]}, "type": "Feature", "properties": {"collection_times": [{"days": "Mon-Fri", "time": "2:00pm"}, {"days": "Sat", "time": "11:00am"}, {"days": "Sun", "time": "Closed"}], "id": "9288600009", "name": "USPS COLLECTION BOX - BLUE BOX", "address": {"city": "YORBA LINDA", "state": "CA", "street": "20497 YORBA LINDA BLVD", "postcode": "92886"}}},
{"geometry": {"type": "Point", "coordinates": [-117.7645057588, 33.8837798415]}, "type": "Feature", "properties": {"collection_times": [{"days": "Mon-Fri", "time": "2:00pm"}, {"days": "Sat", "time": "11:00am"}, {"days": "Sun", "time": "Closed"}], "id": "9288700000", "name": "USPS COLLECTION BOX - BLUE BOX", "address": {"city": "YORBA LINDA", "state": "CA", "street": "4975 YORBA RANCH RD", "postcode": "92887"}}},
{"geometry": {"type": "Point", "coordinates": [-117.7536886046, 33.8768894035]}, "type": "Feature", "properties": {"collection_times": [{"days": "Mon-Fri", "time": "2:00pm"}, {"days": "Sat", "time": "11:00am"}, {"days": "Sun", "time": "Closed"}], "id": "9288700001", "name": "USPS COLLECTION BOX - BLUE BOX", "address": {"city": "YORBA LINDA", "state": "CA", "street": "21540 YORBA LINDA BLVD", "postcode": "92887"}}},
{"geometry": {"type": "Point", "coordinates": [-117.7403076345, 33.8756993845]}, "type": "Feature", "properties": {"collection_times": [{"days": "Mon-Fri", "time": "3:00pm"}, {"days": "Sat", "time": "11:00am"}, {"days": "Sun", "time": "Closed"}], "id": "9288700007", "name": "USPS COLLECTION BOX - BLUE BOX", "address": {"city": "YORBA LINDA", "state": "CA", "street": "22720 SAVI RANCH PKWY", "postcode": "92887"}}},
{"geometry": {"type": "Point", "coordinates": [-117.7403076345, 33.8756993845]}, "type": "Feature", "properties": {"collection_times": [{"days": "Mon-Fri", "time": "3:00pm"}, {"days": "Sat", "time": "11:00am"}, {"days": "Sun", "time": "Closed"}], "id": "9288700008", "name": "USPS COLLECTION BOX - BLUE BOX", "address": {"city": "YORBA LINDA", "state": "CA", "street": "22720 SAVI RANCH PKWY", "postcode": "92887"}}},
{"geometry": {"type": "Point", "coordinates": [-117.8012619611, 33.8595011274]}, "type": "Feature", "properties": {"collection_times": [{"days": "Mon-Fri", "time": "6:00pm"}, {"days": "Sat", "time": "5:00pm"}, {"days": "Sun", "time": "Closed"}], "id": "9289900000", "name": "USPS COLLECTION BOX - BLUE BOX", "address": {"city": "ANAHEIM", "state": "CA", "street": "5335 E LA PALMA AVE", "postcode": "92899"}}},
{"geometry": {"type": "Point", "coordinates": [-117.8003999215, 33.8594410082]}, "type": "Feature", "properties": {"collection_times": [{"days": "Mon-Sat", "time": "3:00pm"}, {"days": "Sun", "time": "Closed"}], "id": "9289900001", "name": "USPS COLLECTION BOX - EXPRESS", "address": {"city": "ANAHEIM", "state": "CA", "street": "5335 E LA PALMA AVE", "postcode": "92899"}}},
{"geometry": {"type": "Point", "coordinates": [-117.8012619611, 33.8595011274]}, "type": "Feature", "properties": {"collection_times": [{"days": "Mon-Fri", "time": "6:00pm"}, {"days": "Sat", "time": "5:00pm"}, {"days": "Sun", "time": "Closed"}], "id": "9289900002", "name": "USPS COLLECTION BOX - BLUE BOX", "address": {"city": "ANAHEIM", "state": "CA", "street": "5335 E LA PALMA AVE", "postcode": "92899"}}}
]}
