{"type": "FeatureCollection", "features": [
{"geometry": {"type": "Point", "coordinates": [-119.2877865493, 34.2857816379]}, "type": "Feature", "properties": {"collection_times": [{"days": "Mon-Fri", "time": "5:30pm"}, {"days": "Sat", "time": "5:00pm"}, {"days": "Sun", "time": "Closed"}], "id": "9300100008", "name": "USPS COLLECTION BOX - EXPRESS", "address": {"city": "VENTURA", "state": "CA", "street": "675 E SANTA CLARA ST", "postcode": "93001"}}},
{"geometry": {"type": "Point", "coordinates": [-119.2689686127, 34.2662592016]}, "type": "Feature", "properties": {"collection_times": [{"days": "Mon-Sat", "time": "3:00pm"}, {"days": "Sun", "time": "Closed"}], "id": "9300100065", "name": "USPS COLLECTION BOX - BLUE BOX", "address": {"city": "VENTURA", "state": "CA", "street": "2300 ALESSANDRO DR", "postcode": "93001"}}},
{"geometry": {"type": "Point", "coordinates": [-119.2582402289, 34.249703896]}, "type": "Feature", "properties": {"collection_times": [{"days": "Mon-Sat", "time": "3:00pm"}, {"days": "Sun", "time": "Closed"}], "id": "9300100083", "name": "USPS COLLECTION BOX - BLUE BOX", "address": {"city": "VENTURA", "state": "CA", "street": "3369 HARBOR BLVD", "postcode": "93001"}}},
{"geometry": {"type": "Point", "coordinates": [-119.2693049151, 34.2639579707]}, "type": "Feature", "properties": {"collection_times": [{"days": "Mon-Fri", "time": "5:00pm"}, {"days": "Sat", "time": "3:00pm"}, {"days": "Sun", "time": "Closed"}], "id": "9300100086", "name": "USPS COLLECTION BOX - BLUE BOX", "address": {"city": "VENTURA", "state": "CA", "street": "2421 HARBOR BLVD", "postcode": "93001"}}},
{"geometry": {"type": "Point", "coordinates": [-119.2693049151, 34.2639579707]}, "type": "Feature", "properties": {"collection_times": [{"days": "Mon-Fri", "time": "5:00pm"}, {"days": "Sat", "time": "3:00pm"}, {"days": "Sun", "time": "Closed"}], "id": "9300100087", "name": "USPS COLLECTION BOX - BLUE BOX", "address": {"city": "VENTURA", "state": "CA", "street": "2421 HARBOR BLVD", "postcode": "93001"}}},
{"geometry": {"type": "Point", "coordinates": [-119.2735927214, 34.2658939657]}, "type": "Feature", "properties": {"collection_times": [{"days": "Mon-Sat", "time": "10:00am"}, {"days": "Sun", "time": "Closed"}], "id": "9300100134", "name": "USPS COLLECTION BOX - BLUE BOX", "address": {"city": "VENTURA", "state": "CA", "street": "2200 PIERPONT BLVD", "postcode": "93001"}}},
{"geometry": {"type": "Point", "coordinates": [-119.3006735581, 34.2794727303]}, "type": "Feature", "properties": {"collection_times": [{"days": "Mon-Sat", "time": "3:00pm"}, {"days": "Sun", "time": "Closed"}], "id": "9300100143", "name": "USPS COLLECTION BOX - BLUE BOX", "address": {"city": "VENTURA", "state": "CA", "street": "100 VENTURA AVE", "postcode": "93001"}}},
{"geometry": {"type": "Point", "coordinates": [-119.2925000324, 34.2821226813]}, "type": "Feature", "properties": {"collection_times": [{"days": "Mon-Sat", "time": "3:00pm"}, {"days": "Sun", "time": "Closed"}], "id": "9300100149", "name": "USPS COLLECTION BOX - BLUE BOX", "address": {"city": "VENTURA", "state": "CA", "street": "501 POLI ST", "postcode": "93001"}}},
{"geometry": {"type": "Point", "coordinates": [-119.2904102552, 34.2796040905]}, "type": "Feature", "properties": {"collection_times": [{"days": "Mon-Fri", "time": "5:30pm"}, {"days": "Sat", "time": "5:00pm"}, {"days": "Sun", "time": "Closed"}], "id": "9300100152", "name": "USPS COLLECTION BOX - BLUE BOX", "address": {"city": "VENTURA", "state": "CA", "street": "675 E SANTA CLARA ST", "postcode": "93001"}}},
{"geometry": {"type": "Point", "coordinates": [-119.2904102552, 34.2796040905]}, "type": "Feature", "properties": {"collection_times": [{"days": "Mon-Fri", "time": "5:30pm"}, {"days": "Sat", "time": "5:00pm"}, {"days": "Sun", "time": "Closed"}], "id": "9300100153", "name": "USPS COLLECTION BOX - BLUE BOX", "address": {"city": "VENTURA", "state": "CA", "street": "675 E SANTA CLARA ST", "postcode": "93001"}}},
{"geometry": {"type": "Point", "coordinates": [-119.2904102552, 34.2796040905]}, "type": "Feature", "properties": {"collection_times": [{"days": "Mon-Fri", "time": "5:30pm"}, {"days": "Sat", "time": "5:00pm"}, {"days": "Sun", "time": "Closed"}], "id": "9300100155", "name": "USPS COLLECTION BOX - PO LOBBY", "address": {"city": "VENTURA", "state": "CA", "street": "675 E SANTA CLARA ST", "postcode": "93001"}}},
{"geometry": {"type": "Point", "coordinates": [-119.2904102552, 34.2796040905]}, "type": "Feature", "properties": {"collection_times": [{"days": "Mon-Fri", "time": "5:30pm"}, {"days": "Sat", "time": "5:00pm"}, {"days": "Sun", "time": "Closed"}], "id": "9300100156", "name": "USPS COLLECTION BOX - PO LOBBY", "address": {"city": "VENTURA", "state": "CA", "street": "675 E SANTA CLARA ST", "postcode": "93001"}}},
{"geometry": {"type": "Point", "coordinates": [-119.2655992878, 34.2405532608]}, "type": "Feature", "properties": {"collection_times": [{"days": "Mon-Sat", "time": "10:00am"}, {"days": "Sun", "time": "Closed"}], "id": "9300100159", "name": "USPS COLLECTION BOX - BLUE BOX", "address": {"city": "VENTURA", "state": "CA", "street": "1567 SPINNAKER DR", "postcode": "93001"}}},
{"geometry": {"type": "Point", "coordinates": [-119.2654006848, 34.2614682628]}, "type": "Feature", "properties": {"collection_times": [{"days": "Mon-Sat", "time": "3:00pm"}, {"days": "Sun", "time": "Closed"}], "id": "9300100160", "name": "USPS COLLECTION BOX - BLUE BOX", "address": {"city": "VENTURA", "state": "CA", "street": "2600 SEAHORSE AVE", "postcode": "93001"}}},
{"geometry": {"type": "Point", "coordinates": [-119.2975216932, 34.2921872962]}, "type": "Feature", "properties": {"collection_times": [{"days": "Mon-Sat", "time": "10:00am"}, {"days": "Sun", "time": "Closed"}], "id": "9300100161", "name": "USPS COLLECTION BOX - BLUE BOX", "address": {"city": "VENTURA", "state": "CA", "street": "995 N VENTURA AVE", "postcode": "93001"}}},
{"geometry": {"type": "Point", "coordinates": [-119.2181699888, 34.2787642608]}, "type": "Feature", "properties": {"collection_times": [{"days": "Mon-Fri", "time": "5:30pm"}, {"days": "Sat", "time": "5:00pm"}, {"days": "Sun", "time": "Closed"}], "id": "9300300001", "name": "USPS COLLECTION BOX - BLUE BOX", "address": {"city": "VENTURA", "state": "CA", "street": "41 S WAKE FOREST AVE", "postcode": "93003"}}},
{"geometry": {"type": "Point", "coordinates": [-119.2585411167, 34.2714004754]}, "type": "Feature", "properties": {"collection_times": [{"days": "Mon-Sat", "time": "10:00am"}, {"days": "Sun", "time": "Closed"}], "id": "9300300065", "name": "USPS COLLECTION BOX - BLUE BOX", "address": {"city": "VENTURA", "state": "CA", "street": "2800 PORTER LN", "postcode": "93003"}}},
{"geometry": {"type": "Point", "coordinates": [-119.2288059147, 34.2758073196]}, "type": "Feature", "properties": {"collection_times": [{"days": "Mon-Sat", "time": "10:00am"}, {"days": "Sun", "time": "Closed"}], "id": "9300300066", "name": "USPS COLLECTION BOX - BLUE BOX", "address": {"city": "VENTURA", "state": "CA", "street": "4900 TELEGRAPH RD", "postcode": "93003"}}},
{"geometry": {"type": "Point", "coordinates": [-119.196479167, 34.2440106696]}, "type": "Feature", "properties": {"collection_times": [{"days": "Mon-Fri", "time": "3:00pm"}, {"days": "Sat", "time": "10:00am"}, {"days": "Sun", "time": "Closed"}], "id": "9300300071", "name": "USPS COLLECTION BOX - BLUE BOX", "address": {"city": "VENTURA", "state": "CA", "street": "6800 AUTO CENTER DR", "postcode": "93003"}}},
{"geometry": {"type": "Point", "coordinates": [-119.2573543215, 34.2747090774]}, "type": "Feature", "properties": {"collection_times": [{"days": "Mon-Fri", "time": "5:00pm"}, {"days": "Sat", "time": "3:00pm"}, {"days": "Sun", "time": "Closed"}], "id": "9300300078", "name": "USPS COLLECTION BOX - BLUE BOX", "address": {"city": "VENTURA", "state": "CA", "street": "147 N BRENT ST", "postcode": "93003"}}},
{"geometry": {"type": "Point", "coordinates": [-119.2573543215, 34.2747090774]}, "type": "Feature", "properties": {"collection_times": [{"days": "Mon-Fri", "time": "5:00pm"}, {"days": "Sat", "time": "3:00pm"}, {"days": "Sun", "time": "Closed"}], "id": "9300300079", "name": "USPS COLLECTION BOX - BLUE BOX", "address": {"city": "VENTURA", "state": "CA", "street": "147 N BRENT ST", "postcode": "93003"}}},
{"geometry": {"type": "Point", "coordinates": [-119.2436000576, 34.2676160555]}, "type": "Feature", "properties": {"collection_times": [{"days": "Mon-Sat", "time": "10:00am"}, {"days": "Sun", "time": "Closed"}], "id": "9300300083", "name": "USPS COLLECTION BOX - BLUE BOX", "address": {"city": "VENTURA", "state": "CA", "street": "3700 DEAN DR", "postcode": "93003"}}},
{"geometry": {"type": "Point", "coordinates": [-119.2169669816, 34.2587402122]}, "type": "Feature", "properties": {"collection_times": [{"days": "Mon-Fri", "time": "5:00pm"}, {"days": "Sat", "time": "3:00pm"}, {"days": "Sun", "time": "Closed"}], "id": "9300300084", "name": "USPS COLLECTION BOX - BLUE BOX", "address": {"city": "VENTURA", "state": "CA", "street": "5400 EVERGLADES ST", "postcode": "93003"}}},
{"geometry": {"type": "Point", "coordinates": [-119.2586029919, 34.2751990646]}, "type": "Feature", "properties": {"collection_times": [{"days": "Mon-Fri", "time": "3:00pm"}, {"days": "Sat", "time": "10:00am"}, {"days": "Sun", "time": "Closed"}], "id": "9300300087", "name": "USPS COLLECTION BOX - BLUE BOX", "address": {"city": "VENTURA", "state": "CA", "street": "2794 LOMA VISTA RD", "postcode": "93003"}}},
{"geometry": {"type": "Point", "coordinates": [-119.2557464596, 34.275726826]}, "type": "Feature", "properties": {"collection_times": [{"days": "Mon-Fri", "time": "3:00pm"}, {"days": "Sat", "time": "10:00am"}, {"days": "Sun", "time": "Closed"}], "id": "9300300088", "name": "USPS COLLECTION BOX - BLUE BOX", "address": {"city": "VENTURA", "state": "CA", "street": "3003 LOMA VISTA RD", "postcode": "93003"}}},
{"geometry": {"type": "Point", "coordinates": [-119.244600456, 34.2772627178]}, "type": "Feature", "properties": {"collection_times": [{"days": "Mon-Sat", "time": "10:00am"}, {"days": "Sun", "time": "Closed"}], "id": "9300300090", "name": "USPS COLLECTION BOX - BLUE BOX", "address": {"city": "VENTURA", "state": "CA", "street": "3800 LOMA VISTA RD", "postcode": "93003"}}},
{"geometry": {"type": "Point", "coordinates": [-119.2254183403, 34.2667939639]}, "type": "Feature", "properties": {"collection_times": [{"days": "Mon-Sat", "time": "3:00pm"}, {"days": "Sun", "time": "Closed"}], "id": "9300300092", "name": "USPS COLLECTION BOX - BLUE BOX", "address": {"city": "VENTURA", "state": "CA", "street": "3291 LOMA VISTA RD", "postcode": "93003"}}},
{"geometry": {"type": "Point", "coordinates": [-119.2396576228, 34.2625220325]}, "type": "Feature", "properties": {"collection_times": [{"days": "Mon-Fri", "time": "5:00pm"}, {"days": "Sat", "time": "3:00pm"}, {"days": "Sun", "time": "Closed"}], "id": "9300300095", "name": "USPS COLLECTION BOX - BLUE BOX", "address": {"city": "VENTURA", "state": "CA", "street": "1150 CALLENS RD", "postcode": "93003"}}},
{"geometry": {"type": "Point", "coordinates": [-119.2442010984, 34.2693077655]}, "type": "Feature", "properties": {"collection_times": [{"days": "Mon-Fri", "time": "5:00pm"}, {"days": "Sat", "time": "3:00pm"}, {"days": "Sun", "time": "Closed"}], "id": "9300300098", "name": "USPS COLLECTION BOX - BLUE BOX", "address": {"city": "VENTURA", "state": "CA", "street": "3650 MAPLE ST", "postcode": "93003"}}},
{"geometry": {"type": "Point", "coordinates": [-119.2442010984, 34.2693077655]}, "type": "Feature", "properties": {"collection_times": [{"days": "Mon-Fri", "time": "5:00pm"}, {"days": "Sat", "time": "3:00pm"}, {"days": "Sun", "time": "Closed"}], "id": "9300300099", "name": "USPS COLLECTION BOX - BLUE BOX", "address": {"city": "VENTURA", "state": "CA", "street": "3650 MAPLE ST", "postcode": "93003"}}},
{"geometry": {"type": "Point", "coordinates": [-119.2410201164, 34.2593576446]}, "type": "Feature", "properties": {"collection_times": [{"days": "Mon-Sat", "time": "3:00pm"}, {"days": "Sun", "time": "Closed"}], "id": "9300300105", "name": "USPS COLLECTION BOX - BLUE BOX", "address": {"city": "VENTURA", "state": "CA", "street": "1500 CALLENS RD", "postcode": "93003"}}},
{"geometry": {"type": "Point", "coordinates": [-119.2316283533, 34.2572527148]}, "type": "Feature", "properties": {"collection_times": [{"days": "Mon-Fri", "time": "5:00pm"}, {"days": "Sat", "time": "3:00pm"}, {"days": "Sun", "time": "Closed"}], "id": "9300300108", "name": "USPS COLLECTION BOX - BLUE BOX", "address": {"city": "VENTURA", "state": "CA", "street": "4522 MARKET ST", "postcode": "93003"}}},
{"geometry": {"type": "Point", "coordinates": [-119.2316283533, 34.2572527148]}, "type": "Feature", "properties": {"collection_times": [{"days": "Mon-Fri", "time": "5:00pm"}, {"days": "Sat", "time": "3:00pm"}, {"days": "Sun", "time": "Closed"}], "id": "9300300109", "name": "USPS COLLECTION BOX - BLUE BOX", "address": {"city": "VENTURA", "state": "CA", "street": "4522 MARKET ST", "postcode": "93003"}}},
{"geometry": {"type": "Point", "coordinates": [-119.2316283533, 34.2572527148]}, "type": "Feature", "properties": {"collection_times": [{"days": "Mon-Fri", "time": "5:00pm"}, {"days": "Sat", "time": "3:00pm"}, {"days": "Sun", "time": "Closed"}], "id": "9300300110", "name": "USPS COLLECTION BOX - BLUE BOX", "address": {"city": "VENTURA", "state": "CA", "street": "4522 MARKET ST", "postcode": "93003"}}},
{"geometry": {"type": "Point", "coordinates": [-119.2316283533, 34.2572527148]}, "type": "Feature", "properties": {"collection_times": [{"days": "Mon-Fri", "time": "5:00pm"}, {"days": "Sat", "time": "3:00pm"}, {"days": "Sun", "time": "Closed"}], "id": "9300300111", "name": "USPS COLLECTION BOX - BLUE BOX", "address": {"city": "VENTURA", "state": "CA", "street": "4522 MARKET ST", "postcode": "93003"}}},
{"geometry": {"type": "Point", "coordinates": [-119.2331379686, 34.25719537]}, "type": "Feature", "properties": {"collection_times": [{"days": "Mon-Fri", "time": "5:00pm"}, {"days": "Sat", "time": "3:00pm"}, {"days": "Sun", "time": "Closed"}], "id": "9300300113", "name": "USPS COLLECTION BOX - BLUE BOX", "address": {"city": "VENTURA", "state": "CA", "street": "4474 MARKET ST", "postcode": "93003"}}},
{"geometry": {"type": "Point", "coordinates": [-119.2331379686, 34.25719537]}, "type": "Feature", "properties": {"collection_times": [{"days": "Mon-Fri", "time": "5:00pm"}, {"days": "Sat", "time": "3:00pm"}, {"days": "Sun", "time": "Closed"}], "id": "9300300114", "name": "USPS COLLECTION BOX - BLUE BOX", "address": {"city": "VENTURA", "state": "CA", "street": "4474 MARKET ST", "postcode": "93003"}}},
{"geometry": {"type": "Point", "coordinates": [-119.2331379686, 34.25719537]}, "type": "Feature", "properties": {"collection_times": [{"days": "Mon-Fri", "time": "5:00pm"}, {"days": "Sat", "time": "3:00pm"}, {"days": "Sun", "time": "Closed"}], "id": "9300300115", "name": "USPS COLLECTION BOX - BLUE BOX", "address": {"city": "VENTURA", "state": "CA", "street": "4474 MARKET ST", "postcode": "93003"}}},
{"geometry": {"type": "Point", "coordinates": [-119.2313564324, 34.2572675305]}, "type": "Feature", "properties": {"collection_times": [{"days": "Mon-Fri", "time": "5:00pm"}, {"days": "Sat", "time": "3:00pm"}, {"days": "Sun", "time": "Closed"}], "id": "9300300117", "name": "USPS COLLECTION BOX - BLUE BOX", "address": {"city": "VENTURA", "state": "CA", "street": "4531 MARKET ST", "postcode": "93003"}}},
{"geometry": {"type": "Point", "coordinates": [-119.2313564324, 34.2572675305]}, "type": "Feature", "properties": {"collection_times": [{"days": "Mon-Fri", "time": "5:00pm"}, {"days": "Sat", "time": "3:00pm"}, {"days": "Sun", "time": "Closed"}], "id": "9300300118", "name": "USPS COLLECTION BOX - BLUE BOX", "address": {"city": "VENTURA", "state": "CA", "street": "4531 MARKET ST", "postcode": "93003"}}},
{"geometry": {"type": "Point", "coordinates": [-119.2485489388, 34.2768159833]}, "type": "Feature", "properties": {"collection_times": [{"days": "Mon-Sat", "time": "10:00am"}, {"days": "Sun", "time": "Closed"}], "id": "9300300120", "name": "USPS COLLECTION BOX - BLUE BOX", "address": {"city": "VENTURA", "state": "CA", "street": "200 MILLS ST", "postcode": "93003"}}},
{"geometry": {"type": "Point", "coordinates": [-119.219892377, 34.26396781]}, "type": "Feature", "properties": {"collection_times": [{"days": "Mon-Sat", "time": "10:00am"}, {"days": "Sun", "time": "Closed"}], "id": "9300300121", "name": "USPS COLLECTION BOX - BLUE BOX", "address": {"city": "VENTURA", "state": "CA", "street": "1300 SARATOGA AVE", "postcode": "93003"}}},
{"geometry": {"type": "Point", "coordinates": [-119.2185569861, 34.2790348691]}, "type": "Feature", "properties": {"collection_times": [{"days": "Mon-Fri", "time": "3:00pm"}, {"days": "Sat", "time": "10:00am"}, {"days": "Sun", "time": "Closed"}], "id": "9300300127", "name": "USPS COLLECTION BOX - BLUE BOX", "address": {"city": "VENTURA", "state": "CA", "street": "3200 SEABORG AVE", "postcode": "93003"}}},
{"geometry": {"type": "Point", "coordinates": [-119.2067284097, 34.2676255192]}, "type": "Feature", "properties": {"collection_times": [{"days": "Mon-Fri", "time": "5:00pm"}, {"days": "Sat", "time": "3:00pm"}, {"days": "Sun", "time": "Closed"}], "id": "9300300133", "name": "USPS COLLECTION BOX - BLUE BOX", "address": {"city": "VENTURA", "state": "CA", "street": "1050 S HILL RD", "postcode": "93003"}}},
{"geometry": {"type": "Point", "coordinates": [-119.2067284097, 34.2676255192]}, "type": "Feature", "properties": {"collection_times": [{"days": "Mon-Fri", "time": "5:00pm"}, {"days": "Sat", "time": "3:00pm"}, {"days": "Sun", "time": "Closed"}], "id": "9300300134", "name": "USPS COLLECTION BOX - BLUE BOX", "address": {"city": "VENTURA", "state": "CA", "street": "1050 S HILL RD", "postcode": "93003"}}},
{"geometry": {"type": "Point", "coordinates": [-119.2067284097, 34.2676255192]}, "type": "Feature", "properties": {"collection_times": [{"days": "Mon-Fri", "time": "5:00pm"}, {"days": "Sat", "time": "3:00pm"}, {"days": "Sun", "time": "Closed"}], "id": "9300300135", "name": "USPS COLLECTION BOX - BLUE BOX", "address": {"city": "VENTURA", "state": "CA", "street": "1050 S HILL RD", "postcode": "93003"}}},
{"geometry": {"type": "Point", "coordinates": [-119.2232153088, 34.2638566119]}, "type": "Feature", "properties": {"collection_times": [{"days": "Mon-Sat", "time": "10:00am"}, {"days": "Sun", "time": "Closed"}], "id": "9300300139", "name": "USPS COLLECTION BOX - BLUE BOX", "address": {"city": "VENTURA", "state": "CA", "street": "5065 TELEPHONE RD", "postcode": "93003"}}},
{"geometry": {"type": "Point", "coordinates": [-119.2139701586, 34.2678180551]}, "type": "Feature", "properties": {"collection_times": [{"days": "Mon-Fri", "time": "5:00pm"}, {"days": "Sat", "time": "3:00pm"}, {"days": "Sun", "time": "Closed"}], "id": "9300300141", "name": "USPS COLLECTION BOX - BLUE BOX", "address": {"city": "VENTURA", "state": "CA", "street": "5750 THILLE ST", "postcode": "93003"}}},
{"geometry": {"type": "Point", "coordinates": [-119.2139701586, 34.2678180551]}, "type": "Feature", "properties": {"collection_times": [{"days": "Mon-Fri", "time": "5:00pm"}, {"days": "Sat", "time": "3:00pm"}, {"days": "Sun", "time": "Closed"}], "id": "9300300142", "name": "USPS COLLECTION BOX - BLUE BOX", "address": {"city": "VENTURA", "state": "CA", "street": "5750 THILLE ST", "postcode": "93003"}}},
{"geometry": {"type": "Point", "coordinates": [-119.2139701586, 34.2678180551]}, "type": "Feature", "properties": {"collection_times": [{"days": "Mon-Fri", "time": "5:00pm"}, {"days": "Sat", "time": "3:00pm"}, {"days": "Sun", "time": "Closed"}], "id": "9300300143", "name": "USPS COLLECTION BOX - BLUE BOX", "address": {"city": "VENTURA", "state": "CA", "street": "5750 THILLE ST", "postcode": "93003"}}},
{"geometry": {"type": "Point", "coordinates": [-119.2239416456, 34.2666992623]}, "type": "Feature", "properties": {"collection_times": [{"days": "Mon-Sat", "time": "10:00am"}, {"days": "Sun", "time": "Closed"}], "id": "9300300145", "name": "USPS COLLECTION BOX - BLUE BOX", "address": {"city": "VENTURA", "state": "CA", "street": "5067 THILLE ST", "postcode": "93003"}}},
{"geometry": {"type": "Point", "coordinates": [-119.2632057612, 34.2729183476]}, "type": "Feature", "properties": {"collection_times": [{"days": "Mon-Sat", "time": "3:00pm"}, {"days": "Sun", "time": "Closed"}], "id": "9300300146", "name": "USPS COLLECTION BOX - BLUE BOX", "address": {"city": "VENTURA", "state": "CA", "street": "2500 E THOMPSON BLVD", "postcode": "93003"}}},
{"geometry": {"type": "Point", "coordinates": [-119.2191601254, 34.2565281811]}, "type": "Feature", "properties": {"collection_times": [{"days": "Mon-Fri", "time": "5:00pm"}, {"days": "Sat", "time": "3:00pm"}, {"days": "Sun", "time": "Closed"}], "id": "9300300148", "name": "USPS COLLECTION BOX - BLUE BOX", "address": {"city": "VENTURA", "state": "CA", "street": "5200 VALENTINE RD", "postcode": "93003"}}},
{"geometry": {"type": "Point", "coordinates": [-119.2191601254, 34.2565281811]}, "type": "Feature", "properties": {"collection_times": [{"days": "Mon-Fri", "time": "5:00pm"}, {"days": "Sat", "time": "3:00pm"}, {"days": "Sun", "time": "Closed"}], "id": "9300300149", "name": "USPS COLLECTION BOX - BLUE BOX", "address": {"city": "VENTURA", "state": "CA", "street": "5200 VALENTINE RD", "postcode": "93003"}}},
{"geometry": {"type": "Point", "coordinates": [-119.2203665156, 34.25704711]}, "type": "Feature", "properties": {"collection_times": [{"days": "Mon-Fri", "time": "5:00pm"}, {"days": "Sat", "time": "3:00pm"}, {"days": "Sun", "time": "Closed"}], "id": "9300300150", "name": "USPS COLLECTION BOX - BLUE BOX", "address": {"city": "VENTURA", "state": "CA", "street": "5200 VALENTINE RD", "postcode": "93003"}}},
{"geometry": {"type": "Point", "coordinates": [-119.2203665156, 34.25704711]}, "type": "Feature", "properties": {"collection_times": [{"days": "Mon-Fri", "time": "5:00pm"}, {"days": "Sat", "time": "3:00pm"}, {"days": "Sun", "time": "Closed"}], "id": "9300300151", "name": "USPS COLLECTION BOX - BLUE BOX", "address": {"city": "VENTURA", "state": "CA", "street": "5200 VALENTINE RD", "postcode": "93003"}}},
{"geometry": {"type": "Point", "coordinates": [-119.2191601254, 34.2565281811]}, "type": "Feature", "properties": {"collection_times": [{"days": "Mon-Fri", "time": "5:00pm"}, {"days": "Sat", "time": "3:00pm"}, {"days": "Sun", "time": "Closed"}], "id": "9300300152", "name": "USPS COLLECTION BOX - BLUE BOX", "address": {"city": "VENTURA", "state": "CA", "street": "5200 VALENTINE RD", "postcode": "93003"}}},
{"geometry": {"type": "Point", "coordinates": [-119.2135236036, 34.2607007309]}, "type": "Feature", "properties": {"collection_times": [{"days": "Mon-Fri", "time": "5:00pm"}, {"days": "Sat", "time": "3:00pm"}, {"days": "Sun", "time": "Closed"}], "id": "9300300157", "name": "USPS COLLECTION BOX - BLUE BOX", "address": {"city": "VENTURA", "state": "CA", "street": "5740 RALSTON ST", "postcode": "93003"}}},
{"geometry": {"type": "Point", "coordinates": [-119.2135236036, 34.2607007309]}, "type": "Feature", "properties": {"collection_times": [{"days": "Mon-Fri", "time": "5:00pm"}, {"days": "Sat", "time": "3:00pm"}, {"days": "Sun", "time": "Closed"}], "id": "9300300158", "name": "USPS COLLECTION BOX - BLUE BOX", "address": {"city": "VENTURA", "state": "CA", "street": "5740 RALSTON ST", "postcode": "93003"}}},
{"geometry": {"type": "Point", "coordinates": [-119.2181699888, 34.2787642608]}, "type": "Feature", "properties": {"collection_times": [{"days": "Mon-Fri", "time": "5:30pm"}, {"days": "Sat", "time": "5:00pm"}, {"days": "Sun", "time": "Closed"}], "id": "9300300167", "name": "USPS COLLECTION BOX - BLUE BOX", "address": {"city": "VENTURA", "state": "CA", "street": "41 S WAKE FOREST AVE", "postcode": "93003"}}},
{"geometry": {"type": "Point", "coordinates": [-119.2181699888, 34.2787642608]}, "type": "Feature", "properties": {"collection_times": [{"days": "Mon-Fri", "time": "5:30pm"}, {"days": "Sat", "time": "5:00pm"}, {"days": "Sun", "time": "Closed"}], "id": "9300300170", "name": "USPS COLLECTION BOX - BLUE BOX", "address": {"city": "VENTURA", "state": "CA", "street": "41 S WAKE FOREST AVE", "postcode": "93003"}}},
{"geometry": {"type": "Point", "coordinates": [-119.2254183403, 34.2667939639]}, "type": "Feature", "properties": {"collection_times": [{"days": "Mon-Fri", "time": "5:30pm"}, {"days": "Sat", "time": "5:00pm"}, {"days": "Sun", "time": "Closed"}], "id": "9300300171", "name": "USPS COLLECTION BOX - EXPRESS", "address": {"city": "VENTURA", "state": "CA", "street": "41 S WAKE FOREST AVE", "postcode": "93003"}}},
{"geometry": {"type": "Point", "coordinates": [-119.2181699888, 34.2787642608]}, "type": "Feature", "properties": {"collection_times": [{"days": "Mon-Fri", "time": "5:30pm"}, {"days": "Sat", "time": "5:00pm"}, {"days": "Sun", "time": "Closed"}], "id": "9300300172", "name": "USPS COLLECTION BOX - PO LOBBY", "address": {"city": "VENTURA", "state": "CA", "street": "41 S WAKE FOREST AVE", "postcode": "93003"}}},
{"geometry": {"type": "Point", "coordinates": [-119.2140028878, 34.2460908358]}, "type": "Feature", "properties": {"collection_times": [{"days": "Mon-Fri", "time": "5:00pm"}, {"days": "Sat-Sun", "time": "Closed"}], "id": "9300300173", "name": "USPS COLLECTION BOX - BLUE BOX", "address": {"city": "VENTURA", "state": "CA", "street": "800 S VICTORIA AVE", "postcode": "93003"}}},
{"geometry": {"type": "Point", "coordinates": [-119.2394809945, 34.2758884875]}, "type": "Feature", "properties": {"collection_times": [{"days": "Mon-Sat", "time": "3:00pm"}, {"days": "Sun", "time": "Closed"}], "id": "9300300177", "name": "USPS COLLECTION BOX - BLUE BOX", "address": {"city": "VENTURA", "state": "CA", "street": "90 N ASHWOOD AVE", "postcode": "93003"}}},
{"geometry": {"type": "Point", "coordinates": [-119.2410201164, 34.2593576446]}, "type": "Feature", "properties": {"collection_times": [{"days": "Mon-Sat", "time": "3:00pm"}, {"days": "Sun", "time": "Closed"}], "id": "9300300179", "name": "USPS COLLECTION BOX - BLUE BOX", "address": {"city": "VENTURA", "state": "CA", "street": "1500 CALLENS RD", "postcode": "93003"}}},
{"geometry": {"type": "Point", "coordinates": [-119.2396576228, 34.2625220325]}, "type": "Feature", "properties": {"collection_times": [{"days": "Mon-Fri", "time": "5:00pm"}, {"days": "Sat", "time": "3:00pm"}, {"days": "Sun", "time": "Closed"}], "id": "9300300180", "name": "USPS COLLECTION BOX - BLUE BOX", "address": {"city": "VENTURA", "state": "CA", "street": "1150 CALLENS RD", "postcode": "93003"}}},
{"geometry": {"type": "Point", "coordinates": [-119.2181699888, 34.2787642608]}, "type": "Feature", "properties": {"collection_times": [{"days": "Mon-Fri", "time": "5:30pm"}, {"days": "Sat", "time": "5:00pm"}, {"days": "Sun", "time": "Closed"}], "id": "9300300181", "name": "USPS COLLECTION BOX - APC", "address": {"city": "VENTURA", "state": "CA", "street": "41 S WAKE FOREST AVE", "postcode": "93003"}}},
{"geometry": {"type": "Point", "coordinates": [-119.2386696227, 34.2781521136]}, "type": "Feature", "properties": {"collection_times": [{"days": "Mon-Sat", "time": "10:00am"}, {"days": "Sun", "time": "Closed"}], "id": "9300300186", "name": "USPS COLLECTION BOX - BLUE BOX", "address": {"city": "VENTURA", "state": "CA", "street": "4200 LOMA VISTA RD", "postcode": "93003"}}},
{"geometry": {"type": "Point", "coordinates": [-119.2631945899, 34.2755501613]}, "type": "Feature", "properties": {"collection_times": [{"days": "Mon-Sat", "time": "3:00pm"}, {"days": "Sun", "time": "Closed"}], "id": "9300300187", "name": "USPS COLLECTION BOX - BLUE BOX", "address": {"city": "VENTURA", "state": "CA", "street": "2463 E MAIN ST", "postcode": "93003"}}},
{"geometry": {"type": "Point", "coordinates": [-119.2140028878, 34.2460908358]}, "type": "Feature", "properties": {"collection_times": [{"days": "Mon-Fri", "time": "5:00pm"}, {"days": "Sat-Sun", "time": "Closed"}], "id": "9300300190", "name": "USPS COLLECTION BOX - BLUE BOX", "address": {"city": "VENTURA", "state": "CA", "street": "800 S VICTORIA AVE", "postcode": "93003"}}},
{"geometry": {"type": "Point", "coordinates": [-119.180513824, 34.2811031687]}, "type": "Feature", "properties": {"collection_times": [{"days": "Mon-Sat", "time": "10:00am"}, {"days": "Sun", "time": "Closed"}], "id": "9300400003", "name": "USPS COLLECTION BOX - BLUE BOX", "address": {"city": "VENTURA", "state": "CA", "street": "130 PETIT AVE", "postcode": "93004"}}},
{"geometry": {"type": "Point", "coordinates": [-119.1713592596, 34.2715800858]}, "type": "Feature", "properties": {"collection_times": [{"days": "Mon-Sat", "time": "10:00am"}, {"days": "Sun", "time": "Closed"}], "id": "9300400005", "name": "USPS COLLECTION BOX - BLUE BOX", "address": {"city": "VENTURA", "state": "CA", "street": "9308 TELEPHONE RD", "postcode": "93004"}}},
{"geometry": {"type": "Point", "coordinates": [-119.2067907223, 34.2512706638]}, "type": "Feature", "properties": {"collection_times": [{"days": "Mon-Fri", "time": "4:30pm"}, {"days": "Sat", "time": "1:00pm"}, {"days": "Sun", "time": "Closed"}], "id": "9300500000", "name": "USPS COLLECTION BOX - BLUE BOX", "address": {"city": "VENTURA", "state": "CA", "street": "2481 GRAND AVE", "postcode": "93005"}}},
{"geometry": {"type": "Point", "coordinates": [-119.2069462078, 34.251622296]}, "type": "Feature", "properties": {"collection_times": [{"days": "Mon-Fri", "time": "4:30pm"}, {"days": "Sat", "time": "1:00pm"}, {"days": "Sun", "time": "Closed"}], "id": "9300500001", "name": "USPS COLLECTION BOX - BLUE BOX", "address": {"city": "VENTURA", "state": "CA", "street": "2481 GRAND AVE", "postcode": "93005"}}},
{"geometry": {"type": "Point", "coordinates": [-119.2069462078, 34.251622296]}, "type": "Feature", "properties": {"collection_times": [{"days": "Mon-Fri", "time": "4:30pm"}, {"days": "Sat", "time": "1:00pm"}, {"days": "Sun", "time": "Closed"}], "id": "9300500003", "name": "USPS COLLECTION BOX - BLUE BOX", "address": {"city": "VENTURA", "state": "CA", "street": "2481 GRAND AVE", "postcode": "93005"}}},
{"geometry": {"type": "Point", "coordinates": [-119.2069462078, 34.251622296]}, "type": "Feature", "properties": {"collection_times": [{"days": "Mon-Fri", "time": "4:30pm"}, {"days": "Sat-Sun", "time": "Closed"}], "id": "9300500004", "name": "USPS COLLECTION BOX - PO LOBBY", "address": {"city": "VENTURA", "state": "CA", "street": "2481 GRAND AVE", "postcode": "93005"}}},
{"geometry": {"type": "Point", "coordinates": [-119.1574873634, 34.2919505742]}, "type": "Feature", "properties": {"collection_times": [{"days": "Mon-Fri", "time": "4:00pm"}, {"days": "Sat", "time": "1:00pm"}, {"days": "Sun", "time": "Closed"}], "id": "9300700004", "name": "USPS COLLECTION BOX - BLUE BOX", "address": {"city": "VENTURA", "state": "CA", "street": "11043 CITRUS DR", "postcode": "93007"}}},
{"geometry": {"type": "Point", "coordinates": [-119.1574873634, 34.2919505742]}, "type": "Feature", "properties": {"collection_times": [{"days": "Mon-Fri", "time": "4:00pm"}, {"days": "Sat", "time": "1:00pm"}, {"days": "Sun", "time": "Closed"}], "id": "9300700011", "name": "USPS COLLECTION BOX - BLUE BOX", "address": {"city": "VENTURA", "state": "CA", "street": "11043 CITRUS DR", "postcode": "93007"}}},
{"geometry": {"type": "Point", "coordinates": [-119.1574873634, 34.2919505742]}, "type": "Feature", "properties": {"collection_times": [{"days": "Mon-Fri", "time": "4:00pm"}, {"days": "Sat-Sun", "time": "Closed"}], "id": "9300700012", "name": "USPS COLLECTION BOX - PO LOBBY", "address": {"city": "VENTURA", "state": "CA", "street": "11043 CITRUS DR", "postcode": "93007"}}},
{"geometry": {"type": "Point", "coordinates": [-119.0514486651, 34.2289228959]}, "type": "Feature", "properties": {"collection_times": [{"days": "Mon-Fri", "time": "5:30pm"}, {"days": "Sat", "time": "4:30pm"}, {"days": "Sun", "time": "Closed"}], "id": "9301000002", "name": "USPS COLLECTION BOX - EXPRESS", "address": {"city": "CAMARILLO", "state": "CA", "street": "2150 PICKWICK DR", "postcode": "93010"}}},
{"geometry": {"type": "Point", "coordinates": [-119.0227901202, 34.2425527039]}, "type": "Feature", "properties": {"collection_times": [{"days": "Mon-Sat", "time": "10:00am"}, {"days": "Sun", "time": "Closed"}], "id": "9301000006", "name": "USPS COLLECTION BOX - BLUE BOX", "address": {"city": "CAMARILLO", "state": "CA", "street": "2486 N PONDEROSA DR", "postcode": "93010"}}},
{"geometry": {"type": "Point", "coordinates": [-119.0430151696, 34.2210808157]}, "type": "Feature", "properties": {"collection_times": [{"days": "Mon-Fri", "time": "3:00pm"}, {"days": "Sat", "time": "10:00am"}, {"days": "Sun", "time": "Closed"}], "id": "9301000008", "name": "USPS COLLECTION BOX - BLUE BOX", "address": {"city": "CAMARILLO", "state": "CA", "street": "400 MOBIL AVE", "postcode": "93010"}}},
{"geometry": {"type": "Point", "coordinates": [-119.0190626034, 34.2443495758]}, "type": "Feature", "properties": {"collection_times": [{"days": "Mon-Sat", "time": "3:00pm"}, {"days": "Sun", "time": "Closed"}], "id": "9301000019", "name": "USPS COLLECTION BOX - BLUE BOX", "address": {"city": "CAMARILLO", "state": "CA", "street": "2400 ANTONIO AVE", "postcode": "93010"}}},
{"geometry": {"type": "Point", "coordinates": [-119.0379213483, 34.236727814]}, "type": "Feature", "properties": {"collection_times": [{"days": "Mon-Sat", "time": "3:00pm"}, {"days": "Sun", "time": "Closed"}], "id": "9301000020", "name": "USPS COLLECTION BOX - BLUE BOX", "address": {"city": "CAMARILLO", "state": "CA", "street": "2400 LAS POSAS RD", "postcode": "93010"}}},
{"geometry": {"type": "Point", "coordinates": [-119.061598272, 34.2205887048]}, "type": "Feature", "properties": {"collection_times": [{"days": "Mon-Fri", "time": "3:00pm"}, {"days": "Sat", "time": "10:00am"}, {"days": "Sun", "time": "Closed"}], "id": "9301000031", "name": "USPS COLLECTION BOX - BLUE BOX", "address": {"city": "CAMARILLO", "state": "CA", "street": "450 ROSEWOOD AVE", "postcode": "93010"}}},
{"geometry": {"type": "Point", "coordinates": [-119.050788393, 34.2205011658]}, "type": "Feature", "properties": {"collection_times": [{"days": "Mon-Fri", "time": "3:00pm"}, {"days": "Sat", "time": "10:00am"}, {"days": "Sun", "time": "Closed"}], "id": "9301000035", "name": "USPS COLLECTION BOX - BLUE BOX", "address": {"city": "CAMARILLO", "state": "CA", "street": "455 CARMEN DR", "postcode": "93010"}}},
{"geometry": {"type": "Point", "coordinates": [-119.054542919, 34.2378313857]}, "type": "Feature", "properties": {"collection_times": [{"days": "Mon-Fri", "time": "3:00pm"}, {"days": "Sat", "time": "10:00am"}, {"days": "Sun", "time": "Closed"}], "id": "9301000042", "name": "USPS COLLECTION BOX - BLUE BOX", "address": {"city": "CAMARILLO", "state": "CA", "street": "350 N LANTANA ST", "postcode": "93010"}}},
{"geometry": {"type": "Point", "coordinates": [-119.1045479631, 34.223233801]}, "type": "Feature", "properties": {"collection_times": [{"days": "Mon-Fri", "time": "3:00pm"}, {"days": "Sat", "time": "10:00am"}, {"days": "Sun", "time": "Closed"}], "id": "9301000047", "name": "USPS COLLECTION BOX - BLUE BOX", "address": {"city": "CAMARILLO", "state": "CA", "street": "1312 DEL NORTE RD", "postcode": "93010"}}},
{"geometry": {"type": "Point", "coordinates": [-119.0939569315, 34.2196518013]}, "type": "Feature", "properties": {"collection_times": [{"days": "Mon-Fri", "time": "3:00pm"}, {"days": "Sat", "time": "10:00am"}, {"days": "Sun", "time": "Closed"}], "id": "9301000051", "name": "USPS COLLECTION BOX - BLUE BOX", "address": {"city": "CAMARILLO", "state": "CA", "street": "322 N AVIADOR ST", "postcode": "93010"}}},
{"geometry": {"type": "Point", "coordinates": [-119.0697169194, 34.222946342]}, "type": "Feature", "properties": {"collection_times": [{"days": "Mon-Sat", "time": "3:00pm"}, {"days": "Sun", "time": "Closed"}], "id": "9301000058", "name": "USPS COLLECTION BOX - BLUE BOX", "address": {"city": "CAMARILLO", "state": "CA", "street": "602 LAS POSAS RD", "postcode": "93010"}}},
{"geometry": {"type": "Point", "coordinates": [-119.0697169194, 34.222946342]}, "type": "Feature", "properties": {"collection_times": [{"days": "Mon-Sat", "time": "3:00pm"}, {"days": "Sun", "time": "Closed"}], "id": "9301000059", "name": "USPS COLLECTION BOX - BLUE BOX", "address": {"city": "CAMARILLO", "state": "CA", "street": "602 LAS POSAS RD", "postcode": "93010"}}},
{"geometry": {"type": "Point", "coordinates": [-119.1045479631, 34.223233801]}, "type": "Feature", "properties": {"collection_times": [{"days": "Mon-Fri", "time": "3:00pm"}, {"days": "Sat", "time": "10:00am"}, {"days": "Sun", "time": "Closed"}], "id": "9301000063", "name": "USPS COLLECTION BOX - BLUE BOX", "address": {"city": "CAMARILLO", "state": "CA", "street": "1312 DEL NORTE RD", "postcode": "93010"}}},
{"geometry": {"type": "Point", "coordinates": [-119.0227901202, 34.2425527039]}, "type": "Feature", "properties": {"collection_times": [{"days": "Mon-Sat", "time": "10:00am"}, {"days": "Sun", "time": "Closed"}], "id": "9301000066", "name": "USPS COLLECTION BOX - BLUE BOX", "address": {"city": "CAMARILLO", "state": "CA", "street": "2486 N PONDEROSA DR", "postcode": "93010"}}},
{"geometry": {"type": "Point", "coordinates": [-119.054542919, 34.2378313857]}, "type": "Feature", "properties": {"collection_times": [{"days": "Mon-Fri", "time": "3:00pm"}, {"days": "Sat", "time": "10:00am"}, {"days": "Sun", "time": "Closed"}], "id": "9301000067", "name": "USPS COLLECTION BOX - BLUE BOX", "address": {"city": "CAMARILLO", "state": "CA", "street": "350 N LANTANA ST", "postcode": "93010"}}},
{"geometry": {"type": "Point", "coordinates": [-119.054542919, 34.2378313857]}, "type": "Feature", "properties": {"collection_times": [{"days": "Mon-Fri", "time": "3:00pm"}, {"days": "Sat", "time": "10:00am"}, {"days": "Sun", "time": "Closed"}], "id": "9301000068", "name": "USPS COLLECTION BOX - BLUE BOX", "address": {"city": "CAMARILLO", "state": "CA", "street": "350 N LANTANA ST", "postcode": "93010"}}},
{"geometry": {"type": "Point", "coordinates": [-119.0415873382, 34.2222685065]}, "type": "Feature", "properties": {"collection_times": [{"days": "Mon-Fri", "time": "5:30pm"}, {"days": "Sat", "time": "4:30pm"}, {"days": "Sun", "time": "Closed"}], "id": "9301000069", "name": "USPS COLLECTION BOX - BLUE BOX", "address": {"city": "CAMARILLO", "state": "CA", "street": "2150 PICKWICK DR", "postcode": "93010"}}},
{"geometry": {"type": "Point", "coordinates": [-119.0415873382, 34.2222685065]}, "type": "Feature", "properties": {"collection_times": [{"days": "Mon-Fri", "time": "5:30pm"}, {"days": "Sat", "time": "4:30pm"}, {"days": "Sun", "time": "Closed"}], "id": "9301000070", "name": "USPS COLLECTION BOX - BLUE BOX", "address": {"city": "CAMARILLO", "state": "CA", "street": "2150 PICKWICK DR", "postcode": "93010"}}},
{"geometry": {"type": "Point", "coordinates": [-119.0977906346, 34.2419726948]}, "type": "Feature", "properties": {"collection_times": [{"days": "Mon-Sat", "time": "10:00am"}, {"days": "Sun", "time": "Closed"}], "id": "9301000073", "name": "USPS COLLECTION BOX - BLUE BOX", "address": {"city": "CAMARILLO", "state": "CA", "street": "6500 BEARDSLEY RD", "postcode": "93010"}}},
{"geometry": {"type": "Point", "coordinates": [-119.061598272, 34.2205887048]}, "type": "Feature", "properties": {"collection_times": [{"days": "Mon-Fri", "time": "3:00pm"}, {"days": "Sat", "time": "10:00am"}, {"days": "Sun", "time": "Closed"}], "id": "9301000074", "name": "USPS COLLECTION BOX - BLUE BOX", "address": {"city": "CAMARILLO", "state": "CA", "street": "450 ROSEWOOD AVE", "postcode": "93010"}}},
{"geometry": {"type": "Point", "coordinates": [-119.061598272, 34.2205887048]}, "type": "Feature", "properties": {"collection_times": [{"days": "Mon-Fri", "time": "3:00pm"}, {"days": "Sat", "time": "10:00am"}, {"days": "Sun", "time": "Closed"}], "id": "9301000075", "name": "USPS COLLECTION BOX - BLUE BOX", "address": {"city": "CAMARILLO", "state": "CA", "street": "450 ROSEWOOD AVE", "postcode": "93010"}}},
{"geometry": {"type": "Point", "coordinates": [-119.0939569315, 34.2196518013]}, "type": "Feature", "properties": {"collection_times": [{"days": "Mon-Fri", "time": "3:00pm"}, {"days": "Sat", "time": "10:00am"}, {"days": "Sun", "time": "Closed"}], "id": "9301000078", "name": "USPS COLLECTION BOX - BLUE BOX", "address": {"city": "CAMARILLO", "state": "CA", "street": "322 N AVIADOR ST", "postcode": "93010"}}},
{"geometry": {"type": "Point", "coordinates": [-119.0939569315, 34.2196518013]}, "type": "Feature", "properties": {"collection_times": [{"days": "Mon-Fri", "time": "3:00pm"}, {"days": "Sat", "time": "10:00am"}, {"days": "Sun", "time": "Closed"}], "id": "9301000079", "name": "USPS COLLECTION BOX - BLUE BOX", "address": {"city": "CAMARILLO", "state": "CA", "street": "322 N AVIADOR ST", "postcode": "93010"}}},
{"geometry": {"type": "Point", "coordinates": [-119.0696701106, 34.2449815456]}, "type": "Feature", "properties": {"collection_times": [{"days": "Mon-Sat", "time": "10:00am"}, {"days": "Sun", "time": "Closed"}], "id": "9301000081", "name": "USPS COLLECTION BOX - BLUE BOX", "address": {"city": "CAMARILLO", "state": "CA", "street": "1219 CALLE AURORA", "postcode": "93010"}}},
{"geometry": {"type": "Point", "coordinates": [-119.0886036894, 34.2422411723]}, "type": "Feature", "properties": {"collection_times": [{"days": "Mon-Sat", "time": "10:00am"}, {"days": "Sun", "time": "Closed"}], "id": "9301000082", "name": "USPS COLLECTION BOX - BLUE BOX", "address": {"city": "CAMARILLO", "state": "CA", "street": "2843 AVENIDA DE AUTLAN", "postcode": "93010"}}},
{"geometry": {"type": "Point", "coordinates": [-119.0415873382, 34.2222685065]}, "type": "Feature", "properties": {"collection_times": [{"days": "Mon-Fri", "time": "5:30pm"}, {"days": "Sat", "time": "4:30pm"}, {"days": "Sun", "time": "Closed"}], "id": "9301000083", "name": "USPS COLLECTION BOX - APC", "address": {"city": "CAMARILLO", "state": "CA", "street": "2150 PICKWICK DR", "postcode": "93010"}}},
{"geometry": {"type": "Point", "coordinates": [-119.0388722312, 34.2253863389]}, "type": "Feature", "properties": {"collection_times": [{"days": "Mon-Sat", "time": "3:00pm"}, {"days": "Sun", "time": "Closed"}], "id": "9301000090", "name": "USPS COLLECTION BOX - BLUE BOX", "address": {"city": "CAMARILLO", "state": "CA", "street": "760 ARNEILL RD", "postcode": "93010"}}},
{"geometry": {"type": "Point", "coordinates": [-119.0315818716, 34.2056938886]}, "type": "Feature", "properties": {"collection_times": [{"days": "Mon-Fri", "time": "3:00pm"}, {"days": "Sat", "time": "10:00am"}, {"days": "Sun", "time": "Closed"}], "id": "9301200000", "name": "USPS COLLECTION BOX - BLUE BOX", "address": {"city": "CAMARILLO", "state": "CA", "street": "591 CONSTITUTION AVE", "postcode": "93012"}}},
{"geometry": {"type": "Point", "coordinates": [-119.0364556622, 34.2089909751]}, "type": "Feature", "properties": {"collection_times": [{"days": "Mon-Fri", "time": "3:00pm"}, {"days": "Sat", "time": "10:00am"}, {"days": "Sun", "time": "Closed"}], "id": "9301200001", "name": "USPS COLLECTION BOX - BLUE BOX", "address": {"city": "CAMARILLO", "state": "CA", "street": "412 DAWSON DR", "postcode": "93012"}}},
{"geometry": {"type": "Point", "coordinates": [-119.0204390571, 34.2266970366]}, "type": "Feature", "properties": {"collection_times": [{"days": "Mon-Fri", "time": "3:00pm"}, {"days": "Sat", "time": "10:00am"}, {"days": "Sun", "time": "Closed"}], "id": "9301200002", "name": "USPS COLLECTION BOX - BLUE BOX", "address": {"city": "CAMARILLO", "state": "CA", "street": "3668 VISTA MERCADO", "postcode": "93012"}}},
{"geometry": {"type": "Point", "coordinates": [-119.0111036686, 34.1987654778]}, "type": "Feature", "properties": {"collection_times": [{"days": "Mon-Fri", "time": "3:00pm"}, {"days": "Sat", "time": "10:00am"}, {"days": "Sun", "time": "Closed"}], "id": "9301200003", "name": "USPS COLLECTION BOX - BLUE BOX", "address": {"city": "CAMARILLO", "state": "CA", "street": "4600 CALLE BOLERO", "postcode": "93012"}}},
{"geometry": {"type": "Point", "coordinates": [-118.9880194073, 34.226262176]}, "type": "Feature", "properties": {"collection_times": [{"days": "Mon-Sat", "time": "3:00pm"}, {"days": "Sun", "time": "Closed"}], "id": "9301200004", "name": "USPS COLLECTION BOX - BLUE BOX", "address": {"city": "CAMARILLO", "state": "CA", "street": "5800 SANTA ROSA RD", "postcode": "93012"}}},
{"geometry": {"type": "Point", "coordinates": [-119.0046463903, 34.2157375238]}, "type": "Feature", "properties": {"collection_times": [{"days": "Mon-Sat", "time": "3:00pm"}, {"days": "Sun", "time": "Closed"}], "id": "9301200006", "name": "USPS COLLECTION BOX - BLUE BOX", "address": {"city": "CAMARILLO", "state": "CA", "street": "4900 VERDUGO WAY", "postcode": "93012"}}},
{"geometry": {"type": "Point", "coordinates": [-119.0046463903, 34.2157375238]}, "type": "Feature", "properties": {"collection_times": [{"days": "Mon-Sat", "time": "3:00pm"}, {"days": "Sun", "time": "Closed"}], "id": "9301200008", "name": "USPS COLLECTION BOX - BLUE BOX", "address": {"city": "CAMARILLO", "state": "CA", "street": "4900 VERDUGO WAY", "postcode": "93012"}}},
{"geometry": {"type": "Point", "coordinates": [-118.9782866118, 34.2237364956]}, "type": "Feature", "properties": {"collection_times": [{"days": "Mon-Sat", "time": "10:00am"}, {"days": "Sun", "time": "Closed"}], "id": "9301200010", "name": "USPS COLLECTION BOX - BLUE BOX", "address": {"city": "CAMARILLO", "state": "CA", "street": "12000 LEISURE VILLAGE DR", "postcode": "93012"}}},
{"geometry": {"type": "Point", "coordinates": [-118.9988706899, 34.2281501785]}, "type": "Feature", "properties": {"collection_times": [{"days": "Mon-Sat", "time": "10:00am"}, {"days": "Sun", "time": "Closed"}], "id": "9301200012", "name": "USPS COLLECTION BOX - BLUE BOX", "address": {"city": "CAMARILLO", "state": "CA", "street": "5227 MISSION OAKS BLVD", "postcode": "93012"}}},
{"geometry": {"type": "Point", "coordinates": [-119.0135750295, 34.2307163397]}, "type": "Feature", "properties": {"collection_times": [{"days": "Mon-Fri", "time": "3:00pm"}, {"days": "Sat", "time": "10:00am"}, {"days": "Sun", "time": "Closed"}], "id": "9301200017", "name": "USPS COLLECTION BOX - BLUE BOX", "address": {"city": "CAMARILLO", "state": "CA", "street": "4100 CALLE TESORO", "postcode": "93012"}}},
{"geometry": {"type": "Point", "coordinates": [-119.0128961949, 34.2302518933]}, "type": "Feature", "properties": {"collection_times": [{"days": "Mon-Fri", "time": "3:00pm"}, {"days": "Sat", "time": "10:00am"}, {"days": "Sun", "time": "Closed"}], "id": "9301200018", "name": "USPS COLLECTION BOX - BLUE BOX", "address": {"city": "CAMARILLO", "state": "CA", "street": "4100 CALLE TESORO", "postcode": "93012"}}},
{"geometry": {"type": "Point", "coordinates": [-119.0204463749, 34.2267447028]}, "type": "Feature", "properties": {"collection_times": [{"days": "Mon-Fri", "time": "3:00pm"}, {"days": "Sat", "time": "10:00am"}, {"days": "Sun", "time": "Closed"}], "id": "9301200019", "name": "USPS COLLECTION BOX - BLUE BOX", "address": {"city": "CAMARILLO", "state": "CA", "street": "3668 VISTA MERCADO", "postcode": "93012"}}},
{"geometry": {"type": "Point", "coordinates": [-119.0111036686, 34.1987654778]}, "type": "Feature", "properties": {"collection_times": [{"days": "Mon-Fri", "time": "3:00pm"}, {"days": "Sat", "time": "10:00am"}, {"days": "Sun", "time": "Closed"}], "id": "9301200020", "name": "USPS COLLECTION BOX - BLUE BOX", "address": {"city": "CAMARILLO", "state": "CA", "street": "4600 CALLE BOLERO", "postcode": "93012"}}},
{"geometry": {"type": "Point", "coordinates": [-118.9880194073, 34.226262176]}, "type": "Feature", "properties": {"collection_times": [{"days": "Mon-Sat", "time": "3:00pm"}, {"days": "Sun", "time": "Closed"}], "id": "9301200022", "name": "USPS COLLECTION BOX - BLUE BOX", "address": {"city": "CAMARILLO", "state": "CA", "street": "5800 SANTA ROSA RD", "postcode": "93012"}}},
{"geometry": {"type": "Point", "coordinates": [-118.9864993051, 34.2028111975]}, "type": "Feature", "properties": {"collection_times": [{"days": "Mon-Sat", "time": "10:00am"}, {"days": "Sun", "time": "Closed"}], "id": "9301200024", "name": "USPS COLLECTION BOX - BLUE BOX", "address": {"city": "CAMARILLO", "state": "CA", "street": "795 CAMARILLO SPRINGS RD", "postcode": "93012"}}},
{"geometry": {"type": "Point", "coordinates": [-119.012736152, 34.206312756]}, "type": "Feature", "properties": {"collection_times": [{"days": "Mon-Sat", "time": "10:00am"}, {"days": "Sun", "time": "Closed"}], "id": "9301200027", "name": "USPS COLLECTION BOX - BLUE BOX", "address": {"city": "CAMARILLO", "state": "CA", "street": "404 DEERHURST AVE", "postcode": "93012"}}},
{"geometry": {"type": "Point", "coordinates": [-119.5140114124, 34.3951944043]}, "type": "Feature", "properties": {"collection_times": [{"days": "Mon-Fri", "time": "5:00pm"}, {"days": "Sat", "time": "3:00pm"}, {"days": "Sun", "time": "Closed"}], "id": "9301300001", "name": "USPS COLLECTION BOX - BLUE BOX", "address": {"city": "CARPINTERIA", "state": "CA", "street": "5425 CARPINTERIA AVE", "postcode": "93013"}}},
{"geometry": {"type": "Point", "coordinates": [-119.5191639595, 34.3982112852]}, "type": "Feature", "properties": {"collection_times": [{"days": "Mon-Fri", "time": "3:00pm"}, {"days": "Sat", "time": "10:00am"}, {"days": "Sun", "time": "Closed"}], "id": "9301300004", "name": "USPS COLLECTION BOX - BLUE BOX", "address": {"city": "CARPINTERIA", "state": "CA", "street": "892 LINDEN AVE", "postcode": "93013"}}},
{"geometry": {"type": "Point", "coordinates": [-119.5140114124, 34.3951944043]}, "type": "Feature", "properties": {"collection_times": [{"days": "Mon-Fri", "time": "5:00pm"}, {"days": "Sat", "time": "3:00pm"}, {"days": "Sun", "time": "Closed"}], "id": "9301300012", "name": "USPS COLLECTION BOX - BLUE BOX", "address": {"city": "CARPINTERIA", "state": "CA", "street": "5425 CARPINTERIA AVE", "postcode": "93013"}}},
{"geometry": {"type": "Point", "coordinates": [-119.5140114124, 34.3951944043]}, "type": "Feature", "properties": {"collection_times": [{"days": "Mon-Fri", "time": "5:00pm"}, {"days": "Sat", "time": "3:00pm"}, {"days": "Sun", "time": "Closed"}], "id": "9301300017", "name": "USPS COLLECTION BOX - PO LOBBY", "address": {"city": "CARPINTERIA", "state": "CA", "street": "5425 CARPINTERIA AVE", "postcode": "93013"}}},
{"geometry": {"type": "Point", "coordinates": [-119.4868800811, 34.3852490256]}, "type": "Feature", "properties": {"collection_times": [{"days": "Mon-Fri", "time": "3:00pm"}, {"days": "Sat", "time": "10:00am"}, {"days": "Sun", "time": "Closed"}], "id": "9301300018", "name": "USPS COLLECTION BOX - BLUE BOX", "address": {"city": "CARPINTERIA", "state": "CA", "street": "1000 MARK AVE", "postcode": "93013"}}},
{"geometry": {"type": "Point", "coordinates": [-118.9135616042, 34.3996721307]}, "type": "Feature", "properties": {"collection_times": [{"days": "Mon-Fri", "time": "5:00pm"}, {"days": "Sat", "time": "3:00pm"}, {"days": "Sun", "time": "Closed"}], "id": "9301500002", "name": "USPS COLLECTION BOX - BLUE BOX", "address": {"city": "FILLMORE", "state": "CA", "street": "333 CENTRAL AVE", "postcode": "93015"}}},
{"geometry": {"type": "Point", "coordinates": [-118.9135616042, 34.3996721307]}, "type": "Feature", "properties": {"collection_times": [{"days": "Mon-Fri", "time": "5:00pm"}, {"days": "Sat", "time": "3:00pm"}, {"days": "Sun", "time": "Closed"}], "id": "9301500011", "name": "USPS COLLECTION BOX - PO LOBBY", "address": {"city": "FILLMORE", "state": "CA", "street": "333 CENTRAL AVE", "postcode": "93015"}}},
{"geometry": {"type": "Point", "coordinates": [-118.9135616042, 34.3996721307]}, "type": "Feature", "properties": {"collection_times": [{"days": "Mon-Fri", "time": "5:00pm"}, {"days": "Sat", "time": "3:00pm"}, {"days": "Sun", "time": "Closed"}], "id": "9301500012", "name": "USPS COLLECTION BOX - BLUE BOX", "address": {"city": "FILLMORE", "state": "CA", "street": "333 CENTRAL AVE", "postcode": "93015"}}},
{"geometry": {"type": "Point", "coordinates": [-118.8736594755, 34.2787910354]}, "type": "Feature", "properties": {"collection_times": [{"days": "Mon-Sat", "time": "10:00am"}, {"days": "Sun", "time": "Closed"}], "id": "9302100014", "name": "USPS COLLECTION BOX - BLUE BOX", "address": {"city": "MOORPARK", "state": "CA", "street": "530 NEW LOS ANGELES AVE", "postcode": "93021"}}},
{"geometry": {"type": "Point", "coordinates": [-118.8570162972, 34.29585557]}, "type": "Feature", "properties": {"collection_times": [{"days": "Mon-Sat", "time": "10:00am"}, {"days": "Sun", "time": "Closed"}], "id": "9302100018", "name": "USPS COLLECTION BOX - BLUE BOX", "address": {"city": "MOORPARK", "state": "CA", "street": "6615 PRINCETON AVE", "postcode": "93021"}}},
{"geometry": {"type": "Point", "coordinates": [-118.8886676154, 34.2645645489]}, "type": "Feature", "properties": {"collection_times": [{"days": "Mon-Sat", "time": "10:00am"}, {"days": "Sun", "time": "Closed"}], "id": "9302100020", "name": "USPS COLLECTION BOX - BLUE BOX", "address": {"city": "MOORPARK", "state": "CA", "street": "4243 TIERRA REJADA RD", "postcode": "93021"}}},
{"geometry": {"type": "Point", "coordinates": [-118.8808348265, 34.285350618]}, "type": "Feature", "properties": {"collection_times": [{"days": "Mon-Fri", "time": "5:00pm"}, {"days": "Sat", "time": "3:30pm"}, {"days": "Sun", "time": "Closed"}], "id": "9302100025", "name": "USPS COLLECTION BOX - BLUE BOX", "address": {"city": "MOORPARK", "state": "CA", "street": "100 W HIGH ST", "postcode": "93021"}}},
{"geometry": {"type": "Point", "coordinates": [-118.8808348265, 34.285350618]}, "type": "Feature", "properties": {"collection_times": [{"days": "Mon-Fri", "time": "5:00pm"}, {"days": "Sat", "time": "3:30pm"}, {"days": "Sun", "time": "Closed"}], "id": "9302100026", "name": "USPS COLLECTION BOX - BLUE BOX", "address": {"city": "MOORPARK", "state": "CA", "street": "100 W HIGH ST", "postcode": "93021"}}},
{"geometry": {"type": "Point", "coordinates": [-118.8808348265, 34.285350618]}, "type": "Feature", "properties": {"collection_times": [{"days": "Mon-Fri", "time": "5:00pm"}, {"days": "Sat", "time": "3:30pm"}, {"days": "Sun", "time": "Closed"}], "id": "9302100027", "name": "USPS COLLECTION BOX - PO LOBBY", "address": {"city": "MOORPARK", "state": "CA", "street": "100 W HIGH ST", "postcode": "93021"}}},
{"geometry": {"type": "Point", "coordinates": [-118.8808348265, 34.285350618]}, "type": "Feature", "properties": {"collection_times": [{"days": "Mon-Fri", "time": "5:00pm"}, {"days": "Sat", "time": "3:30pm"}, {"days": "Sun", "time": "Closed"}], "id": "9302100028", "name": "USPS COLLECTION BOX - PO LOBBY", "address": {"city": "MOORPARK", "state": "CA", "street": "100 W HIGH ST", "postcode": "93021"}}},
{"geometry": {"type": "Point", "coordinates": [-119.3012219888, 34.3927423571]}, "type": "Feature", "properties": {"collection_times": [{"days": "Mon-Fri", "time": "5:00pm"}, {"days": "Sat", "time": "12:00pm"}, {"days": "Sun", "time": "Closed"}], "id": "9302200005", "name": "USPS COLLECTION BOX - BLUE BOX", "address": {"city": "OAK VIEW", "state": "CA", "street": "360 VENTURA AVE", "postcode": "93022"}}},
{"geometry": {"type": "Point", "coordinates": [-119.3012219888, 34.3927423571]}, "type": "Feature", "properties": {"collection_times": [{"days": "Mon-Fri", "time": "5:00pm"}, {"days": "Sat", "time": "12:00pm"}, {"days": "Sun", "time": "Closed"}], "id": "9302200009", "name": "USPS COLLECTION BOX - BLUE BOX", "address": {"city": "OAK VIEW", "state": "CA", "street": "360 VENTURA AVE", "postcode": "93022"}}},
{"geometry": {"type": "Point", "coordinates": [-119.3012219888, 34.3927423571]}, "type": "Feature", "properties": {"collection_times": [{"days": "Mon-Fri", "time": "5:00pm"}, {"days": "Sat", "time": "12:00pm"}, {"days": "Sun", "time": "Closed"}], "id": "9302200010", "name": "USPS COLLECTION BOX - PO LOBBY", "address": {"city": "OAK VIEW", "state": "CA", "street": "360 VENTURA AVE", "postcode": "93022"}}},
{"geometry": {"type": "Point", "coordinates": [-119.2456808825, 34.4477736081]}, "type": "Feature", "properties": {"collection_times": [{"days": "Mon-Fri", "time": "5:00pm"}, {"days": "Sat", "time": "4:00pm"}, {"days": "Sun", "time": "Closed"}], "id": "9302300001", "name": "USPS COLLECTION BOX - BLUE BOX", "address": {"city": "OJAI", "state": "CA", "street": "201 E OJAI AVE", "postcode": "93023"}}},
{"geometry": {"type": "Point", "coordinates": [-119.2629263871, 34.4418948029]}, "type": "Feature", "properties": {"collection_times": [{"days": "Mon-Fri", "time": "3:00pm"}, {"days": "Sat", "time": "10:00am"}, {"days": "Sun", "time": "Closed"}], "id": "9302300008", "name": "USPS COLLECTION BOX - BLUE BOX", "address": {"city": "OJAI", "state": "CA", "street": "1215 MARICOPA HWY", "postcode": "93023"}}},
{"geometry": {"type": "Point", "coordinates": [-119.2483754353, 34.4486175567]}, "type": "Feature", "properties": {"collection_times": [{"days": "Mon-Fri", "time": "3:00pm"}, {"days": "Sat", "time": "10:00am"}, {"days": "Sun", "time": "Closed"}], "id": "9302300010", "name": "USPS COLLECTION BOX - BLUE BOX", "address": {"city": "OJAI", "state": "CA", "street": "200 MATILIJA ST", "postcode": "93023"}}},
{"geometry": {"type": "Point", "coordinates": [-119.2429139414, 34.4543272008]}, "type": "Feature", "properties": {"collection_times": [{"days": "Mon-Sat", "time": "10:00am"}, {"days": "Sun", "time": "Closed"}], "id": "9302300011", "name": "USPS COLLECTION BOX - BLUE BOX", "address": {"city": "OJAI", "state": "CA", "street": "701 N MONTGOMERY ST", "postcode": "93023"}}},
{"geometry": {"type": "Point", "coordinates": [-119.2433114157, 34.4479415883]}, "type": "Feature", "properties": {"collection_times": [{"days": "Mon-Fri", "time": "3:00pm"}, {"days": "Sat", "time": "10:00am"}, {"days": "Sun", "time": "Closed"}], "id": "9302300014", "name": "USPS COLLECTION BOX - BLUE BOX", "address": {"city": "OJAI", "state": "CA", "street": "360 E OJAI AVE", "postcode": "93023"}}},
{"geometry": {"type": "Point", "coordinates": [-119.1808592496, 34.220268316]}, "type": "Feature", "properties": {"collection_times": [{"days": "Mon-Fri", "time": "5:30pm"}, {"days": "Sat", "time": "5:00pm"}, {"days": "Sun", "time": "Closed"}], "id": "9303000000", "name": "USPS COLLECTION BOX - BLUE BOX", "address": {"city": "OXNARD", "state": "CA", "street": "1961 N C ST", "postcode": "93030"}}},
{"geometry": {"type": "Point", "coordinates": [-119.1808592496, 34.220268316]}, "type": "Feature", "properties": {"collection_times": [{"days": "Mon-Fri", "time": "5:30pm"}, {"days": "Sat", "time": "5:00pm"}, {"days": "Sun", "time": "Closed"}], "id": "9303000001", "name": "USPS COLLECTION BOX - BLUE BOX", "address": {"city": "OXNARD", "state": "CA", "street": "1961 N C ST", "postcode": "93030"}}},
{"geometry": {"type": "Point", "coordinates": [-119.1808369868, 34.2204928851]}, "type": "Feature", "properties": {"collection_times": [{"days": "Mon-Fri", "time": "5:30pm"}, {"days": "Sat", "time": "5:00pm"}, {"days": "Sun", "time": "Closed"}], "id": "9303000002", "name": "USPS COLLECTION BOX - BLUE BOX", "address": {"city": "OXNARD", "state": "CA", "street": "1961 N C ST", "postcode": "93030"}}},
{"geometry": {"type": "Point", "coordinates": [-119.1766065485, 34.204503965]}, "type": "Feature", "properties": {"collection_times": [{"days": "Mon-Fri", "time": "5:00pm"}, {"days": "Sat", "time": "2:00pm"}, {"days": "Sun", "time": "Closed"}], "id": "9303000011", "name": "USPS COLLECTION BOX - EXPRESS", "address": {"city": "OXNARD", "state": "CA", "street": "200 4TH ST", "postcode": "93030"}}},
{"geometry": {"type": "Point", "coordinates": [-119.1785947339, 34.1989440471]}, "type": "Feature", "properties": {"collection_times": [{"days": "Mon-Fri", "time": "5:00pm"}, {"days": "Sat", "time": "2:00pm"}, {"days": "Sun", "time": "Closed"}], "id": "9303000012", "name": "USPS COLLECTION BOX - BLUE BOX", "address": {"city": "OXNARD", "state": "CA", "street": "200 4TH ST", "postcode": "93030"}}},
{"geometry": {"type": "Point", "coordinates": [-119.1884000331, 34.1950962433]}, "type": "Feature", "properties": {"collection_times": [{"days": "Mon-Fri", "time": "3:00pm"}, {"days": "Sat", "time": "2:00pm"}, {"days": "Sun", "time": "Closed"}], "id": "9303000022", "name": "USPS COLLECTION BOX - BLUE BOX", "address": {"city": "OXNARD", "state": "CA", "street": "900 W 7TH ST", "postcode": "93030"}}},
{"geometry": {"type": "Point", "coordinates": [-119.1582755934, 34.216921532]}, "type": "Feature", "properties": {"collection_times": [{"days": "Mon-Fri", "time": "3:00pm"}, {"days": "Sat", "time": "2:00pm"}, {"days": "Sun", "time": "Closed"}], "id": "9303000050", "name": "USPS COLLECTION BOX - BLUE BOX", "address": {"city": "OXNARD", "state": "CA", "street": "1600 N ROSE AVE", "postcode": "93030"}}},
{"geometry": {"type": "Point", "coordinates": [-119.1422657115, 34.2105720693]}, "type": "Feature", "properties": {"collection_times": [{"days": "Mon-Fri", "time": "3:00pm"}, {"days": "Sat", "time": "2:00pm"}, {"days": "Sun", "time": "Closed"}], "id": "9303000070", "name": "USPS COLLECTION BOX - BLUE BOX", "address": {"city": "OXNARD", "state": "CA", "street": "961 N RICE AVE", "postcode": "93030"}}},
{"geometry": {"type": "Point", "coordinates": [-119.1948455869, 34.1968230592]}, "type": "Feature", "properties": {"collection_times": [{"days": "Mon-Fri", "time": "3:00pm"}, {"days": "Sat", "time": "2:00pm"}, {"days": "Sun", "time": "Closed"}], "id": "9303000079", "name": "USPS COLLECTION BOX - BLUE BOX", "address": {"city": "OXNARD", "state": "CA", "street": "551 S VENTURA RD", "postcode": "93030"}}},
{"geometry": {"type": "Point", "coordinates": [-119.1380543575, 34.204885729]}, "type": "Feature", "properties": {"collection_times": [{"days": "Mon-Fri", "time": "5:00pm"}, {"days": "Sat", "time": "2:00pm"}, {"days": "Sun", "time": "Closed"}], "id": "9303000090", "name": "USPS COLLECTION BOX - BLUE BOX", "address": {"city": "OXNARD", "state": "CA", "street": "2901 CAMINO DEL SOL", "postcode": "93030"}}},
{"geometry": {"type": "Point", "coordinates": [-119.1381016489, 34.2049293331]}, "type": "Feature", "properties": {"collection_times": [{"days": "Mon-Fri", "time": "5:00pm"}, {"days": "Sat", "time": "2:00pm"}, {"days": "Sun", "time": "Closed"}], "id": "9303000091", "name": "USPS COLLECTION BOX - BLUE BOX", "address": {"city": "OXNARD", "state": "CA", "street": "2901 CAMINO DEL SOL", "postcode": "93030"}}},
{"geometry": {"type": "Point", "coordinates": [-119.1381016489, 34.2049293331]}, "type": "Feature", "properties": {"collection_times": [{"days": "Mon-Fri", "time": "5:00pm"}, {"days": "Sat", "time": "2:00pm"}, {"days": "Sun", "time": "Closed"}], "id": "9303000092", "name": "USPS COLLECTION BOX - BLUE BOX", "address": {"city": "OXNARD", "state": "CA", "street": "2901 CAMINO DEL SOL", "postcode": "93030"}}},
{"geometry": {"type": "Point", "coordinates": [-119.1766065485, 34.204503965]}, "type": "Feature", "properties": {"collection_times": [{"days": "Mon-Fri", "time": "5:30pm"}, {"days": "Sat", "time": "5:00pm"}, {"days": "Sun", "time": "Closed"}], "id": "9303000102", "name": "USPS COLLECTION BOX - APC", "address": {"city": "OXNARD", "state": "CA", "street": "1961 N C ST", "postcode": "93030"}}},
{"geometry": {"type": "Point", "coordinates": [-119.1946226765, 34.2102043771]}, "type": "Feature", "properties": {"collection_times": [{"days": "Mon-Fri", "time": "3:00pm"}, {"days": "Sat", "time": "2:00pm"}, {"days": "Sun", "time": "Closed"}], "id": "9303000104", "name": "USPS COLLECTION BOX - BLUE BOX", "address": {"city": "OXNARD", "state": "CA", "street": "816 N VENTURA RD", "postcode": "93030"}}},
{"geometry": {"type": "Point", "coordinates": [-119.1808369868, 34.2204928851]}, "type": "Feature", "properties": {"collection_times": [{"days": "Mon-Fri", "time": "5:30pm"}, {"days": "Sat", "time": "5:00pm"}, {"days": "Sun", "time": "Closed"}], "id": "9303000106", "name": "USPS COLLECTION BOX - PO LOBBY", "address": {"city": "OXNARD", "state": "CA", "street": "1961 N C ST", "postcode": "93030"}}},
{"geometry": {"type": "Point", "coordinates": [-119.1808369868, 34.2204928851]}, "type": "Feature", "properties": {"collection_times": [{"days": "Mon-Fri", "time": "5:30pm"}, {"days": "Sat", "time": "5:00pm"}, {"days": "Sun", "time": "Closed"}], "id": "9303000107", "name": "USPS COLLECTION BOX - APC", "address": {"city": "OXNARD", "state": "CA", "street": "1961 N C ST", "postcode": "93030"}}},
{"geometry": {"type": "Point", "coordinates": [-119.177387194, 34.1758416304]}, "type": "Feature", "properties": {"collection_times": [{"days": "Mon-Fri", "time": "5:00pm"}, {"days": "Sat", "time": "2:00pm"}, {"days": "Sun", "time": "Closed"}], "id": "9303300001", "name": "USPS COLLECTION BOX - BLUE BOX", "address": {"city": "OXNARD", "state": "CA", "street": "2532 SAVIERS RD", "postcode": "93033"}}},
{"geometry": {"type": "Point", "coordinates": [-119.177387194, 34.1758416304]}, "type": "Feature", "properties": {"collection_times": [{"days": "Mon-Fri", "time": "5:00pm"}, {"days": "Sat", "time": "2:00pm"}, {"days": "Sun", "time": "Closed"}], "id": "9303300002", "name": "USPS COLLECTION BOX - BLUE BOX", "address": {"city": "OXNARD", "state": "CA", "street": "2532 SAVIERS RD", "postcode": "93033"}}},
{"geometry": {"type": "Point", "coordinates": [-119.1776110577, 34.1763862601]}, "type": "Feature", "properties": {"collection_times": [{"days": "Mon-Sat", "time": "10:00am"}, {"days": "Sun", "time": "Closed"}], "id": "9303300004", "name": "USPS COLLECTION BOX - BLUE BOX", "address": {"city": "OXNARD", "state": "CA", "street": "2401 SAVIERS RD", "postcode": "93033"}}},
{"geometry": {"type": "Point", "coordinates": [-119.1778777836, 34.1549962653]}, "type": "Feature", "properties": {"collection_times": [{"days": "Mon-Sat", "time": "10:00am"}, {"days": "Sun", "time": "Closed"}], "id": "9303300006", "name": "USPS COLLECTION BOX - BLUE BOX", "address": {"city": "OXNARD", "state": "CA", "street": "4991 SAVIERS RD", "postcode": "93033"}}},
{"geometry": {"type": "Point", "coordinates": [-119.1775669305, 34.1637208451]}, "type": "Feature", "properties": {"collection_times": [{"days": "Mon-Fri", "time": "3:00pm"}, {"days": "Sat", "time": "2:00pm"}, {"days": "Sun", "time": "Closed"}], "id": "9303300007", "name": "USPS COLLECTION BOX - BLUE BOX", "address": {"city": "OXNARD", "state": "CA", "street": "4050 SAVIERS RD", "postcode": "93033"}}},
{"geometry": {"type": "Point", "coordinates": [-119.177387194, 34.1758416304]}, "type": "Feature", "properties": {"collection_times": [{"days": "Mon-Fri", "time": "5:00pm"}, {"days": "Sat", "time": "2:00pm"}, {"days": "Sun", "time": "Closed"}], "id": "9303300063", "name": "USPS COLLECTION BOX - PO LOBBY", "address": {"city": "OXNARD", "state": "CA", "street": "2532 SAVIERS RD", "postcode": "93033"}}},
{"geometry": {"type": "Point", "coordinates": [-119.1652310952, 34.1832841405]}, "type": "Feature", "properties": {"collection_times": [{"days": "Mon-Fri", "time": "3:00pm"}, {"days": "Sat", "time": "2:00pm"}, {"days": "Sun", "time": "Closed"}], "id": "9303300064", "name": "USPS COLLECTION BOX - BLUE BOX", "address": {"city": "OXNARD", "state": "CA", "street": "1661 PACIFIC AVE", "postcode": "93033"}}},
{"geometry": {"type": "Point", "coordinates": [-119.1696892111, 34.1633764758]}, "type": "Feature", "properties": {"collection_times": [{"days": "Mon-Sat", "time": "10:00am"}, {"days": "Sun", "time": "Closed"}], "id": "9303300065", "name": "USPS COLLECTION BOX - BLUE BOX", "address": {"city": "OXNARD", "state": "CA", "street": "4000 SAN JUAN AVE", "postcode": "93033"}}},
{"geometry": {"type": "Point", "coordinates": [-119.2219188073, 34.175655296]}, "type": "Feature", "properties": {"collection_times": [{"days": "Mon-Fri", "time": "4:30pm"}, {"days": "Sat", "time": "2:00pm"}, {"days": "Sun", "time": "Closed"}], "id": "9303500002", "name": "USPS COLLECTION BOX - BLUE BOX", "address": {"city": "OXNARD", "state": "CA", "street": "3840 W CHANNEL ISLANDS BLVD", "postcode": "93035"}}},
{"geometry": {"type": "Point", "coordinates": [-119.2269658797, 34.1629576464]}, "type": "Feature", "properties": {"collection_times": [{"days": "Mon-Fri", "time": "3:00pm"}, {"days": "Sat", "time": "2:00pm"}, {"days": "Sun", "time": "Closed"}], "id": "9303500005", "name": "USPS COLLECTION BOX - BLUE BOX", "address": {"city": "OXNARD", "state": "CA", "street": "3600 HARBOR BLVD", "postcode": "93035"}}},
{"geometry": {"type": "Point", "coordinates": [-119.2252736574, 34.1760207258]}, "type": "Feature", "properties": {"collection_times": [{"days": "Mon-Sat", "time": "10:00am"}, {"days": "Sun", "time": "Closed"}], "id": "9303500008", "name": "USPS COLLECTION BOX - BLUE BOX", "address": {"city": "OXNARD", "state": "CA", "street": "2550 PENINSULA RD", "postcode": "93035"}}},
{"geometry": {"type": "Point", "coordinates": [-119.2562490876, 34.231716458]}, "type": "Feature", "properties": {"collection_times": [{"days": "Mon-Sat", "time": "10:00am"}, {"days": "Sun", "time": "Closed"}], "id": "9303500009", "name": "USPS COLLECTION BOX - BLUE BOX", "address": {"city": "OXNARD", "state": "CA", "street": "4461 MERIDIAN AVE", "postcode": "93035"}}},
{"geometry": {"type": "Point", "coordinates": [-119.2390671597, 34.1918192791]}, "type": "Feature", "properties": {"collection_times": [{"days": "Mon-Sat", "time": "10:00am"}, {"days": "Sun", "time": "Closed"}], "id": "9303500010", "name": "USPS COLLECTION BOX - BLUE BOX", "address": {"city": "OXNARD", "state": "CA", "street": "1000 HARBOR BLVD", "postcode": "93035"}}},
{"geometry": {"type": "Point", "coordinates": [-119.1731234108, 34.2295549619]}, "type": "Feature", "properties": {"collection_times": [{"days": "Mon-Fri", "time": "5:00pm"}, {"days": "Sat", "time": "2:00pm"}, {"days": "Sun", "time": "Closed"}], "id": "9303600001", "name": "USPS COLLECTION BOX - BLUE BOX", "address": {"city": "OXNARD", "state": "CA", "street": "400 E ESPLANADE DR", "postcode": "93036"}}},
{"geometry": {"type": "Point", "coordinates": [-119.1731234108, 34.2295549619]}, "type": "Feature", "properties": {"collection_times": [{"days": "Mon-Fri", "time": "5:00pm"}, {"days": "Sat", "time": "2:00pm"}, {"days": "Sun", "time": "Closed"}], "id": "9303600002", "name": "USPS COLLECTION BOX - BLUE BOX", "address": {"city": "OXNARD", "state": "CA", "street": "400 E ESPLANADE DR", "postcode": "93036"}}},
{"geometry": {"type": "Point", "coordinates": [-119.173370495, 34.229622441]}, "type": "Feature", "properties": {"collection_times": [{"days": "Mon-Fri", "time": "5:00pm"}, {"days": "Sat", "time": "2:00pm"}, {"days": "Sun", "time": "Closed"}], "id": "9303600004", "name": "USPS COLLECTION BOX - BLUE BOX", "address": {"city": "OXNARD", "state": "CA", "street": "405 E ESPLANADE DR", "postcode": "93036"}}},
{"geometry": {"type": "Point", "coordinates": [-119.158263507, 34.252655902]}, "type": "Feature", "properties": {"collection_times": [{"days": "Mon-Fri", "time": "3:00pm"}, {"days": "Sat", "time": "2:00pm"}, {"days": "Sun", "time": "Closed"}], "id": "9303600006", "name": "USPS COLLECTION BOX - BLUE BOX", "address": {"city": "OXNARD", "state": "CA", "street": "167 LAMBERT ST", "postcode": "93036"}}},
{"geometry": {"type": "Point", "coordinates": [-119.1828279067, 34.2436812468]}, "type": "Feature", "properties": {"collection_times": [{"days": "Mon-Fri", "time": "3:00pm"}, {"days": "Sat", "time": "10:00am"}, {"days": "Sun", "time": "Closed"}], "id": "9303600008", "name": "USPS COLLECTION BOX - BLUE BOX", "address": {"city": "OXNARD", "state": "CA", "street": "2901 N VENTURA RD", "postcode": "93036"}}},
{"geometry": {"type": "Point", "coordinates": [-119.1449093401, 34.2194163925]}, "type": "Feature", "properties": {"collection_times": [{"days": "Mon-Fri", "time": "3:00pm"}, {"days": "Sat", "time": "2:00pm"}, {"days": "Sun", "time": "Closed"}], "id": "9303600011", "name": "USPS COLLECTION BOX - BLUE BOX", "address": {"city": "OXNARD", "state": "CA", "street": "1901 SOLAR DR", "postcode": "93036"}}},
{"geometry": {"type": "Point", "coordinates": [-119.1449093401, 34.2194163925]}, "type": "Feature", "properties": {"collection_times": [{"days": "Mon-Fri", "time": "3:00pm"}, {"days": "Sat", "time": "2:00pm"}, {"days": "Sun", "time": "Closed"}], "id": "9303600012", "name": "USPS COLLECTION BOX - BLUE BOX", "address": {"city": "OXNARD", "state": "CA", "street": "1901 SOLAR DR", "postcode": "93036"}}},
{"geometry": {"type": "Point", "coordinates": [-119.1714562329, 34.2310292333]}, "type": "Feature", "properties": {"collection_times": [{"days": "Mon-Fri", "time": "3:00pm"}, {"days": "Sat", "time": "2:00pm"}, {"days": "Sun", "time": "Closed"}], "id": "9303600013", "name": "USPS COLLECTION BOX - BLUE BOX", "address": {"city": "OXNARD", "state": "CA", "street": "221 E VENTURA BLVD", "postcode": "93036"}}},
{"geometry": {"type": "Point", "coordinates": [-119.1820767278, 34.2423835408]}, "type": "Feature", "properties": {"collection_times": [{"days": "Mon-Fri", "time": "3:00pm"}, {"days": "Sat-Sun", "time": "Closed"}], "id": "9303600014", "name": "USPS COLLECTION BOX - BLUE BOX", "address": {"city": "OXNARD", "state": "CA", "street": "1000 TOWN CENTER DR", "postcode": "93036"}}},
{"geometry": {"type": "Point", "coordinates": [-119.1820767278, 34.2423835408]}, "type": "Feature", "properties": {"collection_times": [{"days": "Mon-Fri", "time": "3:00pm"}, {"days": "Sat-Sun", "time": "Closed"}], "id": "9303600015", "name": "USPS COLLECTION BOX - BLUE BOX", "address": {"city": "OXNARD", "state": "CA", "street": "1000 TOWN CENTER DR", "postcode": "93036"}}},
{"geometry": {"type": "Point", "coordinates": [-119.1436187318, 34.2259534237]}, "type": "Feature", "properties": {"collection_times": [{"days": "Mon-Fri", "time": "3:00pm"}, {"days": "Sat", "time": "2:00pm"}, {"days": "Sun", "time": "Closed"}], "id": "9303600024", "name": "USPS COLLECTION BOX - BLUE BOX", "address": {"city": "OXNARD", "state": "CA", "street": "2200 AUTO CENTER DR", "postcode": "93036"}}},
{"geometry": {"type": "Point", "coordinates": [-118.7944847981, 34.4148458194]}, "type": "Feature", "properties": {"collection_times": [{"days": "Mon-Fri", "time": "4:15pm"}, {"days": "Sat-Sun", "time": "Closed"}], "id": "9304000026", "name": "USPS COLLECTION BOX - BLUE BOX", "address": {"city": "PIRU", "state": "CA", "street": "652 N MAIN ST", "postcode": "93040"}}},
{"geometry": {"type": "Point", "coordinates": [-118.7944847981, 34.4148458194]}, "type": "Feature", "properties": {"collection_times": [{"days": "Mon-Fri", "time": "4:15pm"}, {"days": "Sat-Sun", "time": "Closed"}], "id": "9304000027", "name": "USPS COLLECTION BOX - PO LOBBY", "address": {"city": "PIRU", "state": "CA", "street": "652 N MAIN ST", "postcode": "93040"}}},
{"geometry": {"type": "Point", "coordinates": [-119.1923903982, 34.1549356388]}, "type": "Feature", "properties": {"collection_times": [{"days": "Mon-Fri", "time": "5:00pm"}, {"days": "Sat", "time": "1:30pm"}, {"days": "Sun", "time": "Closed"}], "id": "9304100006", "name": "USPS COLLECTION BOX - BLUE BOX", "address": {"city": "PORT HUENEME", "state": "CA", "street": "561 E PLEASANT VALLEY RD", "postcode": "93041"}}},
{"geometry": {"type": "Point", "coordinates": [-119.1947071864, 34.150267638]}, "type": "Feature", "properties": {"collection_times": [{"days": "Mon-Sat", "time": "3:00pm"}, {"days": "Sun", "time": "Closed"}], "id": "9304100019", "name": "USPS COLLECTION BOX - BLUE BOX", "address": {"city": "PORT HUENEME", "state": "CA", "street": "400 E PEARL ST", "postcode": "93041"}}},
{"geometry": {"type": "Point", "coordinates": [-119.2022516766, 34.1769270883]}, "type": "Feature", "properties": {"collection_times": [{"days": "Mon-Sat", "time": "10:00am"}, {"days": "Sun", "time": "Closed"}], "id": "9304100021", "name": "USPS COLLECTION BOX - BLUE BOX", "address": {"city": "PORT HUENEME", "state": "CA", "street": "2600 LIDO BLVD", "postcode": "93041"}}},
{"geometry": {"type": "Point", "coordinates": [-119.1948938117, 34.1555345527]}, "type": "Feature", "properties": {"collection_times": [{"days": "Mon-Sat", "time": "12:00pm"}, {"days": "Sun", "time": "Closed"}], "id": "9304100024", "name": "USPS COLLECTION BOX - BLUE BOX", "address": {"city": "PORT HUENEME", "state": "CA", "street": "353 MUGU RD", "postcode": "93041"}}},
{"geometry": {"type": "Point", "coordinates": [-119.1995790124, 34.1715554171]}, "type": "Feature", "properties": {"collection_times": [{"days": "Mon-Fri", "time": "3:00pm"}, {"days": "Sat", "time": "12:00pm"}, {"days": "Sun", "time": "Closed"}], "id": "9304100028", "name": "USPS COLLECTION BOX - BLUE BOX", "address": {"city": "PORT HUENEME", "state": "CA", "street": "1167 HARRIS ST", "postcode": "93041"}}},
{"geometry": {"type": "Point", "coordinates": [-119.1868998662, 34.1577908568]}, "type": "Feature", "properties": {"collection_times": [{"days": "Mon-Sat", "time": "3:00pm"}, {"days": "Sun", "time": "Closed"}], "id": "9304100030", "name": "USPS COLLECTION BOX - BLUE BOX", "address": {"city": "PORT HUENEME", "state": "CA", "street": "637 W CHANNEL ISLANDS BLVD", "postcode": "93041"}}},
{"geometry": {"type": "Point", "coordinates": [-119.1921673678, 34.154798442]}, "type": "Feature", "properties": {"collection_times": [{"days": "Mon-Fri", "time": "5:00pm"}, {"days": "Sat", "time": "1:30pm"}, {"days": "Sun", "time": "Closed"}], "id": "9304100036", "name": "USPS COLLECTION BOX - PO LOBBY", "address": {"city": "PORT HUENEME", "state": "CA", "street": "560 E PLEASANT VALLEY RD", "postcode": "93041"}}},
{"geometry": {"type": "Point", "coordinates": [-119.1951303519, 34.1774653557]}, "type": "Feature", "properties": {"collection_times": [{"days": "Mon-Sat", "time": "3:00pm"}, {"days": "Sun", "time": "Closed"}], "id": "9304100037", "name": "USPS COLLECTION BOX - BLUE BOX", "address": {"city": "PORT HUENEME", "state": "CA", "street": "2521 N VENTURA RD", "postcode": "93041"}}},
{"geometry": {"type": "Point", "coordinates": [-119.0913414093, 34.3365967587]}, "type": "Feature", "properties": {"collection_times": [{"days": "Mon-Fri", "time": "3:00pm"}, {"days": "Sat", "time": "10:00am"}, {"days": "Sun", "time": "Closed"}], "id": "9306000001", "name": "USPS COLLECTION BOX - BLUE BOX", "address": {"city": "SANTA PAULA", "state": "CA", "street": "15500 W TELEGRAPH RD", "postcode": "93060"}}},
{"geometry": {"type": "Point", "coordinates": [-119.0607792245, 34.3530684496]}, "type": "Feature", "properties": {"collection_times": [{"days": "Mon-Fri", "time": "5:00pm"}, {"days": "Sat", "time": "2:00pm"}, {"days": "Sun", "time": "Closed"}], "id": "9306000002", "name": "USPS COLLECTION BOX - BLUE BOX", "address": {"city": "SANTA PAULA", "state": "CA", "street": "111 S MILL ST", "postcode": "93060"}}},
{"geometry": {"type": "Point", "coordinates": [-119.0607792245, 34.3530684496]}, "type": "Feature", "properties": {"collection_times": [{"days": "Mon-Fri", "time": "5:00pm"}, {"days": "Sat", "time": "2:00pm"}, {"days": "Sun", "time": "Closed"}], "id": "9306000003", "name": "USPS COLLECTION BOX - BLUE BOX", "address": {"city": "SANTA PAULA", "state": "CA", "street": "111 S MILL ST", "postcode": "93060"}}},
{"geometry": {"type": "Point", "coordinates": [-119.0625872257, 34.3531404398]}, "type": "Feature", "properties": {"collection_times": [{"days": "Mon-Fri", "time": "3:00pm"}, {"days": "Sat", "time": "10:00am"}, {"days": "Sun", "time": "Closed"}], "id": "9306000011", "name": "USPS COLLECTION BOX - BLUE BOX", "address": {"city": "SANTA PAULA", "state": "CA", "street": "900 E MAIN ST", "postcode": "93060"}}},
{"geometry": {"type": "Point", "coordinates": [-119.0795306813, 34.3436504369]}, "type": "Feature", "properties": {"collection_times": [{"days": "Mon-Fri", "time": "3:00pm"}, {"days": "Sat", "time": "10:00am"}, {"days": "Sun", "time": "Closed"}], "id": "9306000021", "name": "USPS COLLECTION BOX - BLUE BOX", "address": {"city": "SANTA PAULA", "state": "CA", "street": "537 W HARVARD BLVD", "postcode": "93060"}}},
{"geometry": {"type": "Point", "coordinates": [-119.0607792245, 34.3530684496]}, "type": "Feature", "properties": {"collection_times": [{"days": "Mon-Fri", "time": "5:00pm"}, {"days": "Sat", "time": "2:00pm"}, {"days": "Sun", "time": "Closed"}], "id": "9306000025", "name": "USPS COLLECTION BOX - PO LOBBY", "address": {"city": "SANTA PAULA", "state": "CA", "street": "111 S MILL ST", "postcode": "93060"}}},
{"geometry": {"type": "Point", "coordinates": [-119.0607792245, 34.3530684496]}, "type": "Feature", "properties": {"collection_times": [{"days": "Mon-Fri", "time": "5:00pm"}, {"days": "Sat", "time": "2:00pm"}, {"days": "Sun", "time": "Closed"}], "id": "9306000026", "name": "USPS COLLECTION BOX - PO LOBBY", "address": {"city": "SANTA PAULA", "state": "CA", "street": "111 S MILL ST", "postcode": "93060"}}},
{"geometry": {"type": "Point", "coordinates": [-118.6619600777, 34.2652884707]}, "type": "Feature", "properties": {"collection_times": [{"days": "Mon-Fri", "time": "3:00pm"}, {"days": "Sat", "time": "10:00am"}, {"days": "Sun", "time": "Closed"}], "id": "9306300000", "name": "USPS COLLECTION BOX - BLUE BOX", "address": {"city": "SIMI VALLEY", "state": "CA", "street": "1409 KUEHNER DR", "postcode": "93063"}}},
{"geometry": {"type": "Point", "coordinates": [-118.7061794339, 34.2732930756]}, "type": "Feature", "properties": {"collection_times": [{"days": "Mon-Fri", "time": "3:00pm"}, {"days": "Sat", "time": "10:00am"}, {"days": "Sun", "time": "Closed"}], "id": "9306300010", "name": "USPS COLLECTION BOX - BLUE BOX", "address": {"city": "SIMI VALLEY", "state": "CA", "street": "4505 INDUSTRIAL ST", "postcode": "93063"}}},
{"geometry": {"type": "Point", "coordinates": [-118.6783726203, 34.2718414029]}, "type": "Feature", "properties": {"collection_times": [{"days": "Mon-Fri", "time": "3:00pm"}, {"days": "Sat", "time": "10:00am"}, {"days": "Sun", "time": "Closed"}], "id": "9306300012", "name": "USPS COLLECTION BOX - BLUE BOX", "address": {"city": "SIMI VALLEY", "state": "CA", "street": "5801 E LOS ANGELES AVE", "postcode": "93063"}}},
{"geometry": {"type": "Point", "coordinates": [-118.7221629696, 34.2864766506]}, "type": "Feature", "properties": {"collection_times": [{"days": "Mon-Fri", "time": "3:00pm"}, {"days": "Sat", "time": "10:00am"}, {"days": "Sun", "time": "Closed"}], "id": "9306300014", "name": "USPS COLLECTION BOX - BLUE BOX", "address": {"city": "SIMI VALLEY", "state": "CA", "street": "3885 ALAMO ST", "postcode": "93063"}}},
{"geometry": {"type": "Point", "coordinates": [-118.7025442422, 34.2709180808]}, "type": "Feature", "properties": {"collection_times": [{"days": "Mon-Fri", "time": "3:00pm"}, {"days": "Sat", "time": "10:00am"}, {"days": "Sun", "time": "Closed"}], "id": "9306300017", "name": "USPS COLLECTION BOX - BLUE BOX", "address": {"city": "SIMI VALLEY", "state": "CA", "street": "1875 ANGUS AVE", "postcode": "93063"}}},
{"geometry": {"type": "Point", "coordinates": [-118.7129897287, 34.2716180057]}, "type": "Feature", "properties": {"collection_times": [{"days": "Mon-Fri", "time": "3:00pm"}, {"days": "Sat", "time": "10:00am"}, {"days": "Sun", "time": "Closed"}], "id": "9306300029", "name": "USPS COLLECTION BOX - BLUE BOX", "address": {"city": "SIMI VALLEY", "state": "CA", "street": "4212 E LOS ANGELES AVE", "postcode": "93063"}}},
{"geometry": {"type": "Point", "coordinates": [-118.7256769636, 34.2864239201]}, "type": "Feature", "properties": {"collection_times": [{"days": "Mon-Sat", "time": "10:00am"}, {"days": "Sun", "time": "Closed"}], "id": "9306300031", "name": "USPS COLLECTION BOX - BLUE BOX", "address": {"city": "SIMI VALLEY", "state": "CA", "street": "3655 ALAMO ST", "postcode": "93063"}}},
{"geometry": {"type": "Point", "coordinates": [-118.7749759651, 34.2666027836]}, "type": "Feature", "properties": {"collection_times": [{"days": "Mon-Fri", "time": "5:15pm"}, {"days": "Sat", "time": "5:00pm"}, {"days": "Sun", "time": "Closed"}], "id": "9306500001", "name": "USPS COLLECTION BOX - EXPRESS", "address": {"city": "SIMI VALLEY", "state": "CA", "street": "2551 GALENA AVE", "postcode": "93065"}}},
{"geometry": {"type": "Point", "coordinates": [-118.7357091753, 34.281258429]}, "type": "Feature", "properties": {"collection_times": [{"days": "Mon-Fri", "time": "5:15pm"}, {"days": "Sat", "time": "5:00pm"}, {"days": "Sun", "time": "Closed"}], "id": "9306500002", "name": "USPS COLLECTION BOX - BLUE BOX", "address": {"city": "SIMI VALLEY", "state": "CA", "street": "2551 GALENA AVE", "postcode": "93065"}}},
{"geometry": {"type": "Point", "coordinates": [-118.7357091753, 34.281258429]}, "type": "Feature", "properties": {"collection_times": [{"days": "Mon-Fri", "time": "5:15pm"}, {"days": "Sat", "time": "5:00pm"}, {"days": "Sun", "time": "Closed"}], "id": "9306500005", "name": "USPS COLLECTION BOX - BLUE BOX", "address": {"city": "SIMI VALLEY", "state": "CA", "street": "2551 GALENA AVE", "postcode": "93065"}}},
{"geometry": {"type": "Point", "coordinates": [-118.7357091753, 34.281258429]}, "type": "Feature", "properties": {"collection_times": [{"days": "Mon-Fri", "time": "5:15pm"}, {"days": "Sat", "time": "5:00pm"}, {"days": "Sun", "time": "Closed"}], "id": "9306500006", "name": "USPS COLLECTION BOX - BLUE BOX", "address": {"city": "SIMI VALLEY", "state": "CA", "street": "2551 GALENA AVE", "postcode": "93065"}}},
{"geometry": {"type": "Point", "coordinates": [-118.7357091753, 34.281258429]}, "type": "Feature", "properties": {"collection_times": [{"days": "Mon-Fri", "time": "5:15pm"}, {"days": "Sat", "time": "5:00pm"}, {"days": "Sun", "time": "Closed"}], "id": "9306500007", "name": "USPS COLLECTION BOX - BLUE BOX", "address": {"city": "SIMI VALLEY", "state": "CA", "street": "2551 GALENA AVE", "postcode": "93065"}}},
{"geometry": {"type": "Point", "coordinates": [-118.7439501307, 34.2892925956]}, "type": "Feature", "properties": {"collection_times": [{"days": "Mon-Fri", "time": "3:00pm"}, {"days": "Sat", "time": "10:00am"}, {"days": "Sun", "time": "Closed"}], "id": "9306500009", "name": "USPS COLLECTION BOX - BLUE BOX", "address": {"city": "SIMI VALLEY", "state": "CA", "street": "2950 SYCAMORE DR", "postcode": "93065"}}},
{"geometry": {"type": "Point", "coordinates": [-118.7439501307, 34.2892925956]}, "type": "Feature", "properties": {"collection_times": [{"days": "Mon-Fri", "time": "3:00pm"}, {"days": "Sat", "time": "10:00am"}, {"days": "Sun", "time": "Closed"}], "id": "9306500010", "name": "USPS COLLECTION BOX - BLUE BOX", "address": {"city": "SIMI VALLEY", "state": "CA", "street": "2950 SYCAMORE DR", "postcode": "93065"}}},
{"geometry": {"type": "Point", "coordinates": [-118.7715994306, 34.2717954495]}, "type": "Feature", "properties": {"collection_times": [{"days": "Mon-Fri", "time": "3:00pm"}, {"days": "Sat", "time": "10:00am"}, {"days": "Sun", "time": "Closed"}], "id": "9306500014", "name": "USPS COLLECTION BOX - BLUE BOX", "address": {"city": "SIMI VALLEY", "state": "CA", "street": "1445 E LOS ANGELES AVE", "postcode": "93065"}}},
{"geometry": {"type": "Point", "coordinates": [-118.7790217165, 34.2754898121]}, "type": "Feature", "properties": {"collection_times": [{"days": "Mon-Fri", "time": "3:00pm"}, {"days": "Sat", "time": "10:00am"}, {"days": "Sun", "time": "Closed"}], "id": "9306500017", "name": "USPS COLLECTION BOX - BLUE BOX", "address": {"city": "SIMI VALLEY", "state": "CA", "street": "2215 1ST ST", "postcode": "93065"}}},
{"geometry": {"type": "Point", "coordinates": [-118.7964474837, 34.2754756349]}, "type": "Feature", "properties": {"collection_times": [{"days": "Mon-Fri", "time": "3:00pm"}, {"days": "Sat", "time": "10:00am"}, {"days": "Sun", "time": "Closed"}], "id": "9306500022", "name": "USPS COLLECTION BOX - BLUE BOX", "address": {"city": "SIMI VALLEY", "state": "CA", "street": "2221 N MADERA RD", "postcode": "93065"}}},
{"geometry": {"type": "Point", "coordinates": [-118.7992285841, 34.2833444755]}, "type": "Feature", "properties": {"collection_times": [{"days": "Mon-Fri", "time": "3:00pm"}, {"days": "Sat", "time": "10:00am"}, {"days": "Sun", "time": "Closed"}], "id": "9306500027", "name": "USPS COLLECTION BOX - BLUE BOX", "address": {"city": "SIMI VALLEY", "state": "CA", "street": "2600 WEST HILLS CT", "postcode": "93065"}}},
{"geometry": {"type": "Point", "coordinates": [-118.8113404541, 34.2527511734]}, "type": "Feature", "properties": {"collection_times": [{"days": "Mon-Sat", "time": "10:00am"}, {"days": "Sun", "time": "Closed"}], "id": "9306500032", "name": "USPS COLLECTION BOX - BLUE BOX", "address": {"city": "SIMI VALLEY", "state": "CA", "street": "575 COUNTRY CLUB DR", "postcode": "93065"}}},
{"geometry": {"type": "Point", "coordinates": [-118.7848509369, 34.2716534944]}, "type": "Feature", "properties": {"collection_times": [{"days": "Mon-Fri", "time": "3:00pm"}, {"days": "Sat", "time": "10:00am"}, {"days": "Sun", "time": "Closed"}], "id": "9306500033", "name": "USPS COLLECTION BOX - BLUE BOX", "address": {"city": "SIMI VALLEY", "state": "CA", "street": "660 E LOS ANGELES AVE", "postcode": "93065"}}},
{"geometry": {"type": "Point", "coordinates": [-118.7763336324, 34.2716558604]}, "type": "Feature", "properties": {"collection_times": [{"days": "Mon-Fri", "time": "3:00pm"}, {"days": "Sat", "time": "10:00am"}, {"days": "Sun", "time": "Closed"}], "id": "9306500034", "name": "USPS COLLECTION BOX - BLUE BOX", "address": {"city": "SIMI VALLEY", "state": "CA", "street": "1200 E LOS ANGELES AVE", "postcode": "93065"}}},
{"geometry": {"type": "Point", "coordinates": [-118.7613857629, 34.2687599768]}, "type": "Feature", "properties": {"collection_times": [{"days": "Mon-Sat", "time": "10:00am"}, {"days": "Sun", "time": "Closed"}], "id": "9306500039", "name": "USPS COLLECTION BOX - BLUE BOX", "address": {"city": "SIMI VALLEY", "state": "CA", "street": "1687 ERRINGER RD", "postcode": "93065"}}},
{"geometry": {"type": "Point", "coordinates": [-118.7437294698, 34.2715757928]}, "type": "Feature", "properties": {"collection_times": [{"days": "Mon-Fri", "time": "3:00pm"}, {"days": "Sat", "time": "10:00am"}, {"days": "Sun", "time": "Closed"}], "id": "9306500040", "name": "USPS COLLECTION BOX - BLUE BOX", "address": {"city": "SIMI VALLEY", "state": "CA", "street": "2700 E LOS ANGELES AVE", "postcode": "93065"}}},
{"geometry": {"type": "Point", "coordinates": [-118.7805837893, 34.2829822986]}, "type": "Feature", "properties": {"collection_times": [{"days": "Mon-Sat", "time": "10:00am"}, {"days": "Sun", "time": "Closed"}], "id": "9306500042", "name": "USPS COLLECTION BOX - BLUE BOX", "address": {"city": "SIMI VALLEY", "state": "CA", "street": "991 ENCHANTED WAY", "postcode": "93065"}}},
{"geometry": {"type": "Point", "coordinates": [-118.7360263124, 34.2716441306]}, "type": "Feature", "properties": {"collection_times": [{"days": "Mon-Sat", "time": "10:00am"}, {"days": "Sun", "time": "Closed"}], "id": "9306500043", "name": "USPS COLLECTION BOX - BLUE BOX", "address": {"city": "SIMI VALLEY", "state": "CA", "street": "3200 E LOS ANGELES AVE", "postcode": "93065"}}},
{"geometry": {"type": "Point", "coordinates": [-118.7888741804, 34.2748924361]}, "type": "Feature", "properties": {"collection_times": [{"days": "Mon-Fri", "time": "3:00pm"}, {"days": "Sat", "time": "10:00am"}, {"days": "Sun", "time": "Closed"}], "id": "9306500048", "name": "USPS COLLECTION BOX - BLUE BOX", "address": {"city": "SIMI VALLEY", "state": "CA", "street": "465 E EASY ST", "postcode": "93065"}}},
{"geometry": {"type": "Point", "coordinates": [-118.7357091753, 34.281258429]}, "type": "Feature", "properties": {"collection_times": [{"days": "Mon-Fri", "time": "5:15pm"}, {"days": "Sat", "time": "5:00pm"}, {"days": "Sun", "time": "Closed"}], "id": "9306500056", "name": "USPS COLLECTION BOX - PO LOBBY", "address": {"city": "SIMI VALLEY", "state": "CA", "street": "2551 GALENA AVE", "postcode": "93065"}}},
{"geometry": {"type": "Point", "coordinates": [-118.7357091753, 34.281258429]}, "type": "Feature", "properties": {"collection_times": [{"days": "Mon-Fri", "time": "5:15pm"}, {"days": "Sat", "time": "5:00pm"}, {"days": "Sun", "time": "Closed"}], "id": "9306500066", "name": "USPS COLLECTION BOX - APC", "address": {"city": "SIMI VALLEY", "state": "CA", "street": "2551 GALENA AVE", "postcode": "93065"}}},
{"geometry": {"type": "Point", "coordinates": [-118.7478255043, 34.2615072554]}, "type": "Feature", "properties": {"collection_times": [{"days": "Mon-Sat", "time": "10:00am"}, {"days": "Sun", "time": "Closed"}], "id": "9306500068", "name": "USPS COLLECTION BOX - BLUE BOX", "address": {"city": "SIMI VALLEY", "state": "CA", "street": "1244 SYCAMORE DR", "postcode": "93065"}}},
{"geometry": {"type": "Point", "coordinates": [-118.9962536594, 34.2566066467]}, "type": "Feature", "properties": {"collection_times": [{"days": "Mon-Fri", "time": "4:00pm"}, {"days": "Sat-Sun", "time": "Closed"}], "id": "9306600002", "name": "USPS COLLECTION BOX - BLUE BOX", "address": {"city": "SOMIS", "state": "CA", "street": "3349 SOMIS RD", "postcode": "93066"}}},
{"geometry": {"type": "Point", "coordinates": [-118.9962536594, 34.2566066467]}, "type": "Feature", "properties": {"collection_times": [{"days": "Mon-Fri", "time": "4:00pm"}, {"days": "Sat-Sun", "time": "Closed"}], "id": "9306600003", "name": "USPS COLLECTION BOX - BLUE BOX", "address": {"city": "SOMIS", "state": "CA", "street": "3349 SOMIS RD", "postcode": "93066"}}},
{"geometry": {"type": "Point", "coordinates": [-118.9962536594, 34.2566066467]}, "type": "Feature", "properties": {"collection_times": [{"days": "Mon-Fri", "time": "4:00pm"}, {"days": "Sat-Sun", "time": "Closed"}], "id": "9306600004", "name": "USPS COLLECTION BOX - PO LOBBY", "address": {"city": "SOMIS", "state": "CA", "street": "3349 SOMIS RD", "postcode": "93066"}}},
{"geometry": {"type": "Point", "coordinates": [-119.6017988493, 34.4221045815]}, "type": "Feature", "properties": {"collection_times": [{"days": "Mon-Fri", "time": "4:00pm"}, {"days": "Sat", "time": "10:00am"}, {"days": "Sun", "time": "Closed"}], "id": "9306700001", "name": "USPS COLLECTION BOX - PO LOBBY", "address": {"city": "SUMMERLAND", "state": "CA", "street": "2245 LILLIE AVE", "postcode": "93067"}}},
{"geometry": {"type": "Point", "coordinates": [-119.6017988493, 34.4221045815]}, "type": "Feature", "properties": {"collection_times": [{"days": "Mon-Fri", "time": "4:00pm"}, {"days": "Sat", "time": "10:00am"}, {"days": "Sun", "time": "Closed"}], "id": "9306700002", "name": "USPS COLLECTION BOX - BLUE BOX", "address": {"city": "SUMMERLAND", "state": "CA", "street": "2245 LILLIE AVE", "postcode": "93067"}}},
{"geometry": {"type": "Point", "coordinates": [-118.7957868179, 34.2692196621]}, "type": "Feature", "properties": {"collection_times": [{"days": "Mon-Sat", "time": "5:15pm"}, {"days": "Sun", "time": "Closed"}], "id": "9309400001", "name": "USPS COLLECTION BOX - BLUE BOX", "address": {"city": "SIMI VALLEY", "state": "CA", "street": "225 SIMI VILLAGE DR", "postcode": "93094"}}},
{"geometry": {"type": "Point", "coordinates": [-118.7957868179, 34.2692196621]}, "type": "Feature", "properties": {"collection_times": [{"days": "Mon-Sat", "time": "5:30pm"}, {"days": "Sun", "time": "Closed"}], "id": "9309400005", "name": "USPS COLLECTION BOX - PO LOBBY", "address": {"city": "SIMI VALLEY", "state": "CA", "street": "225 SIMI VILLAGE DR", "postcode": "93094"}}},
{"geometry": {"type": "Point", "coordinates": [-118.7957868179, 34.2692196621]}, "type": "Feature", "properties": {"collection_times": [{"days": "Mon-Sat", "time": "5:30pm"}, {"days": "Sun", "time": "Closed"}], "id": "9309400006", "name": "USPS COLLECTION BOX - PO LOBBY", "address": {"city": "SIMI VALLEY", "state": "CA", "street": "225 SIMI VILLAGE DR", "postcode": "93094"}}},
{"geometry": {"type": "Point", "coordinates": [-118.7957868179, 34.2692196621]}, "type": "Feature", "properties": {"collection_times": [{"days": "Mon-Sat", "time": "5:30pm"}, {"days": "Sun", "time": "Closed"}], "id": "9309400007", "name": "USPS COLLECTION BOX - PO LOBBY", "address": {"city": "SIMI VALLEY", "state": "CA", "street": "225 SIMI VILLAGE DR", "postcode": "93094"}}},
{"geometry": {"type": "Point", "coordinates": [-118.7957868179, 34.2692196621]}, "type": "Feature", "properties": {"collection_times": [{"days": "Mon-Sat", "time": "5:30pm"}, {"days": "Sun", "time": "Closed"}], "id": "9309400008", "name": "USPS COLLECTION BOX - APC", "address": {"city": "SIMI VALLEY", "state": "CA", "street": "225 SIMI VILLAGE DR", "postcode": "93094"}}},
{"geometry": {"type": "Point", "coordinates": [-118.7957868179, 34.2692196621]}, "type": "Feature", "properties": {"collection_times": [{"days": "Mon-Sat", "time": "5:15pm"}, {"days": "Sun", "time": "Closed"}], "id": "9309400009", "name": "USPS COLLECTION BOX - BLUE BOX", "address": {"city": "SIMI VALLEY", "state": "CA", "street": "225 SIMI VILLAGE DR", "postcode": "93094"}}}
]}
