{"type": "FeatureCollection", "features": [
{"geometry": {"type": "Point", "coordinates": [-119.7108771295, 34.4258995139]}, "type": "Feature", "properties": {"collection_times": [{"days": "Mon-Sat", "time": "10:00am"}, {"days": "Sun", "time": "Closed"}], "id": "9310100011", "name": "USPS COLLECTION BOX - BLUE BOX", "address": {"city": "SANTA BARBARA", "state": "CA", "street": "101 W ARRELLAGA ST", "postcode": "93101"}}},
{"geometry": {"type": "Point", "coordinates": [-119.6955578109, 34.4252749116]}, "type": "Feature", "properties": {"collection_times": [{"days": "Mon-Fri", "time": "3:00pm"}, {"days": "Sat-Sun", "time": "Closed"}], "id": "9310100016", "name": "USPS COLLECTION BOX - BLUE BOX", "address": {"city": "SANTA BARBARA", "state": "CA", "street": "411 E CANON PERDIDO ST", "postcode": "93101"}}},
{"geometry": {"type": "Point", "coordinates": [-119.6987979355, 34.4243924242]}, "type": "Feature", "properties": {"collection_times": [{"days": "Mon-Fri", "time": "3:00pm"}, {"days": "Sat-Sun", "time": "Closed"}], "id": "9310100018", "name": "USPS COLLECTION BOX - BLUE BOX", "address": {"city": "SANTA BARBARA", "state": "CA", "street": "222 E CARRILLO ST", "postcode": "93101"}}},
{"geometry": {"type": "Point", "coordinates": [-119.7008811263, 34.4131850709]}, "type": "Feature", "properties": {"collection_times": [{"days": "Mon-Sat", "time": "10:00am"}, {"days": "Sun", "time": "Closed"}], "id": "9310100020", "name": "USPS COLLECTION BOX - BLUE BOX", "address": {"city": "SANTA BARBARA", "state": "CA", "street": "535 CASTILLO ST", "postcode": "93101"}}},
{"geometry": {"type": "Point", "coordinates": [-119.7070794176, 34.4216427518]}, "type": "Feature", "properties": {"collection_times": [{"days": "Mon-Sat", "time": "10:00am"}, {"days": "Sun", "time": "Closed"}], "id": "9310100027", "name": "USPS COLLECTION BOX - BLUE BOX", "address": {"city": "SANTA BARBARA", "state": "CA", "street": "1232 DE LA VINA ST", "postcode": "93101"}}},
{"geometry": {"type": "Point", "coordinates": [-119.7019271319, 34.4235455131]}, "type": "Feature", "properties": {"collection_times": [{"days": "Mon-Fri", "time": "3:00pm"}, {"days": "Sat-Sun", "time": "Closed"}], "id": "9310100030", "name": "USPS COLLECTION BOX - BLUE BOX", "address": {"city": "SANTA BARBARA", "state": "CA", "street": "100 E FIGUEROA ST", "postcode": "93101"}}},
{"geometry": {"type": "Point", "coordinates": [-119.7023799353, 34.4219105763]}, "type": "Feature", "properties": {"collection_times": [{"days": "Mon-Sat", "time": "10:00am"}, {"days": "Sun", "time": "Closed"}], "id": "9310100058", "name": "USPS COLLECTION BOX - BLUE BOX", "address": {"city": "SANTA BARBARA", "state": "CA", "street": "1017 STATE ST", "postcode": "93101"}}},
{"geometry": {"type": "Point", "coordinates": [-119.6995376832, 34.4218101999]}, "type": "Feature", "properties": {"collection_times": [{"days": "Mon-Fri", "time": "5:30pm"}, {"days": "Sat", "time": "3:00pm"}, {"days": "Sun", "time": "Closed"}], "id": "9310100080", "name": "USPS COLLECTION BOX - BLUE BOX", "address": {"city": "SANTA BARBARA", "state": "CA", "street": "910 ANACAPA ST", "postcode": "93101"}}},
{"geometry": {"type": "Point", "coordinates": [-119.703626774, 34.4266246677]}, "type": "Feature", "properties": {"collection_times": [{"days": "Mon-Fri", "time": "3:00pm"}, {"days": "Sat", "time": "10:00am"}, {"days": "Sun", "time": "Closed"}], "id": "9310100081", "name": "USPS COLLECTION BOX - BLUE BOX", "address": {"city": "SANTA BARBARA", "state": "CA", "street": "1301 SANTA BARBARA ST", "postcode": "93101"}}},
{"geometry": {"type": "Point", "coordinates": [-119.7049157673, 34.4208722039]}, "type": "Feature", "properties": {"collection_times": [{"days": "Mon-Sat", "time": "10:00am"}, {"days": "Sun", "time": "Closed"}], "id": "9310100104", "name": "USPS COLLECTION BOX - BLUE BOX", "address": {"city": "SANTA BARBARA", "state": "CA", "street": "1926 DE LA VINA ST", "postcode": "93101"}}},
{"geometry": {"type": "Point", "coordinates": [-119.7074933733, 34.4255683994]}, "type": "Feature", "properties": {"collection_times": [{"days": "Mon-Fri", "time": "3:00pm"}, {"days": "Sat-Sun", "time": "Closed"}], "id": "9310100105", "name": "USPS COLLECTION BOX - BLUE BOX", "address": {"city": "SANTA BARBARA", "state": "CA", "street": "1435 STATE ST", "postcode": "93101"}}},
{"geometry": {"type": "Point", "coordinates": [-119.6990274296, 34.4213605003]}, "type": "Feature", "properties": {"collection_times": [{"days": "Mon-Fri", "time": "6:00pm"}, {"days": "Sat", "time": "5:15pm"}, {"days": "Sun", "time": "Closed"}], "id": "9310100109", "name": "USPS COLLECTION BOX - APC", "address": {"city": "SANTA BARBARA", "state": "CA", "street": "836 ANACAPA ST", "postcode": "93101"}}},
{"geometry": {"type": "Point", "coordinates": [-119.6990274296, 34.4213605003]}, "type": "Feature", "properties": {"collection_times": [{"days": "Mon-Fri", "time": "5:30pm"}, {"days": "Sat", "time": "5:15pm"}, {"days": "Sun", "time": "Closed"}], "id": "9310100111", "name": "USPS COLLECTION BOX - BLUE BOX", "address": {"city": "SANTA BARBARA", "state": "CA", "street": "836 ANACAPA ST", "postcode": "93101"}}},
{"geometry": {"type": "Point", "coordinates": [-119.7051527911, 34.4239381679]}, "type": "Feature", "properties": {"collection_times": [{"days": "Mon-Fri", "time": "5:00pm"}, {"days": "Sat", "time": "10:00am"}, {"days": "Sun", "time": "Closed"}], "id": "9310100112", "name": "USPS COLLECTION BOX - BLUE BOX", "address": {"city": "SANTA BARBARA", "state": "CA", "street": "1221 STATE ST", "postcode": "93101"}}},
{"geometry": {"type": "Point", "coordinates": [-119.6990274296, 34.4213605003]}, "type": "Feature", "properties": {"collection_times": [{"days": "Mon-Fri", "time": "5:30pm"}, {"days": "Sat", "time": "5:15pm"}, {"days": "Sun", "time": "Closed"}], "id": "9310100113", "name": "USPS COLLECTION BOX - BLUE BOX", "address": {"city": "SANTA BARBARA", "state": "CA", "street": "836 ANACAPA ST", "postcode": "93101"}}},
{"geometry": {"type": "Point", "coordinates": [-119.6954280882, 34.4231865461]}, "type": "Feature", "properties": {"collection_times": [{"days": "Mon-Sat", "time": "10:00am"}, {"days": "Sun", "time": "Closed"}], "id": "9310100116", "name": "USPS COLLECTION BOX - BLUE BOX", "address": {"city": "SANTA BARBARA", "state": "CA", "street": "336 E DELA GUERRA ST", "postcode": "93101"}}},
{"geometry": {"type": "Point", "coordinates": [-119.6827816017, 34.4245137212]}, "type": "Feature", "properties": {"collection_times": [{"days": "Mon-Sat", "time": "10:00am"}, {"days": "Sun", "time": "Closed"}], "id": "9310300009", "name": "USPS COLLECTION BOX - BLUE BOX", "address": {"city": "SANTA BARBARA", "state": "CA", "street": "300 MILPAS ST", "postcode": "93103"}}},
{"geometry": {"type": "Point", "coordinates": [-119.6803504641, 34.4266538548]}, "type": "Feature", "properties": {"collection_times": [{"days": "Mon-Sat", "time": "10:00am"}, {"days": "Sun", "time": "Closed"}], "id": "9310300011", "name": "USPS COLLECTION BOX - BLUE BOX", "address": {"city": "SANTA BARBARA", "state": "CA", "street": "1102 E MONTECITO ST", "postcode": "93103"}}},
{"geometry": {"type": "Point", "coordinates": [-119.6869758852, 34.420408498]}, "type": "Feature", "properties": {"collection_times": [{"days": "Mon-Fri", "time": "3:00pm"}, {"days": "Sat-Sun", "time": "Closed"}], "id": "9310300020", "name": "USPS COLLECTION BOX - BLUE BOX", "address": {"city": "SANTA BARBARA", "state": "CA", "street": "520 E MONTECITO ST", "postcode": "93103"}}},
{"geometry": {"type": "Point", "coordinates": [-119.7072702917, 34.438315461]}, "type": "Feature", "properties": {"collection_times": [{"days": "Mon-Fri", "time": "10:00am"}, {"days": "Sat-Sun", "time": "Closed"}], "id": "9310300021", "name": "USPS COLLECTION BOX - BLUE BOX", "address": {"city": "SANTA BARBARA", "state": "CA", "street": "2030 ALAMEDA PADRE SERRA", "postcode": "93103"}}},
{"geometry": {"type": "Point", "coordinates": [-119.6785750733, 34.4195468447]}, "type": "Feature", "properties": {"collection_times": [{"days": "Mon-Fri", "time": "5:00pm"}, {"days": "Sat", "time": "2:00pm"}, {"days": "Sun", "time": "Closed"}], "id": "9310300023", "name": "USPS COLLECTION BOX - PO LOBBY", "address": {"city": "SANTA BARBARA", "state": "CA", "street": "107 NOPALITOS WAY", "postcode": "93103"}}},
{"geometry": {"type": "Point", "coordinates": [-119.7085656277, 34.4345055404]}, "type": "Feature", "properties": {"collection_times": [{"days": "Mon-Sat", "time": "10:00am"}, {"days": "Sun", "time": "Closed"}], "id": "9310300025", "name": "USPS COLLECTION BOX - BLUE BOX", "address": {"city": "SANTA BARBARA", "state": "CA", "street": "400 E PEDREGOSA ST", "postcode": "93103"}}},
{"geometry": {"type": "Point", "coordinates": [-119.7364924831, 34.4403089637]}, "type": "Feature", "properties": {"collection_times": [{"days": "Mon-Fri", "time": "5:00pm"}, {"days": "Sat", "time": "2:00pm"}, {"days": "Sun", "time": "Closed"}], "id": "9310500001", "name": "USPS COLLECTION BOX - BLUE BOX", "address": {"city": "SANTA BARBARA", "state": "CA", "street": "3345 STATE ST", "postcode": "93105"}}},
{"geometry": {"type": "Point", "coordinates": [-119.7247496893, 34.4393639528]}, "type": "Feature", "properties": {"collection_times": [{"days": "Mon-Fri", "time": "3:00pm"}, {"days": "Sat-Sun", "time": "Closed"}], "id": "9310500002", "name": "USPS COLLECTION BOX - BLUE BOX", "address": {"city": "SANTA BARBARA", "state": "CA", "street": "40 E ALAMAR AVE", "postcode": "93105"}}},
{"geometry": {"type": "Point", "coordinates": [-119.7243498492, 34.4348296711]}, "type": "Feature", "properties": {"collection_times": [{"days": "Mon-Sat", "time": "10:00am"}, {"days": "Sun", "time": "Closed"}], "id": "9310500006", "name": "USPS COLLECTION BOX - BLUE BOX", "address": {"city": "SANTA BARBARA", "state": "CA", "street": "2600 DE LA VINA ST", "postcode": "93105"}}},
{"geometry": {"type": "Point", "coordinates": [-119.7283423357, 34.4403824805]}, "type": "Feature", "properties": {"collection_times": [{"days": "Mon-Sat", "time": "10:00am"}, {"days": "Sun", "time": "Closed"}], "id": "9310500021", "name": "USPS COLLECTION BOX - BLUE BOX", "address": {"city": "SANTA BARBARA", "state": "CA", "street": "3000 STATE ST", "postcode": "93105"}}},
{"geometry": {"type": "Point", "coordinates": [-119.7456265491, 34.4349030146]}, "type": "Feature", "properties": {"collection_times": [{"days": "Mon-Sat", "time": "10:00am"}, {"days": "Sun", "time": "Closed"}], "id": "9310500029", "name": "USPS COLLECTION BOX - BLUE BOX", "address": {"city": "SANTA BARBARA", "state": "CA", "street": "351 HITCHCOCK WAY", "postcode": "93105"}}},
{"geometry": {"type": "Point", "coordinates": [-119.7296394927, 34.4318084523]}, "type": "Feature", "properties": {"collection_times": [{"days": "Mon-Sat", "time": "10:00am"}, {"days": "Sun", "time": "Closed"}], "id": "9310500036", "name": "USPS COLLECTION BOX - BLUE BOX", "address": {"city": "SANTA BARBARA", "state": "CA", "street": "2661 TALLANT RD", "postcode": "93105"}}},
{"geometry": {"type": "Point", "coordinates": [-119.7534281635, 34.440484215]}, "type": "Feature", "properties": {"collection_times": [{"days": "Mon-Fri", "time": "3:00pm"}, {"days": "Sat-Sun", "time": "Closed"}], "id": "9310500038", "name": "USPS COLLECTION BOX - BLUE BOX", "address": {"city": "SANTA BARBARA", "state": "CA", "street": "3948 STATE ST", "postcode": "93105"}}},
{"geometry": {"type": "Point", "coordinates": [-119.743067225, 34.4405666177]}, "type": "Feature", "properties": {"collection_times": [{"days": "Mon-Fri", "time": "3:00pm"}, {"days": "Sat-Sun", "time": "Closed"}], "id": "9310500039", "name": "USPS COLLECTION BOX - BLUE BOX", "address": {"city": "SANTA BARBARA", "state": "CA", "street": "3704 STATE ST", "postcode": "93105"}}},
{"geometry": {"type": "Point", "coordinates": [-119.7212398501, 34.4300079304]}, "type": "Feature", "properties": {"collection_times": [{"days": "Mon-Fri", "time": "3:00pm"}, {"days": "Sat-Sun", "time": "Closed"}], "id": "9310500041", "name": "USPS COLLECTION BOX - BLUE BOX", "address": {"city": "SANTA BARBARA", "state": "CA", "street": "2220 BATH ST", "postcode": "93105"}}},
{"geometry": {"type": "Point", "coordinates": [-119.7212398501, 34.4300079304]}, "type": "Feature", "properties": {"collection_times": [{"days": "Mon-Fri", "time": "3:00pm"}, {"days": "Sat-Sun", "time": "Closed"}], "id": "9310500042", "name": "USPS COLLECTION BOX - BLUE BOX", "address": {"city": "SANTA BARBARA", "state": "CA", "street": "2220 BATH ST", "postcode": "93105"}}},
{"geometry": {"type": "Point", "coordinates": [-119.7364924831, 34.4403089637]}, "type": "Feature", "properties": {"collection_times": [{"days": "Mon-Fri", "time": "5:00pm"}, {"days": "Sat", "time": "2:00pm"}, {"days": "Sun", "time": "Closed"}], "id": "9310500045", "name": "USPS COLLECTION BOX - APC", "address": {"city": "SANTA BARBARA", "state": "CA", "street": "3345 STATE ST", "postcode": "93105"}}},
{"geometry": {"type": "Point", "coordinates": [-119.7364924831, 34.4403089637]}, "type": "Feature", "properties": {"collection_times": [{"days": "Mon-Fri", "time": "5:00pm"}, {"days": "Sat", "time": "2:00pm"}, {"days": "Sun", "time": "Closed"}], "id": "9310500047", "name": "USPS COLLECTION BOX - BLUE BOX", "address": {"city": "SANTA BARBARA", "state": "CA", "street": "3345 STATE ST", "postcode": "93105"}}},
{"geometry": {"type": "Point", "coordinates": [-119.7281907056, 34.4388233004]}, "type": "Feature", "properties": {"collection_times": [{"days": "Mon-Sat", "time": "10:00am"}, {"days": "Sun", "time": "Closed"}], "id": "9310500048", "name": "USPS COLLECTION BOX - BLUE BOX", "address": {"city": "SANTA BARBARA", "state": "CA", "street": "3000 DE LA VINA ST", "postcode": "93105"}}},
{"geometry": {"type": "Point", "coordinates": [-119.6440742538, 34.4210896027]}, "type": "Feature", "properties": {"collection_times": [{"days": "Mon-Fri", "time": "3:00pm"}, {"days": "Sat", "time": "10:00am"}, {"days": "Sun", "time": "Closed"}], "id": "9310800005", "name": "USPS COLLECTION BOX - BLUE BOX", "address": {"city": "SANTA BARBARA", "state": "CA", "street": "1212 COAST VILLAGE RD", "postcode": "93108"}}},
{"geometry": {"type": "Point", "coordinates": [-119.6333791218, 34.437022877]}, "type": "Feature", "properties": {"collection_times": [{"days": "Mon-Fri", "time": "5:00pm"}, {"days": "Sat", "time": "10:00am"}, {"days": "Sun", "time": "Closed"}], "id": "9310800008", "name": "USPS COLLECTION BOX - BLUE BOX", "address": {"city": "SANTA BARBARA", "state": "CA", "street": "1470 E VALLEY RD", "postcode": "93108"}}},
{"geometry": {"type": "Point", "coordinates": [-119.6513155375, 34.4219850453]}, "type": "Feature", "properties": {"collection_times": [{"days": "Mon-Fri", "time": "3:00pm"}, {"days": "Sat", "time": "10:00am"}, {"days": "Sun", "time": "Closed"}], "id": "9310800009", "name": "USPS COLLECTION BOX - BLUE BOX", "address": {"city": "SANTA BARBARA", "state": "CA", "street": "1030 COAST VILLAGE RD", "postcode": "93108"}}},
{"geometry": {"type": "Point", "coordinates": [-119.6987695445, 34.4074985872]}, "type": "Feature", "properties": {"collection_times": [{"days": "Mon-Fri", "time": "3:00pm"}, {"days": "Sat-Sun", "time": "Closed"}], "id": "9310900012", "name": "USPS COLLECTION BOX - BLUE BOX", "address": {"city": "SANTA BARBARA", "state": "CA", "street": "721 CLIFF DR", "postcode": "93109"}}},
{"geometry": {"type": "Point", "coordinates": [-119.6948748622, 34.4041718]}, "type": "Feature", "properties": {"collection_times": [{"days": "Mon-Sat", "time": "10:00am"}, {"days": "Sun", "time": "Closed"}], "id": "9310900014", "name": "USPS COLLECTION BOX - BLUE BOX", "address": {"city": "SANTA BARBARA", "state": "CA", "street": "1 HARBOR WAY", "postcode": "93109"}}},
{"geometry": {"type": "Point", "coordinates": [-119.725139768, 34.4021947076]}, "type": "Feature", "properties": {"collection_times": [{"days": "Mon-Sat", "time": "10:00am"}, {"days": "Sun", "time": "Closed"}], "id": "9310900016", "name": "USPS COLLECTION BOX - BLUE BOX", "address": {"city": "SANTA BARBARA", "state": "CA", "street": "2029 CLIFF DR", "postcode": "93109"}}},
{"geometry": {"type": "Point", "coordinates": [-119.755266965, 34.4366494036]}, "type": "Feature", "properties": {"collection_times": [{"days": "Mon-Sat", "time": "10:00am"}, {"days": "Sun", "time": "Closed"}], "id": "9311000017", "name": "USPS COLLECTION BOX - BLUE BOX", "address": {"city": "GOLETA", "state": "CA", "street": "200 LAS PALMAS DR", "postcode": "93110"}}},
{"geometry": {"type": "Point", "coordinates": [-119.7794666581, 34.4429736035]}, "type": "Feature", "properties": {"collection_times": [{"days": "Mon-Sat", "time": "10:00am"}, {"days": "Sun", "time": "Closed"}], "id": "9311000018", "name": "USPS COLLECTION BOX - BLUE BOX", "address": {"city": "GOLETA", "state": "CA", "street": "234 CAMINO DEL REMEDIO", "postcode": "93110"}}},
{"geometry": {"type": "Point", "coordinates": [-119.7583516823, 34.443293183]}, "type": "Feature", "properties": {"collection_times": [{"days": "Mon-Fri", "time": "3:00pm"}, {"days": "Sat-Sun", "time": "Closed"}], "id": "9311000019", "name": "USPS COLLECTION BOX - BLUE BOX", "address": {"city": "GOLETA", "state": "CA", "street": "200 PESETAS LN", "postcode": "93110"}}},
{"geometry": {"type": "Point", "coordinates": [-119.8087764476, 34.4370914887]}, "type": "Feature", "properties": {"collection_times": [{"days": "Mon-Fri", "time": "5:30pm"}, {"days": "Sat", "time": "3:00pm"}, {"days": "Sun", "time": "Closed"}], "id": "9311100011", "name": "USPS COLLECTION BOX - BLUE BOX", "address": {"city": "SANTA BARBARA", "state": "CA", "street": "130 S PATTERSON AVE", "postcode": "93111"}}},
{"geometry": {"type": "Point", "coordinates": [-119.8087764476, 34.4370914887]}, "type": "Feature", "properties": {"collection_times": [{"days": "Mon-Fri", "time": "5:30pm"}, {"days": "Sat", "time": "3:00pm"}, {"days": "Sun", "time": "Closed"}], "id": "9311100013", "name": "USPS COLLECTION BOX - PO LOBBY", "address": {"city": "SANTA BARBARA", "state": "CA", "street": "130 S PATTERSON AVE", "postcode": "93111"}}},
{"geometry": {"type": "Point", "coordinates": [-119.8087764476, 34.4370914887]}, "type": "Feature", "properties": {"collection_times": [{"days": "Mon-Fri", "time": "5:30pm"}, {"days": "Sat", "time": "3:00pm"}, {"days": "Sun", "time": "Closed"}], "id": "9311100014", "name": "USPS COLLECTION BOX - PO LOBBY", "address": {"city": "SANTA BARBARA", "state": "CA", "street": "130 S PATTERSON AVE", "postcode": "93111"}}},
{"geometry": {"type": "Point", "coordinates": [-119.8087764476, 34.4370914887]}, "type": "Feature", "properties": {"collection_times": [{"days": "Mon-Fri", "time": "5:30pm"}, {"days": "Sat", "time": "3:00pm"}, {"days": "Sun", "time": "Closed"}], "id": "9311100019", "name": "USPS COLLECTION BOX - APC", "address": {"city": "SANTA BARBARA", "state": "CA", "street": "130 S PATTERSON AVE", "postcode": "93111"}}},
{"geometry": {"type": "Point", "coordinates": [-119.823757373, 34.4412135984]}, "type": "Feature", "properties": {"collection_times": [{"days": "Mon-Sat", "time": "3:00pm"}, {"days": "Sun", "time": "Closed"}], "id": "9311700005", "name": "USPS COLLECTION BOX - BLUE BOX", "address": {"city": "SANTA BARBARA", "state": "CA", "street": "5737 CALLE REAL", "postcode": "93117"}}},
{"geometry": {"type": "Point", "coordinates": [-119.8847299653, 34.4327381784]}, "type": "Feature", "properties": {"collection_times": [{"days": "Mon-Sat", "time": "10:00am"}, {"days": "Sun", "time": "Closed"}], "id": "9311700025", "name": "USPS COLLECTION BOX - BLUE BOX", "address": {"city": "SANTA BARBARA", "state": "CA", "street": "7390 CALLE REAL", "postcode": "93117"}}},
{"geometry": {"type": "Point", "coordinates": [-119.8563602646, 34.4314597983]}, "type": "Feature", "properties": {"collection_times": [{"days": "Mon-Fri", "time": "3:00pm"}, {"days": "Sat-Sun", "time": "Closed"}], "id": "9311700027", "name": "USPS COLLECTION BOX - BLUE BOX", "address": {"city": "SANTA BARBARA", "state": "CA", "street": "130 CREMONA DR", "postcode": "93117"}}},
{"geometry": {"type": "Point", "coordinates": [-119.8772993456, 34.4282287601]}, "type": "Feature", "properties": {"collection_times": [{"days": "Mon-Sat", "time": "10:00am"}, {"days": "Sun", "time": "Closed"}], "id": "9311700030", "name": "USPS COLLECTION BOX - BLUE BOX", "address": {"city": "SANTA BARBARA", "state": "CA", "street": "200 PACIFIC OAKS RD", "postcode": "93117"}}},
{"geometry": {"type": "Point", "coordinates": [-119.8404070832, 34.4164409147]}, "type": "Feature", "properties": {"collection_times": [{"days": "Mon-Fri", "time": "3:00pm"}, {"days": "Sat-Sun", "time": "Closed"}], "id": "9311700041", "name": "USPS COLLECTION BOX - BLUE BOX", "address": {"city": "SANTA BARBARA", "state": "CA", "street": "570 MESA RD", "postcode": "93117"}}},
{"geometry": {"type": "Point", "coordinates": [-119.8643991942, 34.4302139657]}, "type": "Feature", "properties": {"collection_times": [{"days": "Mon-Sat", "time": "10:00am"}, {"days": "Sun", "time": "Closed"}], "id": "9311700042", "name": "USPS COLLECTION BOX - BLUE BOX", "address": {"city": "SANTA BARBARA", "state": "CA", "street": "971 EMBARCADERO DEL MAR", "postcode": "93117"}}},
{"geometry": {"type": "Point", "coordinates": [-119.8404070832, 34.4164409147]}, "type": "Feature", "properties": {"collection_times": [{"days": "Mon-Fri", "time": "3:00pm"}, {"days": "Sat-Sun", "time": "Closed"}], "id": "9311700043", "name": "USPS COLLECTION BOX - BLUE BOX", "address": {"city": "SANTA BARBARA", "state": "CA", "street": "570 MESA RD", "postcode": "93117"}}},
{"geometry": {"type": "Point", "coordinates": [-119.8335168514, 34.4441644003]}, "type": "Feature", "properties": {"collection_times": [{"days": "Mon-Sat", "time": "10:00am"}, {"days": "Sun", "time": "Closed"}], "id": "9311700058", "name": "USPS COLLECTION BOX - BLUE BOX", "address": {"city": "SANTA BARBARA", "state": "CA", "street": "6067 SHIRRELL WAY", "postcode": "93117"}}},
{"geometry": {"type": "Point", "coordinates": [-119.8258358988, 34.4358044293]}, "type": "Feature", "properties": {"collection_times": [{"days": "Mon-Sat", "time": "10:00am"}, {"days": "Sun", "time": "Closed"}], "id": "9311700061", "name": "USPS COLLECTION BOX - BLUE BOX", "address": {"city": "SANTA BARBARA", "state": "CA", "street": "5777 HOLLISTER AVE", "postcode": "93117"}}},
{"geometry": {"type": "Point", "coordinates": [-120.0466828424, 34.494194289]}, "type": "Feature", "properties": {"collection_times": [{"days": "Mon-Fri", "time": "4:00pm"}, {"days": "Sat-Sun", "time": "Closed"}], "id": "9311700062", "name": "USPS COLLECTION BOX - BLUE BOX", "address": {"city": "SANTA BARBARA", "state": "CA", "street": "1 UNIVERSITY BR", "postcode": "93117"}}},
{"geometry": {"type": "Point", "coordinates": [-119.8271217752, 34.4443347464]}, "type": "Feature", "properties": {"collection_times": [{"days": "Mon-Sat", "time": "10:00am"}, {"days": "Sun", "time": "Closed"}], "id": "9311700063", "name": "USPS COLLECTION BOX - BLUE BOX", "address": {"city": "SANTA BARBARA", "state": "CA", "street": "250 MORETON BAY LN", "postcode": "93117"}}},
{"geometry": {"type": "Point", "coordinates": [-119.876558045, 34.4300714198]}, "type": "Feature", "properties": {"collection_times": [{"days": "Mon-Fri", "time": "5:00pm"}, {"days": "Sat", "time": "10:00am"}, {"days": "Sun", "time": "Closed"}], "id": "9311800001", "name": "USPS COLLECTION BOX - BLUE BOX", "address": {"city": "SANTA BARBARA", "state": "CA", "street": "400 STORKE RD", "postcode": "93118"}}},
{"geometry": {"type": "Point", "coordinates": [-119.8696728092, 34.425319864]}, "type": "Feature", "properties": {"collection_times": [{"days": "Mon-Fri", "time": "8:00pm"}, {"days": "Sat", "time": "6:00pm"}, {"days": "Sun", "time": "Closed"}], "id": "9319900000", "name": "USPS COLLECTION BOX - BLUE BOX", "address": {"city": "GOLETA", "state": "CA", "street": "400 STORKE RD", "postcode": "93199"}}},
{"geometry": {"type": "Point", "coordinates": [-119.8696728092, 34.425319864]}, "type": "Feature", "properties": {"collection_times": [{"days": "Mon-Fri", "time": "8:00pm"}, {"days": "Sat", "time": "6:00pm"}, {"days": "Sun", "time": "Closed"}], "id": "9319900001", "name": "USPS COLLECTION BOX - BLUE BOX", "address": {"city": "GOLETA", "state": "CA", "street": "400 STORKE RD", "postcode": "93199"}}}
]}
