{"type": "FeatureCollection", "features": [
{"geometry": {"type": "Point", "coordinates": [-119.2681366999, 35.8861970387]}, "type": "Feature", "properties": {"collection_times": [{"days": "Mon-Fri", "time": "3:30pm"}, {"days": "Sat", "time": "9:00am"}, {"days": "Sun", "time": "Closed"}], "id": "9320100000", "name": "USPS COLLECTION BOX - BLUE BOX", "address": {"city": "ALPAUGH", "state": "CA", "street": "3896 AVE 54", "postcode": "93201"}}},
{"geometry": {"type": "Point", "coordinates": [-119.2681366999, 35.8861970387]}, "type": "Feature", "properties": {"collection_times": [{"days": "Mon-Fri", "time": "3:30pm"}, {"days": "Sat", "time": "9:00am"}, {"days": "Sun", "time": "Closed"}], "id": "9320100001", "name": "USPS COLLECTION BOX - PO LOBBY", "address": {"city": "ALPAUGH", "state": "CA", "street": "3896 AVE 54", "postcode": "93201"}}},
{"geometry": {"type": "Point", "coordinates": [-119.7087927558, 36.3078015026]}, "type": "Feature", "properties": {"collection_times": [{"days": "Mon-Fri", "time": "3:00pm"}, {"days": "Sat", "time": "10:00am"}, {"days": "Sun", "time": "Closed"}], "id": "9320200001", "name": "USPS COLLECTION BOX - BLUE BOX", "address": {"city": "ARMONA", "state": "CA", "street": "13992 ADA ST", "postcode": "93202"}}},
{"geometry": {"type": "Point", "coordinates": [-119.7087927558, 36.3078015026]}, "type": "Feature", "properties": {"collection_times": [{"days": "Mon-Fri", "time": "3:45pm"}, {"days": "Sat", "time": "10:00am"}, {"days": "Sun", "time": "Closed"}], "id": "9320200002", "name": "USPS COLLECTION BOX - PO LOBBY", "address": {"city": "ARMONA", "state": "CA", "street": "13992 ADA ST", "postcode": "93202"}}},
{"geometry": {"type": "Point", "coordinates": [-118.8370182987, 35.1952303941]}, "type": "Feature", "properties": {"collection_times": [{"days": "Mon-Fri", "time": "4:15pm"}, {"days": "Sat", "time": "2:30pm"}, {"days": "Sun", "time": "Closed"}], "id": "9320300001", "name": "USPS COLLECTION BOX - BLUE BOX", "address": {"city": "ARVIN", "state": "CA", "street": "140 N HILL ST", "postcode": "93203"}}},
{"geometry": {"type": "Point", "coordinates": [-118.8370182987, 35.1952303941]}, "type": "Feature", "properties": {"collection_times": [{"days": "Mon-Fri", "time": "4:15pm"}, {"days": "Sat", "time": "2:30pm"}, {"days": "Sun", "time": "Closed"}], "id": "9320300005", "name": "USPS COLLECTION BOX - PO LOBBY", "address": {"city": "ARVIN", "state": "CA", "street": "140 N HILL ST", "postcode": "93203"}}},
{"geometry": {"type": "Point", "coordinates": [-120.1239533876, 36.0071347373]}, "type": "Feature", "properties": {"collection_times": [{"days": "Mon-Fri", "time": "4:00pm"}, {"days": "Sat", "time": "12:00pm"}, {"days": "Sun", "time": "Closed"}], "id": "9320400000", "name": "USPS COLLECTION BOX - PO LOBBY", "address": {"city": "AVENAL", "state": "CA", "street": "913 E SAN JOAQUIN ST", "postcode": "93204"}}},
{"geometry": {"type": "Point", "coordinates": [-120.1239533876, 36.0071347373]}, "type": "Feature", "properties": {"collection_times": [{"days": "Mon-Fri", "time": "4:00pm"}, {"days": "Sat", "time": "12:00pm"}, {"days": "Sun", "time": "Closed"}], "id": "9320400008", "name": "USPS COLLECTION BOX - BLUE BOX", "address": {"city": "AVENAL", "state": "CA", "street": "913 E SAN JOAQUIN ST", "postcode": "93204"}}},
{"geometry": {"type": "Point", "coordinates": [-118.4963461727, 35.5907047906]}, "type": "Feature", "properties": {"collection_times": [{"days": "Mon-Fri", "time": "3:45pm"}, {"days": "Sat", "time": "8:30am"}, {"days": "Sun", "time": "Closed"}], "id": "9320500000", "name": "USPS COLLECTION BOX - BLUE BOX", "address": {"city": "BODFISH", "state": "CA", "street": "1 MILLER ST", "postcode": "93205"}}},
{"geometry": {"type": "Point", "coordinates": [-118.4963461727, 35.5907047906]}, "type": "Feature", "properties": {"collection_times": [{"days": "Mon-Fri", "time": "4:00pm"}, {"days": "Sat", "time": "8:30am"}, {"days": "Sun", "time": "Closed"}], "id": "9320500001", "name": "USPS COLLECTION BOX - PO LOBBY", "address": {"city": "BODFISH", "state": "CA", "street": "1 MILLER ST", "postcode": "93205"}}},
{"geometry": {"type": "Point", "coordinates": [-119.4698014743, 35.4006367216]}, "type": "Feature", "properties": {"collection_times": [{"days": "Mon-Fri", "time": "3:30pm"}, {"days": "Sat", "time": "9:00am"}, {"days": "Sun", "time": "Closed"}], "id": "9320600000", "name": "USPS COLLECTION BOX - BLUE BOX", "address": {"city": "BUTTONWILLOW", "state": "CA", "street": "121 N MAIN ST", "postcode": "93206"}}},
{"geometry": {"type": "Point", "coordinates": [-119.4698014743, 35.4006367216]}, "type": "Feature", "properties": {"collection_times": [{"days": "Mon-Fri", "time": "4:00pm"}, {"days": "Sat", "time": "9:00am"}, {"days": "Sun", "time": "Closed"}], "id": "9320600001", "name": "USPS COLLECTION BOX - PO LOBBY", "address": {"city": "BUTTONWILLOW", "state": "CA", "street": "121 N MAIN ST", "postcode": "93206"}}},
{"geometry": {"type": "Point", "coordinates": [-118.7455830955, 35.8462654107]}, "type": "Feature", "properties": {"collection_times": [{"days": "Mon-Sat", "time": "11:30am"}, {"days": "Sun", "time": "Closed"}], "id": "9320700000", "name": "USPS COLLECTION BOX - BLUE BOX", "address": {"city": "CALIF HOT SPG", "state": "CA", "street": "42231 HOT SPRINGS DR", "postcode": "93207"}}},
{"geometry": {"type": "Point", "coordinates": [-118.7455830955, 35.8462654107]}, "type": "Feature", "properties": {"collection_times": [{"days": "Mon-Sat", "time": "11:30am"}, {"days": "Sun", "time": "Closed"}], "id": "9320700002", "name": "USPS COLLECTION BOX - PO LOBBY", "address": {"city": "CALIF HOT SPG", "state": "CA", "street": "42231 HOT SPRINGS DR", "postcode": "93207"}}},
{"geometry": {"type": "Point", "coordinates": [-120.3626005801, 36.1392257024]}, "type": "Feature", "properties": {"collection_times": [{"days": "Mon-Fri", "time": "4:30pm"}, {"days": "Sat", "time": "12:00pm"}, {"days": "Sun", "time": "Closed"}], "id": "9321000001", "name": "USPS COLLECTION BOX - BLUE BOX", "address": {"city": "COALINGA", "state": "CA", "street": "218 W DURIAN AVE", "postcode": "93210"}}},
{"geometry": {"type": "Point", "coordinates": [-120.3626005801, 36.1392257024]}, "type": "Feature", "properties": {"collection_times": [{"days": "Mon-Fri", "time": "4:30pm"}, {"days": "Sat", "time": "12:00pm"}, {"days": "Sun", "time": "Closed"}], "id": "9321000002", "name": "USPS COLLECTION BOX - BLUE BOX", "address": {"city": "COALINGA", "state": "CA", "street": "218 W DURIAN AVE", "postcode": "93210"}}},
{"geometry": {"type": "Point", "coordinates": [-119.5663159951, 36.0980581463]}, "type": "Feature", "properties": {"collection_times": [{"days": "Mon-Fri", "time": "1:00pm"}, {"days": "Sat", "time": "9:00am"}, {"days": "Sun", "time": "Closed"}], "id": "9321200003", "name": "USPS COLLECTION BOX - BLUE BOX", "address": {"city": "CORCORAN", "state": "CA", "street": "1500 WHITLEY AVE", "postcode": "93212"}}},
{"geometry": {"type": "Point", "coordinates": [-119.5609962287, 36.1004276131]}, "type": "Feature", "properties": {"collection_times": [{"days": "Mon-Fri", "time": "4:00pm"}, {"days": "Sat", "time": "9:00am"}, {"days": "Sun", "time": "Closed"}], "id": "9321200005", "name": "USPS COLLECTION BOX - PO LOBBY", "address": {"city": "CORCORAN", "state": "CA", "street": "917 CHASE AVE", "postcode": "93212"}}},
{"geometry": {"type": "Point", "coordinates": [-119.5609962287, 36.1004276131]}, "type": "Feature", "properties": {"collection_times": [{"days": "Mon-Fri", "time": "4:00pm"}, {"days": "Sat", "time": "9:00am"}, {"days": "Sun", "time": "Closed"}], "id": "9321200006", "name": "USPS COLLECTION BOX - PO LOBBY", "address": {"city": "CORCORAN", "state": "CA", "street": "917 CHASE AVE", "postcode": "93212"}}},
{"geometry": {"type": "Point", "coordinates": [-119.2460400304, 35.7703886098]}, "type": "Feature", "properties": {"collection_times": [{"days": "Mon-Sat", "time": "9:00am"}, {"days": "Sun", "time": "Closed"}], "id": "9321500012", "name": "USPS COLLECTION BOX - BLUE BOX", "address": {"city": "DELANO", "state": "CA", "street": "1103 MAIN ST", "postcode": "93215"}}},
{"geometry": {"type": "Point", "coordinates": [-119.2446268649, 35.7708520868]}, "type": "Feature", "properties": {"collection_times": [{"days": "Mon-Sat", "time": "9:30am"}, {"days": "Sun", "time": "Closed"}], "id": "9321500013", "name": "USPS COLLECTION BOX - BLUE BOX", "address": {"city": "DELANO", "state": "CA", "street": "1122 JEFFERSON ST", "postcode": "93215"}}},
{"geometry": {"type": "Point", "coordinates": [-119.2317147793, 35.7613123667]}, "type": "Feature", "properties": {"collection_times": [{"days": "Mon-Fri", "time": "5:00pm"}, {"days": "Sat", "time": "4:00pm"}, {"days": "Sun", "time": "Closed"}], "id": "9321500020", "name": "USPS COLLECTION BOX - PO LOBBY", "address": {"city": "DELANO", "state": "CA", "street": "1800 GARCES HWY", "postcode": "93215"}}},
{"geometry": {"type": "Point", "coordinates": [-119.2317147793, 35.7613123667]}, "type": "Feature", "properties": {"collection_times": [{"days": "Mon-Fri", "time": "5:00pm"}, {"days": "Sat", "time": "4:00pm"}, {"days": "Sun", "time": "Closed"}], "id": "9321500028", "name": "USPS COLLECTION BOX - BLUE BOX", "address": {"city": "DELANO", "state": "CA", "street": "1800 GARCES HWY", "postcode": "93215"}}},
{"geometry": {"type": "Point", "coordinates": [-119.2317147793, 35.7613123667]}, "type": "Feature", "properties": {"collection_times": [{"days": "Mon-Fri", "time": "5:00pm"}, {"days": "Sat", "time": "4:00pm"}, {"days": "Sun", "time": "Closed"}], "id": "9321500029", "name": "USPS COLLECTION BOX - BLUE BOX", "address": {"city": "DELANO", "state": "CA", "street": "1800 GARCES HWY", "postcode": "93215"}}},
{"geometry": {"type": "Point", "coordinates": [-119.0488555826, 35.8917125262]}, "type": "Feature", "properties": {"collection_times": [{"days": "Mon-Fri", "time": "3:30pm"}, {"days": "Sat", "time": "9:00am"}, {"days": "Sun", "time": "Closed"}], "id": "9321800001", "name": "USPS COLLECTION BOX - PO LOBBY", "address": {"city": "DUCOR", "state": "CA", "street": "23318 AVENUE 56", "postcode": "93218"}}},
{"geometry": {"type": "Point", "coordinates": [-119.268151188, 35.8864102261]}, "type": "Feature", "properties": {"collection_times": [{"days": "Mon-Fri", "time": "4:00pm"}, {"days": "Sat", "time": "9:00am"}, {"days": "Sun", "time": "Closed"}], "id": "9321900000", "name": "USPS COLLECTION BOX - PO LOBBY", "address": {"city": "EARLIMART", "state": "CA", "street": "300 N CHURCH RD", "postcode": "93219"}}},
{"geometry": {"type": "Point", "coordinates": [-119.0029585435, 35.2641191081]}, "type": "Feature", "properties": {"collection_times": [{"days": "Mon-Fri", "time": "4:00pm"}, {"days": "Sat", "time": "9:30am"}, {"days": "Sun", "time": "Closed"}], "id": "9322000000", "name": "USPS COLLECTION BOX - PO LOBBY", "address": {"city": "EDISON", "state": "CA", "street": "12299 EDISON HWY", "postcode": "93220"}}},
{"geometry": {"type": "Point", "coordinates": [-119.0029585435, 35.2641191081]}, "type": "Feature", "properties": {"collection_times": [{"days": "Mon-Fri", "time": "4:00pm"}, {"days": "Sat", "time": "9:30am"}, {"days": "Sun", "time": "Closed"}], "id": "9322000001", "name": "USPS COLLECTION BOX - BLUE BOX", "address": {"city": "EDISON", "state": "CA", "street": "12299 EDISON HWY", "postcode": "93220"}}},
{"geometry": {"type": "Point", "coordinates": [-119.1393610682, 36.2963717257]}, "type": "Feature", "properties": {"collection_times": [{"days": "Mon-Fri", "time": "4:30pm"}, {"days": "Sat", "time": "2:30pm"}, {"days": "Sun", "time": "Closed"}], "id": "9322100001", "name": "USPS COLLECTION BOX - BLUE BOX", "address": {"city": "EXETER", "state": "CA", "street": "135 S D ST", "postcode": "93221"}}},
{"geometry": {"type": "Point", "coordinates": [-119.1393610682, 36.2963717257]}, "type": "Feature", "properties": {"collection_times": [{"days": "Mon-Fri", "time": "4:30pm"}, {"days": "Sat", "time": "2:30pm"}, {"days": "Sun", "time": "Closed"}], "id": "9322100002", "name": "USPS COLLECTION BOX - BLUE BOX", "address": {"city": "EXETER", "state": "CA", "street": "135 S D ST", "postcode": "93221"}}},
{"geometry": {"type": "Point", "coordinates": [-119.1393610682, 36.2963717257]}, "type": "Feature", "properties": {"collection_times": [{"days": "Mon-Fri", "time": "4:15pm"}, {"days": "Sat", "time": "2:30pm"}, {"days": "Sun", "time": "Closed"}], "id": "9322100003", "name": "USPS COLLECTION BOX - PO LOBBY", "address": {"city": "EXETER", "state": "CA", "street": "135 S D ST", "postcode": "93221"}}},
{"geometry": {"type": "Point", "coordinates": [-119.2071625556, 36.3003796181]}, "type": "Feature", "properties": {"collection_times": [{"days": "Mon-Fri", "time": "4:00pm"}, {"days": "Sat", "time": "2:00pm"}, {"days": "Sun", "time": "Closed"}], "id": "9322300000", "name": "USPS COLLECTION BOX - BLUE BOX", "address": {"city": "FARMERSVILLE", "state": "CA", "street": "382 N FARMERSVILLE BLVD", "postcode": "93223"}}},
{"geometry": {"type": "Point", "coordinates": [-119.2071625556, 36.3003796181]}, "type": "Feature", "properties": {"collection_times": [{"days": "Mon-Fri", "time": "4:00pm"}, {"days": "Sat", "time": "2:00pm"}, {"days": "Sun", "time": "Closed"}], "id": "9322300001", "name": "USPS COLLECTION BOX - PO LOBBY", "address": {"city": "FARMERSVILLE", "state": "CA", "street": "382 N FARMERSVILLE BLVD", "postcode": "93223"}}},
{"geometry": {"type": "Point", "coordinates": [-119.5415963469, 35.1791457918]}, "type": "Feature", "properties": {"collection_times": [{"days": "Mon-Fri", "time": "4:15pm"}, {"days": "Sat", "time": "9:00am"}, {"days": "Sun", "time": "Closed"}], "id": "9322400000", "name": "USPS COLLECTION BOX - BLUE BOX", "address": {"city": "FELLOWS", "state": "CA", "street": "36 MIDWAY RD", "postcode": "93224"}}},
{"geometry": {"type": "Point", "coordinates": [-119.5415963469, 35.1791457918]}, "type": "Feature", "properties": {"collection_times": [{"days": "Mon-Fri", "time": "4:15pm"}, {"days": "Sat", "time": "9:00am"}, {"days": "Sun", "time": "Closed"}], "id": "9322400001", "name": "USPS COLLECTION BOX - PO LOBBY", "address": {"city": "FELLOWS", "state": "CA", "street": "36 MIDWAY RD", "postcode": "93224"}}},
{"geometry": {"type": "Point", "coordinates": [-119.0554608121, 34.7423954852]}, "type": "Feature", "properties": {"collection_times": [{"days": "Mon-Fri", "time": "11:00am"}, {"days": "Sat-Sun", "time": "Closed"}], "id": "9322500001", "name": "USPS COLLECTION BOX - BLUE BOX", "address": {"city": "FRAZIER PARK", "state": "CA", "street": "100 TECUYA RD", "postcode": "93225"}}},
{"geometry": {"type": "Point", "coordinates": [-119.1670559683, 34.8491721414]}, "type": "Feature", "properties": {"collection_times": [{"days": "Mon-Fri", "time": "3:00pm"}, {"days": "Sat", "time": "11:30am"}, {"days": "Sun", "time": "Closed"}], "id": "9322500002", "name": "USPS COLLECTION BOX - BLUE BOX", "address": {"city": "FRAZIER PARK", "state": "CA", "street": "16331 ASKIN DR", "postcode": "93225"}}},
{"geometry": {"type": "Point", "coordinates": [-118.9456304387, 34.8201028446]}, "type": "Feature", "properties": {"collection_times": [{"days": "Mon-Fri", "time": "4:00pm"}, {"days": "Sat", "time": "11:30am"}, {"days": "Sun", "time": "Closed"}], "id": "9322500003", "name": "USPS COLLECTION BOX - BLUE BOX", "address": {"city": "FRAZIER PARK", "state": "CA", "street": "512 MONTEREY TRL", "postcode": "93225"}}},
{"geometry": {"type": "Point", "coordinates": [-118.9456304387, 34.8201028446]}, "type": "Feature", "properties": {"collection_times": [{"days": "Mon-Fri", "time": "4:00pm"}, {"days": "Sat", "time": "11:30am"}, {"days": "Sun", "time": "Closed"}], "id": "9322500004", "name": "USPS COLLECTION BOX - PO LOBBY", "address": {"city": "FRAZIER PARK", "state": "CA", "street": "512 MONTEREY TRL", "postcode": "93225"}}},
{"geometry": {"type": "Point", "coordinates": [-118.7033649448, 35.7287254367]}, "type": "Feature", "properties": {"collection_times": [{"days": "Mon-Fri", "time": "1:15pm"}, {"days": "Sat", "time": "11:00am"}, {"days": "Sun", "time": "Closed"}], "id": "9322600000", "name": "USPS COLLECTION BOX - PO LOBBY", "address": {"city": "GLENNVILLE", "state": "CA", "street": "10686 HIGHWAY 155", "postcode": "93226"}}},
{"geometry": {"type": "Point", "coordinates": [-119.4210839095, 36.3436260418]}, "type": "Feature", "properties": {"collection_times": [{"days": "Mon-Fri", "time": "3:30pm"}, {"days": "Sat", "time": "10:00am"}, {"days": "Sun", "time": "Closed"}], "id": "9322700000", "name": "USPS COLLECTION BOX - BLUE BOX", "address": {"city": "GOSHEN", "state": "CA", "street": "6901 AVENUE 305", "postcode": "93227"}}},
{"geometry": {"type": "Point", "coordinates": [-119.4210839095, 36.3436260418]}, "type": "Feature", "properties": {"collection_times": [{"days": "Mon-Fri", "time": "3:30pm"}, {"days": "Sat", "time": "10:00am"}, {"days": "Sun", "time": "Closed"}], "id": "9322700001", "name": "USPS COLLECTION BOX - PO LOBBY", "address": {"city": "GOSHEN", "state": "CA", "street": "6901 AVENUE 305", "postcode": "93227"}}},
{"geometry": {"type": "Point", "coordinates": [-119.6476150591, 36.3304151293]}, "type": "Feature", "properties": {"collection_times": [{"days": "Mon-Fri", "time": "4:00pm"}, {"days": "Sat", "time": "3:45pm"}, {"days": "Sun", "time": "Closed"}], "id": "9323000004", "name": "USPS COLLECTION BOX - BLUE BOX", "address": {"city": "HANFORD", "state": "CA", "street": "517 N IRWIN ST", "postcode": "93230"}}},
{"geometry": {"type": "Point", "coordinates": [-119.6476150591, 36.3304151293]}, "type": "Feature", "properties": {"collection_times": [{"days": "Mon-Fri", "time": "4:00pm"}, {"days": "Sat", "time": "3:45pm"}, {"days": "Sun", "time": "Closed"}], "id": "9323000005", "name": "USPS COLLECTION BOX - PO LOBBY", "address": {"city": "HANFORD", "state": "CA", "street": "517 N IRWIN ST", "postcode": "93230"}}},
{"geometry": {"type": "Point", "coordinates": [-119.6476150591, 36.3304151293]}, "type": "Feature", "properties": {"collection_times": [{"days": "Mon-Fri", "time": "4:00pm"}, {"days": "Sat", "time": "3:45pm"}, {"days": "Sun", "time": "Closed"}], "id": "9323000006", "name": "USPS COLLECTION BOX - PO LOBBY", "address": {"city": "HANFORD", "state": "CA", "street": "517 N IRWIN ST", "postcode": "93230"}}},
{"geometry": {"type": "Point", "coordinates": [-119.6551690666, 36.3411019965]}, "type": "Feature", "properties": {"collection_times": [{"days": "Mon-Sat", "time": "2:00pm"}, {"days": "Sun", "time": "Closed"}], "id": "9323000016", "name": "USPS COLLECTION BOX - BLUE BOX", "address": {"city": "HANFORD", "state": "CA", "street": "1510 N 11TH AVE", "postcode": "93230"}}},
{"geometry": {"type": "Point", "coordinates": [-119.647752134, 36.3321911274]}, "type": "Feature", "properties": {"collection_times": [{"days": "Mon-Sat", "time": "2:00pm"}, {"days": "Sun", "time": "Closed"}], "id": "9323000022", "name": "USPS COLLECTION BOX - BLUE BOX", "address": {"city": "HANFORD", "state": "CA", "street": "700 N IRWIN ST", "postcode": "93230"}}},
{"geometry": {"type": "Point", "coordinates": [-119.6552118125, 36.3298778829]}, "type": "Feature", "properties": {"collection_times": [{"days": "Mon-Sat", "time": "2:00pm"}, {"days": "Sun", "time": "Closed"}], "id": "9323000040", "name": "USPS COLLECTION BOX - BLUE BOX", "address": {"city": "HANFORD", "state": "CA", "street": "550 N 11TH AVE", "postcode": "93230"}}},
{"geometry": {"type": "Point", "coordinates": [-119.6582695677, 36.3291237028]}, "type": "Feature", "properties": {"collection_times": [{"days": "Mon-Sat", "time": "2:00pm"}, {"days": "Sun", "time": "Closed"}], "id": "9323000042", "name": "USPS COLLECTION BOX - BLUE BOX", "address": {"city": "HANFORD", "state": "CA", "street": "420 GREENFIELD AVE", "postcode": "93230"}}},
{"geometry": {"type": "Point", "coordinates": [-119.6476150591, 36.3304151293]}, "type": "Feature", "properties": {"collection_times": [{"days": "Mon-Fri", "time": "4:00pm"}, {"days": "Sat", "time": "3:45pm"}, {"days": "Sun", "time": "Closed"}], "id": "9323000043", "name": "USPS COLLECTION BOX - BLUE BOX", "address": {"city": "HANFORD", "state": "CA", "street": "517 N IRWIN ST", "postcode": "93230"}}},
{"geometry": {"type": "Point", "coordinates": [-119.6476150591, 36.3304151293]}, "type": "Feature", "properties": {"collection_times": [{"days": "Mon-Fri", "time": "4:00pm"}, {"days": "Sat", "time": "3:45pm"}, {"days": "Sun", "time": "Closed"}], "id": "9323000044", "name": "USPS COLLECTION BOX - APC", "address": {"city": "HANFORD", "state": "CA", "street": "517 N IRWIN ST", "postcode": "93230"}}},
{"geometry": {"type": "Point", "coordinates": [-119.6550653129, 36.3177623346]}, "type": "Feature", "properties": {"collection_times": [{"days": "Mon-Sat", "time": "2:00pm"}, {"days": "Sun", "time": "Closed"}], "id": "9323000045", "name": "USPS COLLECTION BOX - BLUE BOX", "address": {"city": "HANFORD", "state": "CA", "street": "596 S 11TH AVE", "postcode": "93230"}}},
{"geometry": {"type": "Point", "coordinates": [-119.6476150591, 36.3304151293]}, "type": "Feature", "properties": {"collection_times": [{"days": "Mon-Fri", "time": "4:00pm"}, {"days": "Sat", "time": "3:45pm"}, {"days": "Sun", "time": "Closed"}], "id": "9323000046", "name": "USPS COLLECTION BOX - BLUE BOX", "address": {"city": "HANFORD", "state": "CA", "street": "517 N IRWIN ST", "postcode": "93230"}}},
{"geometry": {"type": "Point", "coordinates": [-120.1035159553, 36.2089464544]}, "type": "Feature", "properties": {"collection_times": [{"days": "Mon-Fri", "time": "3:30pm"}, {"days": "Sat", "time": "12:00pm"}, {"days": "Sun", "time": "Closed"}], "id": "9323400002", "name": "USPS COLLECTION BOX - PO LOBBY", "address": {"city": "HURON", "state": "CA", "street": "36100 S LASSEN AVE", "postcode": "93234"}}},
{"geometry": {"type": "Point", "coordinates": [-120.1035159553, 36.2089464544]}, "type": "Feature", "properties": {"collection_times": [{"days": "Mon-Fri", "time": "3:30pm"}, {"days": "Sat", "time": "12:00pm"}, {"days": "Sun", "time": "Closed"}], "id": "9323400003", "name": "USPS COLLECTION BOX - BLUE BOX", "address": {"city": "HURON", "state": "CA", "street": "36100 S LASSEN AVE", "postcode": "93234"}}},
{"geometry": {"type": "Point", "coordinates": [-120.1035159553, 36.2089464544]}, "type": "Feature", "properties": {"collection_times": [{"days": "Mon-Fri", "time": "3:30pm"}, {"days": "Sat", "time": "12:00pm"}, {"days": "Sun", "time": "Closed"}], "id": "9323400004", "name": "USPS COLLECTION BOX - PO LOBBY", "address": {"city": "HURON", "state": "CA", "street": "36100 S LASSEN AVE", "postcode": "93234"}}},
{"geometry": {"type": "Point", "coordinates": [-119.2180680711, 36.3881359462]}, "type": "Feature", "properties": {"collection_times": [{"days": "Mon-Fri", "time": "3:30pm"}, {"days": "Sat", "time": "2:30pm"}, {"days": "Sun", "time": "Closed"}], "id": "9323500001", "name": "USPS COLLECTION BOX - PO LOBBY", "address": {"city": "IVANHOE", "state": "CA", "street": "32971 ROAD 159", "postcode": "93235"}}},
{"geometry": {"type": "Point", "coordinates": [-118.4261299163, 35.7552457559]}, "type": "Feature", "properties": {"collection_times": [{"days": "Mon-Fri", "time": "3:30pm"}, {"days": "Sat", "time": "10:00am"}, {"days": "Sun", "time": "Closed"}], "id": "9323800001", "name": "USPS COLLECTION BOX - PO LOBBY", "address": {"city": "KERNVILLE", "state": "CA", "street": "45 BIG BLUE RD", "postcode": "93238"}}},
{"geometry": {"type": "Point", "coordinates": [-119.9601442245, 36.0102159969]}, "type": "Feature", "properties": {"collection_times": [{"days": "Mon-Fri", "time": "3:00pm"}, {"days": "Sat", "time": "10:00am"}, {"days": "Sun", "time": "Closed"}], "id": "9323900000", "name": "USPS COLLECTION BOX - BLUE BOX", "address": {"city": "KETTLEMAN CITY", "state": "CA", "street": "1000 MILHAM ST", "postcode": "93239"}}},
{"geometry": {"type": "Point", "coordinates": [-119.9601442245, 36.0102159969]}, "type": "Feature", "properties": {"collection_times": [{"days": "Mon-Fri", "time": "3:00pm"}, {"days": "Sat", "time": "10:00am"}, {"days": "Sun", "time": "Closed"}], "id": "9323900001", "name": "USPS COLLECTION BOX - PO LOBBY", "address": {"city": "KETTLEMAN CITY", "state": "CA", "street": "1000 MILHAM ST", "postcode": "93239"}}},
{"geometry": {"type": "Point", "coordinates": [-118.4730357038, 35.6298839391]}, "type": "Feature", "properties": {"collection_times": [{"days": "Mon-Fri", "time": "3:30pm"}, {"days": "Sat", "time": "10:00am"}, {"days": "Sun", "time": "Closed"}], "id": "9324000001", "name": "USPS COLLECTION BOX - BLUE BOX", "address": {"city": "LAKE ISABELLA", "state": "CA", "street": "6441 LAKE ISABELLA BLVD", "postcode": "93240"}}},
{"geometry": {"type": "Point", "coordinates": [-118.4767161067, 35.6193266832]}, "type": "Feature", "properties": {"collection_times": [{"days": "Mon-Fri", "time": "10:00am"}, {"days": "Sat", "time": "9:00am"}, {"days": "Sun", "time": "Closed"}], "id": "9324000003", "name": "USPS COLLECTION BOX - BLUE BOX", "address": {"city": "LAKE ISABELLA", "state": "CA", "street": "5650 LAKE ISABELLA BLVD", "postcode": "93240"}}},
{"geometry": {"type": "Point", "coordinates": [-118.4730357038, 35.6298839391]}, "type": "Feature", "properties": {"collection_times": [{"days": "Mon-Fri", "time": "3:45pm"}, {"days": "Sat", "time": "10:00am"}, {"days": "Sun", "time": "Closed"}], "id": "9324000004", "name": "USPS COLLECTION BOX - PO LOBBY", "address": {"city": "LAKE ISABELLA", "state": "CA", "street": "6441 LAKE ISABELLA BLVD", "postcode": "93240"}}},
{"geometry": {"type": "Point", "coordinates": [-118.9143908584, 35.2469463791]}, "type": "Feature", "properties": {"collection_times": [{"days": "Mon-Fri", "time": "4:30pm"}, {"days": "Sat", "time": "3:00pm"}, {"days": "Sun", "time": "Closed"}], "id": "9324100004", "name": "USPS COLLECTION BOX - BLUE BOX", "address": {"city": "LAMONT", "state": "CA", "street": "11940 MAIN ST", "postcode": "93241"}}},
{"geometry": {"type": "Point", "coordinates": [-119.6856830828, 36.4344271655]}, "type": "Feature", "properties": {"collection_times": [{"days": "Mon-Fri", "time": "4:00pm"}, {"days": "Sat", "time": "9:00am"}, {"days": "Sun", "time": "Closed"}], "id": "9324200000", "name": "USPS COLLECTION BOX - BLUE BOX", "address": {"city": "LATON", "state": "CA", "street": "6245 DE WOODY AVE", "postcode": "93242"}}},
{"geometry": {"type": "Point", "coordinates": [-119.6856830828, 36.4344271655]}, "type": "Feature", "properties": {"collection_times": [{"days": "Mon-Fri", "time": "4:00pm"}, {"days": "Sat-Sun", "time": "Closed"}], "id": "9324200001", "name": "USPS COLLECTION BOX - PO LOBBY", "address": {"city": "LATON", "state": "CA", "street": "6245 DE WOODY AVE", "postcode": "93242"}}},
{"geometry": {"type": "Point", "coordinates": [-118.9437700607, 34.6352583498]}, "type": "Feature", "properties": {"collection_times": [{"days": "Mon-Sat", "time": "8:00am"}, {"days": "Sun", "time": "Closed"}], "id": "9324300001", "name": "USPS COLLECTION BOX - BLUE BOX", "address": {"city": "LEBEC", "state": "CA", "street": "42810 FRAZIER MOUNTAIN RD", "postcode": "93243"}}},
{"geometry": {"type": "Point", "coordinates": [-118.8654208021, 34.8417738461]}, "type": "Feature", "properties": {"collection_times": [{"days": "Mon-Fri", "time": "4:00pm"}, {"days": "Sat", "time": "8:00am"}, {"days": "Sun", "time": "Closed"}], "id": "9324300002", "name": "USPS COLLECTION BOX - PO LOBBY", "address": {"city": "LEBEC", "state": "CA", "street": "2132 LEBEC RD", "postcode": "93243"}}},
{"geometry": {"type": "Point", "coordinates": [-118.9437700607, 34.6352583498]}, "type": "Feature", "properties": {"collection_times": [{"days": "Mon-Sat", "time": "8:00am"}, {"days": "Sun", "time": "Closed"}], "id": "9324300004", "name": "USPS COLLECTION BOX - BLUE BOX", "address": {"city": "LEBEC", "state": "CA", "street": "5821 DENNIS MC CARTHY DR", "postcode": "93243"}}},
{"geometry": {"type": "Point", "coordinates": [-119.0253961788, 36.3840207317]}, "type": "Feature", "properties": {"collection_times": [{"days": "Mon-Fri", "time": "2:00pm"}, {"days": "Sat", "time": "9:00am"}, {"days": "Sun", "time": "Closed"}], "id": "9324400000", "name": "USPS COLLECTION BOX - PO LOBBY", "address": {"city": "LEMON COVE", "state": "CA", "street": "24451 DOUGLAS AVE", "postcode": "93244"}}},
{"geometry": {"type": "Point", "coordinates": [-119.0253961788, 36.3840207317]}, "type": "Feature", "properties": {"collection_times": [{"days": "Mon-Fri", "time": "2:00pm"}, {"days": "Sat", "time": "9:00am"}, {"days": "Sun", "time": "Closed"}], "id": "9324400001", "name": "USPS COLLECTION BOX - BLUE BOX", "address": {"city": "LEMON COVE", "state": "CA", "street": "24451 DOUGLAS AVE", "postcode": "93244"}}},
{"geometry": {"type": "Point", "coordinates": [-119.7832073706, 36.3010064685]}, "type": "Feature", "properties": {"collection_times": [{"days": "Mon-Fri", "time": "4:30pm"}, {"days": "Sat", "time": "3:30pm"}, {"days": "Sun", "time": "Closed"}], "id": "9324500001", "name": "USPS COLLECTION BOX - BLUE BOX", "address": {"city": "LEMOORE", "state": "CA", "street": "206 C ST", "postcode": "93245"}}},
{"geometry": {"type": "Point", "coordinates": [-119.7832073706, 36.3010064685]}, "type": "Feature", "properties": {"collection_times": [{"days": "Mon-Fri", "time": "4:30pm"}, {"days": "Sat", "time": "3:30pm"}, {"days": "Sun", "time": "Closed"}], "id": "9324500002", "name": "USPS COLLECTION BOX - BLUE BOX", "address": {"city": "LEMOORE", "state": "CA", "street": "206 C ST", "postcode": "93245"}}},
{"geometry": {"type": "Point", "coordinates": [-119.7832073706, 36.3010064685]}, "type": "Feature", "properties": {"collection_times": [{"days": "Mon-Fri", "time": "4:30pm"}, {"days": "Sat", "time": "3:30pm"}, {"days": "Sun", "time": "Closed"}], "id": "9324500004", "name": "USPS COLLECTION BOX - BLUE BOX", "address": {"city": "LEMOORE", "state": "CA", "street": "206 C ST", "postcode": "93245"}}},
{"geometry": {"type": "Point", "coordinates": [-119.7832073706, 36.3010064685]}, "type": "Feature", "properties": {"collection_times": [{"days": "Mon-Fri", "time": "4:30pm"}, {"days": "Sat", "time": "3:30pm"}, {"days": "Sun", "time": "Closed"}], "id": "9324500006", "name": "USPS COLLECTION BOX - PO LOBBY", "address": {"city": "LEMOORE", "state": "CA", "street": "206 C ST", "postcode": "93245"}}},
{"geometry": {"type": "Point", "coordinates": [-119.7832073706, 36.3010064685]}, "type": "Feature", "properties": {"collection_times": [{"days": "Mon-Fri", "time": "4:30pm"}, {"days": "Sat", "time": "3:30pm"}, {"days": "Sun", "time": "Closed"}], "id": "9324500007", "name": "USPS COLLECTION BOX - PO LOBBY", "address": {"city": "LEMOORE", "state": "CA", "street": "206 C ST", "postcode": "93245"}}},
{"geometry": {"type": "Point", "coordinates": [-119.7832073706, 36.3010064685]}, "type": "Feature", "properties": {"collection_times": [{"days": "Mon-Fri", "time": "4:30pm"}, {"days": "Sat", "time": "3:30pm"}, {"days": "Sun", "time": "Closed"}], "id": "9324500009", "name": "USPS COLLECTION BOX - BLUE BOX", "address": {"city": "LEMOORE", "state": "CA", "street": "206 C ST", "postcode": "93245"}}},
{"geometry": {"type": "Point", "coordinates": [-119.8984580252, 36.2604090785]}, "type": "Feature", "properties": {"collection_times": [{"days": "Mon-Fri", "time": "4:00pm"}, {"days": "Sat-Sun", "time": "Closed"}], "id": "9324600001", "name": "USPS COLLECTION BOX - BLUE BOX", "address": {"city": "LEMOORE", "state": "CA", "street": "826 HANCOCK CIR", "postcode": "93246"}}},
{"geometry": {"type": "Point", "coordinates": [-119.8984580252, 36.2604090785]}, "type": "Feature", "properties": {"collection_times": [{"days": "Mon-Fri", "time": "4:00pm"}, {"days": "Sat-Sun", "time": "Closed"}], "id": "9324600002", "name": "USPS COLLECTION BOX - BLUE BOX", "address": {"city": "LEMOORE", "state": "CA", "street": "826 HANCOCK CIR", "postcode": "93246"}}},
{"geometry": {"type": "Point", "coordinates": [-119.0880125627, 36.2033083713]}, "type": "Feature", "properties": {"collection_times": [{"days": "Mon-Fri", "time": "4:00pm"}, {"days": "Sat", "time": "2:00pm"}, {"days": "Sun", "time": "Closed"}], "id": "9324700000", "name": "USPS COLLECTION BOX - BLUE BOX", "address": {"city": "LINDSAY", "state": "CA", "street": "262 E HONOLULU ST", "postcode": "93247"}}},
{"geometry": {"type": "Point", "coordinates": [-119.0880125627, 36.2033083713]}, "type": "Feature", "properties": {"collection_times": [{"days": "Mon-Fri", "time": "4:00pm"}, {"days": "Sat", "time": "2:00pm"}, {"days": "Sun", "time": "Closed"}], "id": "9324700001", "name": "USPS COLLECTION BOX - PO LOBBY", "address": {"city": "LINDSAY", "state": "CA", "street": "262 E HONOLULU ST", "postcode": "93247"}}},
{"geometry": {"type": "Point", "coordinates": [-119.0880125627, 36.2033083713]}, "type": "Feature", "properties": {"collection_times": [{"days": "Mon-Fri", "time": "4:00pm"}, {"days": "Sat", "time": "2:00pm"}, {"days": "Sun", "time": "Closed"}], "id": "9324700011", "name": "USPS COLLECTION BOX - BLUE BOX", "address": {"city": "LINDSAY", "state": "CA", "street": "262 E HONOLULU ST", "postcode": "93247"}}},
{"geometry": {"type": "Point", "coordinates": [-119.6941536386, 35.6160603331]}, "type": "Feature", "properties": {"collection_times": [{"days": "Mon-Fri", "time": "3:25pm"}, {"days": "Sat", "time": "10:15am"}, {"days": "Sun", "time": "Closed"}], "id": "9324900000", "name": "USPS COLLECTION BOX - BLUE BOX", "address": {"city": "LOST HILLS", "state": "CA", "street": "21155 HIGHWAY 46", "postcode": "93249"}}},
{"geometry": {"type": "Point", "coordinates": [-119.6941536386, 35.6160603331]}, "type": "Feature", "properties": {"collection_times": [{"days": "Mon-Fri", "time": "3:25pm"}, {"days": "Sat", "time": "10:15am"}, {"days": "Sun", "time": "Closed"}], "id": "9324900001", "name": "USPS COLLECTION BOX - PO LOBBY", "address": {"city": "LOST HILLS", "state": "CA", "street": "21155 HIGHWAY 46", "postcode": "93249"}}},
{"geometry": {"type": "Point", "coordinates": [-119.2308756675, 35.6773522504]}, "type": "Feature", "properties": {"collection_times": [{"days": "Mon-Fri", "time": "4:15pm"}, {"days": "Sat", "time": "8:30am"}, {"days": "Sun", "time": "Closed"}], "id": "9325000000", "name": "USPS COLLECTION BOX - BLUE BOX", "address": {"city": "MCFARLAND", "state": "CA", "street": "633 2ND ST", "postcode": "93250"}}},
{"geometry": {"type": "Point", "coordinates": [-119.6624372189, 35.3643199711]}, "type": "Feature", "properties": {"collection_times": [{"days": "Mon-Fri", "time": "4:00pm"}, {"days": "Sat", "time": "9:00am"}, {"days": "Sun", "time": "Closed"}], "id": "9325100000", "name": "USPS COLLECTION BOX - BLUE BOX", "address": {"city": "MC KITTRICK", "state": "CA", "street": "23263 2ND ST", "postcode": "93251"}}},
{"geometry": {"type": "Point", "coordinates": [-119.6624372189, 35.3643199711]}, "type": "Feature", "properties": {"collection_times": [{"days": "Mon-Fri", "time": "4:15pm"}, {"days": "Sat", "time": "9:00am"}, {"days": "Sun", "time": "Closed"}], "id": "9325100001", "name": "USPS COLLECTION BOX - PO LOBBY", "address": {"city": "MC KITTRICK", "state": "CA", "street": "23263 2ND ST", "postcode": "93251"}}},
{"geometry": {"type": "Point", "coordinates": [-119.4017754883, 35.0639733949]}, "type": "Feature", "properties": {"collection_times": [{"days": "Mon-Fri", "time": "4:00pm"}, {"days": "Sat", "time": "8:45am"}, {"days": "Sun", "time": "Closed"}], "id": "9325200000", "name": "USPS COLLECTION BOX - BLUE BOX", "address": {"city": "MARICOPA", "state": "CA", "street": "345 CALIFORNIA ST", "postcode": "93252"}}},
{"geometry": {"type": "Point", "coordinates": [-119.4017754883, 35.0639733949]}, "type": "Feature", "properties": {"collection_times": [{"days": "Mon-Fri", "time": "4:00pm"}, {"days": "Sat", "time": "8:45am"}, {"days": "Sun", "time": "Closed"}], "id": "9325200001", "name": "USPS COLLECTION BOX - PO LOBBY", "address": {"city": "MARICOPA", "state": "CA", "street": "345 CALIFORNIA ST", "postcode": "93252"}}},
{"geometry": {"type": "Point", "coordinates": [-119.6892401948, 34.9477946673]}, "type": "Feature", "properties": {"collection_times": [{"days": "Mon-Fri", "time": "3:30pm"}, {"days": "Sat", "time": "9:00am"}, {"days": "Sun", "time": "Closed"}], "id": "9325400000", "name": "USPS COLLECTION BOX - BLUE BOX", "address": {"city": "NEW CUYAMA", "state": "CA", "street": "4855 PRIMERO ST", "postcode": "93254"}}},
{"geometry": {"type": "Point", "coordinates": [-119.6892401948, 34.9477946673]}, "type": "Feature", "properties": {"collection_times": [{"days": "Mon-Fri", "time": "4:00pm"}, {"days": "Sat", "time": "9:00am"}, {"days": "Sun", "time": "Closed"}], "id": "9325400001", "name": "USPS COLLECTION BOX - PO LOBBY", "address": {"city": "NEW CUYAMA", "state": "CA", "street": "4855 PRIMERO ST", "postcode": "93254"}}},
{"geometry": {"type": "Point", "coordinates": [-118.2234316247, 35.6924014069]}, "type": "Feature", "properties": {"collection_times": [{"days": "Mon-Fri", "time": "2:30pm"}, {"days": "Sat", "time": "9:00am"}, {"days": "Sun", "time": "Closed"}], "id": "9325500000", "name": "USPS COLLECTION BOX - BLUE BOX", "address": {"city": "ONYX", "state": "CA", "street": "8275 EASY ST", "postcode": "93255"}}},
{"geometry": {"type": "Point", "coordinates": [-118.2234316247, 35.6924014069]}, "type": "Feature", "properties": {"collection_times": [{"days": "Mon-Fri", "time": "2:45pm"}, {"days": "Sat", "time": "9:00am"}, {"days": "Sun", "time": "Closed"}], "id": "9325500001", "name": "USPS COLLECTION BOX - PO LOBBY", "address": {"city": "ONYX", "state": "CA", "street": "8275 EASY ST", "postcode": "93255"}}},
{"geometry": {"type": "Point", "coordinates": [-119.2931671315, 35.9681522161]}, "type": "Feature", "properties": {"collection_times": [{"days": "Mon-Fri", "time": "3:30pm"}, {"days": "Sat", "time": "9:00am"}, {"days": "Sun", "time": "Closed"}], "id": "9325600001", "name": "USPS COLLECTION BOX - PO LOBBY", "address": {"city": "PIXLEY", "state": "CA", "street": "570 S MAIN ST", "postcode": "93256"}}},
{"geometry": {"type": "Point", "coordinates": [-119.0173500587, 36.067059762]}, "type": "Feature", "properties": {"collection_times": [{"days": "Mon-Sat", "time": "12:00pm"}, {"days": "Sun", "time": "Closed"}], "id": "9325700001", "name": "USPS COLLECTION BOX - BLUE BOX", "address": {"city": "PORTERVILLE", "state": "CA", "street": "100 N HOCKETT ST", "postcode": "93257"}}},
{"geometry": {"type": "Point", "coordinates": [-119.0173500587, 36.067059762]}, "type": "Feature", "properties": {"collection_times": [{"days": "Mon-Sat", "time": "12:00pm"}, {"days": "Sun", "time": "Closed"}], "id": "9325700002", "name": "USPS COLLECTION BOX - BLUE BOX", "address": {"city": "PORTERVILLE", "state": "CA", "street": "100 N HOCKETT ST", "postcode": "93257"}}},
{"geometry": {"type": "Point", "coordinates": [-119.0176926987, 36.0687892612]}, "type": "Feature", "properties": {"collection_times": [{"days": "Mon-Fri", "time": "4:00pm"}, {"days": "Sat", "time": "2:00pm"}, {"days": "Sun", "time": "Closed"}], "id": "9325700005", "name": "USPS COLLECTION BOX - PO LOBBY", "address": {"city": "PORTERVILLE", "state": "CA", "street": "65 W MILL AVE", "postcode": "93257"}}},
{"geometry": {"type": "Point", "coordinates": [-119.0425810237, 36.0803457017]}, "type": "Feature", "properties": {"collection_times": [{"days": "Mon-Sat", "time": "10:00am"}, {"days": "Sun", "time": "Closed"}], "id": "9325700013", "name": "USPS COLLECTION BOX - BLUE BOX", "address": {"city": "PORTERVILLE", "state": "CA", "street": "1155 W HENDERSON AVE", "postcode": "93257"}}},
{"geometry": {"type": "Point", "coordinates": [-119.0176926987, 36.0687892612]}, "type": "Feature", "properties": {"collection_times": [{"days": "Mon-Fri", "time": "4:00pm"}, {"days": "Sat", "time": "2:00pm"}, {"days": "Sun", "time": "Closed"}], "id": "9325700034", "name": "USPS COLLECTION BOX - APC", "address": {"city": "PORTERVILLE", "state": "CA", "street": "65 W MILL ST", "postcode": "93257"}}},
{"geometry": {"type": "Point", "coordinates": [-119.0303019096, 36.0696091662]}, "type": "Feature", "properties": {"collection_times": [{"days": "Mon-Sat", "time": "12:00pm"}, {"days": "Sun", "time": "Closed"}], "id": "9325700036", "name": "USPS COLLECTION BOX - BLUE BOX", "address": {"city": "PORTERVILLE", "state": "CA", "street": "591 W PUTNAM AVE", "postcode": "93257"}}},
{"geometry": {"type": "Point", "coordinates": [-118.6749018943, 35.8069532328]}, "type": "Feature", "properties": {"collection_times": [{"days": "Mon-Sat", "time": "11:30am"}, {"days": "Sun", "time": "Closed"}], "id": "9326000000", "name": "USPS COLLECTION BOX - BLUE BOX", "address": {"city": "POSEY", "state": "CA", "street": "42575 OLD STAGE RD", "postcode": "93260"}}},
{"geometry": {"type": "Point", "coordinates": [-118.6749018943, 35.8069532328]}, "type": "Feature", "properties": {"collection_times": [{"days": "Mon-Fri", "time": "1:00pm"}, {"days": "Sat", "time": "11:30am"}, {"days": "Sun", "time": "Closed"}], "id": "9326000001", "name": "USPS COLLECTION BOX - PO LOBBY", "address": {"city": "POSEY", "state": "CA", "street": "42575 OLD STAGE RD", "postcode": "93260"}}},
{"geometry": {"type": "Point", "coordinates": [-119.1036697972, 35.7984829814]}, "type": "Feature", "properties": {"collection_times": [{"days": "Mon-Fri", "time": "4:15pm"}, {"days": "Sat", "time": "10:00am"}, {"days": "Sun", "time": "Closed"}], "id": "9326100000", "name": "USPS COLLECTION BOX - BLUE BOX", "address": {"city": "RICHGROVE", "state": "CA", "street": "20920 GROVE DR", "postcode": "93261"}}},
{"geometry": {"type": "Point", "coordinates": [-119.1036697972, 35.7984829814]}, "type": "Feature", "properties": {"collection_times": [{"days": "Mon-Fri", "time": "4:15pm"}, {"days": "Sat", "time": "10:00am"}, {"days": "Sun", "time": "Closed"}], "id": "9326100001", "name": "USPS COLLECTION BOX - PO LOBBY", "address": {"city": "RICHGROVE", "state": "CA", "street": "20920 GROVE DR", "postcode": "93261"}}},
{"geometry": {"type": "Point", "coordinates": [-118.7505987096, 36.6063716498]}, "type": "Feature", "properties": {"collection_times": [{"days": "Mon-Fri", "time": "10:30am"}, {"days": "Sat-Sun", "time": "Closed"}], "id": "9326200000", "name": "USPS COLLECTION BOX - PO LOBBY", "address": {"city": "SEQ NATL PK", "state": "CA", "street": "63228 GENERALS HWY", "postcode": "93262"}}},
{"geometry": {"type": "Point", "coordinates": [-118.7505987096, 36.6063716498]}, "type": "Feature", "properties": {"collection_times": [{"days": "Mon-Fri", "time": "10:30am"}, {"days": "Sat-Sun", "time": "Closed"}], "id": "9326200002", "name": "USPS COLLECTION BOX - BLUE BOX", "address": {"city": "SEQ NATL PK", "state": "CA", "street": "63228 GENERALS HWY", "postcode": "93262"}}},
{"geometry": {"type": "Point", "coordinates": [-118.7538825123, 36.6057780838]}, "type": "Feature", "properties": {"collection_times": [{"days": "Mon-Fri", "time": "11:00am"}, {"days": "Sat-Sun", "time": "Closed"}], "id": "9326200003", "name": "USPS COLLECTION BOX - BLUE BOX", "address": {"city": "SEQ NATL PK", "state": "CA", "street": "64740 WUKSACHI WAY", "postcode": "93262"}}},
{"geometry": {"type": "Point", "coordinates": [-119.2733743039, 35.5005882965]}, "type": "Feature", "properties": {"collection_times": [{"days": "Mon-Fri", "time": "5:00pm"}, {"days": "Sat", "time": "1:30pm"}, {"days": "Sun", "time": "Closed"}], "id": "9326300001", "name": "USPS COLLECTION BOX - BLUE BOX", "address": {"city": "SHAFTER", "state": "CA", "street": "322 STATE AVE", "postcode": "93263"}}},
{"geometry": {"type": "Point", "coordinates": [-119.2733743039, 35.5005882965]}, "type": "Feature", "properties": {"collection_times": [{"days": "Mon-Fri", "time": "5:00pm"}, {"days": "Sat", "time": "1:30pm"}, {"days": "Sun", "time": "Closed"}], "id": "9326300002", "name": "USPS COLLECTION BOX - BLUE BOX", "address": {"city": "SHAFTER", "state": "CA", "street": "322 STATE AVE", "postcode": "93263"}}},
{"geometry": {"type": "Point", "coordinates": [-119.2733743039, 35.5005882965]}, "type": "Feature", "properties": {"collection_times": [{"days": "Mon-Fri", "time": "5:00pm"}, {"days": "Sat", "time": "1:30pm"}, {"days": "Sun", "time": "Closed"}], "id": "9326300003", "name": "USPS COLLECTION BOX - BLUE BOX", "address": {"city": "SHAFTER", "state": "CA", "street": "322 STATE AVE", "postcode": "93263"}}},
{"geometry": {"type": "Point", "coordinates": [-119.2733743039, 35.5005882965]}, "type": "Feature", "properties": {"collection_times": [{"days": "Mon-Fri", "time": "5:00pm"}, {"days": "Sat", "time": "1:30pm"}, {"days": "Sun", "time": "Closed"}], "id": "9326300009", "name": "USPS COLLECTION BOX - PO LOBBY", "address": {"city": "SHAFTER", "state": "CA", "street": "322 STATE AVE", "postcode": "93263"}}},
{"geometry": {"type": "Point", "coordinates": [-119.2733743039, 35.5005882965]}, "type": "Feature", "properties": {"collection_times": [{"days": "Mon-Fri", "time": "5:00pm"}, {"days": "Sat", "time": "1:30pm"}, {"days": "Sun", "time": "Closed"}], "id": "9326300010", "name": "USPS COLLECTION BOX - BLUE BOX", "address": {"city": "SHAFTER", "state": "CA", "street": "322 STATE AVE", "postcode": "93263"}}},
{"geometry": {"type": "Point", "coordinates": [-119.2733743039, 35.5005882965]}, "type": "Feature", "properties": {"collection_times": [{"days": "Mon-Fri", "time": "5:00pm"}, {"days": "Sat", "time": "1:30pm"}, {"days": "Sun", "time": "Closed"}], "id": "9326300011", "name": "USPS COLLECTION BOX - PO LOBBY", "address": {"city": "SHAFTER", "state": "CA", "street": "322 STATE AVE", "postcode": "93263"}}},
{"geometry": {"type": "Point", "coordinates": [-118.8218709579, 36.126379342]}, "type": "Feature", "properties": {"collection_times": [{"days": "Mon-Fri", "time": "3:00pm"}, {"days": "Sat", "time": "12:00pm"}, {"days": "Sun", "time": "Closed"}], "id": "9326500000", "name": "USPS COLLECTION BOX - BLUE BOX", "address": {"city": "SPRINGVILLE", "state": "CA", "street": "35701 HIGHWAY 190", "postcode": "93265"}}},
{"geometry": {"type": "Point", "coordinates": [-118.8218709579, 36.126379342]}, "type": "Feature", "properties": {"collection_times": [{"days": "Mon-Fri", "time": "3:00pm"}, {"days": "Sat", "time": "12:00pm"}, {"days": "Sun", "time": "Closed"}], "id": "9326500001", "name": "USPS COLLECTION BOX - PO LOBBY", "address": {"city": "SPRINGVILLE", "state": "CA", "street": "35701 HIGHWAY 190", "postcode": "93265"}}},
{"geometry": {"type": "Point", "coordinates": [-119.8104892383, 36.1894931706]}, "type": "Feature", "properties": {"collection_times": [{"days": "Mon-Fri", "time": "3:30pm"}, {"days": "Sat", "time": "9:00am"}, {"days": "Sun", "time": "Closed"}], "id": "9326600000", "name": "USPS COLLECTION BOX - BLUE BOX", "address": {"city": "STRATFORD", "state": "CA", "street": "20340 MAIN ST", "postcode": "93266"}}},
{"geometry": {"type": "Point", "coordinates": [-119.8104892383, 36.1894931706]}, "type": "Feature", "properties": {"collection_times": [{"days": "Mon-Fri", "time": "3:30pm"}, {"days": "Sat", "time": "9:00am"}, {"days": "Sun", "time": "Closed"}], "id": "9326600001", "name": "USPS COLLECTION BOX - PO LOBBY", "address": {"city": "STRATFORD", "state": "CA", "street": "20340 MAIN ST", "postcode": "93266"}}},
{"geometry": {"type": "Point", "coordinates": [-119.062702004, 36.1497260499]}, "type": "Feature", "properties": {"collection_times": [{"days": "Mon-Fri", "time": "4:00pm"}, {"days": "Sat", "time": "8:30am"}, {"days": "Sun", "time": "Closed"}], "id": "9326700000", "name": "USPS COLLECTION BOX - BLUE BOX", "address": {"city": "STRATHMORE", "state": "CA", "street": "19708 ORANGEBELT DR", "postcode": "93267"}}},
{"geometry": {"type": "Point", "coordinates": [-119.062702004, 36.1497260499]}, "type": "Feature", "properties": {"collection_times": [{"days": "Mon-Fri", "time": "4:00pm"}, {"days": "Sat", "time": "8:30am"}, {"days": "Sun", "time": "Closed"}], "id": "9326700001", "name": "USPS COLLECTION BOX - PO LOBBY", "address": {"city": "STRATHMORE", "state": "CA", "street": "19708 ORANGEBELT DR", "postcode": "93267"}}},
{"geometry": {"type": "Point", "coordinates": [-119.4578019863, 35.1415743092]}, "type": "Feature", "properties": {"collection_times": [{"days": "Mon-Fri", "time": "5:00pm"}, {"days": "Sat", "time": "2:30pm"}, {"days": "Sun", "time": "Closed"}], "id": "9326800000", "name": "USPS COLLECTION BOX - BLUE BOX", "address": {"city": "TAFT", "state": "CA", "street": "427 NORTH ST", "postcode": "93268"}}},
{"geometry": {"type": "Point", "coordinates": [-119.4578019863, 35.1415743092]}, "type": "Feature", "properties": {"collection_times": [{"days": "Mon-Fri", "time": "5:00pm"}, {"days": "Sat", "time": "2:30pm"}, {"days": "Sun", "time": "Closed"}], "id": "9326800001", "name": "USPS COLLECTION BOX - BLUE BOX", "address": {"city": "TAFT", "state": "CA", "street": "427 NORTH ST", "postcode": "93268"}}},
{"geometry": {"type": "Point", "coordinates": [-119.4578019863, 35.1415743092]}, "type": "Feature", "properties": {"collection_times": [{"days": "Mon-Fri", "time": "5:00pm"}, {"days": "Sat", "time": "2:30pm"}, {"days": "Sun", "time": "Closed"}], "id": "9326800002", "name": "USPS COLLECTION BOX - PO LOBBY", "address": {"city": "TAFT", "state": "CA", "street": "427 NORTH ST", "postcode": "93268"}}},
{"geometry": {"type": "Point", "coordinates": [-119.4578019863, 35.1415743092]}, "type": "Feature", "properties": {"collection_times": [{"days": "Mon-Fri", "time": "5:00pm"}, {"days": "Sat", "time": "2:30pm"}, {"days": "Sun", "time": "Closed"}], "id": "9326800003", "name": "USPS COLLECTION BOX - PO LOBBY", "address": {"city": "TAFT", "state": "CA", "street": "427 NORTH ST", "postcode": "93268"}}},
{"geometry": {"type": "Point", "coordinates": [-119.4578019863, 35.1415743092]}, "type": "Feature", "properties": {"collection_times": [{"days": "Mon-Fri", "time": "5:00pm"}, {"days": "Sat", "time": "2:30pm"}, {"days": "Sun", "time": "Closed"}], "id": "9326800006", "name": "USPS COLLECTION BOX - BLUE BOX", "address": {"city": "TAFT", "state": "CA", "street": "427 NORTH ST", "postcode": "93268"}}},
{"geometry": {"type": "Point", "coordinates": [-119.4578019863, 35.1415743092]}, "type": "Feature", "properties": {"collection_times": [{"days": "Mon-Fri", "time": "5:00pm"}, {"days": "Sat", "time": "2:30pm"}, {"days": "Sun", "time": "Closed"}], "id": "9326800007", "name": "USPS COLLECTION BOX - BLUE BOX", "address": {"city": "TAFT", "state": "CA", "street": "427 NORTH ST", "postcode": "93268"}}},
{"geometry": {"type": "Point", "coordinates": [-119.4665144791, 35.1453881689]}, "type": "Feature", "properties": {"collection_times": [{"days": "Mon-Sat", "time": "8:30am"}, {"days": "Sun", "time": "Closed"}], "id": "9326800013", "name": "USPS COLLECTION BOX - BLUE BOX", "address": {"city": "TAFT", "state": "CA", "street": "1044 KERN ST", "postcode": "93268"}}},
{"geometry": {"type": "Point", "coordinates": [-119.4578019863, 35.1415743092]}, "type": "Feature", "properties": {"collection_times": [{"days": "Mon-Fri", "time": "5:00pm"}, {"days": "Sat", "time": "2:30pm"}, {"days": "Sun", "time": "Closed"}], "id": "9326800019", "name": "USPS COLLECTION BOX - PO LOBBY", "address": {"city": "TAFT", "state": "CA", "street": "427 NORTH ST", "postcode": "93268"}}},
{"geometry": {"type": "Point", "coordinates": [-119.4578019863, 35.1415743092]}, "type": "Feature", "properties": {"collection_times": [{"days": "Mon-Fri", "time": "5:00pm"}, {"days": "Sat", "time": "2:30pm"}, {"days": "Sun", "time": "Closed"}], "id": "9326800020", "name": "USPS COLLECTION BOX - PO LOBBY", "address": {"city": "TAFT", "state": "CA", "street": "427 NORTH ST", "postcode": "93268"}}},
{"geometry": {"type": "Point", "coordinates": [-119.0449265702, 35.9256246696]}, "type": "Feature", "properties": {"collection_times": [{"days": "Mon-Fri", "time": "3:45pm"}, {"days": "Sat", "time": "9:00am"}, {"days": "Sun", "time": "Closed"}], "id": "9327000001", "name": "USPS COLLECTION BOX - BLUE BOX", "address": {"city": "TERRA BELLA", "state": "CA", "street": "9622 ROAD 236", "postcode": "93270"}}},
{"geometry": {"type": "Point", "coordinates": [-119.0449265702, 35.9256246696]}, "type": "Feature", "properties": {"collection_times": [{"days": "Mon-Fri", "time": "3:45pm"}, {"days": "Sat", "time": "9:00am"}, {"days": "Sun", "time": "Closed"}], "id": "9327000002", "name": "USPS COLLECTION BOX - PO LOBBY", "address": {"city": "TERRA BELLA", "state": "CA", "street": "9622 ROAD 236", "postcode": "93270"}}},
{"geometry": {"type": "Point", "coordinates": [-118.9250891337, 36.4146767512]}, "type": "Feature", "properties": {"collection_times": [{"days": "Mon-Fri", "time": "2:45pm"}, {"days": "Sat", "time": "12:30pm"}, {"days": "Sun", "time": "Closed"}], "id": "9327100001", "name": "USPS COLLECTION BOX - BLUE BOX", "address": {"city": "THREE RIVERS", "state": "CA", "street": "40857 SIERRA DR", "postcode": "93271"}}},
{"geometry": {"type": "Point", "coordinates": [-118.9250891337, 36.4146767512]}, "type": "Feature", "properties": {"collection_times": [{"days": "Mon-Fri", "time": "2:45pm"}, {"days": "Sat", "time": "12:30pm"}, {"days": "Sun", "time": "Closed"}], "id": "9327100002", "name": "USPS COLLECTION BOX - PO LOBBY", "address": {"city": "THREE RIVERS", "state": "CA", "street": "40857 SIERRA DR", "postcode": "93271"}}},
{"geometry": {"type": "Point", "coordinates": [-118.9250891337, 36.4146767512]}, "type": "Feature", "properties": {"collection_times": [{"days": "Mon-Fri", "time": "2:45pm"}, {"days": "Sat", "time": "12:30pm"}, {"days": "Sun", "time": "Closed"}], "id": "9327100004", "name": "USPS COLLECTION BOX - BLUE BOX", "address": {"city": "THREE RIVERS", "state": "CA", "street": "40857 SIERRA DR", "postcode": "93271"}}},
{"geometry": {"type": "Point", "coordinates": [-119.3331688714, 36.0474490337]}, "type": "Feature", "properties": {"collection_times": [{"days": "Mon-Fri", "time": "3:30pm"}, {"days": "Sat", "time": "9:00am"}, {"days": "Sun", "time": "Closed"}], "id": "9327200001", "name": "USPS COLLECTION BOX - PO LOBBY", "address": {"city": "TIPTON", "state": "CA", "street": "221 N GRAMHAM RD", "postcode": "93272"}}},
{"geometry": {"type": "Point", "coordinates": [-119.3381528692, 36.2201095621]}, "type": "Feature", "properties": {"collection_times": [{"days": "Mon-Sat", "time": "10:00am"}, {"days": "Sun", "time": "Closed"}], "id": "9327400018", "name": "USPS COLLECTION BOX - BLUE BOX", "address": {"city": "TULARE", "state": "CA", "street": "755 E TERRACE AVE", "postcode": "93274"}}},
{"geometry": {"type": "Point", "coordinates": [-119.3459603139, 36.2070465217]}, "type": "Feature", "properties": {"collection_times": [{"days": "Mon-Sat", "time": "10:00am"}, {"days": "Sun", "time": "Closed"}], "id": "9327400038", "name": "USPS COLLECTION BOX - BLUE BOX", "address": {"city": "TULARE", "state": "CA", "street": "160 S K ST", "postcode": "93274"}}},
{"geometry": {"type": "Point", "coordinates": [-119.3442910525, 36.2083810548]}, "type": "Feature", "properties": {"collection_times": [{"days": "Mon-Fri", "time": "4:00pm"}, {"days": "Sat", "time": "12:00pm"}, {"days": "Sun", "time": "Closed"}], "id": "9327500007", "name": "USPS COLLECTION BOX - PO LOBBY", "address": {"city": "TULARE", "state": "CA", "street": "340 E TULARE AVE", "postcode": "93275"}}},
{"geometry": {"type": "Point", "coordinates": [-119.3442910525, 36.2083810548]}, "type": "Feature", "properties": {"collection_times": [{"days": "Mon-Fri", "time": "4:00pm"}, {"days": "Sat", "time": "2:00pm"}, {"days": "Sun", "time": "Closed"}], "id": "9327500010", "name": "USPS COLLECTION BOX - BLUE BOX", "address": {"city": "TULARE", "state": "CA", "street": "340 E TULARE AVE", "postcode": "93275"}}},
{"geometry": {"type": "Point", "coordinates": [-119.315163023, 36.3092649002]}, "type": "Feature", "properties": {"collection_times": [{"days": "Mon-Sat", "time": "4:00pm"}, {"days": "Sun", "time": "Closed"}], "id": "9327700000", "name": "USPS COLLECTION BOX - PO LOBBY", "address": {"city": "VISALIA", "state": "CA", "street": "2345 W BEECH AVE", "postcode": "93277"}}},
{"geometry": {"type": "Point", "coordinates": [-119.315163023, 36.3092649002]}, "type": "Feature", "properties": {"collection_times": [{"days": "Mon-Sat", "time": "4:00pm"}, {"days": "Sun", "time": "Closed"}], "id": "9327700004", "name": "USPS COLLECTION BOX - BLUE BOX", "address": {"city": "VISALIA", "state": "CA", "street": "2345 W BEECH AVE", "postcode": "93277"}}},
{"geometry": {"type": "Point", "coordinates": [-119.315163023, 36.3092649002]}, "type": "Feature", "properties": {"collection_times": [{"days": "Mon-Sat", "time": "4:00pm"}, {"days": "Sun", "time": "Closed"}], "id": "9327700005", "name": "USPS COLLECTION BOX - BLUE BOX", "address": {"city": "VISALIA", "state": "CA", "street": "2345 W BEECH AVE", "postcode": "93277"}}},
{"geometry": {"type": "Point", "coordinates": [-119.315163023, 36.3092649002]}, "type": "Feature", "properties": {"collection_times": [{"days": "Mon-Sat", "time": "4:00pm"}, {"days": "Sun", "time": "Closed"}], "id": "9327700044", "name": "USPS COLLECTION BOX - BLUE BOX", "address": {"city": "VISALIA", "state": "CA", "street": "2345 W BEECH AVE", "postcode": "93277"}}},
{"geometry": {"type": "Point", "coordinates": [-119.3314998235, 36.2994474464]}, "type": "Feature", "properties": {"collection_times": [{"days": "Mon-Sat", "time": "10:00am"}, {"days": "Sun", "time": "Closed"}], "id": "9327700046", "name": "USPS COLLECTION BOX - BLUE BOX", "address": {"city": "VISALIA", "state": "CA", "street": "3435 S DEMAREE ST", "postcode": "93277"}}},
{"geometry": {"type": "Point", "coordinates": [-119.3350897518, 35.5928378172]}, "type": "Feature", "properties": {"collection_times": [{"days": "Mon-Fri", "time": "4:30pm"}, {"days": "Sat", "time": "3:15pm"}, {"days": "Sun", "time": "Closed"}], "id": "9328000009", "name": "USPS COLLECTION BOX - BLUE BOX", "address": {"city": "WASCO", "state": "CA", "street": "800 E ST", "postcode": "93280"}}},
{"geometry": {"type": "Point", "coordinates": [-119.3350897518, 35.5928378172]}, "type": "Feature", "properties": {"collection_times": [{"days": "Mon-Fri", "time": "4:30pm"}, {"days": "Sat", "time": "3:15pm"}, {"days": "Sun", "time": "Closed"}], "id": "9328000010", "name": "USPS COLLECTION BOX - BLUE BOX", "address": {"city": "WASCO", "state": "CA", "street": "800 E ST", "postcode": "93280"}}},
{"geometry": {"type": "Point", "coordinates": [-119.3350897518, 35.5928378172]}, "type": "Feature", "properties": {"collection_times": [{"days": "Mon-Fri", "time": "4:30pm"}, {"days": "Sat", "time": "3:15pm"}, {"days": "Sun", "time": "Closed"}], "id": "9328000011", "name": "USPS COLLECTION BOX - PO LOBBY", "address": {"city": "WASCO", "state": "CA", "street": "800 E ST", "postcode": "93280"}}},
{"geometry": {"type": "Point", "coordinates": [-119.3350897518, 35.5928378172]}, "type": "Feature", "properties": {"collection_times": [{"days": "Mon-Fri", "time": "4:30pm"}, {"days": "Sat", "time": "3:15pm"}, {"days": "Sun", "time": "Closed"}], "id": "9328000012", "name": "USPS COLLECTION BOX - BLUE BOX", "address": {"city": "WASCO", "state": "CA", "street": "800 E ST", "postcode": "93280"}}},
{"geometry": {"type": "Point", "coordinates": [-119.3350897518, 35.5928378172]}, "type": "Feature", "properties": {"collection_times": [{"days": "Mon-Fri", "time": "4:30pm"}, {"days": "Sat", "time": "3:15pm"}, {"days": "Sun", "time": "Closed"}], "id": "9328000013", "name": "USPS COLLECTION BOX - PO LOBBY", "address": {"city": "WASCO", "state": "CA", "street": "800 E ST", "postcode": "93280"}}},
{"geometry": {"type": "Point", "coordinates": [-119.3350897518, 35.5928378172]}, "type": "Feature", "properties": {"collection_times": [{"days": "Mon-Fri", "time": "4:30pm"}, {"days": "Sat", "time": "3:15pm"}, {"days": "Sun", "time": "Closed"}], "id": "9328000014", "name": "USPS COLLECTION BOX - PO LOBBY", "address": {"city": "WASCO", "state": "CA", "street": "800 E ST", "postcode": "93280"}}},
{"geometry": {"type": "Point", "coordinates": [-119.3350897518, 35.5928378172]}, "type": "Feature", "properties": {"collection_times": [{"days": "Mon-Fri", "time": "4:30pm"}, {"days": "Sat", "time": "3:15pm"}, {"days": "Sun", "time": "Closed"}], "id": "9328000015", "name": "USPS COLLECTION BOX - PO LOBBY", "address": {"city": "WASCO", "state": "CA", "street": "800 E ST", "postcode": "93280"}}},
{"geometry": {"type": "Point", "coordinates": [-118.3088090151, 35.6420533797]}, "type": "Feature", "properties": {"collection_times": [{"days": "Mon-Fri", "time": "2:30pm"}, {"days": "Sat", "time": "8:00am"}, {"days": "Sun", "time": "Closed"}], "id": "9328300000", "name": "USPS COLLECTION BOX - BLUE BOX", "address": {"city": "WELDON", "state": "CA", "street": "5765 VISTA GRANDE DR", "postcode": "93283"}}},
{"geometry": {"type": "Point", "coordinates": [-118.3088090151, 35.6420533797]}, "type": "Feature", "properties": {"collection_times": [{"days": "Mon-Fri", "time": "2:45pm"}, {"days": "Sat", "time": "8:15am"}, {"days": "Sun", "time": "Closed"}], "id": "9328300001", "name": "USPS COLLECTION BOX - PO LOBBY", "address": {"city": "WELDON", "state": "CA", "street": "5765 VISTA GRANDE DR", "postcode": "93283"}}},
{"geometry": {"type": "Point", "coordinates": [-118.458314042, 35.703613492]}, "type": "Feature", "properties": {"collection_times": [{"days": "Mon-Fri", "time": "3:15pm"}, {"days": "Sat", "time": "10:30am"}, {"days": "Sun", "time": "Closed"}], "id": "9328500000", "name": "USPS COLLECTION BOX - BLUE BOX", "address": {"city": "WOFFORD HTS", "state": "CA", "street": "6336 WOFFORD HEIGHTS BLVD", "postcode": "93285"}}},
{"geometry": {"type": "Point", "coordinates": [-118.458314042, 35.703613492]}, "type": "Feature", "properties": {"collection_times": [{"days": "Mon-Fri", "time": "3:30pm"}, {"days": "Sat", "time": "10:30am"}, {"days": "Sun", "time": "Closed"}], "id": "9328500001", "name": "USPS COLLECTION BOX - PO LOBBY", "address": {"city": "WOFFORD HTS", "state": "CA", "street": "6336 WOFFORD HEIGHTS BLVD", "postcode": "93285"}}},
{"geometry": {"type": "Point", "coordinates": [-118.458314042, 35.703613492]}, "type": "Feature", "properties": {"collection_times": [{"days": "Mon-Fri", "time": "3:30pm"}, {"days": "Sat", "time": "10:30am"}, {"days": "Sun", "time": "Closed"}], "id": "9328500002", "name": "USPS COLLECTION BOX - PO LOBBY", "address": {"city": "WOFFORD HTS", "state": "CA", "street": "6336 WOFFORD HEIGHTS BLVD", "postcode": "93285"}}},
{"geometry": {"type": "Point", "coordinates": [-119.098859677, 36.417588637]}, "type": "Feature", "properties": {"collection_times": [{"days": "Mon-Fri", "time": "3:45pm"}, {"days": "Sat", "time": "12:00pm"}, {"days": "Sun", "time": "Closed"}], "id": "9328600001", "name": "USPS COLLECTION BOX - BLUE BOX", "address": {"city": "WOODLAKE", "state": "CA", "street": "310 N VALENCIA BLVD", "postcode": "93286"}}},
{"geometry": {"type": "Point", "coordinates": [-119.0988261446, 36.4175944569]}, "type": "Feature", "properties": {"collection_times": [{"days": "Mon-Fri", "time": "3:45pm"}, {"days": "Sat", "time": "12:00pm"}, {"days": "Sun", "time": "Closed"}], "id": "9328600002", "name": "USPS COLLECTION BOX - PO LOBBY", "address": {"city": "WOODLAKE", "state": "CA", "street": "310 N VALENCIA BLVD", "postcode": "93286"}}},
{"geometry": {"type": "Point", "coordinates": [-119.0988261446, 36.4175944569]}, "type": "Feature", "properties": {"collection_times": [{"days": "Mon-Fri", "time": "3:45pm"}, {"days": "Sat", "time": "12:00pm"}, {"days": "Sun", "time": "Closed"}], "id": "9328600004", "name": "USPS COLLECTION BOX - BLUE BOX", "address": {"city": "WOODLAKE", "state": "CA", "street": "310 N VALENCIA BLVD", "postcode": "93286"}}},
{"geometry": {"type": "Point", "coordinates": [-118.9268190725, 35.7461213989]}, "type": "Feature", "properties": {"collection_times": [{"days": "Mon-Fri", "time": "1:00pm"}, {"days": "Sat", "time": "10:30am"}, {"days": "Sun", "time": "Closed"}], "id": "9328700000", "name": "USPS COLLECTION BOX - PO LOBBY", "address": {"city": "WOODY", "state": "CA", "street": "28985 HIGHWAY 155", "postcode": "93287"}}},
{"geometry": {"type": "Point", "coordinates": [-119.29232, 36.32815]}, "type": "Feature", "properties": {"collection_times": [{"days": "Mon-Fri", "time": "3:30pm"}, {"days": "Sat", "time": "3:00pm"}, {"days": "Sun", "time": "Closed"}], "id": "9329100000", "name": "USPS COLLECTION BOX - BLUE BOX", "address": {"city": "VISALIA", "state": "CA", "street": "300 S COURT ST", "postcode": "93291"}}},
{"geometry": {"type": "Point", "coordinates": [-119.29232, 36.32815]}, "type": "Feature", "properties": {"collection_times": [{"days": "Mon-Fri", "time": "3:30pm"}, {"days": "Sat", "time": "3:00pm"}, {"days": "Sun", "time": "Closed"}], "id": "9329100001", "name": "USPS COLLECTION BOX - BLUE BOX", "address": {"city": "VISALIA", "state": "CA", "street": "300 S COURT ST", "postcode": "93291"}}},
{"geometry": {"type": "Point", "coordinates": [-119.3271696789, 36.343624084]}, "type": "Feature", "properties": {"collection_times": [{"days": "Mon-Fri", "time": "3:30pm"}, {"days": "Sat", "time": "3:00pm"}, {"days": "Sun", "time": "Closed"}], "id": "9329100002", "name": "USPS COLLECTION BOX - BLUE BOX", "address": {"city": "VISALIA", "state": "CA", "street": "300 S LOCUST", "postcode": "93291"}}},
{"geometry": {"type": "Point", "coordinates": [-119.3271696789, 36.343624084]}, "type": "Feature", "properties": {"collection_times": [{"days": "Mon-Fri", "time": "3:30pm"}, {"days": "Sat", "time": "3:00pm"}, {"days": "Sun", "time": "Closed"}], "id": "9329100004", "name": "USPS COLLECTION BOX - BLUE BOX", "address": {"city": "VISALIA", "state": "CA", "street": "300 S LOCUST", "postcode": "93291"}}},
{"geometry": {"type": "Point", "coordinates": [-119.3271696789, 36.343624084]}, "type": "Feature", "properties": {"collection_times": [{"days": "Mon-Fri", "time": "3:30pm"}, {"days": "Sat", "time": "3:00pm"}, {"days": "Sun", "time": "Closed"}], "id": "9329100005", "name": "USPS COLLECTION BOX - BLUE BOX", "address": {"city": "VISALIA", "state": "CA", "street": "300  S LOCUST", "postcode": "93291"}}},
{"geometry": {"type": "Point", "coordinates": [-119.273687436, 36.3302067454]}, "type": "Feature", "properties": {"collection_times": [{"days": "Mon-Sat", "time": "3:00pm"}, {"days": "Sun", "time": "Closed"}], "id": "9329100010", "name": "USPS COLLECTION BOX - BLUE BOX", "address": {"city": "VISALIA", "state": "CA", "street": "1711 E MAIN ST", "postcode": "93291"}}},
{"geometry": {"type": "Point", "coordinates": [-119.2992701065, 36.3301192065]}, "type": "Feature", "properties": {"collection_times": [{"days": "Mon-Sat", "time": "3:00pm"}, {"days": "Sun", "time": "Closed"}], "id": "9329100014", "name": "USPS COLLECTION BOX - BLUE BOX", "address": {"city": "VISALIA", "state": "CA", "street": "701 W MAIN ST", "postcode": "93291"}}},
{"geometry": {"type": "Point", "coordinates": [-119.2912931973, 36.3302427289]}, "type": "Feature", "properties": {"collection_times": [{"days": "Mon-Sat", "time": "3:00pm"}, {"days": "Sun", "time": "Closed"}], "id": "9329100023", "name": "USPS COLLECTION BOX - BLUE BOX", "address": {"city": "VISALIA", "state": "CA", "street": "113 N CHURCH ST", "postcode": "93291"}}},
{"geometry": {"type": "Point", "coordinates": [-119.3319801049, 36.3378758684]}, "type": "Feature", "properties": {"collection_times": [{"days": "Mon-Sat", "time": "3:00pm"}, {"days": "Sun", "time": "Closed"}], "id": "9329100033", "name": "USPS COLLECTION BOX - BLUE BOX", "address": {"city": "VISALIA", "state": "CA", "street": "1001 N DEMAREE ST", "postcode": "93291"}}},
{"geometry": {"type": "Point", "coordinates": [-119.3253230258, 36.3279157189]}, "type": "Feature", "properties": {"collection_times": [{"days": "Mon-Sat", "time": "3:00pm"}, {"days": "Sun", "time": "Closed"}], "id": "9329100049", "name": "USPS COLLECTION BOX - BLUE BOX", "address": {"city": "VISALIA", "state": "CA", "street": "2929 W MAIN ST", "postcode": "93291"}}},
{"geometry": {"type": "Point", "coordinates": [-119.2921984133, 36.3369307783]}, "type": "Feature", "properties": {"collection_times": [{"days": "Mon-Sat", "time": "3:00pm"}, {"days": "Sun", "time": "Closed"}], "id": "9329100063", "name": "USPS COLLECTION BOX - BLUE BOX", "address": {"city": "VISALIA", "state": "CA", "street": "808 N COURT ST", "postcode": "93291"}}},
{"geometry": {"type": "Point", "coordinates": [-119.3271783691, 36.3435414827]}, "type": "Feature", "properties": {"collection_times": [{"days": "Mon-Fri", "time": "3:45pm"}, {"days": "Sat", "time": "3:00pm"}, {"days": "Sun", "time": "Closed"}], "id": "9329100069", "name": "USPS COLLECTION BOX - PO LOBBY", "address": {"city": "VISALIA", "state": "CA", "street": "111 W ACEQUIA AVE", "postcode": "93291"}}},
{"geometry": {"type": "Point", "coordinates": [-119.3496617925, 36.3299725196]}, "type": "Feature", "properties": {"collection_times": [{"days": "Mon-Fri", "time": "3:15pm"}, {"days": "Sat", "time": "2:00pm"}, {"days": "Sun", "time": "Closed"}], "id": "9329100070", "name": "USPS COLLECTION BOX - BLUE BOX", "address": {"city": "VISALIA", "state": "CA", "street": "100 N AKERS ST", "postcode": "93291"}}},
{"geometry": {"type": "Point", "coordinates": [-119.3496617925, 36.3299725196]}, "type": "Feature", "properties": {"collection_times": [{"days": "Mon-Fri", "time": "3:15pm"}, {"days": "Sat", "time": "12:00pm"}, {"days": "Sun", "time": "Closed"}], "id": "9329100071", "name": "USPS COLLECTION BOX - PO LOBBY", "address": {"city": "VISALIA", "state": "CA", "street": "100 N AKERS ST", "postcode": "93291"}}},
{"geometry": {"type": "Point", "coordinates": [-119.3496617925, 36.3299725196]}, "type": "Feature", "properties": {"collection_times": [{"days": "Mon-Fri", "time": "3:15pm"}, {"days": "Sat", "time": "2:00pm"}, {"days": "Sun", "time": "Closed"}], "id": "9329100073", "name": "USPS COLLECTION BOX - BLUE BOX", "address": {"city": "VISALIA", "state": "CA", "street": "100 N AKERS ST", "postcode": "93291"}}},
{"geometry": {"type": "Point", "coordinates": [-119.3505892324, 36.3295596669]}, "type": "Feature", "properties": {"collection_times": [{"days": "Mon-Sat", "time": "3:00pm"}, {"days": "Sun", "time": "Closed"}], "id": "9329100074", "name": "USPS COLLECTION BOX - BLUE BOX", "address": {"city": "VISALIA", "state": "CA", "street": "5333 W HILLSDALE AVE", "postcode": "93291"}}},
{"geometry": {"type": "Point", "coordinates": [-119.3505892324, 36.3295596669]}, "type": "Feature", "properties": {"collection_times": [{"days": "Mon-Sat", "time": "3:00pm"}, {"days": "Sun", "time": "Closed"}], "id": "9329100075", "name": "USPS COLLECTION BOX - BLUE BOX", "address": {"city": "VISALIA", "state": "CA", "street": "5333 W HILLSDALE AVE", "postcode": "93291"}}},
{"geometry": {"type": "Point", "coordinates": [-119.3507064262, 36.3417355572]}, "type": "Feature", "properties": {"collection_times": [{"days": "Mon-Sat", "time": "10:00am"}, {"days": "Sun", "time": "Closed"}], "id": "9329100076", "name": "USPS COLLECTION BOX - BLUE BOX", "address": {"city": "VISALIA", "state": "CA", "street": "5145 W GOSHEN AVE", "postcode": "93291"}}},
{"geometry": {"type": "Point", "coordinates": [-119.2786315238, 36.3260804509]}, "type": "Feature", "properties": {"collection_times": [{"days": "Mon-Sat", "time": "3:00pm"}, {"days": "Sun", "time": "Closed"}], "id": "9329200002", "name": "USPS COLLECTION BOX - BLUE BOX", "address": {"city": "VISALIA", "state": "CA", "street": "1591 E NOBLE AVE", "postcode": "93292"}}}
]}
