{"type": "FeatureCollection", "features": [
{"geometry": {"type": "Point", "coordinates": [-119.037787285, 35.3762630959]}, "type": "Feature", "properties": {"collection_times": [{"days": "Mon-Fri", "time": "1:30pm"}, {"days": "Sat", "time": "11:30am"}, {"days": "Sun", "time": "Closed"}], "id": "9330100018", "name": "USPS COLLECTION BOX - BLUE BOX", "address": {"city": "BAKERSFIELD", "state": "CA", "street": "3131 19TH ST", "postcode": "93301"}}},
{"geometry": {"type": "Point", "coordinates": [-119.0425691941, 35.3770340105]}, "type": "Feature", "properties": {"collection_times": [{"days": "Mon-Fri", "time": "3:00pm"}, {"days": "Sat", "time": "11:30am"}, {"days": "Sun", "time": "Closed"}], "id": "9330100019", "name": "USPS COLLECTION BOX - BLUE BOX", "address": {"city": "BAKERSFIELD", "state": "CA", "street": "2001 WESTWIND DR", "postcode": "93301"}}},
{"geometry": {"type": "Point", "coordinates": [-119.0235365673, 35.3774693394]}, "type": "Feature", "properties": {"collection_times": [{"days": "Mon-Sat", "time": "10:00am"}, {"days": "Sun", "time": "Closed"}], "id": "9330100022", "name": "USPS COLLECTION BOX - BLUE BOX", "address": {"city": "BAKERSFIELD", "state": "CA", "street": "2001 F ST", "postcode": "93301"}}},
{"geometry": {"type": "Point", "coordinates": [-119.0252329305, 35.3810241311]}, "type": "Feature", "properties": {"collection_times": [{"days": "Mon-Sat", "time": "10:00am"}, {"days": "Sun", "time": "Closed"}], "id": "9330100029", "name": "USPS COLLECTION BOX - BLUE BOX", "address": {"city": "BAKERSFIELD", "state": "CA", "street": "2000 24TH ST", "postcode": "93301"}}},
{"geometry": {"type": "Point", "coordinates": [-119.0224021112, 35.3829612999]}, "type": "Feature", "properties": {"collection_times": [{"days": "Mon-Fri", "time": "11:00am"}, {"days": "Sat", "time": "12:00pm"}, {"days": "Sun", "time": "Closed"}], "id": "9330100032", "name": "USPS COLLECTION BOX - BLUE BOX", "address": {"city": "BAKERSFIELD", "state": "CA", "street": "2603 G ST", "postcode": "93301"}}},
{"geometry": {"type": "Point", "coordinates": [-119.021182479, 35.3850260813]}, "type": "Feature", "properties": {"collection_times": [{"days": "Mon-Fri", "time": "10:00am"}, {"days": "Sat", "time": "12:00pm"}, {"days": "Sun", "time": "Closed"}], "id": "9330100036", "name": "USPS COLLECTION BOX - BLUE BOX", "address": {"city": "BAKERSFIELD", "state": "CA", "street": "2801 H ST", "postcode": "93301"}}},
{"geometry": {"type": "Point", "coordinates": [-119.0235081763, 35.3831735675]}, "type": "Feature", "properties": {"collection_times": [{"days": "Mon-Sat", "time": "12:00pm"}, {"days": "Sun", "time": "Closed"}], "id": "9330100056", "name": "USPS COLLECTION BOX - BLUE BOX", "address": {"city": "BAKERSFIELD", "state": "CA", "street": "2601 F ST", "postcode": "93301"}}},
{"geometry": {"type": "Point", "coordinates": [-119.015244025, 35.3849846777]}, "type": "Feature", "properties": {"collection_times": [{"days": "Mon-Fri", "time": "1:00pm"}, {"days": "Sat", "time": "11:00am"}, {"days": "Sun", "time": "Closed"}], "id": "9330100061", "name": "USPS COLLECTION BOX - BLUE BOX", "address": {"city": "BAKERSFIELD", "state": "CA", "street": "2700 M ST", "postcode": "93301"}}},
{"geometry": {"type": "Point", "coordinates": [-119.0178216925, 35.3733987776]}, "type": "Feature", "properties": {"collection_times": [{"days": "Mon-Fri", "time": "3:00pm"}, {"days": "Sat", "time": "11:30am"}, {"days": "Sun", "time": "Closed"}], "id": "9330100066", "name": "USPS COLLECTION BOX - BLUE BOX", "address": {"city": "BAKERSFIELD", "state": "CA", "street": "1430 TRUXTUN AVE", "postcode": "93301"}}},
{"geometry": {"type": "Point", "coordinates": [-119.0402822244, 35.3735760965]}, "type": "Feature", "properties": {"collection_times": [{"days": "Mon-Fri", "time": "3:00pm"}, {"days": "Sat", "time": "11:30am"}, {"days": "Sun", "time": "Closed"}], "id": "9330100072", "name": "USPS COLLECTION BOX - BLUE BOX", "address": {"city": "BAKERSFIELD", "state": "CA", "street": "3310 TRUXTUN AVE", "postcode": "93301"}}},
{"geometry": {"type": "Point", "coordinates": [-119.0288397723, 35.3723873477]}, "type": "Feature", "properties": {"collection_times": [{"days": "Mon-Fri", "time": "3:00pm"}, {"days": "Sat", "time": "11:30am"}, {"days": "Sun", "time": "Closed"}], "id": "9330100079", "name": "USPS COLLECTION BOX - BLUE BOX", "address": {"city": "BAKERSFIELD", "state": "CA", "street": "2323 16TH ST", "postcode": "93301"}}},
{"geometry": {"type": "Point", "coordinates": [-119.0187002221, 35.3748267705]}, "type": "Feature", "properties": {"collection_times": [{"days": "Mon-Fri", "time": "1:00pm"}, {"days": "Sat", "time": "11:00am"}, {"days": "Sun", "time": "Closed"}], "id": "9330100093", "name": "USPS COLLECTION BOX - BLUE BOX", "address": {"city": "BAKERSFIELD", "state": "CA", "street": "1730 CHESTER AVE", "postcode": "93301"}}},
{"geometry": {"type": "Point", "coordinates": [-119.0402822244, 35.3735760965]}, "type": "Feature", "properties": {"collection_times": [{"days": "Mon-Fri", "time": "3:00pm"}, {"days": "Sat", "time": "11:30am"}, {"days": "Sun", "time": "Closed"}], "id": "9330100097", "name": "USPS COLLECTION BOX - BLUE BOX", "address": {"city": "BAKERSFIELD", "state": "CA", "street": "3310 TRUXTUN AVE", "postcode": "93301"}}},
{"geometry": {"type": "Point", "coordinates": [-119.0222790819, 35.3867295422]}, "type": "Feature", "properties": {"collection_times": [{"days": "Mon-Fri", "time": "3:00pm"}, {"days": "Sat", "time": "12:30pm"}, {"days": "Sun", "time": "Closed"}], "id": "9330100102", "name": "USPS COLLECTION BOX - BLUE BOX", "address": {"city": "BAKERSFIELD", "state": "CA", "street": "1800 30TH ST", "postcode": "93301"}}},
{"geometry": {"type": "Point", "coordinates": [-119.0222790819, 35.3867295422]}, "type": "Feature", "properties": {"collection_times": [{"days": "Mon-Fri", "time": "3:00pm"}, {"days": "Sat", "time": "12:30pm"}, {"days": "Sun", "time": "Closed"}], "id": "9330100105", "name": "USPS COLLECTION BOX - BLUE BOX", "address": {"city": "BAKERSFIELD", "state": "CA", "street": "1800 30TH ST", "postcode": "93301"}}},
{"geometry": {"type": "Point", "coordinates": [-119.0222790819, 35.3867295422]}, "type": "Feature", "properties": {"collection_times": [{"days": "Mon-Fri", "time": "3:00pm"}, {"days": "Sat", "time": "12:30pm"}, {"days": "Sun", "time": "Closed"}], "id": "9330100107", "name": "USPS COLLECTION BOX - BLUE BOX", "address": {"city": "BAKERSFIELD", "state": "CA", "street": "1800 30TH ST", "postcode": "93301"}}},
{"geometry": {"type": "Point", "coordinates": [-119.0231485568, 35.3732911284]}, "type": "Feature", "properties": {"collection_times": [{"days": "Mon-Fri", "time": "1:00pm"}, {"days": "Sat", "time": "11:30am"}, {"days": "Sun", "time": "Closed"}], "id": "9330100108", "name": "USPS COLLECTION BOX - BLUE BOX", "address": {"city": "BAKERSFIELD", "state": "CA", "street": "1831 TRUXTUN AVE", "postcode": "93301"}}},
{"geometry": {"type": "Point", "coordinates": [-119.0200074634, 35.3715810612]}, "type": "Feature", "properties": {"collection_times": [{"days": "Mon-Fri", "time": "1:00pm"}, {"days": "Sat", "time": "11:30am"}, {"days": "Sun", "time": "Closed"}], "id": "9330100113", "name": "USPS COLLECTION BOX - BLUE BOX", "address": {"city": "BAKERSFIELD", "state": "CA", "street": "1500 EYE ST", "postcode": "93301"}}},
{"geometry": {"type": "Point", "coordinates": [-119.0164990325, 35.3793022221]}, "type": "Feature", "properties": {"collection_times": [{"days": "Mon-Fri", "time": "12:00pm"}, {"days": "Sat", "time": "11:00am"}, {"days": "Sun", "time": "Closed"}], "id": "9330100114", "name": "USPS COLLECTION BOX - BLUE BOX", "address": {"city": "BAKERSFIELD", "state": "CA", "street": "2221 L ST", "postcode": "93301"}}},
{"geometry": {"type": "Point", "coordinates": [-119.0189840736, 35.3738752387]}, "type": "Feature", "properties": {"collection_times": [{"days": "Mon-Fri", "time": "3:00pm"}, {"days": "Sat", "time": "12:00pm"}, {"days": "Sun", "time": "Closed"}], "id": "9330100115", "name": "USPS COLLECTION BOX - BLUE BOX", "address": {"city": "BAKERSFIELD", "state": "CA", "street": "1675 CHESTER AVE", "postcode": "93301"}}},
{"geometry": {"type": "Point", "coordinates": [-119.0178216925, 35.3733987776]}, "type": "Feature", "properties": {"collection_times": [{"days": "Mon-Fri", "time": "3:00pm"}, {"days": "Sat", "time": "11:30am"}, {"days": "Sun", "time": "Closed"}], "id": "9330100118", "name": "USPS COLLECTION BOX - BLUE BOX", "address": {"city": "BAKERSFIELD", "state": "CA", "street": "1430 TRUXTUN AVE", "postcode": "93301"}}},
{"geometry": {"type": "Point", "coordinates": [-119.0178216925, 35.3733987776]}, "type": "Feature", "properties": {"collection_times": [{"days": "Mon-Fri", "time": "3:00pm"}, {"days": "Sat", "time": "11:30am"}, {"days": "Sun", "time": "Closed"}], "id": "9330100122", "name": "USPS COLLECTION BOX - BLUE BOX", "address": {"city": "BAKERSFIELD", "state": "CA", "street": "1430 TRUXTUN AVE", "postcode": "93301"}}},
{"geometry": {"type": "Point", "coordinates": [-119.0215796472, 35.3753562466]}, "type": "Feature", "properties": {"collection_times": [{"days": "Mon-Fri", "time": "5:00pm"}, {"days": "Sat", "time": "1:00pm"}, {"days": "Sun", "time": "Closed"}], "id": "9330100123", "name": "USPS COLLECTION BOX - PO LOBBY", "address": {"city": "BAKERSFIELD", "state": "CA", "street": "1730 18TH ST", "postcode": "93301"}}},
{"geometry": {"type": "Point", "coordinates": [-119.0215796472, 35.3753562466]}, "type": "Feature", "properties": {"collection_times": [{"days": "Mon-Fri", "time": "5:00pm"}, {"days": "Sat", "time": "1:00pm"}, {"days": "Sun", "time": "Closed"}], "id": "9330100124", "name": "USPS COLLECTION BOX - PO LOBBY", "address": {"city": "BAKERSFIELD", "state": "CA", "street": "1730 18TH ST", "postcode": "93301"}}},
{"geometry": {"type": "Point", "coordinates": [-119.018759779, 35.3840087366]}, "type": "Feature", "properties": {"collection_times": [{"days": "Mon-Fri", "time": "10:00am"}, {"days": "Sat", "time": "10:30am"}, {"days": "Sun", "time": "Closed"}], "id": "9330100125", "name": "USPS COLLECTION BOX - BLUE BOX", "address": {"city": "BAKERSFIELD", "state": "CA", "street": "2701 CHESTER AVE", "postcode": "93301"}}},
{"geometry": {"type": "Point", "coordinates": [-119.0215796472, 35.3753562466]}, "type": "Feature", "properties": {"collection_times": [{"days": "Mon-Fri", "time": "5:00pm"}, {"days": "Sat", "time": "1:00pm"}, {"days": "Sun", "time": "Closed"}], "id": "9330100128", "name": "USPS COLLECTION BOX - BLUE BOX", "address": {"city": "BAKERSFIELD", "state": "CA", "street": "1730 18TH ST", "postcode": "93301"}}},
{"geometry": {"type": "Point", "coordinates": [-119.0215796472, 35.3753562466]}, "type": "Feature", "properties": {"collection_times": [{"days": "Mon-Fri", "time": "5:00pm"}, {"days": "Sat", "time": "1:00pm"}, {"days": "Sun", "time": "Closed"}], "id": "9330100129", "name": "USPS COLLECTION BOX - BLUE BOX", "address": {"city": "BAKERSFIELD", "state": "CA", "street": "1730 18TH ST", "postcode": "93301"}}},
{"geometry": {"type": "Point", "coordinates": [-119.0215796472, 35.3753562466]}, "type": "Feature", "properties": {"collection_times": [{"days": "Mon-Fri", "time": "5:00pm"}, {"days": "Sat", "time": "1:00pm"}, {"days": "Sun", "time": "Closed"}], "id": "9330100131", "name": "USPS COLLECTION BOX - BLUE BOX", "address": {"city": "BAKERSFIELD", "state": "CA", "street": "1730 18TH ST", "postcode": "93301"}}},
{"geometry": {"type": "Point", "coordinates": [-119.0152499398, 35.37324381]}, "type": "Feature", "properties": {"collection_times": [{"days": "Mon-Fri", "time": "2:00pm"}, {"days": "Sat", "time": "11:30am"}, {"days": "Sun", "time": "Closed"}], "id": "9330100132", "name": "USPS COLLECTION BOX - BLUE BOX", "address": {"city": "BAKERSFIELD", "state": "CA", "street": "1115 TRUXTUN AVE", "postcode": "93301"}}},
{"geometry": {"type": "Point", "coordinates": [-119.0186651423, 35.3397258507]}, "type": "Feature", "properties": {"collection_times": [{"days": "Mon-Sat", "time": "11:00am"}, {"days": "Sun", "time": "Closed"}], "id": "9330400020", "name": "USPS COLLECTION BOX - BLUE BOX", "address": {"city": "BAKERSFIELD", "state": "CA", "street": "1640 S CHESTER AVE", "postcode": "93304"}}},
{"geometry": {"type": "Point", "coordinates": [-119.0377733696, 35.3258486225]}, "type": "Feature", "properties": {"collection_times": [{"days": "Mon-Fri", "time": "5:00pm"}, {"days": "Sat", "time": "1:00pm"}, {"days": "Sun", "time": "Closed"}], "id": "9330400039", "name": "USPS COLLECTION BOX - PO LOBBY", "address": {"city": "BAKERSFIELD", "state": "CA", "street": "3200 LARSON LN", "postcode": "93304"}}},
{"geometry": {"type": "Point", "coordinates": [-119.0372695379, 35.354072777]}, "type": "Feature", "properties": {"collection_times": [{"days": "Mon-Sat", "time": "11:00am"}, {"days": "Sun", "time": "Closed"}], "id": "9330400043", "name": "USPS COLLECTION BOX - BLUE BOX", "address": {"city": "BAKERSFIELD", "state": "CA", "street": "3030 BRUNDAGE LN", "postcode": "93304"}}},
{"geometry": {"type": "Point", "coordinates": [-119.0377733696, 35.3258486225]}, "type": "Feature", "properties": {"collection_times": [{"days": "Mon-Fri", "time": "5:00pm"}, {"days": "Sat", "time": "1:00pm"}, {"days": "Sun", "time": "Closed"}], "id": "9330400044", "name": "USPS COLLECTION BOX - PO LOBBY", "address": {"city": "BAKERSFIELD", "state": "CA", "street": "3200 LARSON LN", "postcode": "93304"}}},
{"geometry": {"type": "Point", "coordinates": [-119.0377733696, 35.3258486225]}, "type": "Feature", "properties": {"collection_times": [{"days": "Mon-Fri", "time": "5:00pm"}, {"days": "Sat", "time": "1:00pm"}, {"days": "Sun", "time": "Closed"}], "id": "9330400049", "name": "USPS COLLECTION BOX - BLUE BOX", "address": {"city": "BAKERSFIELD", "state": "CA", "street": "3200 LARSON LN", "postcode": "93304"}}},
{"geometry": {"type": "Point", "coordinates": [-119.0377733696, 35.3258486225]}, "type": "Feature", "properties": {"collection_times": [{"days": "Mon-Fri", "time": "5:00pm"}, {"days": "Sat", "time": "1:00pm"}, {"days": "Sun", "time": "Closed"}], "id": "9330400050", "name": "USPS COLLECTION BOX - BLUE BOX", "address": {"city": "BAKERSFIELD", "state": "CA", "street": "3200 LARSON LN", "postcode": "93304"}}},
{"geometry": {"type": "Point", "coordinates": [-119.0377733696, 35.3258486225]}, "type": "Feature", "properties": {"collection_times": [{"days": "Mon-Fri", "time": "5:00pm"}, {"days": "Sat", "time": "1:00pm"}, {"days": "Sun", "time": "Closed"}], "id": "9330400051", "name": "USPS COLLECTION BOX - BLUE BOX", "address": {"city": "BAKERSFIELD", "state": "CA", "street": "3200 LARSON LN", "postcode": "93304"}}},
{"geometry": {"type": "Point", "coordinates": [-119.0377733696, 35.3258486225]}, "type": "Feature", "properties": {"collection_times": [{"days": "Mon-Fri", "time": "5:00pm"}, {"days": "Sat", "time": "1:00pm"}, {"days": "Sun", "time": "Closed"}], "id": "9330400052", "name": "USPS COLLECTION BOX - BLUE BOX", "address": {"city": "BAKERSFIELD", "state": "CA", "street": "3200 LARSON LN", "postcode": "93304"}}},
{"geometry": {"type": "Point", "coordinates": [-118.9721174314, 35.3820958027]}, "type": "Feature", "properties": {"collection_times": [{"days": "Mon-Fri", "time": "2:00pm"}, {"days": "Sat", "time": "10:00am"}, {"days": "Sun", "time": "Closed"}], "id": "9330500032", "name": "USPS COLLECTION BOX - BLUE BOX", "address": {"city": "BAKERSFIELD", "state": "CA", "street": "1830 FLOWER ST", "postcode": "93305"}}},
{"geometry": {"type": "Point", "coordinates": [-118.9910205742, 35.3785505639]}, "type": "Feature", "properties": {"collection_times": [{"days": "Mon-Fri", "time": "5:00pm"}, {"days": "Sat", "time": "1:00pm"}, {"days": "Sun", "time": "Closed"}], "id": "9330500033", "name": "USPS COLLECTION BOX - BLUE BOX", "address": {"city": "BAKERSFIELD", "state": "CA", "street": "727 KENTUCKY ST", "postcode": "93305"}}},
{"geometry": {"type": "Point", "coordinates": [-118.9910205742, 35.3785505639]}, "type": "Feature", "properties": {"collection_times": [{"days": "Mon-Fri", "time": "5:00pm"}, {"days": "Sat", "time": "1:00pm"}, {"days": "Sun", "time": "Closed"}], "id": "9330500035", "name": "USPS COLLECTION BOX - PO LOBBY", "address": {"city": "BAKERSFIELD", "state": "CA", "street": "727 KENTUCKY ST", "postcode": "93305"}}},
{"geometry": {"type": "Point", "coordinates": [-118.9910205742, 35.3785505639]}, "type": "Feature", "properties": {"collection_times": [{"days": "Mon-Fri", "time": "5:00pm"}, {"days": "Sat", "time": "1:00pm"}, {"days": "Sun", "time": "Closed"}], "id": "9330500036", "name": "USPS COLLECTION BOX - PO LOBBY", "address": {"city": "BAKERSFIELD", "state": "CA", "street": "727 KENTUCKY ST", "postcode": "93305"}}},
{"geometry": {"type": "Point", "coordinates": [-118.9496986346, 35.3947263448]}, "type": "Feature", "properties": {"collection_times": [{"days": "Mon-Fri", "time": "1:00pm"}, {"days": "Sat", "time": "10:30am"}, {"days": "Sun", "time": "Closed"}], "id": "9330600020", "name": "USPS COLLECTION BOX - BLUE BOX", "address": {"city": "BAKERSFIELD", "state": "CA", "street": "2671 OSWELL ST", "postcode": "93306"}}},
{"geometry": {"type": "Point", "coordinates": [-118.9499795295, 35.3987142778]}, "type": "Feature", "properties": {"collection_times": [{"days": "Mon-Fri", "time": "11:00am"}, {"days": "Sat", "time": "10:45am"}, {"days": "Sun", "time": "Closed"}], "id": "9330600021", "name": "USPS COLLECTION BOX - BLUE BOX", "address": {"city": "BAKERSFIELD", "state": "CA", "street": "2838 OSWELL ST", "postcode": "93306"}}},
{"geometry": {"type": "Point", "coordinates": [-118.9541877651, 35.3769396856]}, "type": "Feature", "properties": {"collection_times": [{"days": "Mon-Fri", "time": "5:00pm"}, {"days": "Sat", "time": "1:00pm"}, {"days": "Sun", "time": "Closed"}], "id": "9330600027", "name": "USPS COLLECTION BOX - BLUE BOX", "address": {"city": "BAKERSFIELD", "state": "CA", "street": "1436 CRESTMONT DR", "postcode": "93306"}}},
{"geometry": {"type": "Point", "coordinates": [-118.9676086334, 35.3958560706]}, "type": "Feature", "properties": {"collection_times": [{"days": "Mon-Sat", "time": "10:00am"}, {"days": "Sun", "time": "Closed"}], "id": "9330600030", "name": "USPS COLLECTION BOX - BLUE BOX", "address": {"city": "BAKERSFIELD", "state": "CA", "street": "2680 MOUNT VERNON AVE", "postcode": "93306"}}},
{"geometry": {"type": "Point", "coordinates": [-118.9541877651, 35.3769396856]}, "type": "Feature", "properties": {"collection_times": [{"days": "Mon-Fri", "time": "5:00pm"}, {"days": "Sat", "time": "1:00pm"}, {"days": "Sun", "time": "Closed"}], "id": "9330600031", "name": "USPS COLLECTION BOX - PO LOBBY", "address": {"city": "BAKERSFIELD", "state": "CA", "street": "1436 CRESTMONT DR", "postcode": "93306"}}},
{"geometry": {"type": "Point", "coordinates": [-118.9541877651, 35.3769396856]}, "type": "Feature", "properties": {"collection_times": [{"days": "Mon-Fri", "time": "5:00pm"}, {"days": "Sat", "time": "1:00pm"}, {"days": "Sun", "time": "Closed"}], "id": "9330600032", "name": "USPS COLLECTION BOX - PO LOBBY", "address": {"city": "BAKERSFIELD", "state": "CA", "street": "1436 CRESTMONT DR", "postcode": "93306"}}},
{"geometry": {"type": "Point", "coordinates": [-118.9757092157, 35.3539934068]}, "type": "Feature", "properties": {"collection_times": [{"days": "Mon-Fri", "time": "5:00pm"}, {"days": "Sat", "time": "1:00pm"}, {"days": "Sun", "time": "Closed"}], "id": "9330700005", "name": "USPS COLLECTION BOX - EXPRESS", "address": {"city": "BAKERSFIELD", "state": "CA", "street": "2525 E BRUNDAGE LN", "postcode": "93307"}}},
{"geometry": {"type": "Point", "coordinates": [-118.9751275205, 35.3540136291]}, "type": "Feature", "properties": {"collection_times": [{"days": "Mon-Fri", "time": "5:00pm"}, {"days": "Sat", "time": "1:00pm"}, {"days": "Sun", "time": "Closed"}], "id": "9330700021", "name": "USPS COLLECTION BOX - PO LOBBY", "address": {"city": "BAKERSFIELD", "state": "CA", "street": "2525 E BRUNDAGE LN", "postcode": "93307"}}},
{"geometry": {"type": "Point", "coordinates": [-118.9751275205, 35.3540136291]}, "type": "Feature", "properties": {"collection_times": [{"days": "Mon-Fri", "time": "5:00pm"}, {"days": "Sat", "time": "1:00pm"}, {"days": "Sun", "time": "Closed"}], "id": "9330700022", "name": "USPS COLLECTION BOX - PO LOBBY", "address": {"city": "BAKERSFIELD", "state": "CA", "street": "2525 E BRUNDAGE LN", "postcode": "93307"}}},
{"geometry": {"type": "Point", "coordinates": [-118.9757092157, 35.3539934068]}, "type": "Feature", "properties": {"collection_times": [{"days": "Mon-Fri", "time": "5:00pm"}, {"days": "Sat", "time": "1:00pm"}, {"days": "Sun", "time": "Closed"}], "id": "9330700024", "name": "USPS COLLECTION BOX - BLUE BOX", "address": {"city": "BAKERSFIELD", "state": "CA", "street": "2525 E BRUNDAGE LN", "postcode": "93307"}}},
{"geometry": {"type": "Point", "coordinates": [-119.0223749016, 35.4188634395]}, "type": "Feature", "properties": {"collection_times": [{"days": "Mon-Fri", "time": "4:00pm"}, {"days": "Sat", "time": "10:00am"}, {"days": "Sun", "time": "Closed"}], "id": "9330800004", "name": "USPS COLLECTION BOX - BLUE BOX", "address": {"city": "BAKERSFIELD", "state": "CA", "street": "118 MINNER AVE", "postcode": "93308"}}},
{"geometry": {"type": "Point", "coordinates": [-119.0223749016, 35.4188634395]}, "type": "Feature", "properties": {"collection_times": [{"days": "Mon-Fri", "time": "4:00pm"}, {"days": "Sat", "time": "10:00am"}, {"days": "Sun", "time": "Closed"}], "id": "9330800005", "name": "USPS COLLECTION BOX - BLUE BOX", "address": {"city": "BAKERSFIELD", "state": "CA", "street": "118 MINNER AVE", "postcode": "93308"}}},
{"geometry": {"type": "Point", "coordinates": [-119.0376066812, 35.3876664457]}, "type": "Feature", "properties": {"collection_times": [{"days": "Mon-Sat", "time": "10:00am"}, {"days": "Sun", "time": "Closed"}], "id": "9330800008", "name": "USPS COLLECTION BOX - BLUE BOX", "address": {"city": "BAKERSFIELD", "state": "CA", "street": "3101 SILLECT AVE", "postcode": "93308"}}},
{"geometry": {"type": "Point", "coordinates": [-119.0223749016, 35.4188634395]}, "type": "Feature", "properties": {"collection_times": [{"days": "Mon-Fri", "time": "4:00pm"}, {"days": "Sat-Sun", "time": "Closed"}], "id": "9330800010", "name": "USPS COLLECTION BOX - PO LOBBY", "address": {"city": "BAKERSFIELD", "state": "CA", "street": "118 MINNER AVE", "postcode": "93308"}}},
{"geometry": {"type": "Point", "coordinates": [-119.0223749016, 35.4188634395]}, "type": "Feature", "properties": {"collection_times": [{"days": "Mon-Fri", "time": "4:00pm"}, {"days": "Sat-Sun", "time": "Closed"}], "id": "9330800011", "name": "USPS COLLECTION BOX - PO LOBBY", "address": {"city": "BAKERSFIELD", "state": "CA", "street": "118 MINNER AVE", "postcode": "93308"}}},
{"geometry": {"type": "Point", "coordinates": [-119.0223749016, 35.4188634395]}, "type": "Feature", "properties": {"collection_times": [{"days": "Mon-Fri", "time": "4:00pm"}, {"days": "Sat-Sun", "time": "Closed"}], "id": "9330800012", "name": "USPS COLLECTION BOX - PO LOBBY", "address": {"city": "BAKERSFIELD", "state": "CA", "street": "118 MINNER AVE", "postcode": "93308"}}},
{"geometry": {"type": "Point", "coordinates": [-119.0709154423, 35.4258825581]}, "type": "Feature", "properties": {"collection_times": [{"days": "Mon-Fri", "time": "4:00pm"}, {"days": "Sat", "time": "2:00pm"}, {"days": "Sun", "time": "Closed"}], "id": "9330800015", "name": "USPS COLLECTION BOX - BLUE BOX", "address": {"city": "BAKERSFIELD", "state": "CA", "street": "7229 DOLE CT", "postcode": "93308"}}},
{"geometry": {"type": "Point", "coordinates": [-119.0920960458, 35.4020410981]}, "type": "Feature", "properties": {"collection_times": [{"days": "Mon-Fri", "time": "4:00pm"}, {"days": "Sat", "time": "1:00pm"}, {"days": "Sun", "time": "Closed"}], "id": "9330800016", "name": "USPS COLLECTION BOX - BLUE BOX", "address": {"city": "BAKERSFIELD", "state": "CA", "street": "4700 COFFEE RD", "postcode": "93308"}}},
{"geometry": {"type": "Point", "coordinates": [-119.1454946278, 35.3895429067]}, "type": "Feature", "properties": {"collection_times": [{"days": "Mon-Fri", "time": "1:00pm"}, {"days": "Sat-Sun", "time": "Closed"}], "id": "9330800018", "name": "USPS COLLECTION BOX - BLUE BOX", "address": {"city": "BAKERSFIELD", "state": "CA", "street": "3236 ALLEN RD", "postcode": "93308"}}},
{"geometry": {"type": "Point", "coordinates": [-119.0454106615, 35.3740955404]}, "type": "Feature", "properties": {"collection_times": [{"days": "Mon-Fri", "time": "3:00pm"}, {"days": "Sat", "time": "11:30am"}, {"days": "Sun", "time": "Closed"}], "id": "9330900004", "name": "USPS COLLECTION BOX - BLUE BOX", "address": {"city": "BAKERSFIELD", "state": "CA", "street": "2300 BAHAMAS DR", "postcode": "93309"}}},
{"geometry": {"type": "Point", "coordinates": [-119.051392885, 35.366901967]}, "type": "Feature", "properties": {"collection_times": [{"days": "Mon-Fri", "time": "3:00pm"}, {"days": "Sat", "time": "12:00pm"}, {"days": "Sun", "time": "Closed"}], "id": "9330900006", "name": "USPS COLLECTION BOX - BLUE BOX", "address": {"city": "BAKERSFIELD", "state": "CA", "street": "4450 CALIFORNIA AVE", "postcode": "93309"}}},
{"geometry": {"type": "Point", "coordinates": [-119.058879584, 35.367767527]}, "type": "Feature", "properties": {"collection_times": [{"days": "Mon-Fri", "time": "3:00pm"}, {"days": "Sat", "time": "11:30am"}, {"days": "Sun", "time": "Closed"}], "id": "9330900010", "name": "USPS COLLECTION BOX - BLUE BOX", "address": {"city": "BAKERSFIELD", "state": "CA", "street": "5100 COMMERCE DR", "postcode": "93309"}}},
{"geometry": {"type": "Point", "coordinates": [-119.0619212198, 35.3378733369]}, "type": "Feature", "properties": {"collection_times": [{"days": "Mon-Fri", "time": "3:00pm"}, {"days": "Sat", "time": "12:30pm"}, {"days": "Sun", "time": "Closed"}], "id": "9330900024", "name": "USPS COLLECTION BOX - BLUE BOX", "address": {"city": "BAKERSFIELD", "state": "CA", "street": "5500 MING AVE", "postcode": "93309"}}},
{"geometry": {"type": "Point", "coordinates": [-119.0623553657, 35.3620506523]}, "type": "Feature", "properties": {"collection_times": [{"days": "Mon-Fri", "time": "3:00pm"}, {"days": "Sat", "time": "12:00pm"}, {"days": "Sun", "time": "Closed"}], "id": "9330900027", "name": "USPS COLLECTION BOX - BLUE BOX", "address": {"city": "BAKERSFIELD", "state": "CA", "street": "841 MOHAWK ST", "postcode": "93309"}}},
{"geometry": {"type": "Point", "coordinates": [-119.0584991884, 35.3609995421]}, "type": "Feature", "properties": {"collection_times": [{"days": "Mon-Fri", "time": "3:00pm"}, {"days": "Sat", "time": "12:00pm"}, {"days": "Sun", "time": "Closed"}], "id": "9330900029", "name": "USPS COLLECTION BOX - BLUE BOX", "address": {"city": "BAKERSFIELD", "state": "CA", "street": "5055 BUSINESS PARK N", "postcode": "93309"}}},
{"geometry": {"type": "Point", "coordinates": [-119.0599764353, 35.3583799306]}, "type": "Feature", "properties": {"collection_times": [{"days": "Mon-Fri", "time": "3:00pm"}, {"days": "Sat", "time": "12:00pm"}, {"days": "Sun", "time": "Closed"}], "id": "9330900034", "name": "USPS COLLECTION BOX - BLUE BOX", "address": {"city": "BAKERSFIELD", "state": "CA", "street": "5401 BUSINESS PARK S", "postcode": "93309"}}},
{"geometry": {"type": "Point", "coordinates": [-119.0526669318, 35.3541094487]}, "type": "Feature", "properties": {"collection_times": [{"days": "Mon-Sat", "time": "10:00am"}, {"days": "Sun", "time": "Closed"}], "id": "9330900043", "name": "USPS COLLECTION BOX - BLUE BOX", "address": {"city": "BAKERSFIELD", "state": "CA", "street": "4001 STOCKDALE HWY", "postcode": "93309"}}},
{"geometry": {"type": "Point", "coordinates": [-119.0631599291, 35.3541630054]}, "type": "Feature", "properties": {"collection_times": [{"days": "Mon-Fri", "time": "5:00pm"}, {"days": "Sat", "time": "1:00pm"}, {"days": "Sun", "time": "Closed"}], "id": "9330900045", "name": "USPS COLLECTION BOX - EXPRESS", "address": {"city": "BAKERSFIELD", "state": "CA", "street": "5501 STOCKDALE HWY", "postcode": "93309"}}},
{"geometry": {"type": "Point", "coordinates": [-119.058860905, 35.3640309256]}, "type": "Feature", "properties": {"collection_times": [{"days": "Mon-Fri", "time": "3:00pm"}, {"days": "Sat", "time": "12:30pm"}, {"days": "Sun", "time": "Closed"}], "id": "9330900062", "name": "USPS COLLECTION BOX - BLUE BOX", "address": {"city": "BAKERSFIELD", "state": "CA", "street": "1200 DISCOVERY DR", "postcode": "93309"}}},
{"geometry": {"type": "Point", "coordinates": [-119.0619212198, 35.3378733369]}, "type": "Feature", "properties": {"collection_times": [{"days": "Mon-Fri", "time": "3:00pm"}, {"days": "Sat", "time": "12:30pm"}, {"days": "Sun", "time": "Closed"}], "id": "9330900063", "name": "USPS COLLECTION BOX - BLUE BOX", "address": {"city": "BAKERSFIELD", "state": "CA", "street": "5500 MING AVE", "postcode": "93309"}}},
{"geometry": {"type": "Point", "coordinates": [-119.0584991884, 35.3609995421]}, "type": "Feature", "properties": {"collection_times": [{"days": "Mon-Fri", "time": "3:00pm"}, {"days": "Sat", "time": "12:00pm"}, {"days": "Sun", "time": "Closed"}], "id": "9330900065", "name": "USPS COLLECTION BOX - BLUE BOX", "address": {"city": "BAKERSFIELD", "state": "CA", "street": "5055 BUSINESS PARK N", "postcode": "93309"}}},
{"geometry": {"type": "Point", "coordinates": [-119.0620158565, 35.3605459285]}, "type": "Feature", "properties": {"collection_times": [{"days": "Mon-Fri", "time": "3:00pm"}, {"days": "Sat", "time": "12:00pm"}, {"days": "Sun", "time": "Closed"}], "id": "9330900067", "name": "USPS COLLECTION BOX - BLUE BOX", "address": {"city": "BAKERSFIELD", "state": "CA", "street": "5330 OFFICE CENTER CT", "postcode": "93309"}}},
{"geometry": {"type": "Point", "coordinates": [-119.0599764353, 35.3583799306]}, "type": "Feature", "properties": {"collection_times": [{"days": "Mon-Fri", "time": "3:00pm"}, {"days": "Sat", "time": "12:00pm"}, {"days": "Sun", "time": "Closed"}], "id": "9330900069", "name": "USPS COLLECTION BOX - BLUE BOX", "address": {"city": "BAKERSFIELD", "state": "CA", "street": "5401 BUSINESS PARK S", "postcode": "93309"}}},
{"geometry": {"type": "Point", "coordinates": [-119.0599764353, 35.3583799306]}, "type": "Feature", "properties": {"collection_times": [{"days": "Mon-Fri", "time": "3:00pm"}, {"days": "Sat", "time": "12:00pm"}, {"days": "Sun", "time": "Closed"}], "id": "9330900070", "name": "USPS COLLECTION BOX - BLUE BOX", "address": {"city": "BAKERSFIELD", "state": "CA", "street": "5401 BUSINESS PARK S", "postcode": "93309"}}},
{"geometry": {"type": "Point", "coordinates": [-119.0631599291, 35.3541630054]}, "type": "Feature", "properties": {"collection_times": [{"days": "Mon-Fri", "time": "5:00pm"}, {"days": "Sat", "time": "1:00pm"}, {"days": "Sun", "time": "Closed"}], "id": "9330900081", "name": "USPS COLLECTION BOX - PO LOBBY", "address": {"city": "BAKERSFIELD", "state": "CA", "street": "5501 STOCKDALE HWY", "postcode": "93309"}}},
{"geometry": {"type": "Point", "coordinates": [-119.0454106615, 35.3740955404]}, "type": "Feature", "properties": {"collection_times": [{"days": "Mon-Fri", "time": "3:00pm"}, {"days": "Sat", "time": "11:30am"}, {"days": "Sun", "time": "Closed"}], "id": "9330900083", "name": "USPS COLLECTION BOX - BLUE BOX", "address": {"city": "BAKERSFIELD", "state": "CA", "street": "2300 BAHAMAS DR", "postcode": "93309"}}},
{"geometry": {"type": "Point", "coordinates": [-119.0620158565, 35.3605459285]}, "type": "Feature", "properties": {"collection_times": [{"days": "Mon-Fri", "time": "3:00pm"}, {"days": "Sat", "time": "12:00pm"}, {"days": "Sun", "time": "Closed"}], "id": "9330900084", "name": "USPS COLLECTION BOX - BLUE BOX", "address": {"city": "BAKERSFIELD", "state": "CA", "street": "5330 OFFICE CENTER CT", "postcode": "93309"}}},
{"geometry": {"type": "Point", "coordinates": [-119.0655493549, 35.3438863174]}, "type": "Feature", "properties": {"collection_times": [{"days": "Mon-Fri", "time": "1:30pm"}, {"days": "Sat", "time": "12:30pm"}, {"days": "Sun", "time": "Closed"}], "id": "9330900090", "name": "USPS COLLECTION BOX - BLUE BOX", "address": {"city": "BAKERSFIELD", "state": "CA", "street": "5801 SUNDALE AVE", "postcode": "93309"}}},
{"geometry": {"type": "Point", "coordinates": [-119.0621523401, 35.3655842759]}, "type": "Feature", "properties": {"collection_times": [{"days": "Mon-Fri", "time": "3:00pm"}, {"days": "Sat", "time": "11:30am"}, {"days": "Sun", "time": "Closed"}], "id": "9330900091", "name": "USPS COLLECTION BOX - BLUE BOX", "address": {"city": "BAKERSFIELD", "state": "CA", "street": "5369 OFFICE PARK DR", "postcode": "93309"}}},
{"geometry": {"type": "Point", "coordinates": [-119.0631599291, 35.3541630054]}, "type": "Feature", "properties": {"collection_times": [{"days": "Mon-Fri", "time": "5:00pm"}, {"days": "Sat", "time": "1:00pm"}, {"days": "Sun", "time": "Closed"}], "id": "9330900094", "name": "USPS COLLECTION BOX - PO LOBBY", "address": {"city": "BAKERSFIELD", "state": "CA", "street": "5501 STOCKDALE HWY", "postcode": "93309"}}},
{"geometry": {"type": "Point", "coordinates": [-119.0631599291, 35.3541630054]}, "type": "Feature", "properties": {"collection_times": [{"days": "Mon-Fri", "time": "5:00pm"}, {"days": "Sat", "time": "1:00pm"}, {"days": "Sun", "time": "Closed"}], "id": "9330900095", "name": "USPS COLLECTION BOX - APC", "address": {"city": "BAKERSFIELD", "state": "CA", "street": "5501 STOCKDALE HWY", "postcode": "93309"}}},
{"geometry": {"type": "Point", "coordinates": [-119.0631599291, 35.3541630054]}, "type": "Feature", "properties": {"collection_times": [{"days": "Mon-Fri", "time": "5:00pm"}, {"days": "Sat", "time": "1:00pm"}, {"days": "Sun", "time": "Closed"}], "id": "9330900098", "name": "USPS COLLECTION BOX - BLUE BOX", "address": {"city": "BAKERSFIELD", "state": "CA", "street": "5501 STOCKDALE HWY", "postcode": "93309"}}},
{"geometry": {"type": "Point", "coordinates": [-119.0631599291, 35.3541630054]}, "type": "Feature", "properties": {"collection_times": [{"days": "Mon-Fri", "time": "5:00pm"}, {"days": "Sat", "time": "1:00pm"}, {"days": "Sun", "time": "Closed"}], "id": "9330900099", "name": "USPS COLLECTION BOX - BLUE BOX", "address": {"city": "BAKERSFIELD", "state": "CA", "street": "5501 STOCKDALE HWY", "postcode": "93309"}}},
{"geometry": {"type": "Point", "coordinates": [-119.0631599291, 35.3541630054]}, "type": "Feature", "properties": {"collection_times": [{"days": "Mon-Fri", "time": "5:00pm"}, {"days": "Sat", "time": "1:00pm"}, {"days": "Sun", "time": "Closed"}], "id": "9330900100", "name": "USPS COLLECTION BOX - BLUE BOX", "address": {"city": "BAKERSFIELD", "state": "CA", "street": "5501 STOCKDALE HWY", "postcode": "93309"}}},
{"geometry": {"type": "Point", "coordinates": [-119.0631599291, 35.3541630054]}, "type": "Feature", "properties": {"collection_times": [{"days": "Mon-Fri", "time": "5:00pm"}, {"days": "Sat", "time": "1:00pm"}, {"days": "Sun", "time": "Closed"}], "id": "9330900101", "name": "USPS COLLECTION BOX - BLUE BOX", "address": {"city": "BAKERSFIELD", "state": "CA", "street": "5501 STOCKDALE HWY", "postcode": "93309"}}},
{"geometry": {"type": "Point", "coordinates": [-119.0451882652, 35.3698215097]}, "type": "Feature", "properties": {"collection_times": [{"days": "Mon-Fri", "time": "3:00pm"}, {"days": "Sat", "time": "12:00pm"}, {"days": "Sun", "time": "Closed"}], "id": "9330900105", "name": "USPS COLLECTION BOX - BLUE BOX", "address": {"city": "BAKERSFIELD", "state": "CA", "street": "1400 EASTON DR", "postcode": "93309"}}},
{"geometry": {"type": "Point", "coordinates": [-119.1143073746, 35.3513034701]}, "type": "Feature", "properties": {"collection_times": [{"days": "Mon-Sat", "time": "10:00am"}, {"days": "Sun", "time": "Closed"}], "id": "9331100003", "name": "USPS COLLECTION BOX - BLUE BOX", "address": {"city": "BAKERSFIELD", "state": "CA", "street": "500 OLD RIVER RD", "postcode": "93311"}}},
{"geometry": {"type": "Point", "coordinates": [-119.1161979371, 35.3197539067]}, "type": "Feature", "properties": {"collection_times": [{"days": "Mon-Fri", "time": "5:00pm"}, {"days": "Sat", "time": "1:00pm"}, {"days": "Sun", "time": "Closed"}], "id": "9331100009", "name": "USPS COLLECTION BOX - EXPRESS", "address": {"city": "BAKERSFIELD", "state": "CA", "street": "10001 CAMINO MEDIA", "postcode": "93311"}}},
{"geometry": {"type": "Point", "coordinates": [-119.1126797019, 35.3440602377]}, "type": "Feature", "properties": {"collection_times": [{"days": "Mon-Fri", "time": "5:00pm"}, {"days": "Sat", "time": "1:00pm"}, {"days": "Sun", "time": "Closed"}], "id": "9331100012", "name": "USPS COLLECTION BOX - PO LOBBY", "address": {"city": "BAKERSFIELD", "state": "CA", "street": "10001 CAMINO MEDIA", "postcode": "93311"}}},
{"geometry": {"type": "Point", "coordinates": [-119.1126797019, 35.3440602377]}, "type": "Feature", "properties": {"collection_times": [{"days": "Mon-Fri", "time": "5:00pm"}, {"days": "Sat", "time": "1:00pm"}, {"days": "Sun", "time": "Closed"}], "id": "9331100013", "name": "USPS COLLECTION BOX - PO LOBBY", "address": {"city": "BAKERSFIELD", "state": "CA", "street": "10001 CAMINO MEDIA", "postcode": "93311"}}},
{"geometry": {"type": "Point", "coordinates": [-119.1126797019, 35.3440602377]}, "type": "Feature", "properties": {"collection_times": [{"days": "Mon-Fri", "time": "5:00pm"}, {"days": "Sat", "time": "1:00pm"}, {"days": "Sun", "time": "Closed"}], "id": "9331100014", "name": "USPS COLLECTION BOX - PO LOBBY", "address": {"city": "BAKERSFIELD", "state": "CA", "street": "10001 CAMINO MEDIA", "postcode": "93311"}}},
{"geometry": {"type": "Point", "coordinates": [-119.1126797019, 35.3440602377]}, "type": "Feature", "properties": {"collection_times": [{"days": "Mon-Fri", "time": "5:00pm"}, {"days": "Sat", "time": "1:00pm"}, {"days": "Sun", "time": "Closed"}], "id": "9331100015", "name": "USPS COLLECTION BOX - APC", "address": {"city": "BAKERSFIELD", "state": "CA", "street": "10001 CAMINO MEDIA", "postcode": "93311"}}},
{"geometry": {"type": "Point", "coordinates": [-119.1126797019, 35.3440602377]}, "type": "Feature", "properties": {"collection_times": [{"days": "Mon-Fri", "time": "5:00pm"}, {"days": "Sat", "time": "1:00pm"}, {"days": "Sun", "time": "Closed"}], "id": "9331100017", "name": "USPS COLLECTION BOX - BLUE BOX", "address": {"city": "BAKERSFIELD", "state": "CA", "street": "10001 CAMINO MEDIA", "postcode": "93311"}}},
{"geometry": {"type": "Point", "coordinates": [-119.1126797019, 35.3440602377]}, "type": "Feature", "properties": {"collection_times": [{"days": "Mon-Fri", "time": "5:00pm"}, {"days": "Sat", "time": "1:00pm"}, {"days": "Sun", "time": "Closed"}], "id": "9331100018", "name": "USPS COLLECTION BOX - BLUE BOX", "address": {"city": "BAKERSFIELD", "state": "CA", "street": "10001 CAMINO MEDIA", "postcode": "93311"}}},
{"geometry": {"type": "Point", "coordinates": [-119.1126797019, 35.3440602377]}, "type": "Feature", "properties": {"collection_times": [{"days": "Mon-Fri", "time": "5:00pm"}, {"days": "Sat", "time": "1:00pm"}, {"days": "Sun", "time": "Closed"}], "id": "9331100019", "name": "USPS COLLECTION BOX - BLUE BOX", "address": {"city": "BAKERSFIELD", "state": "CA", "street": "10001 CAMINO MEDIA", "postcode": "93311"}}},
{"geometry": {"type": "Point", "coordinates": [-119.1126797019, 35.3440602377]}, "type": "Feature", "properties": {"collection_times": [{"days": "Mon-Fri", "time": "5:00pm"}, {"days": "Sat", "time": "1:00pm"}, {"days": "Sun", "time": "Closed"}], "id": "9331100020", "name": "USPS COLLECTION BOX - BLUE BOX", "address": {"city": "BAKERSFIELD", "state": "CA", "street": "10001 CAMINO MEDIA", "postcode": "93311"}}},
{"geometry": {"type": "Point", "coordinates": [-119.1126797019, 35.3440602377]}, "type": "Feature", "properties": {"collection_times": [{"days": "Mon-Fri", "time": "5:00pm"}, {"days": "Sat", "time": "1:00pm"}, {"days": "Sun", "time": "Closed"}], "id": "9331100021", "name": "USPS COLLECTION BOX - BLUE BOX", "address": {"city": "BAKERSFIELD", "state": "CA", "street": "10001 CAMINO MEDIA", "postcode": "93311"}}},
{"geometry": {"type": "Point", "coordinates": [-119.1299392252, 35.3399285469]}, "type": "Feature", "properties": {"collection_times": [{"days": "Mon-Sat", "time": "2:00pm"}, {"days": "Sun", "time": "Closed"}], "id": "9331100023", "name": "USPS COLLECTION BOX - BLUE BOX", "address": {"city": "BAKERSFIELD", "state": "CA", "street": "11400 MING AVE", "postcode": "93311"}}},
{"geometry": {"type": "Point", "coordinates": [-119.074394215, 35.3173475655]}, "type": "Feature", "properties": {"collection_times": [{"days": "Mon-Fri", "time": "11:00am"}, {"days": "Sat", "time": "10:30am"}, {"days": "Sun", "time": "Closed"}], "id": "9331300001", "name": "USPS COLLECTION BOX - BLUE BOX", "address": {"city": "BAKERSFIELD", "state": "CA", "street": "4200 ASHE RD", "postcode": "93313"}}},
{"geometry": {"type": "Point", "coordinates": [-119.0806687535, 35.3131187376]}, "type": "Feature", "properties": {"collection_times": [{"days": "Mon-Fri", "time": "12:00pm"}, {"days": "Sat", "time": "10:30am"}, {"days": "Sun", "time": "Closed"}], "id": "9331300004", "name": "USPS COLLECTION BOX - BLUE BOX", "address": {"city": "BAKERSFIELD", "state": "CA", "street": "7000 DISTRICT BLVD", "postcode": "93313"}}},
{"geometry": {"type": "Point", "coordinates": [-119.0381177195, 35.3116270264]}, "type": "Feature", "properties": {"collection_times": [{"days": "Mon-Fri", "time": "2:30pm"}, {"days": "Sat", "time": "11:00am"}, {"days": "Sun", "time": "Closed"}], "id": "9331300013", "name": "USPS COLLECTION BOX - BLUE BOX", "address": {"city": "BAKERSFIELD", "state": "CA", "street": "3201 CATTLE DR", "postcode": "93313"}}},
{"geometry": {"type": "Point", "coordinates": [-119.0685592968, 35.4362521942]}, "type": "Feature", "properties": {"collection_times": [{"days": "Mon-Fri", "time": "5:30pm"}, {"days": "Sat", "time": "4:00pm"}, {"days": "Sun", "time": "Closed"}], "id": "9338000002", "name": "USPS COLLECTION BOX - EXPRESS", "address": {"city": "BAKERSFIELD", "state": "CA", "street": "3400 PEGASUS DR", "postcode": "93380"}}},
{"geometry": {"type": "Point", "coordinates": [-119.06799808, 35.4357075922]}, "type": "Feature", "properties": {"collection_times": [{"days": "Mon-Fri", "time": "6:00pm"}, {"days": "Sat", "time": "4:00pm"}, {"days": "Sun", "time": "Closed"}], "id": "9338000003", "name": "USPS COLLECTION BOX - BLUE BOX", "address": {"city": "BAKERSFIELD", "state": "CA", "street": "3400 PEGASUS DR", "postcode": "93380"}}},
{"geometry": {"type": "Point", "coordinates": [-119.06799808, 35.4357075922]}, "type": "Feature", "properties": {"collection_times": [{"days": "Mon-Fri", "time": "6:00pm"}, {"days": "Sat", "time": "4:00pm"}, {"days": "Sun", "time": "Closed"}], "id": "9338000006", "name": "USPS COLLECTION BOX - PO LOBBY", "address": {"city": "BAKERSFIELD", "state": "CA", "street": "3400 PEGASUS DR", "postcode": "93380"}}},
{"geometry": {"type": "Point", "coordinates": [-119.06799808, 35.4357075922]}, "type": "Feature", "properties": {"collection_times": [{"days": "Mon-Fri", "time": "6:00pm"}, {"days": "Sat", "time": "4:00pm"}, {"days": "Sun", "time": "Closed"}], "id": "9338000008", "name": "USPS COLLECTION BOX - BLUE BOX", "address": {"city": "BAKERSFIELD", "state": "CA", "street": "3400 PEGASUS DR", "postcode": "93380"}}},
{"geometry": {"type": "Point", "coordinates": [-119.06799808, 35.4357075922]}, "type": "Feature", "properties": {"collection_times": [{"days": "Mon-Fri", "time": "6:00pm"}, {"days": "Sat", "time": "4:00pm"}, {"days": "Sun", "time": "Closed"}], "id": "9338000009", "name": "USPS COLLECTION BOX - BLUE BOX", "address": {"city": "BAKERSFIELD", "state": "CA", "street": "3400 PEGASUS DR", "postcode": "93380"}}}
]}
