{"type": "FeatureCollection", "features": [
{"geometry": {"type": "Point", "coordinates": [-120.6593900526, 35.2843408257]}, "type": "Feature", "properties": {"collection_times": [{"days": "Mon-Sat", "time": "10:00am"}, {"days": "Sun", "time": "Closed"}], "id": "9340100034", "name": "USPS COLLECTION BOX - BLUE BOX", "address": {"city": "SAN LUIS OBISPO", "state": "CA", "street": "900 TORO ST", "postcode": "93401"}}},
{"geometry": {"type": "Point", "coordinates": [-120.662376685, 35.2826450031]}, "type": "Feature", "properties": {"collection_times": [{"days": "Mon-Sat", "time": "3:00pm"}, {"days": "Sun", "time": "Closed"}], "id": "9340100038", "name": "USPS COLLECTION BOX - BLUE BOX", "address": {"city": "SAN LUIS OBISPO", "state": "CA", "street": "990 PALM ST", "postcode": "93401"}}},
{"geometry": {"type": "Point", "coordinates": [-120.661804816, 35.2829835953]}, "type": "Feature", "properties": {"collection_times": [{"days": "Mon-Sat", "time": "3:00pm"}, {"days": "Sun", "time": "Closed"}], "id": "9340100039", "name": "USPS COLLECTION BOX - BLUE BOX", "address": {"city": "SAN LUIS OBISPO", "state": "CA", "street": "1035 PALM ST", "postcode": "93401"}}},
{"geometry": {"type": "Point", "coordinates": [-120.6578241896, 35.2828226742]}, "type": "Feature", "properties": {"collection_times": [{"days": "Mon-Sat", "time": "3:00pm"}, {"days": "Sun", "time": "Closed"}], "id": "9340100047", "name": "USPS COLLECTION BOX - BLUE BOX", "address": {"city": "SAN LUIS OBISPO", "state": "CA", "street": "1100 TORO ST", "postcode": "93401"}}},
{"geometry": {"type": "Point", "coordinates": [-120.664436634, 35.2789317657]}, "type": "Feature", "properties": {"collection_times": [{"days": "Mon-Sat", "time": "3:00pm"}, {"days": "Sun", "time": "Closed"}], "id": "9340100049", "name": "USPS COLLECTION BOX - BLUE BOX", "address": {"city": "SAN LUIS OBISPO", "state": "CA", "street": "1100 BROAD ST", "postcode": "93401"}}},
{"geometry": {"type": "Point", "coordinates": [-120.6461020633, 35.2743200543]}, "type": "Feature", "properties": {"collection_times": [{"days": "Mon-Sat", "time": "10:00am"}, {"days": "Sun", "time": "Closed"}], "id": "9340100051", "name": "USPS COLLECTION BOX - BLUE BOX", "address": {"city": "SAN LUIS OBISPO", "state": "CA", "street": "1551 BISHOP ST", "postcode": "93401"}}},
{"geometry": {"type": "Point", "coordinates": [-120.6449529805, 35.2573502244]}, "type": "Feature", "properties": {"collection_times": [{"days": "Mon-Sat", "time": "10:00am"}, {"days": "Sun", "time": "Closed"}], "id": "9340100052", "name": "USPS COLLECTION BOX - BLUE BOX", "address": {"city": "SAN LUIS OBISPO", "state": "CA", "street": "3485 SACRAMENTO DR", "postcode": "93401"}}},
{"geometry": {"type": "Point", "coordinates": [-120.6495157934, 35.2777949619]}, "type": "Feature", "properties": {"collection_times": [{"days": "Mon-Sat", "time": "10:00am"}, {"days": "Sun", "time": "Closed"}], "id": "9340100053", "name": "USPS COLLECTION BOX - BLUE BOX", "address": {"city": "SAN LUIS OBISPO", "state": "CA", "street": "1941 JOHNSON AVE", "postcode": "93401"}}},
{"geometry": {"type": "Point", "coordinates": [-120.6731528223, 35.2477447297]}, "type": "Feature", "properties": {"collection_times": [{"days": "Mon-Sat", "time": "10:00am"}, {"days": "Sun", "time": "Closed"}], "id": "9340100056", "name": "USPS COLLECTION BOX - BLUE BOX", "address": {"city": "SAN LUIS OBISPO", "state": "CA", "street": "3860 S HIGUERA ST", "postcode": "93401"}}},
{"geometry": {"type": "Point", "coordinates": [-120.648177631, 35.2614613797]}, "type": "Feature", "properties": {"collection_times": [{"days": "Mon-Sat", "time": "3:00pm"}, {"days": "Sun", "time": "Closed"}], "id": "9340100067", "name": "USPS COLLECTION BOX - BLUE BOX", "address": {"city": "SAN LUIS OBISPO", "state": "CA", "street": "3195 MCMILLAN AVE", "postcode": "93401"}}},
{"geometry": {"type": "Point", "coordinates": [-120.6687576577, 35.2570790311]}, "type": "Feature", "properties": {"collection_times": [{"days": "Mon-Sat", "time": "3:00pm"}, {"days": "Sun", "time": "Closed"}], "id": "9340100077", "name": "USPS COLLECTION BOX - BLUE BOX", "address": {"city": "SAN LUIS OBISPO", "state": "CA", "street": "3196 S HIGUERA ST", "postcode": "93401"}}},
{"geometry": {"type": "Point", "coordinates": [-120.6363984701, 35.2391661853]}, "type": "Feature", "properties": {"collection_times": [{"days": "Mon-Sat", "time": "10:00am"}, {"days": "Sun", "time": "Closed"}], "id": "9340100082", "name": "USPS COLLECTION BOX - BLUE BOX", "address": {"city": "SAN LUIS OBISPO", "state": "CA", "street": "4545 BROAD ST", "postcode": "93401"}}},
{"geometry": {"type": "Point", "coordinates": [-120.6435974764, 35.2614722003]}, "type": "Feature", "properties": {"collection_times": [{"days": "Mon-Sat", "time": "10:00am"}, {"days": "Sun", "time": "Closed"}], "id": "9340100083", "name": "USPS COLLECTION BOX - BLUE BOX", "address": {"city": "SAN LUIS OBISPO", "state": "CA", "street": "1100 LAUREL LN", "postcode": "93401"}}},
{"geometry": {"type": "Point", "coordinates": [-120.6610687734, 35.2797444289]}, "type": "Feature", "properties": {"collection_times": [{"days": "Mon-Fri", "time": "5:00pm"}, {"days": "Sat", "time": "2:00pm"}, {"days": "Sun", "time": "Closed"}], "id": "9340100090", "name": "USPS COLLECTION BOX - PO LOBBY", "address": {"city": "SAN LUIS OBISPO", "state": "CA", "street": "893 MARSH ST", "postcode": "93401"}}},
{"geometry": {"type": "Point", "coordinates": [-120.6420207841, 35.2463514943]}, "type": "Feature", "properties": {"collection_times": [{"days": "Mon-Sat", "time": "10:00am"}, {"days": "Sun", "time": "Closed"}], "id": "9340100092", "name": "USPS COLLECTION BOX - BLUE BOX", "address": {"city": "SAN LUIS OBISPO", "state": "CA", "street": "4115 BROAD ST", "postcode": "93401"}}},
{"geometry": {"type": "Point", "coordinates": [-120.6610687734, 35.2797444289]}, "type": "Feature", "properties": {"collection_times": [{"days": "Mon-Fri", "time": "5:00pm"}, {"days": "Sat", "time": "2:00pm"}, {"days": "Sun", "time": "Closed"}], "id": "9340100093", "name": "USPS COLLECTION BOX - APC", "address": {"city": "SAN LUIS OBISPO", "state": "CA", "street": "893 MARSH ST", "postcode": "93401"}}},
{"geometry": {"type": "Point", "coordinates": [-120.6554291705, 35.2640205212]}, "type": "Feature", "properties": {"collection_times": [{"days": "Mon-Sat", "time": "3:00pm"}, {"days": "Sun", "time": "Closed"}], "id": "9340100097", "name": "USPS COLLECTION BOX - EXPRESS", "address": {"city": "SAN LUIS OBISPO", "state": "CA", "street": "980 MARSH ST", "postcode": "93401"}}},
{"geometry": {"type": "Point", "coordinates": [-120.6603326264, 35.2803335184]}, "type": "Feature", "properties": {"collection_times": [{"days": "Mon-Sat", "time": "3:00pm"}, {"days": "Sun", "time": "Closed"}], "id": "9340100100", "name": "USPS COLLECTION BOX - BLUE BOX", "address": {"city": "SAN LUIS OBISPO", "state": "CA", "street": "980 MARSH ST", "postcode": "93401"}}},
{"geometry": {"type": "Point", "coordinates": [-120.8288131033, 35.3106956924]}, "type": "Feature", "properties": {"collection_times": [{"days": "Mon-Fri", "time": "5:00pm"}, {"days": "Sat", "time": "2:00pm"}, {"days": "Sun", "time": "Closed"}], "id": "9340200000", "name": "USPS COLLECTION BOX - BLUE BOX", "address": {"city": "LOS OSOS", "state": "CA", "street": "1189 LOS OSOS VALLEY RD", "postcode": "93402"}}},
{"geometry": {"type": "Point", "coordinates": [-120.8288131033, 35.3106956924]}, "type": "Feature", "properties": {"collection_times": [{"days": "Mon-Fri", "time": "5:00pm"}, {"days": "Sat", "time": "2:00pm"}, {"days": "Sun", "time": "Closed"}], "id": "9340200001", "name": "USPS COLLECTION BOX - BLUE BOX", "address": {"city": "LOS OSOS", "state": "CA", "street": "1189 LOS OSOS VALLEY RD", "postcode": "93402"}}},
{"geometry": {"type": "Point", "coordinates": [-120.8331358787, 35.3112050651]}, "type": "Feature", "properties": {"collection_times": [{"days": "Mon-Sat", "time": "10:00am"}, {"days": "Sun", "time": "Closed"}], "id": "9340200005", "name": "USPS COLLECTION BOX - BLUE BOX", "address": {"city": "LOS OSOS", "state": "CA", "street": "1001 LOS OSOS VALLEY RD", "postcode": "93402"}}},
{"geometry": {"type": "Point", "coordinates": [-120.8288131033, 35.3106956924]}, "type": "Feature", "properties": {"collection_times": [{"days": "Mon-Fri", "time": "5:30pm"}, {"days": "Sat", "time": "2:00pm"}, {"days": "Sun", "time": "Closed"}], "id": "9340200006", "name": "USPS COLLECTION BOX - PO LOBBY", "address": {"city": "LOS OSOS", "state": "CA", "street": "1189 LOS OSOS VALLEY RD", "postcode": "93402"}}},
{"geometry": {"type": "Point", "coordinates": [-120.6801882008, 35.2612044264]}, "type": "Feature", "properties": {"collection_times": [{"days": "Mon-Fri", "time": "5:30pm"}, {"days": "Sat", "time": "10:00am"}, {"days": "Sun", "time": "Closed"}], "id": "9340500000", "name": "USPS COLLECTION BOX - BLUE BOX", "address": {"city": "SAN LUIS OBISPO", "state": "CA", "street": "1655 DALIDIO DR", "postcode": "93405"}}},
{"geometry": {"type": "Point", "coordinates": [-120.6808257276, 35.2904816047]}, "type": "Feature", "properties": {"collection_times": [{"days": "Mon-Fri", "time": "5:30pm"}, {"days": "Sat", "time": "10:00am"}, {"days": "Sun", "time": "Closed"}], "id": "9340500001", "name": "USPS COLLECTION BOX - EXPRESS", "address": {"city": "SAN LUIS OBISPO", "state": "CA", "street": "1655 DALIDIO DR", "postcode": "93405"}}},
{"geometry": {"type": "Point", "coordinates": [-120.6801882008, 35.2612044264]}, "type": "Feature", "properties": {"collection_times": [{"days": "Mon-Fri", "time": "5:30pm"}, {"days": "Sat", "time": "10:00am"}, {"days": "Sun", "time": "Closed"}], "id": "9340500003", "name": "USPS COLLECTION BOX - BLUE BOX", "address": {"city": "SAN LUIS OBISPO", "state": "CA", "street": "1655 DALIDIO DR", "postcode": "93405"}}},
{"geometry": {"type": "Point", "coordinates": [-120.6801882008, 35.2612044264]}, "type": "Feature", "properties": {"collection_times": [{"days": "Mon-Fri", "time": "5:30pm"}, {"days": "Sat", "time": "10:00am"}, {"days": "Sun", "time": "Closed"}], "id": "9340500004", "name": "USPS COLLECTION BOX - PO LOBBY", "address": {"city": "SAN LUIS OBISPO", "state": "CA", "street": "1655 DALIDIO DR", "postcode": "93405"}}},
{"geometry": {"type": "Point", "coordinates": [-120.6651157962, 35.2933211402]}, "type": "Feature", "properties": {"collection_times": [{"days": "Mon-Sat", "time": "3:00pm"}, {"days": "Sun", "time": "Closed"}], "id": "9340500007", "name": "USPS COLLECTION BOX - BLUE BOX", "address": {"city": "SAN LUIS OBISPO", "state": "CA", "street": "100 CASA ST", "postcode": "93405"}}},
{"geometry": {"type": "Point", "coordinates": [-120.6724382743, 35.2940876854]}, "type": "Feature", "properties": {"collection_times": [{"days": "Mon-Sat", "time": "3:00pm"}, {"days": "Sun", "time": "Closed"}], "id": "9340500009", "name": "USPS COLLECTION BOX - BLUE BOX", "address": {"city": "SAN LUIS OBISPO", "state": "CA", "street": "763 E FOOTHILL BLVD", "postcode": "93405"}}},
{"geometry": {"type": "Point", "coordinates": [-120.7600703634, 35.2165299141]}, "type": "Feature", "properties": {"collection_times": [{"days": "Mon-Sat", "time": "3:00pm"}, {"days": "Sun", "time": "Closed"}], "id": "9340500012", "name": "USPS COLLECTION BOX - BLUE BOX", "address": {"city": "SAN LUIS OBISPO", "state": "CA", "street": "1 GRAND AVE", "postcode": "93405"}}},
{"geometry": {"type": "Point", "coordinates": [-120.7600703634, 35.2165299141]}, "type": "Feature", "properties": {"collection_times": [{"days": "Mon-Sat", "time": "3:00pm"}, {"days": "Sun", "time": "Closed"}], "id": "9340500014", "name": "USPS COLLECTION BOX - BLUE BOX", "address": {"city": "SAN LUIS OBISPO", "state": "CA", "street": "1 GRAND AVE", "postcode": "93405"}}},
{"geometry": {"type": "Point", "coordinates": [-120.6647919574, 35.2947399092]}, "type": "Feature", "properties": {"collection_times": [{"days": "Mon-Sat", "time": "10:00am"}, {"days": "Sun", "time": "Closed"}], "id": "9340500016", "name": "USPS COLLECTION BOX - BLUE BOX", "address": {"city": "SAN LUIS OBISPO", "state": "CA", "street": "1 MUSTANG DR", "postcode": "93405"}}},
{"geometry": {"type": "Point", "coordinates": [-120.6915788255, 35.2574659642]}, "type": "Feature", "properties": {"collection_times": [{"days": "Mon-Sat", "time": "10:00am"}, {"days": "Sun", "time": "Closed"}], "id": "9340500017", "name": "USPS COLLECTION BOX - BLUE BOX", "address": {"city": "SAN LUIS OBISPO", "state": "CA", "street": "11555 LOS OSOS VALLEY RD", "postcode": "93405"}}},
{"geometry": {"type": "Point", "coordinates": [-120.6834100745, 35.2950177149]}, "type": "Feature", "properties": {"collection_times": [{"days": "Mon-Sat", "time": "10:00am"}, {"days": "Sun", "time": "Closed"}], "id": "9340500023", "name": "USPS COLLECTION BOX - BLUE BOX", "address": {"city": "SAN LUIS OBISPO", "state": "CA", "street": "190 PATRICIA DR", "postcode": "93405"}}},
{"geometry": {"type": "Point", "coordinates": [-120.6801882008, 35.2612044264]}, "type": "Feature", "properties": {"collection_times": [{"days": "Mon-Fri", "time": "5:30pm"}, {"days": "Sat", "time": "10:00am"}, {"days": "Sun", "time": "Closed"}], "id": "9340500029", "name": "USPS COLLECTION BOX - APC", "address": {"city": "SAN LUIS OBISPO", "state": "CA", "street": "1655 DALIDIO DR", "postcode": "93405"}}},
{"geometry": {"type": "Point", "coordinates": [-120.5757070095, 35.1145306069]}, "type": "Feature", "properties": {"collection_times": [{"days": "Mon-Sat", "time": "10:00am"}, {"days": "Sun", "time": "Closed"}], "id": "9342000004", "name": "USPS COLLECTION BOX - EXPRESS", "address": {"city": "ARROYO GRANDE", "state": "CA", "street": "227 TRAFFIC WAY", "postcode": "93420"}}},
{"geometry": {"type": "Point", "coordinates": [-120.577686884, 35.1211346119]}, "type": "Feature", "properties": {"collection_times": [{"days": "Mon-Sat", "time": "10:00am"}, {"days": "Sun", "time": "Closed"}], "id": "9342000006", "name": "USPS COLLECTION BOX - BLUE BOX", "address": {"city": "ARROYO GRANDE", "state": "CA", "street": "227 TRAFFIC WAY", "postcode": "93420"}}},
{"geometry": {"type": "Point", "coordinates": [-120.6033879592, 35.1296914564]}, "type": "Feature", "properties": {"collection_times": [{"days": "Mon-Sat", "time": "10:00am"}, {"days": "Sun", "time": "Closed"}], "id": "9342000010", "name": "USPS COLLECTION BOX - BLUE BOX", "address": {"city": "ARROYO GRANDE", "state": "CA", "street": "1520 W BRANCH ST", "postcode": "93420"}}},
{"geometry": {"type": "Point", "coordinates": [-120.6042033465, 35.1208338547]}, "type": "Feature", "properties": {"collection_times": [{"days": "Mon-Sat", "time": "10:00am"}, {"days": "Sun", "time": "Closed"}], "id": "9342000015", "name": "USPS COLLECTION BOX - BLUE BOX", "address": {"city": "ARROYO GRANDE", "state": "CA", "street": "1404 E GRAND AVE", "postcode": "93420"}}},
{"geometry": {"type": "Point", "coordinates": [-120.591681529, 35.1029653707]}, "type": "Feature", "properties": {"collection_times": [{"days": "Mon-Sat", "time": "10:00am"}, {"days": "Sun", "time": "Closed"}], "id": "9342000019", "name": "USPS COLLECTION BOX - BLUE BOX", "address": {"city": "ARROYO GRANDE", "state": "CA", "street": "936 S HALCYON RD", "postcode": "93420"}}},
{"geometry": {"type": "Point", "coordinates": [-120.5795971295, 35.1208608204]}, "type": "Feature", "properties": {"collection_times": [{"days": "Mon-Fri", "time": "5:00pm"}, {"days": "Sat", "time": "1:00pm"}, {"days": "Sun", "time": "Closed"}], "id": "9342100001", "name": "USPS COLLECTION BOX - BLUE BOX", "address": {"city": "ARROYO GRANDE", "state": "CA", "street": "160 STATION WAY", "postcode": "93421"}}},
{"geometry": {"type": "Point", "coordinates": [-120.5795971295, 35.1208608204]}, "type": "Feature", "properties": {"collection_times": [{"days": "Mon-Fri", "time": "5:00pm"}, {"days": "Sat", "time": "1:00pm"}, {"days": "Sun", "time": "Closed"}], "id": "9342100002", "name": "USPS COLLECTION BOX - BLUE BOX", "address": {"city": "ARROYO GRANDE", "state": "CA", "street": "160 STATION WAY", "postcode": "93421"}}},
{"geometry": {"type": "Point", "coordinates": [-120.5795971295, 35.1208608204]}, "type": "Feature", "properties": {"collection_times": [{"days": "Mon-Fri", "time": "5:00pm"}, {"days": "Sat", "time": "1:00pm"}, {"days": "Sun", "time": "Closed"}], "id": "9342100003", "name": "USPS COLLECTION BOX - PO LOBBY", "address": {"city": "ARROYO GRANDE", "state": "CA", "street": "160 STATION WAY", "postcode": "93421"}}},
{"geometry": {"type": "Point", "coordinates": [-120.5795971295, 35.1208608204]}, "type": "Feature", "properties": {"collection_times": [{"days": "Mon-Fri", "time": "5:00pm"}, {"days": "Sat", "time": "1:00pm"}, {"days": "Sun", "time": "Closed"}], "id": "9342100004", "name": "USPS COLLECTION BOX - PO LOBBY", "address": {"city": "ARROYO GRANDE", "state": "CA", "street": "160 STATION WAY", "postcode": "93421"}}},
{"geometry": {"type": "Point", "coordinates": [-120.647602427, 35.4646942689]}, "type": "Feature", "properties": {"collection_times": [{"days": "Mon-Fri", "time": "4:00pm"}, {"days": "Sat", "time": "3:00pm"}, {"days": "Sun", "time": "Closed"}], "id": "9342200000", "name": "USPS COLLECTION BOX - BLUE BOX", "address": {"city": "ATASCADERO", "state": "CA", "street": "9800 EL CAMINO REAL", "postcode": "93422"}}},
{"geometry": {"type": "Point", "coordinates": [-120.647602427, 35.4646942689]}, "type": "Feature", "properties": {"collection_times": [{"days": "Mon-Fri", "time": "4:00pm"}, {"days": "Sat", "time": "3:00pm"}, {"days": "Sun", "time": "Closed"}], "id": "9342200001", "name": "USPS COLLECTION BOX - BLUE BOX", "address": {"city": "ATASCADERO", "state": "CA", "street": "9800 EL CAMINO REAL", "postcode": "93422"}}},
{"geometry": {"type": "Point", "coordinates": [-120.647602427, 35.4646942689]}, "type": "Feature", "properties": {"collection_times": [{"days": "Mon-Fri", "time": "4:00pm"}, {"days": "Sat", "time": "3:00pm"}, {"days": "Sun", "time": "Closed"}], "id": "9342200004", "name": "USPS COLLECTION BOX - BLUE BOX", "address": {"city": "ATASCADERO", "state": "CA", "street": "9800 EL CAMINO REAL", "postcode": "93422"}}},
{"geometry": {"type": "Point", "coordinates": [-120.6871307833, 35.5020178641]}, "type": "Feature", "properties": {"collection_times": [{"days": "Mon-Sat", "time": "10:00am"}, {"days": "Sun", "time": "Closed"}], "id": "9342200005", "name": "USPS COLLECTION BOX - BLUE BOX", "address": {"city": "ATASCADERO", "state": "CA", "street": "3980 EL CAMINO REAL", "postcode": "93422"}}},
{"geometry": {"type": "Point", "coordinates": [-120.6677532583, 35.4760308813]}, "type": "Feature", "properties": {"collection_times": [{"days": "Mon-Sat", "time": "10:00am"}, {"days": "Sun", "time": "Closed"}], "id": "9342200009", "name": "USPS COLLECTION BOX - BLUE BOX", "address": {"city": "ATASCADERO", "state": "CA", "street": "7540 MORRO RD", "postcode": "93422"}}},
{"geometry": {"type": "Point", "coordinates": [-120.6827542985, 35.4990913542]}, "type": "Feature", "properties": {"collection_times": [{"days": "Mon-Sat", "time": "10:00am"}, {"days": "Sun", "time": "Closed"}], "id": "9342200016", "name": "USPS COLLECTION BOX - BLUE BOX", "address": {"city": "ATASCADERO", "state": "CA", "street": "4555 EL CAMINO REAL", "postcode": "93422"}}},
{"geometry": {"type": "Point", "coordinates": [-120.6620687929, 35.4841592916]}, "type": "Feature", "properties": {"collection_times": [{"days": "Mon-Sat", "time": "10:00am"}, {"days": "Sun", "time": "Closed"}], "id": "9342200018", "name": "USPS COLLECTION BOX - BLUE BOX", "address": {"city": "ATASCADERO", "state": "CA", "street": "7343 EL CAMINO REAL", "postcode": "93422"}}},
{"geometry": {"type": "Point", "coordinates": [-120.647602427, 35.4646942689]}, "type": "Feature", "properties": {"collection_times": [{"days": "Mon-Fri", "time": "5:30pm"}, {"days": "Sat", "time": "3:00pm"}, {"days": "Sun", "time": "Closed"}], "id": "9342200021", "name": "USPS COLLECTION BOX - PO LOBBY", "address": {"city": "ATASCADERO", "state": "CA", "street": "9800 EL CAMINO REAL", "postcode": "93422"}}},
{"geometry": {"type": "Point", "coordinates": [-120.647602427, 35.4646942689]}, "type": "Feature", "properties": {"collection_times": [{"days": "Mon-Fri", "time": "5:30pm"}, {"days": "Sat", "time": "3:00pm"}, {"days": "Sun", "time": "Closed"}], "id": "9342200023", "name": "USPS COLLECTION BOX - PO LOBBY", "address": {"city": "ATASCADERO", "state": "CA", "street": "9800 EL CAMINO REAL", "postcode": "93422"}}},
{"geometry": {"type": "Point", "coordinates": [-120.647602427, 35.4646942689]}, "type": "Feature", "properties": {"collection_times": [{"days": "Mon-Fri", "time": "5:30pm"}, {"days": "Sat", "time": "3:00pm"}, {"days": "Sun", "time": "Closed"}], "id": "9342200025", "name": "USPS COLLECTION BOX - APC", "address": {"city": "ATASCADERO", "state": "CA", "street": "9800 EL CAMINO REAL", "postcode": "93422"}}},
{"geometry": {"type": "Point", "coordinates": [-120.6781052761, 35.2622138354]}, "type": "Feature", "properties": {"collection_times": [{"days": "Mon-Fri", "time": "4:00pm"}, {"days": "Sat", "time": "10:00am"}, {"days": "Sun", "time": "Closed"}], "id": "9342400004", "name": "USPS COLLECTION BOX - BLUE BOX", "address": {"city": "AVILA BEACH", "state": "CA", "street": "191 SAN MIGUEL", "postcode": "93424"}}},
{"geometry": {"type": "Point", "coordinates": [-120.6781052761, 35.2622138354]}, "type": "Feature", "properties": {"collection_times": [{"days": "Mon-Sat", "time": "10:00am"}, {"days": "Sun", "time": "Closed"}], "id": "9342400005", "name": "USPS COLLECTION BOX - BLUE BOX", "address": {"city": "AVILA BEACH", "state": "CA", "street": "1 LUPINE CANYON RD", "postcode": "93424"}}},
{"geometry": {"type": "Point", "coordinates": [-120.6781052761, 35.2622138354]}, "type": "Feature", "properties": {"collection_times": [{"days": "Mon-Fri", "time": "4:00pm"}, {"days": "Sat", "time": "10:00am"}, {"days": "Sun", "time": "Closed"}], "id": "9342400006", "name": "USPS COLLECTION BOX - PO LOBBY", "address": {"city": "AVILA BEACH", "state": "CA", "street": "191 SAN MIGUEL", "postcode": "93424"}}},
{"geometry": {"type": "Point", "coordinates": [-120.8015357213, 35.8633957594]}, "type": "Feature", "properties": {"collection_times": [{"days": "Mon-Fri", "time": "4:00pm"}, {"days": "Sat", "time": "10:00am"}, {"days": "Sun", "time": "Closed"}], "id": "9342600001", "name": "USPS COLLECTION BOX - BLUE BOX", "address": {"city": "BRADLEY", "state": "CA", "street": "73101 PLEYTO ST", "postcode": "93426"}}},
{"geometry": {"type": "Point", "coordinates": [-120.8015357213, 35.8633957594]}, "type": "Feature", "properties": {"collection_times": [{"days": "Mon-Fri", "time": "2:00pm"}, {"days": "Sat", "time": "10:00am"}, {"days": "Sun", "time": "Closed"}], "id": "9342600004", "name": "USPS COLLECTION BOX - PO LOBBY", "address": {"city": "BRADLEY", "state": "CA", "street": "73101 PLEYTO ST", "postcode": "93426"}}},
{"geometry": {"type": "Point", "coordinates": [-120.1960500046, 34.6142774483]}, "type": "Feature", "properties": {"collection_times": [{"days": "Mon-Fri", "time": "5:00pm"}, {"days": "Sat", "time": "9:30am"}, {"days": "Sun", "time": "Closed"}], "id": "9342700001", "name": "USPS COLLECTION BOX - BLUE BOX", "address": {"city": "BUELLTON", "state": "CA", "street": "140 W HIGHWAY 246", "postcode": "93427"}}},
{"geometry": {"type": "Point", "coordinates": [-120.1960500046, 34.6142774483]}, "type": "Feature", "properties": {"collection_times": [{"days": "Mon-Fri", "time": "5:00pm"}, {"days": "Sat", "time": "9:30am"}, {"days": "Sun", "time": "Closed"}], "id": "9342700002", "name": "USPS COLLECTION BOX - BLUE BOX", "address": {"city": "BUELLTON", "state": "CA", "street": "140 W HIGHWAY 246", "postcode": "93427"}}},
{"geometry": {"type": "Point", "coordinates": [-120.187838202, 34.6111788266]}, "type": "Feature", "properties": {"collection_times": [{"days": "Mon-Sat", "time": "10:00am"}, {"days": "Sun", "time": "Closed"}], "id": "9342700004", "name": "USPS COLLECTION BOX - BLUE BOX", "address": {"city": "BUELLTON", "state": "CA", "street": "222 E HIGHWAY 246", "postcode": "93427"}}},
{"geometry": {"type": "Point", "coordinates": [-120.1960500046, 34.6142774483]}, "type": "Feature", "properties": {"collection_times": [{"days": "Mon-Fri", "time": "5:00pm"}, {"days": "Sat", "time": "9:30am"}, {"days": "Sun", "time": "Closed"}], "id": "9342700005", "name": "USPS COLLECTION BOX - PO LOBBY", "address": {"city": "BUELLTON", "state": "CA", "street": "140 W HIGHWAY 246", "postcode": "93427"}}},
{"geometry": {"type": "Point", "coordinates": [-121.0813535934, 35.5635062192]}, "type": "Feature", "properties": {"collection_times": [{"days": "Mon-Fri", "time": "4:00pm"}, {"days": "Sat", "time": "3:00pm"}, {"days": "Sun", "time": "Closed"}], "id": "9342800001", "name": "USPS COLLECTION BOX - BLUE BOX", "address": {"city": "CAMBRIA", "state": "CA", "street": "4100 BRIDGE ST", "postcode": "93428"}}},
{"geometry": {"type": "Point", "coordinates": [-121.1011469616, 35.5679273852]}, "type": "Feature", "properties": {"collection_times": [{"days": "Mon-Sat", "time": "10:00am"}, {"days": "Sun", "time": "Closed"}], "id": "9342800002", "name": "USPS COLLECTION BOX - BLUE BOX", "address": {"city": "CAMBRIA", "state": "CA", "street": "700 MAIN ST", "postcode": "93428"}}},
{"geometry": {"type": "Point", "coordinates": [-121.0813535934, 35.5635062192]}, "type": "Feature", "properties": {"collection_times": [{"days": "Mon-Fri", "time": "4:00pm"}, {"days": "Sat", "time": "11:00am"}, {"days": "Sun", "time": "Closed"}], "id": "9342800004", "name": "USPS COLLECTION BOX - PO LOBBY", "address": {"city": "CAMBRIA", "state": "CA", "street": "4100 BRIDGE ST", "postcode": "93428"}}},
{"geometry": {"type": "Point", "coordinates": [-121.0813535934, 35.5635062192]}, "type": "Feature", "properties": {"collection_times": [{"days": "Mon-Fri", "time": "4:00pm"}, {"days": "Sat", "time": "3:00pm"}, {"days": "Sun", "time": "Closed"}], "id": "9342800005", "name": "USPS COLLECTION BOX - BLUE BOX", "address": {"city": "CAMBRIA", "state": "CA", "street": "4100 BRIDGE ST", "postcode": "93428"}}},
{"geometry": {"type": "Point", "coordinates": [-120.5402919714, 34.8043445533]}, "type": "Feature", "properties": {"collection_times": [{"days": "Mon-Fri", "time": "12:00pm"}, {"days": "Sat", "time": "9:30am"}, {"days": "Sun", "time": "Closed"}], "id": "9342900001", "name": "USPS COLLECTION BOX - BLUE BOX", "address": {"city": "CASMALIA", "state": "CA", "street": "3401 POINT SAL RD", "postcode": "93429"}}},
{"geometry": {"type": "Point", "coordinates": [-120.9036035817, 35.4496938566]}, "type": "Feature", "properties": {"collection_times": [{"days": "Mon-Fri", "time": "4:00pm"}, {"days": "Sat", "time": "10:00am"}, {"days": "Sun", "time": "Closed"}], "id": "9343000001", "name": "USPS COLLECTION BOX - BLUE BOX", "address": {"city": "CAYUCOS", "state": "CA", "street": "97 ASH AVE", "postcode": "93430"}}},
{"geometry": {"type": "Point", "coordinates": [-120.9036035817, 35.4496938566]}, "type": "Feature", "properties": {"collection_times": [{"days": "Mon-Fri", "time": "4:00pm"}, {"days": "Sat", "time": "10:00am"}, {"days": "Sun", "time": "Closed"}], "id": "9343000006", "name": "USPS COLLECTION BOX - PO LOBBY", "address": {"city": "CAYUCOS", "state": "CA", "street": "97 ASH AVE", "postcode": "93430"}}},
{"geometry": {"type": "Point", "coordinates": [-120.5365165697, 35.49435248]}, "type": "Feature", "properties": {"collection_times": [{"days": "Mon-Fri", "time": "2:30pm"}, {"days": "Sat", "time": "11:00am"}, {"days": "Sun", "time": "Closed"}], "id": "9343200001", "name": "USPS COLLECTION BOX - BLUE BOX", "address": {"city": "CRESTON", "state": "CA", "street": "6320 WEBSTER RD", "postcode": "93432"}}},
{"geometry": {"type": "Point", "coordinates": [-120.6118580775, 35.1209784988]}, "type": "Feature", "properties": {"collection_times": [{"days": "Mon-Sat", "time": "10:00am"}, {"days": "Sun", "time": "Closed"}], "id": "9343300007", "name": "USPS COLLECTION BOX - BLUE BOX", "address": {"city": "GROVER BEACH", "state": "CA", "street": "1580 W GRAND AVE", "postcode": "93433"}}},
{"geometry": {"type": "Point", "coordinates": [-120.611605979, 35.1081781421]}, "type": "Feature", "properties": {"collection_times": [{"days": "Mon-Sat", "time": "10:00am"}, {"days": "Sun", "time": "Closed"}], "id": "9343300010", "name": "USPS COLLECTION BOX - BLUE BOX", "address": {"city": "GROVER BEACH", "state": "CA", "street": "101 LYNNE ST", "postcode": "93433"}}},
{"geometry": {"type": "Point", "coordinates": [-120.5720487798, 34.9719935927]}, "type": "Feature", "properties": {"collection_times": [{"days": "Mon-Fri", "time": "4:30pm"}, {"days": "Sat", "time": "1:30pm"}, {"days": "Sun", "time": "Closed"}], "id": "9343400000", "name": "USPS COLLECTION BOX - BLUE BOX", "address": {"city": "GUADALUPE", "state": "CA", "street": "1030 GUADALUPE ST", "postcode": "93434"}}},
{"geometry": {"type": "Point", "coordinates": [-120.4447647611, 34.6389409598]}, "type": "Feature", "properties": {"collection_times": [{"days": "Mon-Sat", "time": "3:00pm"}, {"days": "Sun", "time": "Closed"}], "id": "9343600008", "name": "USPS COLLECTION BOX - BLUE BOX", "address": {"city": "LOMPOC", "state": "CA", "street": "1111 E OCEAN AVE", "postcode": "93436"}}},
{"geometry": {"type": "Point", "coordinates": [-120.4653376005, 34.7034761032]}, "type": "Feature", "properties": {"collection_times": [{"days": "Mon-Sat", "time": "3:00pm"}, {"days": "Sun", "time": "Closed"}], "id": "9343600028", "name": "USPS COLLECTION BOX - BLUE BOX", "address": {"city": "LOMPOC", "state": "CA", "street": "3880 CONSTELLATION RD", "postcode": "93436"}}},
{"geometry": {"type": "Point", "coordinates": [-120.4674420845, 34.7001200486]}, "type": "Feature", "properties": {"collection_times": [{"days": "Mon-Fri", "time": "3:00pm"}, {"days": "Sat", "time": "1:00pm"}, {"days": "Sun", "time": "Closed"}], "id": "9343600030", "name": "USPS COLLECTION BOX - BLUE BOX", "address": {"city": "LOMPOC", "state": "CA", "street": "3734 CONSTELLATION RD", "postcode": "93436"}}},
{"geometry": {"type": "Point", "coordinates": [-120.4579177454, 34.6502447614]}, "type": "Feature", "properties": {"collection_times": [{"days": "Mon-Sat", "time": "3:00pm"}, {"days": "Sun", "time": "Closed"}], "id": "9343600034", "name": "USPS COLLECTION BOX - BLUE BOX", "address": {"city": "LOMPOC", "state": "CA", "street": "701 N H ST", "postcode": "93436"}}},
{"geometry": {"type": "Point", "coordinates": [-120.4576559504, 34.6487699452]}, "type": "Feature", "properties": {"collection_times": [{"days": "Mon-Sat", "time": "3:00pm"}, {"days": "Sun", "time": "Closed"}], "id": "9343600038", "name": "USPS COLLECTION BOX - BLUE BOX", "address": {"city": "LOMPOC", "state": "CA", "street": "708 N H ST", "postcode": "93436"}}},
{"geometry": {"type": "Point", "coordinates": [-120.4553037875, 34.6372307997]}, "type": "Feature", "properties": {"collection_times": [{"days": "Mon-Sat", "time": "3:00pm"}, {"days": "Sun", "time": "Closed"}], "id": "9343600040", "name": "USPS COLLECTION BOX - BLUE BOX", "address": {"city": "LOMPOC", "state": "CA", "street": "300 E CYPRESS AVE", "postcode": "93436"}}},
{"geometry": {"type": "Point", "coordinates": [-120.4515340651, 34.6387918074]}, "type": "Feature", "properties": {"collection_times": [{"days": "Mon-Sat", "time": "3:00pm"}, {"days": "Sun", "time": "Closed"}], "id": "9343600042", "name": "USPS COLLECTION BOX - BLUE BOX", "address": {"city": "LOMPOC", "state": "CA", "street": "600 E OCEAN AVE", "postcode": "93436"}}},
{"geometry": {"type": "Point", "coordinates": [-120.4671865653, 34.6391302332]}, "type": "Feature", "properties": {"collection_times": [{"days": "Mon-Fri", "time": "5:00pm"}, {"days": "Sat", "time": "4:30pm"}, {"days": "Sun", "time": "Closed"}], "id": "9343600047", "name": "USPS COLLECTION BOX - BLUE BOX", "address": {"city": "LOMPOC", "state": "CA", "street": "801 W OCEAN AVE", "postcode": "93436"}}},
{"geometry": {"type": "Point", "coordinates": [-120.4671865653, 34.6391302332]}, "type": "Feature", "properties": {"collection_times": [{"days": "Mon-Fri", "time": "5:00pm"}, {"days": "Sat", "time": "4:30pm"}, {"days": "Sun", "time": "Closed"}], "id": "9343600048", "name": "USPS COLLECTION BOX - PO LOBBY", "address": {"city": "LOMPOC", "state": "CA", "street": "801 W OCEAN AVE", "postcode": "93436"}}},
{"geometry": {"type": "Point", "coordinates": [-120.4671865653, 34.6391302332]}, "type": "Feature", "properties": {"collection_times": [{"days": "Mon-Fri", "time": "5:00pm"}, {"days": "Sat", "time": "4:30pm"}, {"days": "Sun", "time": "Closed"}], "id": "9343600049", "name": "USPS COLLECTION BOX - APC", "address": {"city": "LOMPOC", "state": "CA", "street": "801 W OCEAN AVE", "postcode": "93436"}}},
{"geometry": {"type": "Point", "coordinates": [-120.601854586, 34.6301676771]}, "type": "Feature", "properties": {"collection_times": [{"days": "Mon-Fri", "time": "2:00pm"}, {"days": "Sat", "time": "10:00am"}, {"days": "Sun", "time": "Closed"}], "id": "9343700000", "name": "USPS COLLECTION BOX - BLUE BOX", "address": {"city": "LOMPOC", "state": "CA", "street": "10373 BLDG", "postcode": "93437"}}},
{"geometry": {"type": "Point", "coordinates": [-120.2778100391, 34.7440633069]}, "type": "Feature", "properties": {"collection_times": [{"days": "Mon-Fri", "time": "4:00pm"}, {"days": "Sat", "time": "10:00am"}, {"days": "Sun", "time": "Closed"}], "id": "9344000001", "name": "USPS COLLECTION BOX - BLUE BOX", "address": {"city": "LOS ALAMOS", "state": "CA", "street": "497 BELL ST", "postcode": "93440"}}},
{"geometry": {"type": "Point", "coordinates": [-120.2778100391, 34.7440633069]}, "type": "Feature", "properties": {"collection_times": [{"days": "Mon-Fri", "time": "4:00pm"}, {"days": "Sat", "time": "10:00am"}, {"days": "Sun", "time": "Closed"}], "id": "9344000002", "name": "USPS COLLECTION BOX - BLUE BOX", "address": {"city": "LOS ALAMOS", "state": "CA", "street": "497 BELL ST", "postcode": "93440"}}},
{"geometry": {"type": "Point", "coordinates": [-120.2778100391, 34.7440633069]}, "type": "Feature", "properties": {"collection_times": [{"days": "Mon-Fri", "time": "4:00pm"}, {"days": "Sat", "time": "10:00am"}, {"days": "Sun", "time": "Closed"}], "id": "9344000003", "name": "USPS COLLECTION BOX - PO LOBBY", "address": {"city": "LOS ALAMOS", "state": "CA", "street": "497 BELL ST", "postcode": "93440"}}},
{"geometry": {"type": "Point", "coordinates": [-120.1150835612, 34.6650737063]}, "type": "Feature", "properties": {"collection_times": [{"days": "Mon-Fri", "time": "4:00pm"}, {"days": "Sat", "time": "10:30am"}, {"days": "Sun", "time": "Closed"}], "id": "9344100001", "name": "USPS COLLECTION BOX - BLUE BOX", "address": {"city": "LOS OLIVOS", "state": "CA", "street": "2880 GRAND AVE", "postcode": "93441"}}},
{"geometry": {"type": "Point", "coordinates": [-120.1150835612, 34.6650737063]}, "type": "Feature", "properties": {"collection_times": [{"days": "Mon-Fri", "time": "4:00pm"}, {"days": "Sat-Sun", "time": "Closed"}], "id": "9344100002", "name": "USPS COLLECTION BOX - PO LOBBY", "address": {"city": "LOS OLIVOS", "state": "CA", "street": "2880 GRAND AVE", "postcode": "93441"}}},
{"geometry": {"type": "Point", "coordinates": [-120.8476534582, 35.3668958709]}, "type": "Feature", "properties": {"collection_times": [{"days": "Mon-Fri", "time": "4:45pm"}, {"days": "Sat", "time": "4:30pm"}, {"days": "Sun", "time": "Closed"}], "id": "9344200007", "name": "USPS COLLECTION BOX - BLUE BOX", "address": {"city": "MORRO BAY", "state": "CA", "street": "898 NAPA AVE", "postcode": "93442"}}},
{"geometry": {"type": "Point", "coordinates": [-120.8476534582, 35.3668958709]}, "type": "Feature", "properties": {"collection_times": [{"days": "Mon-Fri", "time": "4:45pm"}, {"days": "Sat", "time": "4:30pm"}, {"days": "Sun", "time": "Closed"}], "id": "9344200008", "name": "USPS COLLECTION BOX - BLUE BOX", "address": {"city": "MORRO BAY", "state": "CA", "street": "898 NAPA AVE", "postcode": "93442"}}},
{"geometry": {"type": "Point", "coordinates": [-120.8529947295, 35.3649296105]}, "type": "Feature", "properties": {"collection_times": [{"days": "Mon-Sat", "time": "10:00am"}, {"days": "Sun", "time": "Closed"}], "id": "9344200010", "name": "USPS COLLECTION BOX - BLUE BOX", "address": {"city": "MORRO BAY", "state": "CA", "street": "699 EMBARCADERO", "postcode": "93442"}}},
{"geometry": {"type": "Point", "coordinates": [-120.8476534582, 35.3668958709]}, "type": "Feature", "properties": {"collection_times": [{"days": "Mon-Fri", "time": "4:45pm"}, {"days": "Sat", "time": "4:30pm"}, {"days": "Sun", "time": "Closed"}], "id": "9344200011", "name": "USPS COLLECTION BOX - PO LOBBY", "address": {"city": "MORRO BAY", "state": "CA", "street": "898 NAPA AVE", "postcode": "93442"}}},
{"geometry": {"type": "Point", "coordinates": [-120.4873591231, 35.0352688382]}, "type": "Feature", "properties": {"collection_times": [{"days": "Mon-Sat", "time": "10:00am"}, {"days": "Sun", "time": "Closed"}], "id": "9344400004", "name": "USPS COLLECTION BOX - BLUE BOX", "address": {"city": "NIPOMO", "state": "CA", "street": "615 W TEFFT ST", "postcode": "93444"}}},
{"geometry": {"type": "Point", "coordinates": [-120.4876863677, 35.0352171062]}, "type": "Feature", "properties": {"collection_times": [{"days": "Mon-Fri", "time": "5:00pm"}, {"days": "Sat", "time": "12:00pm"}, {"days": "Sun", "time": "Closed"}], "id": "9344400006", "name": "USPS COLLECTION BOX - PO LOBBY", "address": {"city": "NIPOMO", "state": "CA", "street": "630 W TEFFT ST", "postcode": "93444"}}},
{"geometry": {"type": "Point", "coordinates": [-120.4876863677, 35.0352171062]}, "type": "Feature", "properties": {"collection_times": [{"days": "Mon-Fri", "time": "5:00pm"}, {"days": "Sat", "time": "12:00pm"}, {"days": "Sun", "time": "Closed"}], "id": "9344400007", "name": "USPS COLLECTION BOX - BLUE BOX", "address": {"city": "NIPOMO", "state": "CA", "street": "630 W TEFFT ST", "postcode": "93444"}}},
{"geometry": {"type": "Point", "coordinates": [-120.6117781409, 35.0991312696]}, "type": "Feature", "properties": {"collection_times": [{"days": "Mon-Fri", "time": "4:30pm"}, {"days": "Sat", "time": "10:00am"}, {"days": "Sun", "time": "Closed"}], "id": "9344500001", "name": "USPS COLLECTION BOX - BLUE BOX", "address": {"city": "OCEANO", "state": "CA", "street": "1800 BEACH ST", "postcode": "93445"}}},
{"geometry": {"type": "Point", "coordinates": [-120.6117781409, 35.0991312696]}, "type": "Feature", "properties": {"collection_times": [{"days": "Mon-Fri", "time": "4:30pm"}, {"days": "Sat-Sun", "time": "Closed"}], "id": "9344500004", "name": "USPS COLLECTION BOX - PO LOBBY", "address": {"city": "OCEANO", "state": "CA", "street": "1800 BEACH ST", "postcode": "93445"}}},
{"geometry": {"type": "Point", "coordinates": [-120.6895619629, 35.6204693911]}, "type": "Feature", "properties": {"collection_times": [{"days": "Mon-Fri", "time": "3:45pm"}, {"days": "Sat", "time": "4:30pm"}, {"days": "Sun", "time": "Closed"}], "id": "9344600001", "name": "USPS COLLECTION BOX - BLUE BOX", "address": {"city": "PASO ROBLES", "state": "CA", "street": "800 6TH ST", "postcode": "93446"}}},
{"geometry": {"type": "Point", "coordinates": [-120.6861961544, 35.6308519555]}, "type": "Feature", "properties": {"collection_times": [{"days": "Mon-Fri", "time": "3:45pm"}, {"days": "Sat", "time": "4:30pm"}, {"days": "Sun", "time": "Closed"}], "id": "9344600003", "name": "USPS COLLECTION BOX - EXPRESS", "address": {"city": "PASO ROBLES", "state": "CA", "street": "800 6TH ST", "postcode": "93446"}}},
{"geometry": {"type": "Point", "coordinates": [-120.6594976554, 35.6219361972]}, "type": "Feature", "properties": {"collection_times": [{"days": "Mon-Sat", "time": "10:00am"}, {"days": "Sun", "time": "Closed"}], "id": "9344600011", "name": "USPS COLLECTION BOX - BLUE BOX", "address": {"city": "PASO ROBLES", "state": "CA", "street": "1191 CRESTON RD", "postcode": "93446"}}},
{"geometry": {"type": "Point", "coordinates": [-120.6868677022, 35.6152259197]}, "type": "Feature", "properties": {"collection_times": [{"days": "Mon-Sat", "time": "10:00am"}, {"days": "Sun", "time": "Closed"}], "id": "9344600016", "name": "USPS COLLECTION BOX - BLUE BOX", "address": {"city": "PASO ROBLES", "state": "CA", "street": "187 NIBLICK RD", "postcode": "93446"}}},
{"geometry": {"type": "Point", "coordinates": [-120.6902365829, 35.6272745507]}, "type": "Feature", "properties": {"collection_times": [{"days": "Mon-Sat", "time": "10:00am"}, {"days": "Sun", "time": "Closed"}], "id": "9344600019", "name": "USPS COLLECTION BOX - BLUE BOX", "address": {"city": "PASO ROBLES", "state": "CA", "street": "1225 PARK ST", "postcode": "93446"}}},
{"geometry": {"type": "Point", "coordinates": [-120.6895619629, 35.6204693911]}, "type": "Feature", "properties": {"collection_times": [{"days": "Mon-Fri", "time": "5:00pm"}, {"days": "Sat", "time": "4:30pm"}, {"days": "Sun", "time": "Closed"}], "id": "9344600020", "name": "USPS COLLECTION BOX - PO LOBBY", "address": {"city": "PASO ROBLES", "state": "CA", "street": "800 6TH ST", "postcode": "93446"}}},
{"geometry": {"type": "Point", "coordinates": [-120.6895619629, 35.6204693911]}, "type": "Feature", "properties": {"collection_times": [{"days": "Mon-Fri", "time": "5:00pm"}, {"days": "Sat", "time": "4:30pm"}, {"days": "Sun", "time": "Closed"}], "id": "9344600022", "name": "USPS COLLECTION BOX - APC", "address": {"city": "PASO ROBLES", "state": "CA", "street": "800 6TH ST", "postcode": "93446"}}},
{"geometry": {"type": "Point", "coordinates": [-120.7371388933, 35.6535946412]}, "type": "Feature", "properties": {"collection_times": [{"days": "Mon-Sat", "time": "10:00am"}, {"days": "Sun", "time": "Closed"}], "id": "9344600024", "name": "USPS COLLECTION BOX - BLUE BOX", "address": {"city": "PASO ROBLES", "state": "CA", "street": "496 LINNE RD", "postcode": "93446"}}},
{"geometry": {"type": "Point", "coordinates": [-120.60799587, 35.1347143562]}, "type": "Feature", "properties": {"collection_times": [{"days": "Mon-Sat", "time": "5:00pm"}, {"days": "Sun", "time": "Closed"}], "id": "9344900001", "name": "USPS COLLECTION BOX - BLUE BOX", "address": {"city": "PISMO BEACH", "state": "CA", "street": "100 CREST DR", "postcode": "93449"}}},
{"geometry": {"type": "Point", "coordinates": [-120.60799587, 35.1347143562]}, "type": "Feature", "properties": {"collection_times": [{"days": "Mon-Sat", "time": "5:00pm"}, {"days": "Sun", "time": "Closed"}], "id": "9344900002", "name": "USPS COLLECTION BOX - BLUE BOX", "address": {"city": "PISMO BEACH", "state": "CA", "street": "100 CREST DR", "postcode": "93449"}}},
{"geometry": {"type": "Point", "coordinates": [-120.6448794971, 35.1452020008]}, "type": "Feature", "properties": {"collection_times": [{"days": "Mon-Fri", "time": "5:00pm"}, {"days": "Sat", "time": "1:30pm"}, {"days": "Sun", "time": "Closed"}], "id": "9344900003", "name": "USPS COLLECTION BOX - EXPRESS", "address": {"city": "PISMO BEACH", "state": "CA", "street": "100 CREST DR", "postcode": "93449"}}},
{"geometry": {"type": "Point", "coordinates": [-120.6258097723, 35.136341145]}, "type": "Feature", "properties": {"collection_times": [{"days": "Mon-Sat", "time": "10:00am"}, {"days": "Sun", "time": "Closed"}], "id": "9344900020", "name": "USPS COLLECTION BOX - BLUE BOX", "address": {"city": "PISMO BEACH", "state": "CA", "street": "555 FIVE CITIES DR", "postcode": "93449"}}},
{"geometry": {"type": "Point", "coordinates": [-120.641048775, 35.1425484872]}, "type": "Feature", "properties": {"collection_times": [{"days": "Mon-Sat", "time": "10:00am"}, {"days": "Sun", "time": "Closed"}], "id": "9344900021", "name": "USPS COLLECTION BOX - BLUE BOX", "address": {"city": "PISMO BEACH", "state": "CA", "street": "851 PRICE ST", "postcode": "93449"}}},
{"geometry": {"type": "Point", "coordinates": [-120.6715891593, 35.157388862]}, "type": "Feature", "properties": {"collection_times": [{"days": "Mon-Sat", "time": "10:00am"}, {"days": "Sun", "time": "Closed"}], "id": "9344900025", "name": "USPS COLLECTION BOX - BLUE BOX", "address": {"city": "PISMO BEACH", "state": "CA", "street": "1301 SHELL BEACH RD", "postcode": "93449"}}},
{"geometry": {"type": "Point", "coordinates": [-120.6870234323, 35.1632941944]}, "type": "Feature", "properties": {"collection_times": [{"days": "Mon-Sat", "time": "10:00am"}, {"days": "Sun", "time": "Closed"}], "id": "9344900027", "name": "USPS COLLECTION BOX - BLUE BOX", "address": {"city": "PISMO BEACH", "state": "CA", "street": "2665 SHELL BEACH RD", "postcode": "93449"}}},
{"geometry": {"type": "Point", "coordinates": [-120.6614007132, 35.1541788492]}, "type": "Feature", "properties": {"collection_times": [{"days": "Mon-Sat", "time": "10:00am"}, {"days": "Sun", "time": "Closed"}], "id": "9344900030", "name": "USPS COLLECTION BOX - BLUE BOX", "address": {"city": "PISMO BEACH", "state": "CA", "street": "760 MATTIE RD", "postcode": "93449"}}},
{"geometry": {"type": "Point", "coordinates": [-120.60799587, 35.1347143562]}, "type": "Feature", "properties": {"collection_times": [{"days": "Mon-Sat", "time": "5:00pm"}, {"days": "Sun", "time": "Closed"}], "id": "9344900032", "name": "USPS COLLECTION BOX - PO LOBBY", "address": {"city": "PISMO BEACH", "state": "CA", "street": "100 CREST DR", "postcode": "93449"}}},
{"geometry": {"type": "Point", "coordinates": [-120.60799587, 35.1347143562]}, "type": "Feature", "properties": {"collection_times": [{"days": "Mon-Sat", "time": "5:00pm"}, {"days": "Sun", "time": "Closed"}], "id": "9344900034", "name": "USPS COLLECTION BOX - BLUE BOX", "address": {"city": "PISMO BEACH", "state": "CA", "street": "100 CREST DR", "postcode": "93449"}}},
{"geometry": {"type": "Point", "coordinates": [-120.7949776304, 36.0584061278]}, "type": "Feature", "properties": {"collection_times": [{"days": "Mon-Fri", "time": "3:45pm"}, {"days": "Sat", "time": "10:00am"}, {"days": "Sun", "time": "Closed"}], "id": "9345000001", "name": "USPS COLLECTION BOX - BLUE BOX", "address": {"city": "SAN ARDO", "state": "CA", "street": "1 RAILROAD ST", "postcode": "93450"}}},
{"geometry": {"type": "Point", "coordinates": [-120.6966851338, 35.7499679527]}, "type": "Feature", "properties": {"collection_times": [{"days": "Mon-Fri", "time": "4:00pm"}, {"days": "Sat", "time": "10:00am"}, {"days": "Sun", "time": "Closed"}], "id": "9345100001", "name": "USPS COLLECTION BOX - BLUE BOX", "address": {"city": "SAN MIGUEL", "state": "CA", "street": "1185 MISSION ST", "postcode": "93451"}}},
{"geometry": {"type": "Point", "coordinates": [-120.6966851338, 35.7499679527]}, "type": "Feature", "properties": {"collection_times": [{"days": "Mon-Fri", "time": "4:00pm"}, {"days": "Sat", "time": "10:00am"}, {"days": "Sun", "time": "Closed"}], "id": "9345100004", "name": "USPS COLLECTION BOX - PO LOBBY", "address": {"city": "SAN MIGUEL", "state": "CA", "street": "1185 MISSION ST", "postcode": "93451"}}},
{"geometry": {"type": "Point", "coordinates": [-120.6966851338, 35.7499679527]}, "type": "Feature", "properties": {"collection_times": [{"days": "Mon-Fri", "time": "4:00pm"}, {"days": "Sat", "time": "10:00am"}, {"days": "Sun", "time": "Closed"}], "id": "9345100005", "name": "USPS COLLECTION BOX - PO LOBBY", "address": {"city": "SAN MIGUEL", "state": "CA", "street": "1185 MISSION ST", "postcode": "93451"}}},
{"geometry": {"type": "Point", "coordinates": [-121.1619820278, 35.7139126481]}, "type": "Feature", "properties": {"collection_times": [{"days": "Mon-Fri", "time": "3:30pm"}, {"days": "Sat", "time": "10:00am"}, {"days": "Sun", "time": "Closed"}], "id": "9345200001", "name": "USPS COLLECTION BOX - BLUE BOX", "address": {"city": "SAN SIMEON", "state": "CA", "street": "444 SAN SIMEON RD", "postcode": "93452"}}},
{"geometry": {"type": "Point", "coordinates": [-121.1450569101, 35.6129247526]}, "type": "Feature", "properties": {"collection_times": [{"days": "Mon-Sat", "time": "10:00am"}, {"days": "Sun", "time": "Closed"}], "id": "9345200003", "name": "USPS COLLECTION BOX - BLUE BOX", "address": {"city": "SAN SIMEON", "state": "CA", "street": "250 SAN SIMEON AVE", "postcode": "93452"}}},
{"geometry": {"type": "Point", "coordinates": [-120.6080605434, 35.3914481367]}, "type": "Feature", "properties": {"collection_times": [{"days": "Mon-Fri", "time": "3:00pm"}, {"days": "Sat", "time": "10:00am"}, {"days": "Sun", "time": "Closed"}], "id": "9345300001", "name": "USPS COLLECTION BOX - BLUE BOX", "address": {"city": "SANTA MARGARITA", "state": "CA", "street": "22360 EL CAMINO REAL", "postcode": "93453"}}},
{"geometry": {"type": "Point", "coordinates": [-120.6080605434, 35.3914481367]}, "type": "Feature", "properties": {"collection_times": [{"days": "Mon-Fri", "time": "3:00pm"}, {"days": "Sat", "time": "10:00am"}, {"days": "Sun", "time": "Closed"}], "id": "9345300002", "name": "USPS COLLECTION BOX - BLUE BOX", "address": {"city": "SANTA MARGARITA", "state": "CA", "street": "22360 EL CAMINO REAL", "postcode": "93453"}}},
{"geometry": {"type": "Point", "coordinates": [-119.9342845305, 35.26408985]}, "type": "Feature", "properties": {"collection_times": [{"days": "Mon-Fri", "time": "10:00am"}, {"days": "Sat-Sun", "time": "Closed"}], "id": "9345300003", "name": "USPS COLLECTION BOX - BLUE BOX", "address": {"city": "SANTA MARGARITA", "state": "CA", "street": "14695 SEVEN MILE RD", "postcode": "93453"}}},
{"geometry": {"type": "Point", "coordinates": [-120.002786786, 35.3202901728]}, "type": "Feature", "properties": {"collection_times": [{"days": "Mon-Fri", "time": "10:00am"}, {"days": "Sat-Sun", "time": "Closed"}], "id": "9345300004", "name": "USPS COLLECTION BOX - BLUE BOX", "address": {"city": "SANTA MARGARITA", "state": "CA", "street": "13080 SODA LAKE RD", "postcode": "93453"}}},
{"geometry": {"type": "Point", "coordinates": [-120.4340992031, 34.9314760652]}, "type": "Feature", "properties": {"collection_times": [{"days": "Mon-Fri", "time": "5:30pm"}, {"days": "Sat", "time": "5:00pm"}, {"days": "Sun", "time": "Closed"}], "id": "9345400001", "name": "USPS COLLECTION BOX - BLUE BOX", "address": {"city": "SANTA MARIA", "state": "CA", "street": "201 E BATTLES RD", "postcode": "93454"}}},
{"geometry": {"type": "Point", "coordinates": [-120.4181484201, 34.9516841458]}, "type": "Feature", "properties": {"collection_times": [{"days": "Mon-Fri", "time": "5:30pm"}, {"days": "Sat", "time": "5:00pm"}, {"days": "Sun", "time": "Closed"}], "id": "9345400002", "name": "USPS COLLECTION BOX - EXPRESS", "address": {"city": "SANTA MARIA", "state": "CA", "street": "201 E BATTLES RD", "postcode": "93454"}}},
{"geometry": {"type": "Point", "coordinates": [-120.4163524527, 34.9511238307]}, "type": "Feature", "properties": {"collection_times": [{"days": "Mon-Fri", "time": "3:00pm"}, {"days": "Sat", "time": "10:00am"}, {"days": "Sun", "time": "Closed"}], "id": "9345400011", "name": "USPS COLLECTION BOX - BLUE BOX", "address": {"city": "SANTA MARIA", "state": "CA", "street": "1300 E CYPRESS ST", "postcode": "93454"}}},
{"geometry": {"type": "Point", "coordinates": [-120.413202233, 34.9521399924]}, "type": "Feature", "properties": {"collection_times": [{"days": "Mon-Fri", "time": "3:00pm"}, {"days": "Sat", "time": "1:00pm"}, {"days": "Sun", "time": "Closed"}], "id": "9345400012", "name": "USPS COLLECTION BOX - BLUE BOX", "address": {"city": "SANTA MARIA", "state": "CA", "street": "1400 E CHURCH ST", "postcode": "93454"}}},
{"geometry": {"type": "Point", "coordinates": [-120.435717491, 34.9693780705]}, "type": "Feature", "properties": {"collection_times": [{"days": "Mon-Sat", "time": "1:00pm"}, {"days": "Sun", "time": "Closed"}], "id": "9345400016", "name": "USPS COLLECTION BOX - BLUE BOX", "address": {"city": "SANTA MARIA", "state": "CA", "street": "1647 N BROADWAY", "postcode": "93454"}}},
{"geometry": {"type": "Point", "coordinates": [-120.4338342203, 34.9211642119]}, "type": "Feature", "properties": {"collection_times": [{"days": "Mon-Sat", "time": "10:00am"}, {"days": "Sun", "time": "Closed"}], "id": "9345400025", "name": "USPS COLLECTION BOX - BLUE BOX", "address": {"city": "SANTA MARIA", "state": "CA", "street": "230 E BETTERAVIA RD", "postcode": "93454"}}},
{"geometry": {"type": "Point", "coordinates": [-120.43576774, 34.9146929379]}, "type": "Feature", "properties": {"collection_times": [{"days": "Mon-Sat", "time": "10:00am"}, {"days": "Sun", "time": "Closed"}], "id": "9345400028", "name": "USPS COLLECTION BOX - BLUE BOX", "address": {"city": "SANTA MARIA", "state": "CA", "street": "2506 S BROADWAY", "postcode": "93454"}}},
{"geometry": {"type": "Point", "coordinates": [-120.4305053738, 34.9366278515]}, "type": "Feature", "properties": {"collection_times": [{"days": "Mon-Fri", "time": "3:00pm"}, {"days": "Sat", "time": "1:00pm"}, {"days": "Sun", "time": "Closed"}], "id": "9345400043", "name": "USPS COLLECTION BOX - BLUE BOX", "address": {"city": "SANTA MARIA", "state": "CA", "street": "425 BARCELLUS AVE", "postcode": "93454"}}},
{"geometry": {"type": "Point", "coordinates": [-120.4255286654, 34.9531869111]}, "type": "Feature", "properties": {"collection_times": [{"days": "Mon-Sat", "time": "10:00am"}, {"days": "Sun", "time": "Closed"}], "id": "9345400052", "name": "USPS COLLECTION BOX - BLUE BOX", "address": {"city": "SANTA MARIA", "state": "CA", "street": "733 E MAIN ST", "postcode": "93454"}}},
{"geometry": {"type": "Point", "coordinates": [-120.4211043989, 34.953104104]}, "type": "Feature", "properties": {"collection_times": [{"days": "Mon-Sat", "time": "10:00am"}, {"days": "Sun", "time": "Closed"}], "id": "9345400054", "name": "USPS COLLECTION BOX - BLUE BOX", "address": {"city": "SANTA MARIA", "state": "CA", "street": "937 E MAIN ST", "postcode": "93454"}}},
{"geometry": {"type": "Point", "coordinates": [-120.4334296483, 34.9417098432]}, "type": "Feature", "properties": {"collection_times": [{"days": "Mon-Sat", "time": "1:00pm"}, {"days": "Sun", "time": "Closed"}], "id": "9345400066", "name": "USPS COLLECTION BOX - BLUE BOX", "address": {"city": "SANTA MARIA", "state": "CA", "street": "223 S CAMINO COLEGIO", "postcode": "93454"}}},
{"geometry": {"type": "Point", "coordinates": [-120.4340992031, 34.9314760652]}, "type": "Feature", "properties": {"collection_times": [{"days": "Mon-Fri", "time": "5:30pm"}, {"days": "Sat", "time": "5:00pm"}, {"days": "Sun", "time": "Closed"}], "id": "9345400074", "name": "USPS COLLECTION BOX - BLUE BOX", "address": {"city": "SANTA MARIA", "state": "CA", "street": "201 E BATTLES RD", "postcode": "93454"}}},
{"geometry": {"type": "Point", "coordinates": [-120.4340992031, 34.9314760652]}, "type": "Feature", "properties": {"collection_times": [{"days": "Mon-Fri", "time": "5:30pm"}, {"days": "Sat", "time": "5:00pm"}, {"days": "Sun", "time": "Closed"}], "id": "9345400075", "name": "USPS COLLECTION BOX - BLUE BOX", "address": {"city": "SANTA MARIA", "state": "CA", "street": "201 E BATTLES RD", "postcode": "93454"}}},
{"geometry": {"type": "Point", "coordinates": [-120.4340992031, 34.9314760652]}, "type": "Feature", "properties": {"collection_times": [{"days": "Mon-Fri", "time": "5:30pm"}, {"days": "Sat", "time": "5:00pm"}, {"days": "Sun", "time": "Closed"}], "id": "9345400076", "name": "USPS COLLECTION BOX - BLUE BOX", "address": {"city": "SANTA MARIA", "state": "CA", "street": "201 E BATTLES RD", "postcode": "93454"}}},
{"geometry": {"type": "Point", "coordinates": [-120.4237069086, 34.9542634038]}, "type": "Feature", "properties": {"collection_times": [{"days": "Mon-Sat", "time": "1:00pm"}, {"days": "Sun", "time": "Closed"}], "id": "9345400095", "name": "USPS COLLECTION BOX - BLUE BOX", "address": {"city": "SANTA MARIA", "state": "CA", "street": "821 E CHAPEL ST", "postcode": "93454"}}},
{"geometry": {"type": "Point", "coordinates": [-120.4355187538, 34.9736935048]}, "type": "Feature", "properties": {"collection_times": [{"days": "Mon-Sat", "time": "10:00am"}, {"days": "Sun", "time": "Closed"}], "id": "9345400098", "name": "USPS COLLECTION BOX - BLUE BOX", "address": {"city": "SANTA MARIA", "state": "CA", "street": "1832 N BROADWAY", "postcode": "93454"}}},
{"geometry": {"type": "Point", "coordinates": [-120.4340992031, 34.9314760652]}, "type": "Feature", "properties": {"collection_times": [{"days": "Mon-Fri", "time": "5:30pm"}, {"days": "Sat", "time": "5:00pm"}, {"days": "Sun", "time": "Closed"}], "id": "9345400100", "name": "USPS COLLECTION BOX - PO LOBBY", "address": {"city": "SANTA MARIA", "state": "CA", "street": "201 E BATTLES RD", "postcode": "93454"}}},
{"geometry": {"type": "Point", "coordinates": [-120.4322230302, 34.9497977337]}, "type": "Feature", "properties": {"collection_times": [{"days": "Mon-Fri", "time": "3:00pm"}, {"days": "Sat-Sun", "time": "Closed"}], "id": "9345400102", "name": "USPS COLLECTION BOX - BLUE BOX", "address": {"city": "SANTA MARIA", "state": "CA", "street": "312 E COOK ST", "postcode": "93454"}}},
{"geometry": {"type": "Point", "coordinates": [-120.4340992031, 34.9314760652]}, "type": "Feature", "properties": {"collection_times": [{"days": "Mon-Fri", "time": "5:30pm"}, {"days": "Sat", "time": "5:00pm"}, {"days": "Sun", "time": "Closed"}], "id": "9345400103", "name": "USPS COLLECTION BOX - APC", "address": {"city": "SANTA MARIA", "state": "CA", "street": "201 E BATTLES RD", "postcode": "93454"}}},
{"geometry": {"type": "Point", "coordinates": [-120.4171828899, 34.8885074467]}, "type": "Feature", "properties": {"collection_times": [{"days": "Mon-Sat", "time": "10:00am"}, {"days": "Sun", "time": "Closed"}], "id": "9345500000", "name": "USPS COLLECTION BOX - BLUE BOX", "address": {"city": "SANTA MARIA", "state": "CA", "street": "4012 S BRADLEY RD", "postcode": "93455"}}},
{"geometry": {"type": "Point", "coordinates": [-120.4283902431, 34.9222726445]}, "type": "Feature", "properties": {"collection_times": [{"days": "Mon-Fri", "time": "3:00pm"}, {"days": "Sat", "time": "1:00pm"}, {"days": "Sun", "time": "Closed"}], "id": "9345500001", "name": "USPS COLLECTION BOX - BLUE BOX", "address": {"city": "SANTA MARIA", "state": "CA", "street": "2125 CENTERPOINTE PKWY", "postcode": "93455"}}},
{"geometry": {"type": "Point", "coordinates": [-120.4172219275, 34.8649985032]}, "type": "Feature", "properties": {"collection_times": [{"days": "Mon-Sat", "time": "10:00am"}, {"days": "Sun", "time": "Closed"}], "id": "9345500003", "name": "USPS COLLECTION BOX - BLUE BOX", "address": {"city": "SANTA MARIA", "state": "CA", "street": "1110 E CLARK AVE", "postcode": "93455"}}},
{"geometry": {"type": "Point", "coordinates": [-120.4168340665, 34.8651262045]}, "type": "Feature", "properties": {"collection_times": [{"days": "Mon-Fri", "time": "3:00pm"}, {"days": "Sat", "time": "1:00pm"}, {"days": "Sun", "time": "Closed"}], "id": "9345500004", "name": "USPS COLLECTION BOX - BLUE BOX", "address": {"city": "SANTA MARIA", "state": "CA", "street": "1155 E CLARK AVE", "postcode": "93455"}}},
{"geometry": {"type": "Point", "coordinates": [-120.4168340665, 34.8651262045]}, "type": "Feature", "properties": {"collection_times": [{"days": "Mon-Fri", "time": "3:00pm"}, {"days": "Sat", "time": "1:00pm"}, {"days": "Sun", "time": "Closed"}], "id": "9345500005", "name": "USPS COLLECTION BOX - BLUE BOX", "address": {"city": "SANTA MARIA", "state": "CA", "street": "1155 E CLARK AVE", "postcode": "93455"}}},
{"geometry": {"type": "Point", "coordinates": [-120.4383050602, 34.9160166551]}, "type": "Feature", "properties": {"collection_times": [{"days": "Mon-Fri", "time": "3:00pm"}, {"days": "Sat", "time": "1:00pm"}, {"days": "Sun", "time": "Closed"}], "id": "9345500010", "name": "USPS COLLECTION BOX - BLUE BOX", "address": {"city": "SANTA MARIA", "state": "CA", "street": "2432 PROFESSIONAL PKWY", "postcode": "93455"}}},
{"geometry": {"type": "Point", "coordinates": [-120.4489299596, 34.9024770092]}, "type": "Feature", "properties": {"collection_times": [{"days": "Mon-Fri", "time": "3:00pm"}, {"days": "Sat", "time": "1:00pm"}, {"days": "Sun", "time": "Closed"}], "id": "9345500011", "name": "USPS COLLECTION BOX - BLUE BOX", "address": {"city": "SANTA MARIA", "state": "CA", "street": "3130 SKYWAY DR", "postcode": "93455"}}},
{"geometry": {"type": "Point", "coordinates": [-120.4489299596, 34.9024770092]}, "type": "Feature", "properties": {"collection_times": [{"days": "Mon-Fri", "time": "3:00pm"}, {"days": "Sat", "time": "1:00pm"}, {"days": "Sun", "time": "Closed"}], "id": "9345500012", "name": "USPS COLLECTION BOX - BLUE BOX", "address": {"city": "SANTA MARIA", "state": "CA", "street": "3130 SKYWAY DR", "postcode": "93455"}}},
{"geometry": {"type": "Point", "coordinates": [-120.4383050602, 34.9160166551]}, "type": "Feature", "properties": {"collection_times": [{"days": "Mon-Fri", "time": "3:00pm"}, {"days": "Sat", "time": "1:00pm"}, {"days": "Sun", "time": "Closed"}], "id": "9345500015", "name": "USPS COLLECTION BOX - BLUE BOX", "address": {"city": "SANTA MARIA", "state": "CA", "street": "2432 PROFESSIONAL PKWY", "postcode": "93455"}}},
{"geometry": {"type": "Point", "coordinates": [-120.446844403, 34.8641822615]}, "type": "Feature", "properties": {"collection_times": [{"days": "Mon-Fri", "time": "5:00pm"}, {"days": "Sat", "time": "2:00pm"}, {"days": "Sun", "time": "Closed"}], "id": "9345500016", "name": "USPS COLLECTION BOX - BLUE BOX", "address": {"city": "SANTA MARIA", "state": "CA", "street": "100 UNION AVE", "postcode": "93455"}}},
{"geometry": {"type": "Point", "coordinates": [-120.4496077951, 34.953220034]}, "type": "Feature", "properties": {"collection_times": [{"days": "Mon-Sat", "time": "10:00am"}, {"days": "Sun", "time": "Closed"}], "id": "9345800002", "name": "USPS COLLECTION BOX - BLUE BOX", "address": {"city": "SANTA MARIA", "state": "CA", "street": "1000 W MAIN ST", "postcode": "93458"}}},
{"geometry": {"type": "Point", "coordinates": [-120.4419824416, 34.9750207847]}, "type": "Feature", "properties": {"collection_times": [{"days": "Mon-Sat", "time": "10:00am"}, {"days": "Sun", "time": "Closed"}], "id": "9345800006", "name": "USPS COLLECTION BOX - BLUE BOX", "address": {"city": "SANTA MARIA", "state": "CA", "street": "519 W TAYLOR ST", "postcode": "93458"}}},
{"geometry": {"type": "Point", "coordinates": [-120.0812648097, 34.6128041076]}, "type": "Feature", "properties": {"collection_times": [{"days": "Mon-Fri", "time": "4:30pm"}, {"days": "Sat", "time": "11:00am"}, {"days": "Sun", "time": "Closed"}], "id": "9346000001", "name": "USPS COLLECTION BOX - BLUE BOX", "address": {"city": "SANTA YNEZ", "state": "CA", "street": "3564 SAGUNTO ST", "postcode": "93460"}}},
{"geometry": {"type": "Point", "coordinates": [-120.0812648097, 34.6128041076]}, "type": "Feature", "properties": {"collection_times": [{"days": "Mon-Fri", "time": "4:30pm"}, {"days": "Sat", "time": "11:00am"}, {"days": "Sun", "time": "Closed"}], "id": "9346000002", "name": "USPS COLLECTION BOX - BLUE BOX", "address": {"city": "SANTA YNEZ", "state": "CA", "street": "3564 SAGUNTO ST", "postcode": "93460"}}},
{"geometry": {"type": "Point", "coordinates": [-120.0812648097, 34.6128041076]}, "type": "Feature", "properties": {"collection_times": [{"days": "Mon-Fri", "time": "4:30pm"}, {"days": "Sat", "time": "11:00am"}, {"days": "Sun", "time": "Closed"}], "id": "9346000003", "name": "USPS COLLECTION BOX - BLUE BOX", "address": {"city": "SANTA YNEZ", "state": "CA", "street": "3564 SAGUNTO ST", "postcode": "93460"}}},
{"geometry": {"type": "Point", "coordinates": [-120.0812648097, 34.6128041076]}, "type": "Feature", "properties": {"collection_times": [{"days": "Mon-Fri", "time": "4:30pm"}, {"days": "Sat", "time": "11:00am"}, {"days": "Sun", "time": "Closed"}], "id": "9346000004", "name": "USPS COLLECTION BOX - BLUE BOX", "address": {"city": "SANTA YNEZ", "state": "CA", "street": "3564 SAGUNTO ST", "postcode": "93460"}}},
{"geometry": {"type": "Point", "coordinates": [-120.3760011704, 35.6554414891]}, "type": "Feature", "properties": {"collection_times": [{"days": "Mon-Fri", "time": "1:30pm"}, {"days": "Sat", "time": "10:00am"}, {"days": "Sun", "time": "Closed"}], "id": "9346100001", "name": "USPS COLLECTION BOX - BLUE BOX", "address": {"city": "SHANDON", "state": "CA", "street": "200 E CENTRE ST", "postcode": "93461"}}},
{"geometry": {"type": "Point", "coordinates": [-120.3760011704, 35.6554414891]}, "type": "Feature", "properties": {"collection_times": [{"days": "Mon-Fri", "time": "1:30pm"}, {"days": "Sat", "time": "10:00am"}, {"days": "Sun", "time": "Closed"}], "id": "9346100002", "name": "USPS COLLECTION BOX - PO LOBBY", "address": {"city": "SHANDON", "state": "CA", "street": "200 E CENTRE ST", "postcode": "93461"}}},
{"geometry": {"type": "Point", "coordinates": [-120.1390065404, 34.5939494815]}, "type": "Feature", "properties": {"collection_times": [{"days": "Mon-Fri", "time": "5:00pm"}, {"days": "Sat", "time": "1:30pm"}, {"days": "Sun", "time": "Closed"}], "id": "9346300006", "name": "USPS COLLECTION BOX - BLUE BOX", "address": {"city": "SOLVANG", "state": "CA", "street": "430 ALISAL RD", "postcode": "93463"}}},
{"geometry": {"type": "Point", "coordinates": [-120.1389710516, 34.5940275568]}, "type": "Feature", "properties": {"collection_times": [{"days": "Mon-Fri", "time": "4:30pm"}, {"days": "Sat", "time": "2:00pm"}, {"days": "Sun", "time": "Closed"}], "id": "9346300007", "name": "USPS COLLECTION BOX - BLUE BOX", "address": {"city": "SOLVANG", "state": "CA", "street": "433 ALISAL RD", "postcode": "93463"}}},
{"geometry": {"type": "Point", "coordinates": [-120.1390065404, 34.5939494815]}, "type": "Feature", "properties": {"collection_times": [{"days": "Mon-Fri", "time": "5:00pm"}, {"days": "Sat", "time": "1:30pm"}, {"days": "Sun", "time": "Closed"}], "id": "9346300008", "name": "USPS COLLECTION BOX - BLUE BOX", "address": {"city": "SOLVANG", "state": "CA", "street": "430 ALISAL RD", "postcode": "93463"}}},
{"geometry": {"type": "Point", "coordinates": [-120.1299289872, 34.5992497545]}, "type": "Feature", "properties": {"collection_times": [{"days": "Mon-Sat", "time": "10:00am"}, {"days": "Sun", "time": "Closed"}], "id": "9346300011", "name": "USPS COLLECTION BOX - BLUE BOX", "address": {"city": "SOLVANG", "state": "CA", "street": "1984 OLD MISSION DR", "postcode": "93463"}}},
{"geometry": {"type": "Point", "coordinates": [-120.1273058933, 34.5992538695]}, "type": "Feature", "properties": {"collection_times": [{"days": "Mon-Sat", "time": "10:00am"}, {"days": "Sun", "time": "Closed"}], "id": "9346300015", "name": "USPS COLLECTION BOX - BLUE BOX", "address": {"city": "SOLVANG", "state": "CA", "street": "2025 MISSION DR", "postcode": "93463"}}},
{"geometry": {"type": "Point", "coordinates": [-120.1390065404, 34.5939494815]}, "type": "Feature", "properties": {"collection_times": [{"days": "Mon-Fri", "time": "5:00pm"}, {"days": "Sat", "time": "1:30pm"}, {"days": "Sun", "time": "Closed"}], "id": "9346300016", "name": "USPS COLLECTION BOX - PO LOBBY", "address": {"city": "SOLVANG", "state": "CA", "street": "430 ALISAL RD", "postcode": "93463"}}},
{"geometry": {"type": "Point", "coordinates": [-120.7007199402, 35.5601608599]}, "type": "Feature", "properties": {"collection_times": [{"days": "Mon-Fri", "time": "3:30pm"}, {"days": "Sat", "time": "10:00am"}, {"days": "Sun", "time": "Closed"}], "id": "9346500001", "name": "USPS COLLECTION BOX - BLUE BOX", "address": {"city": "TEMPLETON", "state": "CA", "street": "101 N MAIN ST", "postcode": "93465"}}},
{"geometry": {"type": "Point", "coordinates": [-120.6979363593, 35.548253401]}, "type": "Feature", "properties": {"collection_times": [{"days": "Mon-Fri", "time": "3:30pm"}, {"days": "Sat", "time": "10:00am"}, {"days": "Sun", "time": "Closed"}], "id": "9346500002", "name": "USPS COLLECTION BOX - EXPRESS", "address": {"city": "TEMPLETON", "state": "CA", "street": "101 N MAIN ST", "postcode": "93465"}}},
{"geometry": {"type": "Point", "coordinates": [-120.7007199402, 35.5601608599]}, "type": "Feature", "properties": {"collection_times": [{"days": "Mon-Fri", "time": "3:30pm"}, {"days": "Sat", "time": "10:00am"}, {"days": "Sun", "time": "Closed"}], "id": "9346500004", "name": "USPS COLLECTION BOX - BLUE BOX", "address": {"city": "TEMPLETON", "state": "CA", "street": "101 N MAIN ST", "postcode": "93465"}}},
{"geometry": {"type": "Point", "coordinates": [-120.7007199402, 35.5601608599]}, "type": "Feature", "properties": {"collection_times": [{"days": "Mon-Fri", "time": "3:30pm"}, {"days": "Sat", "time": "10:00am"}, {"days": "Sun", "time": "Closed"}], "id": "9346500005", "name": "USPS COLLECTION BOX - PO LOBBY", "address": {"city": "TEMPLETON", "state": "CA", "street": "101 N MAIN ST", "postcode": "93465"}}},
{"geometry": {"type": "Point", "coordinates": [-120.6200012657, 35.1215998261]}, "type": "Feature", "properties": {"collection_times": [{"days": "Mon-Fri", "time": "4:45pm"}, {"days": "Sat", "time": "10:00am"}, {"days": "Sun", "time": "Closed"}], "id": "9348300001", "name": "USPS COLLECTION BOX - BLUE BOX", "address": {"city": "GROVER BEACH", "state": "CA", "street": "917 GRAND AVE", "postcode": "93483"}}},
{"geometry": {"type": "Point", "coordinates": [-120.6200012657, 35.1215998261]}, "type": "Feature", "properties": {"collection_times": [{"days": "Mon-Fri", "time": "4:45pm"}, {"days": "Sat", "time": "10:00am"}, {"days": "Sun", "time": "Closed"}], "id": "9348300003", "name": "USPS COLLECTION BOX - BLUE BOX", "address": {"city": "GROVER BEACH", "state": "CA", "street": "917 W GRAND AVE", "postcode": "93483"}}},
{"geometry": {"type": "Point", "coordinates": [-120.6200012657, 35.1215998261]}, "type": "Feature", "properties": {"collection_times": [{"days": "Mon-Fri", "time": "4:45pm"}, {"days": "Sat", "time": "10:00am"}, {"days": "Sun", "time": "Closed"}], "id": "9348300004", "name": "USPS COLLECTION BOX - BLUE BOX", "address": {"city": "GROVER BEACH", "state": "CA", "street": "917 GRAND AVE", "postcode": "93483"}}},
{"geometry": {"type": "Point", "coordinates": [-120.6200012657, 35.1215998261]}, "type": "Feature", "properties": {"collection_times": [{"days": "Mon-Fri", "time": "4:45pm"}, {"days": "Sat", "time": "10:00am"}, {"days": "Sun", "time": "Closed"}], "id": "9348300005", "name": "USPS COLLECTION BOX - BLUE BOX", "address": {"city": "GROVER BEACH", "state": "CA", "street": "917 GRAND AVE", "postcode": "93483"}}},
{"geometry": {"type": "Point", "coordinates": [-120.6200012657, 35.1215998261]}, "type": "Feature", "properties": {"collection_times": [{"days": "Mon-Fri", "time": "4:45pm"}, {"days": "Sat", "time": "10:00am"}, {"days": "Sun", "time": "Closed"}], "id": "9348300006", "name": "USPS COLLECTION BOX - PO LOBBY", "address": {"city": "GROVER BEACH", "state": "CA", "street": "917 GRAND AVE", "postcode": "93483"}}}
]}
