{"type": "FeatureCollection", "features": [
{"geometry": {"type": "Point", "coordinates": [-118.1699911431, 35.055922318]}, "type": "Feature", "properties": {"collection_times": [{"days": "Mon-Fri", "time": "4:00pm"}, {"days": "Sat", "time": "2:00pm"}, {"days": "Sun", "time": "Closed"}], "id": "9350100001", "name": "USPS COLLECTION BOX - BLUE BOX", "address": {"city": "MOJAVE", "state": "CA", "street": "2053 BELSHAW ST", "postcode": "93501"}}},
{"geometry": {"type": "Point", "coordinates": [-118.1699911431, 35.055922318]}, "type": "Feature", "properties": {"collection_times": [{"days": "Mon-Fri", "time": "4:00pm"}, {"days": "Sat", "time": "2:00pm"}, {"days": "Sun", "time": "Closed"}], "id": "9350100010", "name": "USPS COLLECTION BOX - PO LOBBY", "address": {"city": "MOJAVE", "state": "CA", "street": "2053 BELSHAW ST", "postcode": "93501"}}},
{"geometry": {"type": "Point", "coordinates": [-118.1629649924, 35.0459533727]}, "type": "Feature", "properties": {"collection_times": [{"days": "Mon-Sat", "time": "10:00am"}, {"days": "Sun", "time": "Closed"}], "id": "9350100011", "name": "USPS COLLECTION BOX - BLUE BOX", "address": {"city": "MOJAVE", "state": "CA", "street": "1773 HIGHWAY 58", "postcode": "93501"}}},
{"geometry": {"type": "Point", "coordinates": [-117.9598419239, 35.1273804884]}, "type": "Feature", "properties": {"collection_times": [{"days": "Mon-Fri", "time": "5:00pm"}, {"days": "Sat", "time": "1:00pm"}, {"days": "Sun", "time": "Closed"}], "id": "9350500003", "name": "USPS COLLECTION BOX - PO LOBBY", "address": {"city": "CALIFORNIA CITY", "state": "CA", "street": "21100 HACIENDA BLVD", "postcode": "93505"}}},
{"geometry": {"type": "Point", "coordinates": [-117.9925691489, 35.1256732181]}, "type": "Feature", "properties": {"collection_times": [{"days": "Mon-Sat", "time": "10:00am"}, {"days": "Sun", "time": "Closed"}], "id": "9350500006", "name": "USPS COLLECTION BOX - BLUE BOX", "address": {"city": "CALIFORNIA CITY", "state": "CA", "street": "7594 CALIFORNIA CITY BLVD", "postcode": "93505"}}},
{"geometry": {"type": "Point", "coordinates": [-118.1957659821, 34.4680809655]}, "type": "Feature", "properties": {"collection_times": [{"days": "Mon-Fri", "time": "4:30pm"}, {"days": "Sat", "time": "12:30pm"}, {"days": "Sun", "time": "Closed"}], "id": "9351000000", "name": "USPS COLLECTION BOX - BLUE BOX", "address": {"city": "ACTON", "state": "CA", "street": "3632 SMITH AVE", "postcode": "93510"}}},
{"geometry": {"type": "Point", "coordinates": [-118.1957659821, 34.4680809655]}, "type": "Feature", "properties": {"collection_times": [{"days": "Mon-Fri", "time": "4:30pm"}, {"days": "Sat", "time": "12:30pm"}, {"days": "Sun", "time": "Closed"}], "id": "9351000001", "name": "USPS COLLECTION BOX - PO LOBBY", "address": {"city": "ACTON", "state": "CA", "street": "3632 SMITH AVE", "postcode": "93510"}}},
{"geometry": {"type": "Point", "coordinates": [-118.4005070698, 37.3614031079]}, "type": "Feature", "properties": {"collection_times": [{"days": "Mon-Sat", "time": "12:30pm"}, {"days": "Sun", "time": "Closed"}], "id": "9351400001", "name": "USPS COLLECTION BOX - BLUE BOX", "address": {"city": "BISHOP", "state": "CA", "street": "595 W LINE ST", "postcode": "93514"}}},
{"geometry": {"type": "Point", "coordinates": [-118.3951990192, 37.3613356167]}, "type": "Feature", "properties": {"collection_times": [{"days": "Mon-Sat", "time": "11:30am"}, {"days": "Sun", "time": "Closed"}], "id": "9351400002", "name": "USPS COLLECTION BOX - BLUE BOX", "address": {"city": "BISHOP", "state": "CA", "street": "106 S MAIN ST", "postcode": "93514"}}},
{"geometry": {"type": "Point", "coordinates": [-118.3952199849, 37.3632936463]}, "type": "Feature", "properties": {"collection_times": [{"days": "Mon-Sat", "time": "11:30am"}, {"days": "Sun", "time": "Closed"}], "id": "9351400004", "name": "USPS COLLECTION BOX - BLUE BOX", "address": {"city": "BISHOP", "state": "CA", "street": "312 N MAIN ST", "postcode": "93514"}}},
{"geometry": {"type": "Point", "coordinates": [-118.397237928, 37.3614242414]}, "type": "Feature", "properties": {"collection_times": [{"days": "Mon-Sat", "time": "11:30am"}, {"days": "Sun", "time": "Closed"}], "id": "9351400006", "name": "USPS COLLECTION BOX - BLUE BOX", "address": {"city": "BISHOP", "state": "CA", "street": "301 W LINE ST", "postcode": "93514"}}},
{"geometry": {"type": "Point", "coordinates": [-118.3953242966, 37.3598920839]}, "type": "Feature", "properties": {"collection_times": [{"days": "Mon-Sat", "time": "11:30am"}, {"days": "Sun", "time": "Closed"}], "id": "9351400011", "name": "USPS COLLECTION BOX - BLUE BOX", "address": {"city": "BISHOP", "state": "CA", "street": "263 S MAIN ST", "postcode": "93514"}}},
{"geometry": {"type": "Point", "coordinates": [-118.4005070698, 37.3614031079]}, "type": "Feature", "properties": {"collection_times": [{"days": "Mon-Sat", "time": "12:30pm"}, {"days": "Sun", "time": "Closed"}], "id": "9351400012", "name": "USPS COLLECTION BOX - PO LOBBY", "address": {"city": "BISHOP", "state": "CA", "street": "595 W LINE ST", "postcode": "93514"}}},
{"geometry": {"type": "Point", "coordinates": [-118.4005070698, 37.3614031079]}, "type": "Feature", "properties": {"collection_times": [{"days": "Mon-Sat", "time": "12:30pm"}, {"days": "Sun", "time": "Closed"}], "id": "9351400013", "name": "USPS COLLECTION BOX - PO LOBBY", "address": {"city": "BISHOP", "state": "CA", "street": "595 W LINE ST", "postcode": "93514"}}},
{"geometry": {"type": "Point", "coordinates": [-118.4005070698, 37.3614031079]}, "type": "Feature", "properties": {"collection_times": [{"days": "Mon-Sat", "time": "12:30pm"}, {"days": "Sun", "time": "Closed"}], "id": "9351400014", "name": "USPS COLLECTION BOX - BLUE BOX", "address": {"city": "BISHOP", "state": "CA", "street": "595 W LINE ST", "postcode": "93514"}}},
{"geometry": {"type": "Point", "coordinates": [-118.3762772694, 37.4730093047]}, "type": "Feature", "properties": {"collection_times": [{"days": "Mon-Sat", "time": "11:30am"}, {"days": "Sun", "time": "Closed"}], "id": "9351400015", "name": "USPS COLLECTION BOX - BLUE BOX", "address": {"city": "BISHOP", "state": "CA", "street": "1190 N SIERRA HWY", "postcode": "93514"}}},
{"geometry": {"type": "Point", "coordinates": [-118.4359434577, 37.3611960776]}, "type": "Feature", "properties": {"collection_times": [{"days": "Mon-Sat", "time": "11:30am"}, {"days": "Sun", "time": "Closed"}], "id": "9351400017", "name": "USPS COLLECTION BOX - BLUE BOX", "address": {"city": "BISHOP", "state": "CA", "street": "3100 W LINE ST", "postcode": "93514"}}},
{"geometry": {"type": "Point", "coordinates": [-117.6500485721, 35.0018887302]}, "type": "Feature", "properties": {"collection_times": [{"days": "Mon-Fri", "time": "3:30pm"}, {"days": "Sat-Sun", "time": "Closed"}], "id": "9351600000", "name": "USPS COLLECTION BOX - BLUE BOX", "address": {"city": "BORON", "state": "CA", "street": "26990 ANDERSON ST", "postcode": "93516"}}},
{"geometry": {"type": "Point", "coordinates": [-117.6500485721, 35.0018887302]}, "type": "Feature", "properties": {"collection_times": [{"days": "Mon-Fri", "time": "3:30pm"}, {"days": "Sat", "time": "1:00pm"}, {"days": "Sun", "time": "Closed"}], "id": "9351600006", "name": "USPS COLLECTION BOX - PO LOBBY", "address": {"city": "BORON", "state": "CA", "street": "26990 ANDERSON ST", "postcode": "93516"}}},
{"geometry": {"type": "Point", "coordinates": [-119.2253621057, 38.2551345858]}, "type": "Feature", "properties": {"collection_times": [{"days": "Mon-Sat", "time": "10:45am"}, {"days": "Sun", "time": "Closed"}], "id": "9351700001", "name": "USPS COLLECTION BOX - PO LOBBY", "address": {"city": "BRIDGEPORT", "state": "CA", "street": "29 KINGSLEY", "postcode": "93517"}}},
{"geometry": {"type": "Point", "coordinates": [-118.6269211833, 35.2905869182]}, "type": "Feature", "properties": {"collection_times": [{"days": "Mon-Fri", "time": "11:30am"}, {"days": "Sat", "time": "8:15am"}, {"days": "Sun", "time": "Closed"}], "id": "9351800000", "name": "USPS COLLECTION BOX - BLUE BOX", "address": {"city": "CALIENTE", "state": "CA", "street": "27750 CALIENTE BODFISH RD", "postcode": "93518"}}},
{"geometry": {"type": "Point", "coordinates": [-118.6269211833, 35.2905869182]}, "type": "Feature", "properties": {"collection_times": [{"days": "Mon-Fri", "time": "11:30am"}, {"days": "Sat", "time": "8:15am"}, {"days": "Sun", "time": "Closed"}], "id": "9351800001", "name": "USPS COLLECTION BOX - PO LOBBY", "address": {"city": "CALIENTE", "state": "CA", "street": "27750 CALIENTE BODFISH RD", "postcode": "93518"}}},
{"geometry": {"type": "Point", "coordinates": [-117.75832814, 35.0632058995]}, "type": "Feature", "properties": {"collection_times": [{"days": "Mon-Sat", "time": "4:25pm"}, {"days": "Sun", "time": "Closed"}], "id": "9352300001", "name": "USPS COLLECTION BOX - BLUE BOX", "address": {"city": "EDWARDS", "state": "CA", "street": "1000 KINCHELOE AVE", "postcode": "93523"}}},
{"geometry": {"type": "Point", "coordinates": [-117.8997397822, 35.0286341932]}, "type": "Feature", "properties": {"collection_times": [{"days": "Mon-Fri", "time": "2:00pm"}, {"days": "Sat", "time": "10:00am"}, {"days": "Sun", "time": "Closed"}], "id": "9352300006", "name": "USPS COLLECTION BOX - BLUE BOX", "address": {"city": "EDWARDS", "state": "CA", "street": "10 S MUROC DR", "postcode": "93523"}}},
{"geometry": {"type": "Point", "coordinates": [-117.75832814, 35.0632058995]}, "type": "Feature", "properties": {"collection_times": [{"days": "Mon-Sat", "time": "4:30pm"}, {"days": "Sun", "time": "Closed"}], "id": "9352300016", "name": "USPS COLLECTION BOX - PO LOBBY", "address": {"city": "EDWARDS", "state": "CA", "street": "1000 KINCHELOE AVE", "postcode": "93523"}}},
{"geometry": {"type": "Point", "coordinates": [-117.75832814, 35.0632058995]}, "type": "Feature", "properties": {"collection_times": [{"days": "Mon-Fri", "time": "2:00pm"}, {"days": "Sat", "time": "10:00am"}, {"days": "Sun", "time": "Closed"}], "id": "9352300020", "name": "USPS COLLECTION BOX - BLUE BOX", "address": {"city": "EDWARDS", "state": "CA", "street": "600 BAILEY AVE", "postcode": "93523"}}},
{"geometry": {"type": "Point", "coordinates": [-117.75832814, 35.0632058995]}, "type": "Feature", "properties": {"collection_times": [{"days": "Mon-Fri", "time": "2:00pm"}, {"days": "Sat", "time": "10:00am"}, {"days": "Sun", "time": "Closed"}], "id": "9352300021", "name": "USPS COLLECTION BOX - BLUE BOX", "address": {"city": "EDWARDS", "state": "CA", "street": "312 FITZGERALD AVE", "postcode": "93523"}}},
{"geometry": {"type": "Point", "coordinates": [-118.1997109834, 36.8024686107]}, "type": "Feature", "properties": {"collection_times": [{"days": "Mon-Fri", "time": "1:30pm"}, {"days": "Sat", "time": "9:45am"}, {"days": "Sun", "time": "Closed"}], "id": "9352600001", "name": "USPS COLLECTION BOX - PO LOBBY", "address": {"city": "INDEPENDENCE", "state": "CA", "street": "101 S EDWARDS ST", "postcode": "93526"}}},
{"geometry": {"type": "Point", "coordinates": [-118.1997109834, 36.8024686107]}, "type": "Feature", "properties": {"collection_times": [{"days": "Mon-Fri", "time": "1:30pm"}, {"days": "Sat", "time": "9:45am"}, {"days": "Sun", "time": "Closed"}], "id": "9352600002", "name": "USPS COLLECTION BOX - BLUE BOX", "address": {"city": "INDEPENDENCE", "state": "CA", "street": "101 S EDWARDS ST", "postcode": "93526"}}},
{"geometry": {"type": "Point", "coordinates": [-117.8137302906, 35.646006134]}, "type": "Feature", "properties": {"collection_times": [{"days": "Mon-Fri", "time": "3:15pm"}, {"days": "Sat", "time": "10:30am"}, {"days": "Sun", "time": "Closed"}], "id": "9352700001", "name": "USPS COLLECTION BOX - BLUE BOX", "address": {"city": "INYOKERN", "state": "CA", "street": "6504 LOCUST AVE", "postcode": "93527"}}},
{"geometry": {"type": "Point", "coordinates": [-117.8137302906, 35.646006134]}, "type": "Feature", "properties": {"collection_times": [{"days": "Mon-Fri", "time": "3:15pm"}, {"days": "Sat", "time": "10:30am"}, {"days": "Sun", "time": "Closed"}], "id": "9352700002", "name": "USPS COLLECTION BOX - PO LOBBY", "address": {"city": "INYOKERN", "state": "CA", "street": "6504 LOCUST AVE", "postcode": "93527"}}},
{"geometry": {"type": "Point", "coordinates": [-117.6538592389, 35.296191909]}, "type": "Feature", "properties": {"collection_times": [{"days": "Mon-Fri", "time": "3:40pm"}, {"days": "Sat", "time": "9:45am"}, {"days": "Sun", "time": "Closed"}], "id": "9352800000", "name": "USPS COLLECTION BOX - BLUE BOX", "address": {"city": "JOHANNESBURG", "state": "CA", "street": "515 BROADWAY AVE", "postcode": "93528"}}},
{"geometry": {"type": "Point", "coordinates": [-118.9969074202, 37.813248954]}, "type": "Feature", "properties": {"collection_times": [{"days": "Mon-Fri", "time": "11:45am"}, {"days": "Sat", "time": "9:30am"}, {"days": "Sun", "time": "Closed"}], "id": "9352900000", "name": "USPS COLLECTION BOX - PO LOBBY", "address": {"city": "JUNE LAKE", "state": "CA", "street": "2747 BOULDER DR", "postcode": "93529"}}},
{"geometry": {"type": "Point", "coordinates": [-118.9969074202, 37.813248954]}, "type": "Feature", "properties": {"collection_times": [{"days": "Mon-Fri", "time": "11:45am"}, {"days": "Sat", "time": "9:30am"}, {"days": "Sun", "time": "Closed"}], "id": "9352900001", "name": "USPS COLLECTION BOX - BLUE BOX", "address": {"city": "JUNE LAKE", "state": "CA", "street": "2747 BOULDER DR", "postcode": "93529"}}},
{"geometry": {"type": "Point", "coordinates": [-117.8732235368, 36.4886736689]}, "type": "Feature", "properties": {"collection_times": [{"days": "Mon-Sat", "time": "11:00am"}, {"days": "Sun", "time": "Closed"}], "id": "9353000001", "name": "USPS COLLECTION BOX - PO LOBBY", "address": {"city": "KEELER", "state": "CA", "street": "148 RAILROAD AVE", "postcode": "93530"}}},
{"geometry": {"type": "Point", "coordinates": [-118.603513362, 35.2289518375]}, "type": "Feature", "properties": {"collection_times": [{"days": "Mon-Fri", "time": "3:30pm"}, {"days": "Sat", "time": "9:00am"}, {"days": "Sun", "time": "Closed"}], "id": "9353100000", "name": "USPS COLLECTION BOX - BLUE BOX", "address": {"city": "KEENE", "state": "CA", "street": "30235 WOODFORD RD", "postcode": "93531"}}},
{"geometry": {"type": "Point", "coordinates": [-118.603513362, 35.2289518375]}, "type": "Feature", "properties": {"collection_times": [{"days": "Mon-Fri", "time": "3:45pm"}, {"days": "Sat", "time": "9:00am"}, {"days": "Sun", "time": "Closed"}], "id": "9353100001", "name": "USPS COLLECTION BOX - PO LOBBY", "address": {"city": "KEENE", "state": "CA", "street": "30235 WOODFORD RD", "postcode": "93531"}}},
{"geometry": {"type": "Point", "coordinates": [-118.4294995275, 34.6728492956]}, "type": "Feature", "properties": {"collection_times": [{"days": "Mon-Fri", "time": "2:00pm"}, {"days": "Sat", "time": "9:00am"}, {"days": "Sun", "time": "Closed"}], "id": "9353200001", "name": "USPS COLLECTION BOX - BLUE BOX", "address": {"city": "LAKE HUGHES", "state": "CA", "street": "16817 ELIZABETH LAKE RD", "postcode": "93532"}}},
{"geometry": {"type": "Point", "coordinates": [-118.5656238673, 34.6854902039]}, "type": "Feature", "properties": {"collection_times": [{"days": "Mon-Fri", "time": "3:00pm"}, {"days": "Sat", "time": "9:00am"}, {"days": "Sun", "time": "Closed"}], "id": "9353200002", "name": "USPS COLLECTION BOX - PO LOBBY", "address": {"city": "LAKE HUGHES", "state": "CA", "street": "16817 LAKE ELIZABETH RD", "postcode": "93532"}}},
{"geometry": {"type": "Point", "coordinates": [-118.1493690382, 34.6875816765]}, "type": "Feature", "properties": {"collection_times": [{"days": "Mon-Sat", "time": "5:30pm"}, {"days": "Sun", "time": "Closed"}], "id": "9353400000", "name": "USPS COLLECTION BOX - EXPRESS", "address": {"city": "LANCASTER", "state": "CA", "street": "1008 W AVENUE J2", "postcode": "93534"}}},
{"geometry": {"type": "Point", "coordinates": [-118.156707368, 34.6780976483]}, "type": "Feature", "properties": {"collection_times": [{"days": "Mon-Fri", "time": "3:00pm"}, {"days": "Sat", "time": "1:30pm"}, {"days": "Sun", "time": "Closed"}], "id": "9353400034", "name": "USPS COLLECTION BOX - BLUE BOX", "address": {"city": "LANCASTER", "state": "CA", "street": "43770 15TH ST W", "postcode": "93534"}}},
{"geometry": {"type": "Point", "coordinates": [-118.1612931562, 34.690855114]}, "type": "Feature", "properties": {"collection_times": [{"days": "Mon-Sat", "time": "10:00am"}, {"days": "Sun", "time": "Closed"}], "id": "9353400035", "name": "USPS COLLECTION BOX - BLUE BOX", "address": {"city": "LANCASTER", "state": "CA", "street": "44439 17TH ST W", "postcode": "93534"}}},
{"geometry": {"type": "Point", "coordinates": [-118.1486757159, 34.6876599418]}, "type": "Feature", "properties": {"collection_times": [{"days": "Mon-Sat", "time": "5:30pm"}, {"days": "Sun", "time": "Closed"}], "id": "9353400042", "name": "USPS COLLECTION BOX - BLUE BOX", "address": {"city": "LANCASTER", "state": "CA", "street": "1008 W AVENUE J2", "postcode": "93534"}}},
{"geometry": {"type": "Point", "coordinates": [-118.1486757159, 34.6876599418]}, "type": "Feature", "properties": {"collection_times": [{"days": "Mon-Sat", "time": "5:30pm"}, {"days": "Sun", "time": "Closed"}], "id": "9353400043", "name": "USPS COLLECTION BOX - BLUE BOX", "address": {"city": "LANCASTER", "state": "CA", "street": "1008 W AVENUE J2", "postcode": "93534"}}},
{"geometry": {"type": "Point", "coordinates": [-118.1486757159, 34.6876599418]}, "type": "Feature", "properties": {"collection_times": [{"days": "Mon-Sat", "time": "5:30pm"}, {"days": "Sun", "time": "Closed"}], "id": "9353400045", "name": "USPS COLLECTION BOX - BLUE BOX", "address": {"city": "LANCASTER", "state": "CA", "street": "1008 W AVENUE J2", "postcode": "93534"}}},
{"geometry": {"type": "Point", "coordinates": [-118.1448510607, 34.69849982]}, "type": "Feature", "properties": {"collection_times": [{"days": "Mon-Fri", "time": "5:00pm"}, {"days": "Sat", "time": "1:00pm"}, {"days": "Sun", "time": "Closed"}], "id": "9353400080", "name": "USPS COLLECTION BOX - BLUE BOX", "address": {"city": "LANCASTER", "state": "CA", "street": "805 W KILDARE ST", "postcode": "93534"}}},
{"geometry": {"type": "Point", "coordinates": [-118.1388671282, 34.6982381376]}, "type": "Feature", "properties": {"collection_times": [{"days": "Mon-Fri", "time": "5:00pm"}, {"days": "Sat", "time": "12:45pm"}, {"days": "Sun", "time": "Closed"}], "id": "9353400087", "name": "USPS COLLECTION BOX - BLUE BOX", "address": {"city": "LANCASTER", "state": "CA", "street": "567 W LANCASTER BLVD", "postcode": "93534"}}},
{"geometry": {"type": "Point", "coordinates": [-118.1485239818, 34.6458444438]}, "type": "Feature", "properties": {"collection_times": [{"days": "Mon-Sat", "time": "10:00am"}, {"days": "Sun", "time": "Closed"}], "id": "9353400088", "name": "USPS COLLECTION BOX - BLUE BOX", "address": {"city": "LANCASTER", "state": "CA", "street": "1055 W AVENUE M", "postcode": "93534"}}},
{"geometry": {"type": "Point", "coordinates": [-118.1612955388, 34.6736073155]}, "type": "Feature", "properties": {"collection_times": [{"days": "Mon-Sat", "time": "10:00am"}, {"days": "Sun", "time": "Closed"}], "id": "9353400112", "name": "USPS COLLECTION BOX - BLUE BOX", "address": {"city": "LANCASTER", "state": "CA", "street": "43535 17TH ST W", "postcode": "93534"}}},
{"geometry": {"type": "Point", "coordinates": [-118.1594713994, 34.6894793327]}, "type": "Feature", "properties": {"collection_times": [{"days": "Mon-Sat", "time": "10:00am"}, {"days": "Sun", "time": "Closed"}], "id": "9353400116", "name": "USPS COLLECTION BOX - BLUE BOX", "address": {"city": "LANCASTER", "state": "CA", "street": "1629 W AVENUE J", "postcode": "93534"}}},
{"geometry": {"type": "Point", "coordinates": [-118.1113313262, 34.6893650148]}, "type": "Feature", "properties": {"collection_times": [{"days": "Mon-Sat", "time": "10:00am"}, {"days": "Sun", "time": "Closed"}], "id": "9353500001", "name": "USPS COLLECTION BOX - BLUE BOX", "address": {"city": "LANCASTER", "state": "CA", "street": "1036 E AVENUE J", "postcode": "93535"}}},
{"geometry": {"type": "Point", "coordinates": [-118.0859316313, 34.6823754247]}, "type": "Feature", "properties": {"collection_times": [{"days": "Mon-Sat", "time": "10:00am"}, {"days": "Sun", "time": "Closed"}], "id": "9353500011", "name": "USPS COLLECTION BOX - BLUE BOX", "address": {"city": "LANCASTER", "state": "CA", "street": "2330 E AVENUE J8", "postcode": "93535"}}},
{"geometry": {"type": "Point", "coordinates": [-118.130202269, 34.6716208514]}, "type": "Feature", "properties": {"collection_times": [{"days": "Mon-Sat", "time": "10:00am"}, {"days": "Sun", "time": "Closed"}], "id": "9353500024", "name": "USPS COLLECTION BOX - BLUE BOX", "address": {"city": "LANCASTER", "state": "CA", "street": "43423 DIVISION ST", "postcode": "93535"}}},
{"geometry": {"type": "Point", "coordinates": [-118.2341878906, 34.6880509371]}, "type": "Feature", "properties": {"collection_times": [{"days": "Mon-Fri", "time": "3:30pm"}, {"days": "Sat", "time": "1:30pm"}, {"days": "Sun", "time": "Closed"}], "id": "9353600016", "name": "USPS COLLECTION BOX - BLUE BOX", "address": {"city": "LANCASTER", "state": "CA", "street": "42103 50TH ST W", "postcode": "93536"}}},
{"geometry": {"type": "Point", "coordinates": [-118.2899600539, 34.7548366326]}, "type": "Feature", "properties": {"collection_times": [{"days": "Mon-Sat", "time": "10:00am"}, {"days": "Sun", "time": "Closed"}], "id": "9353600019", "name": "USPS COLLECTION BOX - BLUE BOX", "address": {"city": "LANCASTER", "state": "CA", "street": "48011 90TH ST W", "postcode": "93536"}}},
{"geometry": {"type": "Point", "coordinates": [-118.1654967832, 34.6605975002]}, "type": "Feature", "properties": {"collection_times": [{"days": "Mon-Fri", "time": "12:00pm"}, {"days": "Sat", "time": "10:00am"}, {"days": "Sun", "time": "Closed"}], "id": "9353600020", "name": "USPS COLLECTION BOX - BLUE BOX", "address": {"city": "LANCASTER", "state": "CA", "street": "42800 20TH WEST", "postcode": "93536"}}},
{"geometry": {"type": "Point", "coordinates": [-118.16567635, 34.6786824981]}, "type": "Feature", "properties": {"collection_times": [{"days": "Mon-Fri", "time": "5:00pm"}, {"days": "Sat", "time": "3:00pm"}, {"days": "Sun", "time": "Closed"}], "id": "9353900001", "name": "USPS COLLECTION BOX - BLUE BOX", "address": {"city": "LANCASTER", "state": "CA", "street": "43824 20TH ST W", "postcode": "93539"}}},
{"geometry": {"type": "Point", "coordinates": [-118.13887585, 34.6982921151]}, "type": "Feature", "properties": {"collection_times": [{"days": "Mon-Fri", "time": "5:00pm"}, {"days": "Sat", "time": "3:00pm"}, {"days": "Sun", "time": "Closed"}], "id": "9353900003", "name": "USPS COLLECTION BOX - EXPRESS", "address": {"city": "LANCASTER", "state": "CA", "street": "43824 20TH ST WEST", "postcode": "93539"}}},
{"geometry": {"type": "Point", "coordinates": [-118.1656289989, 34.6783037316]}, "type": "Feature", "properties": {"collection_times": [{"days": "Mon-Fri", "time": "5:00pm"}, {"days": "Sat", "time": "3:00pm"}, {"days": "Sun", "time": "Closed"}], "id": "9353900004", "name": "USPS COLLECTION BOX - PO LOBBY", "address": {"city": "LANCASTER", "state": "CA", "street": "43824 20TH ST WEST", "postcode": "93539"}}},
{"geometry": {"type": "Point", "coordinates": [-118.1656289989, 34.6783037316]}, "type": "Feature", "properties": {"collection_times": [{"days": "Mon-Fri", "time": "5:00pm"}, {"days": "Sat", "time": "3:00pm"}, {"days": "Sun", "time": "Closed"}], "id": "9353900005", "name": "USPS COLLECTION BOX - PO LOBBY", "address": {"city": "LANCASTER", "state": "CA", "street": "43824 20TH ST WEST", "postcode": "93539"}}},
{"geometry": {"type": "Point", "coordinates": [-118.1656289989, 34.6783037316]}, "type": "Feature", "properties": {"collection_times": [{"days": "Mon-Fri", "time": "5:00pm"}, {"days": "Sat", "time": "3:00pm"}, {"days": "Sun", "time": "Closed"}], "id": "9353900006", "name": "USPS COLLECTION BOX - PO LOBBY", "address": {"city": "LANCASTER", "state": "CA", "street": "43824 20TH ST WEST", "postcode": "93539"}}},
{"geometry": {"type": "Point", "coordinates": [-118.1656289989, 34.6783037316]}, "type": "Feature", "properties": {"collection_times": [{"days": "Mon-Fri", "time": "5:00pm"}, {"days": "Sat", "time": "3:00pm"}, {"days": "Sun", "time": "Closed"}], "id": "9353900007", "name": "USPS COLLECTION BOX - APC", "address": {"city": "LANCASTER", "state": "CA", "street": "43824 20TH ST W", "postcode": "93539"}}},
{"geometry": {"type": "Point", "coordinates": [-118.1656289989, 34.6783037316]}, "type": "Feature", "properties": {"collection_times": [{"days": "Mon-Fri", "time": "5:00pm"}, {"days": "Sat", "time": "3:00pm"}, {"days": "Sun", "time": "Closed"}], "id": "9353900009", "name": "USPS COLLECTION BOX - BLUE BOX", "address": {"city": "LANCASTER", "state": "CA", "street": "43824 20TH ST W", "postcode": "93539"}}},
{"geometry": {"type": "Point", "coordinates": [-118.9644225917, 38.0234441511]}, "type": "Feature", "properties": {"collection_times": [{"days": "Mon-Fri", "time": "11:30am"}, {"days": "Sat", "time": "10:15am"}, {"days": "Sun", "time": "Closed"}], "id": "9354100000", "name": "USPS COLLECTION BOX - PO LOBBY", "address": {"city": "LEE VINING", "state": "CA", "street": "121 LEE VINING AVE", "postcode": "93541"}}},
{"geometry": {"type": "Point", "coordinates": [-117.9909966435, 34.5211451508]}, "type": "Feature", "properties": {"collection_times": [{"days": "Mon-Fri", "time": "4:30pm"}, {"days": "Sat", "time": "12:00pm"}, {"days": "Sun", "time": "Closed"}], "id": "9354300003", "name": "USPS COLLECTION BOX - BLUE BOX", "address": {"city": "LITTLEROCK", "state": "CA", "street": "7765 PEARBLOSSOM HWY", "postcode": "93543"}}},
{"geometry": {"type": "Point", "coordinates": [-117.9909966435, 34.5211451508]}, "type": "Feature", "properties": {"collection_times": [{"days": "Mon-Fri", "time": "4:30pm"}, {"days": "Sat", "time": "12:00pm"}, {"days": "Sun", "time": "Closed"}], "id": "9354300005", "name": "USPS COLLECTION BOX - PO LOBBY", "address": {"city": "LITTLEROCK", "state": "CA", "street": "7765 PEARBLOSSOM HWY", "postcode": "93543"}}},
{"geometry": {"type": "Point", "coordinates": [-117.8217437126, 34.5059669085]}, "type": "Feature", "properties": {"collection_times": [{"days": "Mon-Fri", "time": "2:30pm"}, {"days": "Sat", "time": "9:45am"}, {"days": "Sun", "time": "Closed"}], "id": "9354400000", "name": "USPS COLLECTION BOX - PO LOBBY", "address": {"city": "LLANO", "state": "CA", "street": "17234 PEARBLOSSOM HWY", "postcode": "93544"}}},
{"geometry": {"type": "Point", "coordinates": [-118.0634922801, 36.606453792]}, "type": "Feature", "properties": {"collection_times": [{"days": "Mon-Fri", "time": "2:00pm"}, {"days": "Sat", "time": "9:45am"}, {"days": "Sun", "time": "Closed"}], "id": "9354500000", "name": "USPS COLLECTION BOX - BLUE BOX", "address": {"city": "LONE PINE", "state": "CA", "street": "121 E BUSH ST", "postcode": "93545"}}},
{"geometry": {"type": "Point", "coordinates": [-118.0634922801, 36.606453792]}, "type": "Feature", "properties": {"collection_times": [{"days": "Mon-Fri", "time": "2:00pm"}, {"days": "Sat", "time": "9:45am"}, {"days": "Sun", "time": "Closed"}], "id": "9354500001", "name": "USPS COLLECTION BOX - PO LOBBY", "address": {"city": "LONE PINE", "state": "CA", "street": "121 E BUSH ST", "postcode": "93545"}}},
{"geometry": {"type": "Point", "coordinates": [-118.9709524334, 37.648274831]}, "type": "Feature", "properties": {"collection_times": [{"days": "Mon-Sat", "time": "12:00pm"}, {"days": "Sun", "time": "Closed"}], "id": "9354600005", "name": "USPS COLLECTION BOX - PO LOBBY", "address": {"city": "MAMMOTH LAKES", "state": "CA", "street": "3330 MAIN ST", "postcode": "93546"}}},
{"geometry": {"type": "Point", "coordinates": [-118.9709524334, 37.648274831]}, "type": "Feature", "properties": {"collection_times": [{"days": "Mon-Sat", "time": "12:00pm"}, {"days": "Sun", "time": "Closed"}], "id": "9354600007", "name": "USPS COLLECTION BOX - BLUE BOX", "address": {"city": "MAMMOTH LAKES", "state": "CA", "street": "3330 MAIN ST", "postcode": "93546"}}},
{"geometry": {"type": "Point", "coordinates": [-118.9709524334, 37.648274831]}, "type": "Feature", "properties": {"collection_times": [{"days": "Mon-Sat", "time": "12:00pm"}, {"days": "Sun", "time": "Closed"}], "id": "9354600008", "name": "USPS COLLECTION BOX - BLUE BOX", "address": {"city": "MAMMOTH LAKES", "state": "CA", "street": "3330 MAIN ST", "postcode": "93546"}}},
{"geometry": {"type": "Point", "coordinates": [-118.9709524334, 37.648274831]}, "type": "Feature", "properties": {"collection_times": [{"days": "Mon-Sat", "time": "12:00pm"}, {"days": "Sun", "time": "Closed"}], "id": "9354600009", "name": "USPS COLLECTION BOX - BLUE BOX", "address": {"city": "MAMMOTH LAKES", "state": "CA", "street": "3330 MAIN ST", "postcode": "93546"}}},
{"geometry": {"type": "Point", "coordinates": [-118.0053699757, 36.2807092547]}, "type": "Feature", "properties": {"collection_times": [{"days": "Mon-Fri", "time": "2:15pm"}, {"days": "Sat", "time": "8:00am"}, {"days": "Sun", "time": "Closed"}], "id": "9354900000", "name": "USPS COLLECTION BOX - BLUE BOX", "address": {"city": "OLANCHA", "state": "CA", "street": "100 S STATE HWY 395", "postcode": "93549"}}},
{"geometry": {"type": "Point", "coordinates": [-118.0889859858, 34.5800212538]}, "type": "Feature", "properties": {"collection_times": [{"days": "Mon-Fri", "time": "5:00pm"}, {"days": "Sat", "time": "4:45pm"}, {"days": "Sun", "time": "Closed"}], "id": "9355000001", "name": "USPS COLLECTION BOX - BLUE BOX", "address": {"city": "PALMDALE", "state": "CA", "street": "2220 E PALMDALE BLVD", "postcode": "93550"}}},
{"geometry": {"type": "Point", "coordinates": [-118.0761582434, 34.5779136041]}, "type": "Feature", "properties": {"collection_times": [{"days": "Mon-Sat", "time": "3:00pm"}, {"days": "Sun", "time": "Closed"}], "id": "9355000003", "name": "USPS COLLECTION BOX - BLUE BOX", "address": {"city": "PALMDALE", "state": "CA", "street": "38322 30TH ST E", "postcode": "93550"}}},
{"geometry": {"type": "Point", "coordinates": [-118.1224064629, 34.6204059122]}, "type": "Feature", "properties": {"collection_times": [{"days": "Mon-Sat", "time": "10:00am"}, {"days": "Sun", "time": "Closed"}], "id": "9355000006", "name": "USPS COLLECTION BOX - BLUE BOX", "address": {"city": "PALMDALE", "state": "CA", "street": "1011 LOCKHEED WAY", "postcode": "93550"}}},
{"geometry": {"type": "Point", "coordinates": [-118.1162750356, 34.5779619922]}, "type": "Feature", "properties": {"collection_times": [{"days": "Mon-Sat", "time": "3:00pm"}, {"days": "Sun", "time": "Closed"}], "id": "9355000007", "name": "USPS COLLECTION BOX - BLUE BOX", "address": {"city": "PALMDALE", "state": "CA", "street": "38300 SIERRA HWY", "postcode": "93550"}}},
{"geometry": {"type": "Point", "coordinates": [-118.0889859858, 34.5800212538]}, "type": "Feature", "properties": {"collection_times": [{"days": "Mon-Fri", "time": "5:00pm"}, {"days": "Sat", "time": "4:45pm"}, {"days": "Sun", "time": "Closed"}], "id": "9355000046", "name": "USPS COLLECTION BOX - BLUE BOX", "address": {"city": "PALMDALE", "state": "CA", "street": "2220 E PALMDALE BLVD", "postcode": "93550"}}},
{"geometry": {"type": "Point", "coordinates": [-118.1225879218, 34.6099584652]}, "type": "Feature", "properties": {"collection_times": [{"days": "Mon-Sat", "time": "10:00am"}, {"days": "Sun", "time": "Closed"}], "id": "9355000049", "name": "USPS COLLECTION BOX - BLUE BOX", "address": {"city": "PALMDALE", "state": "CA", "street": "40015 SIERRA HWY", "postcode": "93550"}}},
{"geometry": {"type": "Point", "coordinates": [-118.0842853585, 34.6023689886]}, "type": "Feature", "properties": {"collection_times": [{"days": "Mon-Sat", "time": "3:00pm"}, {"days": "Sun", "time": "Closed"}], "id": "9355000050", "name": "USPS COLLECTION BOX - BLUE BOX", "address": {"city": "PALMDALE", "state": "CA", "street": "2555 E AVENUE P", "postcode": "93550"}}},
{"geometry": {"type": "Point", "coordinates": [-118.0942820797, 34.5899936667]}, "type": "Feature", "properties": {"collection_times": [{"days": "Mon-Sat", "time": "4:45pm"}, {"days": "Sun", "time": "Closed"}], "id": "9355000054", "name": "USPS COLLECTION BOX - BLUE BOX", "address": {"city": "PALMDALE", "state": "CA", "street": "38917 20TH ST E", "postcode": "93550"}}},
{"geometry": {"type": "Point", "coordinates": [-118.1162750356, 34.5779619922]}, "type": "Feature", "properties": {"collection_times": [{"days": "Mon-Sat", "time": "3:00pm"}, {"days": "Sun", "time": "Closed"}], "id": "9355000055", "name": "USPS COLLECTION BOX - BLUE BOX", "address": {"city": "PALMDALE", "state": "CA", "street": "38300 SIERRA HWY", "postcode": "93550"}}},
{"geometry": {"type": "Point", "coordinates": [-118.0761582434, 34.5779136041]}, "type": "Feature", "properties": {"collection_times": [{"days": "Mon-Sat", "time": "3:00pm"}, {"days": "Sun", "time": "Closed"}], "id": "9355000056", "name": "USPS COLLECTION BOX - BLUE BOX", "address": {"city": "PALMDALE", "state": "CA", "street": "38322 30TH ST E", "postcode": "93550"}}},
{"geometry": {"type": "Point", "coordinates": [-118.0889859858, 34.5800212538]}, "type": "Feature", "properties": {"collection_times": [{"days": "Mon-Fri", "time": "5:00pm"}, {"days": "Sat", "time": "3:00pm"}, {"days": "Sun", "time": "Closed"}], "id": "9355000058", "name": "USPS COLLECTION BOX - PO LOBBY", "address": {"city": "PALMDALE", "state": "CA", "street": "2220 E PALMDALE BLVD", "postcode": "93550"}}},
{"geometry": {"type": "Point", "coordinates": [-118.089098579, 34.580061929]}, "type": "Feature", "properties": {"collection_times": [{"days": "Mon-Fri", "time": "5:00pm"}, {"days": "Sat", "time": "3:00pm"}, {"days": "Sun", "time": "Closed"}], "id": "9355000059", "name": "USPS COLLECTION BOX - APC", "address": {"city": "PALMDALE", "state": "CA", "street": "2220 E PALMDALE BLVD", "postcode": "93550"}}},
{"geometry": {"type": "Point", "coordinates": [-118.0889859858, 34.5800212538]}, "type": "Feature", "properties": {"collection_times": [{"days": "Mon-Fri", "time": "5:00pm"}, {"days": "Sat", "time": "4:45pm"}, {"days": "Sun", "time": "Closed"}], "id": "9355000061", "name": "USPS COLLECTION BOX - BLUE BOX", "address": {"city": "PALMDALE", "state": "CA", "street": "2220 E PALMDALE BLVD", "postcode": "93550"}}},
{"geometry": {"type": "Point", "coordinates": [-118.1463787462, 34.5871189768]}, "type": "Feature", "properties": {"collection_times": [{"days": "Mon-Fri", "time": "3:00pm"}, {"days": "Sat", "time": "12:30pm"}, {"days": "Sun", "time": "Closed"}], "id": "9355100000", "name": "USPS COLLECTION BOX - BLUE BOX", "address": {"city": "PALMDALE", "state": "CA", "street": "829 W PALMDALE BLVD", "postcode": "93551"}}},
{"geometry": {"type": "Point", "coordinates": [-118.1863292997, 34.6025034578]}, "type": "Feature", "properties": {"collection_times": [{"days": "Mon-Sat", "time": "12:15pm"}, {"days": "Sun", "time": "Closed"}], "id": "9355100002", "name": "USPS COLLECTION BOX - BLUE BOX", "address": {"city": "PALMDALE", "state": "CA", "street": "3053 RANCHO VISTA BLVD", "postcode": "93551"}}},
{"geometry": {"type": "Point", "coordinates": [-118.1863292997, 34.6025034578]}, "type": "Feature", "properties": {"collection_times": [{"days": "Mon-Sat", "time": "12:15pm"}, {"days": "Sun", "time": "Closed"}], "id": "9355100003", "name": "USPS COLLECTION BOX - BLUE BOX", "address": {"city": "PALMDALE", "state": "CA", "street": "3053 RANCHO VISTA BLVD", "postcode": "93551"}}},
{"geometry": {"type": "Point", "coordinates": [-118.2890444437, 34.6181942255]}, "type": "Feature", "properties": {"collection_times": [{"days": "Mon-Sat", "time": "10:00am"}, {"days": "Sun", "time": "Closed"}], "id": "9355100007", "name": "USPS COLLECTION BOX - BLUE BOX", "address": {"city": "PALMDALE", "state": "CA", "street": "9001 W ELIZABETH LAKE RD.", "postcode": "93551"}}},
{"geometry": {"type": "Point", "coordinates": [-118.1489994712, 34.6312383103]}, "type": "Feature", "properties": {"collection_times": [{"days": "Mon-Sat", "time": "10:00am"}, {"days": "Sun", "time": "Closed"}], "id": "9355100010", "name": "USPS COLLECTION BOX - BLUE BOX", "address": {"city": "PALMDALE", "state": "CA", "street": "1037 W AVENUE N", "postcode": "93551"}}},
{"geometry": {"type": "Point", "coordinates": [-118.1463787462, 34.5871189768]}, "type": "Feature", "properties": {"collection_times": [{"days": "Mon-Fri", "time": "3:00pm"}, {"days": "Sat", "time": "12:30pm"}, {"days": "Sun", "time": "Closed"}], "id": "9355100012", "name": "USPS COLLECTION BOX - BLUE BOX", "address": {"city": "PALMDALE", "state": "CA", "street": "829 W PALMDALE BLVD", "postcode": "93551"}}},
{"geometry": {"type": "Point", "coordinates": [-118.1474714636, 34.5855540217]}, "type": "Feature", "properties": {"collection_times": [{"days": "Mon-Sat", "time": "10:00am"}, {"days": "Sun", "time": "Closed"}], "id": "9355100014", "name": "USPS COLLECTION BOX - BLUE BOX", "address": {"city": "PALMDALE", "state": "CA", "street": "38727 TIERRA SUBIDA AVE", "postcode": "93551"}}},
{"geometry": {"type": "Point", "coordinates": [-118.0461912489, 34.5580064563]}, "type": "Feature", "properties": {"collection_times": [{"days": "Mon-Sat", "time": "10:00am"}, {"days": "Sun", "time": "Closed"}], "id": "9355200002", "name": "USPS COLLECTION BOX - BLUE BOX", "address": {"city": "PALMDALE", "state": "CA", "street": "4654 E AVENUE S", "postcode": "93552"}}},
{"geometry": {"type": "Point", "coordinates": [-117.8993791468, 34.4704834767]}, "type": "Feature", "properties": {"collection_times": [{"days": "Mon-Fri", "time": "2:30pm"}, {"days": "Sat", "time": "10:00am"}, {"days": "Sun", "time": "Closed"}], "id": "9355300002", "name": "USPS COLLECTION BOX - BLUE BOX", "address": {"city": "PEARBLOSSOM", "state": "CA", "street": "12302 PEARBLOSSOM HWY", "postcode": "93553"}}},
{"geometry": {"type": "Point", "coordinates": [-117.8993791468, 34.4704834767]}, "type": "Feature", "properties": {"collection_times": [{"days": "Mon-Fri", "time": "2:30pm"}, {"days": "Sat", "time": "10:00am"}, {"days": "Sun", "time": "Closed"}], "id": "9355300003", "name": "USPS COLLECTION BOX - PO LOBBY", "address": {"city": "PEARBLOSSOM", "state": "CA", "street": "12302 PEARBLOSSOM HWY", "postcode": "93553"}}},
{"geometry": {"type": "Point", "coordinates": [-117.6697904711, 35.6279210971]}, "type": "Feature", "properties": {"collection_times": [{"days": "Mon-Fri", "time": "4:00pm"}, {"days": "Sat", "time": "3:00pm"}, {"days": "Sun", "time": "Closed"}], "id": "9355500001", "name": "USPS COLLECTION BOX - BLUE BOX", "address": {"city": "RIDGECREST", "state": "CA", "street": "100 E COSO AVE", "postcode": "93555"}}},
{"geometry": {"type": "Point", "coordinates": [-117.6820376267, 35.622570375]}, "type": "Feature", "properties": {"collection_times": [{"days": "Mon-Sat", "time": "3:00pm"}, {"days": "Sun", "time": "Closed"}], "id": "9355500002", "name": "USPS COLLECTION BOX - EXPRESS", "address": {"city": "RIDGECREST", "state": "CA", "street": "101 E COSO AVE", "postcode": "93555"}}},
{"geometry": {"type": "Point", "coordinates": [-117.6697958903, 35.6280306541]}, "type": "Feature", "properties": {"collection_times": [{"days": "Mon-Sat", "time": "3:00pm"}, {"days": "Sun", "time": "Closed"}], "id": "9355500027", "name": "USPS COLLECTION BOX - PO LOBBY", "address": {"city": "RIDGECREST", "state": "CA", "street": "101 E COSO AVE", "postcode": "93555"}}},
{"geometry": {"type": "Point", "coordinates": [-117.6737437165, 35.6047370499]}, "type": "Feature", "properties": {"collection_times": [{"days": "Mon-Sat", "time": "10:00am"}, {"days": "Sun", "time": "Closed"}], "id": "9355500028", "name": "USPS COLLECTION BOX - BLUE BOX", "address": {"city": "RIDGECREST", "state": "CA", "street": "927 S CHINA LAKE BLVD", "postcode": "93555"}}},
{"geometry": {"type": "Point", "coordinates": [-117.6697958903, 35.6280306541]}, "type": "Feature", "properties": {"collection_times": [{"days": "Mon-Sat", "time": "3:00pm"}, {"days": "Sun", "time": "Closed"}], "id": "9355500029", "name": "USPS COLLECTION BOX - APC", "address": {"city": "RIDGECREST", "state": "CA", "street": "101 E COSO AVE", "postcode": "93555"}}},
{"geometry": {"type": "Point", "coordinates": [-118.1663125372, 34.864341075]}, "type": "Feature", "properties": {"collection_times": [{"days": "Mon-Fri", "time": "4:15pm"}, {"days": "Sat", "time": "1:00pm"}, {"days": "Sun", "time": "Closed"}], "id": "9356000000", "name": "USPS COLLECTION BOX - BLUE BOX", "address": {"city": "ROSAMOND", "state": "CA", "street": "1950 W ROSAMOND BLVD", "postcode": "93560"}}},
{"geometry": {"type": "Point", "coordinates": [-118.1663125372, 34.864341075]}, "type": "Feature", "properties": {"collection_times": [{"days": "Mon-Fri", "time": "4:15pm"}, {"days": "Sat", "time": "1:00pm"}, {"days": "Sun", "time": "Closed"}], "id": "9356000001", "name": "USPS COLLECTION BOX - PO LOBBY", "address": {"city": "ROSAMOND", "state": "CA", "street": "1950 W ROSAMOND BLVD", "postcode": "93560"}}},
{"geometry": {"type": "Point", "coordinates": [-118.4526433105, 35.1457368015]}, "type": "Feature", "properties": {"collection_times": [{"days": "Mon-Fri", "time": "5:00pm"}, {"days": "Sat", "time": "3:00pm"}, {"days": "Sun", "time": "Closed"}], "id": "9356100000", "name": "USPS COLLECTION BOX - BLUE BOX", "address": {"city": "TEHACHAPI", "state": "CA", "street": "1085 VOYAGER DR", "postcode": "93561"}}},
{"geometry": {"type": "Point", "coordinates": [-118.4495980003, 35.1290432249]}, "type": "Feature", "properties": {"collection_times": [{"days": "Mon-Sat", "time": "10:00am"}, {"days": "Sun", "time": "Closed"}], "id": "9356100004", "name": "USPS COLLECTION BOX - BLUE BOX", "address": {"city": "TEHACHAPI", "state": "CA", "street": "127 W D ST", "postcode": "93561"}}},
{"geometry": {"type": "Point", "coordinates": [-118.4482588908, 35.1322052742]}, "type": "Feature", "properties": {"collection_times": [{"days": "Mon-Sat", "time": "10:00am"}, {"days": "Sun", "time": "Closed"}], "id": "9356100005", "name": "USPS COLLECTION BOX - BLUE BOX", "address": {"city": "TEHACHAPI", "state": "CA", "street": "110 W TEHACHAPI BLVD", "postcode": "93561"}}},
{"geometry": {"type": "Point", "coordinates": [-118.6089674151, 35.1692934037]}, "type": "Feature", "properties": {"collection_times": [{"days": "Mon-Sat", "time": "10:00am"}, {"days": "Sun", "time": "Closed"}], "id": "9356100007", "name": "USPS COLLECTION BOX - BLUE BOX", "address": {"city": "TEHACHAPI", "state": "CA", "street": "26900 BEAR VALLEY RD", "postcode": "93561"}}},
{"geometry": {"type": "Point", "coordinates": [-118.4918411296, 35.1240723072]}, "type": "Feature", "properties": {"collection_times": [{"days": "Mon-Sat", "time": "10:00am"}, {"days": "Sun", "time": "Closed"}], "id": "9356100008", "name": "USPS COLLECTION BOX - BLUE BOX", "address": {"city": "TEHACHAPI", "state": "CA", "street": "20358 W VALLEY BLVD", "postcode": "93561"}}},
{"geometry": {"type": "Point", "coordinates": [-118.4526433105, 35.1457368015]}, "type": "Feature", "properties": {"collection_times": [{"days": "Mon-Fri", "time": "5:00pm"}, {"days": "Sat", "time": "3:00pm"}, {"days": "Sun", "time": "Closed"}], "id": "9356100014", "name": "USPS COLLECTION BOX - PO LOBBY", "address": {"city": "TEHACHAPI", "state": "CA", "street": "1085 VOYAGER DR", "postcode": "93561"}}},
{"geometry": {"type": "Point", "coordinates": [-118.4526433105, 35.1457368015]}, "type": "Feature", "properties": {"collection_times": [{"days": "Mon-Fri", "time": "5:00pm"}, {"days": "Sat", "time": "3:00pm"}, {"days": "Sun", "time": "Closed"}], "id": "9356100015", "name": "USPS COLLECTION BOX - PO LOBBY", "address": {"city": "TEHACHAPI", "state": "CA", "street": "1085 VOYAGER DR", "postcode": "93561"}}},
{"geometry": {"type": "Point", "coordinates": [-118.4526433105, 35.1457368015]}, "type": "Feature", "properties": {"collection_times": [{"days": "Mon-Fri", "time": "5:00pm"}, {"days": "Sat", "time": "3:00pm"}, {"days": "Sun", "time": "Closed"}], "id": "9356100016", "name": "USPS COLLECTION BOX - PO LOBBY", "address": {"city": "TEHACHAPI", "state": "CA", "street": "1085 VOYAGER DR", "postcode": "93561"}}},
{"geometry": {"type": "Point", "coordinates": [-118.5767173799, 35.1469686493]}, "type": "Feature", "properties": {"collection_times": [{"days": "Mon-Sat", "time": "10:00am"}, {"days": "Sun", "time": "Closed"}], "id": "9356100017", "name": "USPS COLLECTION BOX - BLUE BOX", "address": {"city": "TEHACHAPI", "state": "CA", "street": "25101 BEAR VALLEY RD", "postcode": "93561"}}},
{"geometry": {"type": "Point", "coordinates": [-118.6500160911, 35.1582102612]}, "type": "Feature", "properties": {"collection_times": [{"days": "Mon-Sat", "time": "10:00am"}, {"days": "Sun", "time": "Closed"}], "id": "9356100018", "name": "USPS COLLECTION BOX - BLUE BOX", "address": {"city": "TEHACHAPI", "state": "CA", "street": "28999 S LOWER VALLEY RD", "postcode": "93561"}}},
{"geometry": {"type": "Point", "coordinates": [-117.37671455, 35.7592172952]}, "type": "Feature", "properties": {"collection_times": [{"days": "Mon-Sat", "time": "3:15pm"}, {"days": "Sun", "time": "Closed"}], "id": "9356200000", "name": "USPS COLLECTION BOX - PO LOBBY", "address": {"city": "TRONA", "state": "CA", "street": "82905 SEARLES ST", "postcode": "93562"}}}
]}
