{"type": "FeatureCollection", "features": [
{"geometry": {"type": "Point", "coordinates": [-119.7244987071, 37.3807942306]}, "type": "Feature", "properties": {"collection_times": [{"days": "Mon-Fri", "time": "3:00pm"}, {"days": "Sat", "time": "11:00am"}, {"days": "Sun", "time": "Closed"}], "id": "9360100001", "name": "USPS COLLECTION BOX - BLUE BOX", "address": {"city": "AHWAHNEE", "state": "CA", "street": "44878 NOTRE DAME LN", "postcode": "93601"}}},
{"geometry": {"type": "Point", "coordinates": [-119.7244987071, 37.3807942306]}, "type": "Feature", "properties": {"collection_times": [{"days": "Mon-Fri", "time": "3:00pm"}, {"days": "Sat", "time": "11:00am"}, {"days": "Sun", "time": "Closed"}], "id": "9360100002", "name": "USPS COLLECTION BOX - BLUE BOX", "address": {"city": "AHWAHNEE", "state": "CA", "street": "44878 NOTRE DAME LN", "postcode": "93601"}}},
{"geometry": {"type": "Point", "coordinates": [-119.7244987071, 37.3807942306]}, "type": "Feature", "properties": {"collection_times": [{"days": "Mon-Fri", "time": "3:00pm"}, {"days": "Sat", "time": "11:00am"}, {"days": "Sun", "time": "Closed"}], "id": "9360100008", "name": "USPS COLLECTION BOX - PO LOBBY", "address": {"city": "AHWAHNEE", "state": "CA", "street": "44878 NOTRE DAME LN", "postcode": "93601"}}},
{"geometry": {"type": "Point", "coordinates": [-119.7244987071, 37.3807942306]}, "type": "Feature", "properties": {"collection_times": [{"days": "Mon-Fri", "time": "3:00pm"}, {"days": "Sat", "time": "11:00am"}, {"days": "Sun", "time": "Closed"}], "id": "9360100009", "name": "USPS COLLECTION BOX - PO LOBBY", "address": {"city": "AHWAHNEE", "state": "CA", "street": "44878 NOTRE DAME LN", "postcode": "93601"}}},
{"geometry": {"type": "Point", "coordinates": [-119.4881336804, 37.0703669657]}, "type": "Feature", "properties": {"collection_times": [{"days": "Mon-Fri", "time": "3:30pm"}, {"days": "Sat", "time": "10:00am"}, {"days": "Sun", "time": "Closed"}], "id": "9360200001", "name": "USPS COLLECTION BOX - BLUE BOX", "address": {"city": "AUBERRY", "state": "CA", "street": "33012 AUBERRY RD", "postcode": "93602"}}},
{"geometry": {"type": "Point", "coordinates": [-119.4881336804, 37.0703669657]}, "type": "Feature", "properties": {"collection_times": [{"days": "Mon-Fri", "time": "3:30pm"}, {"days": "Sat", "time": "10:00am"}, {"days": "Sun", "time": "Closed"}], "id": "9360200003", "name": "USPS COLLECTION BOX - PO LOBBY", "address": {"city": "AUBERRY", "state": "CA", "street": "33012 AUBERRY RD", "postcode": "93602"}}},
{"geometry": {"type": "Point", "coordinates": [-119.4881336804, 37.0703669657]}, "type": "Feature", "properties": {"collection_times": [{"days": "Mon-Fri", "time": "3:30pm"}, {"days": "Sat", "time": "10:00am"}, {"days": "Sun", "time": "Closed"}], "id": "9360200005", "name": "USPS COLLECTION BOX - PO LOBBY", "address": {"city": "AUBERRY", "state": "CA", "street": "33012 AUBERRY RD", "postcode": "93602"}}},
{"geometry": {"type": "Point", "coordinates": [-119.5576384665, 37.3201121385]}, "type": "Feature", "properties": {"collection_times": [{"days": "Mon-Fri", "time": "2:30pm"}, {"days": "Sat", "time": "12:00pm"}, {"days": "Sun", "time": "Closed"}], "id": "9360400001", "name": "USPS COLLECTION BOX - BLUE BOX", "address": {"city": "BASS LAKE", "state": "CA", "street": "54449 ROAD 432", "postcode": "93604"}}},
{"geometry": {"type": "Point", "coordinates": [-119.5576384665, 37.3201121385]}, "type": "Feature", "properties": {"collection_times": [{"days": "Mon-Fri", "time": "3:00pm"}, {"days": "Sat", "time": "12:00pm"}, {"days": "Sun", "time": "Closed"}], "id": "9360400002", "name": "USPS COLLECTION BOX - PO LOBBY", "address": {"city": "BASS LAKE", "state": "CA", "street": "54449 ROAD 432", "postcode": "93604"}}},
{"geometry": {"type": "Point", "coordinates": [-119.5576384665, 37.3201121385]}, "type": "Feature", "properties": {"collection_times": [{"days": "Mon-Fri", "time": "3:00pm"}, {"days": "Sat", "time": "12:00pm"}, {"days": "Sun", "time": "Closed"}], "id": "9360400003", "name": "USPS COLLECTION BOX - PO LOBBY", "address": {"city": "BASS LAKE", "state": "CA", "street": "54449 ROAD 432", "postcode": "93604"}}},
{"geometry": {"type": "Point", "coordinates": [-119.5576384665, 37.3201121385]}, "type": "Feature", "properties": {"collection_times": [{"days": "Mon-Fri", "time": "3:00pm"}, {"days": "Sat", "time": "12:00pm"}, {"days": "Sun", "time": "Closed"}], "id": "9360400004", "name": "USPS COLLECTION BOX - PO LOBBY", "address": {"city": "BASS LAKE", "state": "CA", "street": "54449 ROAD 432", "postcode": "93604"}}},
{"geometry": {"type": "Point", "coordinates": [-119.247286753, 37.2048519229]}, "type": "Feature", "properties": {"collection_times": [{"days": "Mon-Fri", "time": "12:00pm"}, {"days": "Sat", "time": "9:30am"}, {"days": "Sun", "time": "Closed"}], "id": "9360500000", "name": "USPS COLLECTION BOX - PO LOBBY", "address": {"city": "BIG CREEK", "state": "CA", "street": "55083 POINT RD", "postcode": "93605"}}},
{"geometry": {"type": "Point", "coordinates": [-120.0164570078, 36.8025723396]}, "type": "Feature", "properties": {"collection_times": [{"days": "Mon-Fri", "time": "4:15pm"}, {"days": "Sat", "time": "9:45am"}, {"days": "Sun", "time": "Closed"}], "id": "9360600001", "name": "USPS COLLECTION BOX - BLUE BOX", "address": {"city": "BIOLA", "state": "CA", "street": "4672 N BIOLA AVE", "postcode": "93606"}}},
{"geometry": {"type": "Point", "coordinates": [-120.0164570078, 36.8025723396]}, "type": "Feature", "properties": {"collection_times": [{"days": "Mon-Fri", "time": "4:25pm"}, {"days": "Sat", "time": "9:55am"}, {"days": "Sun", "time": "Closed"}], "id": "9360600002", "name": "USPS COLLECTION BOX - PO LOBBY", "address": {"city": "BIOLA", "state": "CA", "street": "4672 N BIOLA AVE", "postcode": "93606"}}},
{"geometry": {"type": "Point", "coordinates": [-120.3894670388, 36.5023514337]}, "type": "Feature", "properties": {"collection_times": [{"days": "Mon-Fri", "time": "3:00pm"}, {"days": "Sat", "time": "10:00am"}, {"days": "Sun", "time": "Closed"}], "id": "9360800000", "name": "USPS COLLECTION BOX - BLUE BOX", "address": {"city": "CANTUA CREEK", "state": "CA", "street": "28900 W CLARKSON AVE", "postcode": "93608"}}},
{"geometry": {"type": "Point", "coordinates": [-120.3894670388, 36.5023514337]}, "type": "Feature", "properties": {"collection_times": [{"days": "Mon-Fri", "time": "3:00pm"}, {"days": "Sat", "time": "10:00am"}, {"days": "Sun", "time": "Closed"}], "id": "9360800001", "name": "USPS COLLECTION BOX - PO LOBBY", "address": {"city": "CANTUA CREEK", "state": "CA", "street": "28900 W CLARKSON AVE", "postcode": "93608"}}},
{"geometry": {"type": "Point", "coordinates": [-119.8348738051, 36.5408106625]}, "type": "Feature", "properties": {"collection_times": [{"days": "Mon-Fri", "time": "4:00pm"}, {"days": "Sat", "time": "9:30am"}, {"days": "Sun", "time": "Closed"}], "id": "9360900000", "name": "USPS COLLECTION BOX - BLUE BOX", "address": {"city": "CARUTHERS", "state": "CA", "street": "2413 W TAHOE AVE", "postcode": "93609"}}},
{"geometry": {"type": "Point", "coordinates": [-119.8348738051, 36.5408106625]}, "type": "Feature", "properties": {"collection_times": [{"days": "Mon-Fri", "time": "4:00pm"}, {"days": "Sat", "time": "1:00pm"}, {"days": "Sun", "time": "Closed"}], "id": "9360900001", "name": "USPS COLLECTION BOX - PO LOBBY", "address": {"city": "CARUTHERS", "state": "CA", "street": "2413 W TAHOE AVE", "postcode": "93609"}}},
{"geometry": {"type": "Point", "coordinates": [-120.2739360232, 37.1110674604]}, "type": "Feature", "properties": {"collection_times": [{"days": "Mon-Fri", "time": "2:00pm"}, {"days": "Sat", "time": "11:00am"}, {"days": "Sun", "time": "Closed"}], "id": "9361000018", "name": "USPS COLLECTION BOX - BLUE BOX", "address": {"city": "CHOWCHILLA", "state": "CA", "street": "1770 ROBERTSON BLVD", "postcode": "93610"}}},
{"geometry": {"type": "Point", "coordinates": [-120.2589210071, 37.1232477214]}, "type": "Feature", "properties": {"collection_times": [{"days": "Mon-Fri", "time": "5:00pm"}, {"days": "Sat", "time": "3:45pm"}, {"days": "Sun", "time": "Closed"}], "id": "9361000019", "name": "USPS COLLECTION BOX - BLUE BOX", "address": {"city": "CHOWCHILLA", "state": "CA", "street": "135 S 1ST ST", "postcode": "93610"}}},
{"geometry": {"type": "Point", "coordinates": [-120.2589210071, 37.1232477214]}, "type": "Feature", "properties": {"collection_times": [{"days": "Mon-Fri", "time": "5:00pm"}, {"days": "Sat", "time": "3:30pm"}, {"days": "Sun", "time": "Closed"}], "id": "9361000021", "name": "USPS COLLECTION BOX - PO LOBBY", "address": {"city": "CHOWCHILLA", "state": "CA", "street": "135 S 1ST ST", "postcode": "93610"}}},
{"geometry": {"type": "Point", "coordinates": [-120.2589210071, 37.1232477214]}, "type": "Feature", "properties": {"collection_times": [{"days": "Mon-Fri", "time": "5:00pm"}, {"days": "Sat", "time": "3:30pm"}, {"days": "Sun", "time": "Closed"}], "id": "9361000022", "name": "USPS COLLECTION BOX - PO LOBBY", "address": {"city": "CHOWCHILLA", "state": "CA", "street": "135 S 1ST ST", "postcode": "93610"}}},
{"geometry": {"type": "Point", "coordinates": [-119.6811365718, 36.8087336915]}, "type": "Feature", "properties": {"collection_times": [{"days": "Mon-Fri", "time": "5:00pm"}, {"days": "Sat", "time": "4:00pm"}, {"days": "Sun", "time": "Closed"}], "id": "9361100000", "name": "USPS COLLECTION BOX - BLUE BOX", "address": {"city": "CLOVIS", "state": "CA", "street": "1817 SHAW AVE", "postcode": "93611"}}},
{"geometry": {"type": "Point", "coordinates": [-119.6751494916, 36.8086683829]}, "type": "Feature", "properties": {"collection_times": [{"days": "Mon-Fri", "time": "5:00pm"}, {"days": "Sat", "time": "4:00pm"}, {"days": "Sun", "time": "Closed"}], "id": "9361100001", "name": "USPS COLLECTION BOX - BLUE BOX", "address": {"city": "CLOVIS", "state": "CA", "street": "2141 SHAW AVE", "postcode": "93611"}}},
{"geometry": {"type": "Point", "coordinates": [-119.6753774608, 36.8086878501]}, "type": "Feature", "properties": {"collection_times": [{"days": "Mon-Fri", "time": "5:00pm"}, {"days": "Sat", "time": "4:00pm"}, {"days": "Sun", "time": "Closed"}], "id": "9361100002", "name": "USPS COLLECTION BOX - BLUE BOX", "address": {"city": "CLOVIS", "state": "CA", "street": "2141 SHAW AVE", "postcode": "93611"}}},
{"geometry": {"type": "Point", "coordinates": [-119.6587709327, 36.8413083135]}, "type": "Feature", "properties": {"collection_times": [{"days": "Mon-Fri", "time": "4:15pm"}, {"days": "Sat", "time": "3:00pm"}, {"days": "Sun", "time": "Closed"}], "id": "9361100004", "name": "USPS COLLECTION BOX - BLUE BOX", "address": {"city": "CLOVIS", "state": "CA", "street": "724 MEDICAL CENTER DR E", "postcode": "93611"}}},
{"geometry": {"type": "Point", "coordinates": [-119.7031704221, 36.8229774535]}, "type": "Feature", "properties": {"collection_times": [{"days": "Mon-Fri", "time": "4:00pm"}, {"days": "Sat-Sun", "time": "Closed"}], "id": "9361200001", "name": "USPS COLLECTION BOX - BLUE BOX", "address": {"city": "CLOVIS", "state": "CA", "street": "516 BULLARD AVE", "postcode": "93612"}}},
{"geometry": {"type": "Point", "coordinates": [-119.7019606312, 36.8257868282]}, "type": "Feature", "properties": {"collection_times": [{"days": "Mon-Fri", "time": "4:00pm"}, {"days": "Sat-Sun", "time": "Closed"}], "id": "9361200010", "name": "USPS COLLECTION BOX - BLUE BOX", "address": {"city": "CLOVIS", "state": "CA", "street": "361 POLLASKY AVE", "postcode": "93612"}}},
{"geometry": {"type": "Point", "coordinates": [-119.7143593374, 36.8230880371]}, "type": "Feature", "properties": {"collection_times": [{"days": "Mon-Sat", "time": "11:00am"}, {"days": "Sun", "time": "Closed"}], "id": "9361200029", "name": "USPS COLLECTION BOX - BLUE BOX", "address": {"city": "CLOVIS", "state": "CA", "street": "255 W BULLARD AVE", "postcode": "93612"}}},
{"geometry": {"type": "Point", "coordinates": [-119.69511381, 36.8084107131]}, "type": "Feature", "properties": {"collection_times": [{"days": "Mon-Fri", "time": "4:30pm"}, {"days": "Sat", "time": "4:00pm"}, {"days": "Sun", "time": "Closed"}], "id": "9361200033", "name": "USPS COLLECTION BOX - BLUE BOX", "address": {"city": "CLOVIS", "state": "CA", "street": "1050 SHAW AVE", "postcode": "93612"}}},
{"geometry": {"type": "Point", "coordinates": [-119.6985579631, 36.8372835946]}, "type": "Feature", "properties": {"collection_times": [{"days": "Mon-Fri", "time": "4:30pm"}, {"days": "Sat", "time": "3:30pm"}, {"days": "Sun", "time": "Closed"}], "id": "9361200034", "name": "USPS COLLECTION BOX - BLUE BOX", "address": {"city": "CLOVIS", "state": "CA", "street": "850 HERNDON AVE", "postcode": "93612"}}},
{"geometry": {"type": "Point", "coordinates": [-119.7274432869, 36.7945796531]}, "type": "Feature", "properties": {"collection_times": [{"days": "Mon-Fri", "time": "5:00pm"}, {"days": "Sat", "time": "4:00pm"}, {"days": "Sun", "time": "Closed"}], "id": "9361200048", "name": "USPS COLLECTION BOX - BLUE BOX", "address": {"city": "CLOVIS", "state": "CA", "street": "3198 WILLOW AVE", "postcode": "93612"}}},
{"geometry": {"type": "Point", "coordinates": [-119.7274432869, 36.7945796531]}, "type": "Feature", "properties": {"collection_times": [{"days": "Mon-Fri", "time": "5:00pm"}, {"days": "Sat", "time": "4:00pm"}, {"days": "Sun", "time": "Closed"}], "id": "9361200049", "name": "USPS COLLECTION BOX - BLUE BOX", "address": {"city": "CLOVIS", "state": "CA", "street": "3198 WILLOW AVE", "postcode": "93612"}}},
{"geometry": {"type": "Point", "coordinates": [-119.708850988, 36.822345063]}, "type": "Feature", "properties": {"collection_times": [{"days": "Mon-Fri", "time": "5:00pm"}, {"days": "Sat", "time": "4:00pm"}, {"days": "Sun", "time": "Closed"}], "id": "9361200069", "name": "USPS COLLECTION BOX - PO LOBBY", "address": {"city": "CLOVIS", "state": "CA", "street": "655 MINNEWAWA AVE", "postcode": "93612"}}},
{"geometry": {"type": "Point", "coordinates": [-119.708850988, 36.822345063]}, "type": "Feature", "properties": {"collection_times": [{"days": "Mon-Fri", "time": "5:00pm"}, {"days": "Sat", "time": "4:00pm"}, {"days": "Sun", "time": "Closed"}], "id": "9361200070", "name": "USPS COLLECTION BOX - PO LOBBY", "address": {"city": "CLOVIS", "state": "CA", "street": "655 MINNEWAWA AVE", "postcode": "93612"}}},
{"geometry": {"type": "Point", "coordinates": [-119.708850988, 36.822345063]}, "type": "Feature", "properties": {"collection_times": [{"days": "Mon-Fri", "time": "5:00pm"}, {"days": "Sat", "time": "4:00pm"}, {"days": "Sun", "time": "Closed"}], "id": "9361200071", "name": "USPS COLLECTION BOX - BLUE BOX", "address": {"city": "CLOVIS", "state": "CA", "street": "655 MINNEWAWA AVE", "postcode": "93612"}}},
{"geometry": {"type": "Point", "coordinates": [-119.7110987101, 36.8129411168]}, "type": "Feature", "properties": {"collection_times": [{"days": "Mon-Fri", "time": "5:00pm"}, {"days": "Sat", "time": "4:00pm"}, {"days": "Sun", "time": "Closed"}], "id": "9361200073", "name": "USPS COLLECTION BOX - EXPRESS", "address": {"city": "CLOVIS", "state": "CA", "street": "655 MINNEWAWA AVE", "postcode": "93612"}}},
{"geometry": {"type": "Point", "coordinates": [-119.708850988, 36.822345063]}, "type": "Feature", "properties": {"collection_times": [{"days": "Mon-Fri", "time": "5:00pm"}, {"days": "Sat", "time": "4:00pm"}, {"days": "Sun", "time": "Closed"}], "id": "9361200074", "name": "USPS COLLECTION BOX - BLUE BOX", "address": {"city": "CLOVIS", "state": "CA", "street": "655 MINNEWAWA AVE", "postcode": "93612"}}},
{"geometry": {"type": "Point", "coordinates": [-119.6963255513, 36.8012479928]}, "type": "Feature", "properties": {"collection_times": [{"days": "Mon-Fri", "time": "4:30pm"}, {"days": "Sat", "time": "3:30pm"}, {"days": "Sun", "time": "Closed"}], "id": "9361200075", "name": "USPS COLLECTION BOX - BLUE BOX", "address": {"city": "CLOVIS", "state": "CA", "street": "1030 GETTYSBURG AVE", "postcode": "93612"}}},
{"geometry": {"type": "Point", "coordinates": [-119.708850988, 36.822345063]}, "type": "Feature", "properties": {"collection_times": [{"days": "Mon-Fri", "time": "5:00pm"}, {"days": "Sat", "time": "4:00pm"}, {"days": "Sun", "time": "Closed"}], "id": "9361200076", "name": "USPS COLLECTION BOX - APC", "address": {"city": "CLOVIS", "state": "CA", "street": "655 MINNEWAWA AVE", "postcode": "93612"}}},
{"geometry": {"type": "Point", "coordinates": [-119.766634071, 37.1853932519]}, "type": "Feature", "properties": {"collection_times": [{"days": "Mon-Fri", "time": "11:30am"}, {"days": "Sat-Sun", "time": "Closed"}], "id": "9361400002", "name": "USPS COLLECTION BOX - BLUE BOX", "address": {"city": "COARSEGOLD", "state": "CA", "street": "30250 YOSEMITE SPRINGS PKWY", "postcode": "93614"}}},
{"geometry": {"type": "Point", "coordinates": [-119.692665752, 37.2645964766]}, "type": "Feature", "properties": {"collection_times": [{"days": "Mon-Fri", "time": "4:00pm"}, {"days": "Sat", "time": "12:00pm"}, {"days": "Sun", "time": "Closed"}], "id": "9361400003", "name": "USPS COLLECTION BOX - BLUE BOX", "address": {"city": "COARSEGOLD", "state": "CA", "street": "46944 PONY EXPRESS LN", "postcode": "93614"}}},
{"geometry": {"type": "Point", "coordinates": [-119.8085272024, 37.1651044135]}, "type": "Feature", "properties": {"collection_times": [{"days": "Mon-Fri", "time": "10:45am"}, {"days": "Sat-Sun", "time": "Closed"}], "id": "9361400004", "name": "USPS COLLECTION BOX - BLUE BOX", "address": {"city": "COARSEGOLD", "state": "CA", "street": "43070 LONG HOLLOW DR", "postcode": "93614"}}},
{"geometry": {"type": "Point", "coordinates": [-119.7328683735, 37.2045676052]}, "type": "Feature", "properties": {"collection_times": [{"days": "Mon-Fri", "time": "10:00am"}, {"days": "Sat-Sun", "time": "Closed"}], "id": "9361400005", "name": "USPS COLLECTION BOX - BLUE BOX", "address": {"city": "COARSEGOLD", "state": "CA", "street": "32000 RANGER DR", "postcode": "93614"}}},
{"geometry": {"type": "Point", "coordinates": [-119.7219390578, 37.2085754167]}, "type": "Feature", "properties": {"collection_times": [{"days": "Mon-Fri", "time": "9:45am"}, {"days": "Sat-Sun", "time": "Closed"}], "id": "9361400006", "name": "USPS COLLECTION BOX - BLUE BOX", "address": {"city": "COARSEGOLD", "state": "CA", "street": "45323 PARK SIERRA DR", "postcode": "93614"}}},
{"geometry": {"type": "Point", "coordinates": [-119.7462927187, 37.1599314316]}, "type": "Feature", "properties": {"collection_times": [{"days": "Mon-Fri", "time": "10:00am"}, {"days": "Sat-Sun", "time": "Closed"}], "id": "9361400007", "name": "USPS COLLECTION BOX - BLUE BOX", "address": {"city": "COARSEGOLD", "state": "CA", "street": "28420 YOSEMITE SPRINGS PKWY", "postcode": "93614"}}},
{"geometry": {"type": "Point", "coordinates": [-119.675258686, 37.2667462247]}, "type": "Feature", "properties": {"collection_times": [{"days": "Mon-Fri", "time": "10:30am"}, {"days": "Sat-Sun", "time": "Closed"}], "id": "9361400008", "name": "USPS COLLECTION BOX - BLUE BOX", "address": {"city": "COARSEGOLD", "state": "CA", "street": "35305 HIGHWAY 41", "postcode": "93614"}}},
{"geometry": {"type": "Point", "coordinates": [-119.692665752, 37.2645964766]}, "type": "Feature", "properties": {"collection_times": [{"days": "Mon-Fri", "time": "4:00pm"}, {"days": "Sat", "time": "12:00pm"}, {"days": "Sun", "time": "Closed"}], "id": "9361400009", "name": "USPS COLLECTION BOX - PO LOBBY", "address": {"city": "COARSEGOLD", "state": "CA", "street": "46944 PONY EXPRESS LN", "postcode": "93614"}}},
{"geometry": {"type": "Point", "coordinates": [-119.2877031338, 36.5236347317]}, "type": "Feature", "properties": {"collection_times": [{"days": "Mon-Fri", "time": "4:00pm"}, {"days": "Sat", "time": "1:00pm"}, {"days": "Sun", "time": "Closed"}], "id": "9361500001", "name": "USPS COLLECTION BOX - BLUE BOX", "address": {"city": "CUTLER", "state": "CA", "street": "12749 1ST DR", "postcode": "93615"}}},
{"geometry": {"type": "Point", "coordinates": [-119.2877031338, 36.5236347317]}, "type": "Feature", "properties": {"collection_times": [{"days": "Mon-Fri", "time": "3:30pm"}, {"days": "Sat", "time": "1:00pm"}, {"days": "Sun", "time": "Closed"}], "id": "9361500002", "name": "USPS COLLECTION BOX - PO LOBBY", "address": {"city": "CUTLER", "state": "CA", "street": "12749 1ST DR", "postcode": "93615"}}},
{"geometry": {"type": "Point", "coordinates": [-119.2877031338, 36.5236347317]}, "type": "Feature", "properties": {"collection_times": [{"days": "Mon-Fri", "time": "3:30pm"}, {"days": "Sat", "time": "1:00pm"}, {"days": "Sun", "time": "Closed"}], "id": "9361500003", "name": "USPS COLLECTION BOX - PO LOBBY", "address": {"city": "CUTLER", "state": "CA", "street": "12749 1ST DR", "postcode": "93615"}}},
{"geometry": {"type": "Point", "coordinates": [-119.594441207, 36.6585043954]}, "type": "Feature", "properties": {"collection_times": [{"days": "Mon-Fri", "time": "4:00pm"}, {"days": "Sat", "time": "12:00pm"}, {"days": "Sun", "time": "Closed"}], "id": "9361600000", "name": "USPS COLLECTION BOX - BLUE BOX", "address": {"city": "DEL REY", "state": "CA", "street": "10770 MORRO AVE", "postcode": "93616"}}},
{"geometry": {"type": "Point", "coordinates": [-119.594441207, 36.6585043954]}, "type": "Feature", "properties": {"collection_times": [{"days": "Mon-Fri", "time": "4:00pm"}, {"days": "Sat-Sun", "time": "Closed"}], "id": "9361600001", "name": "USPS COLLECTION BOX - PO LOBBY", "address": {"city": "DEL REY", "state": "CA", "street": "10770 MORRO AVE", "postcode": "93616"}}},
{"geometry": {"type": "Point", "coordinates": [-119.387902124, 36.5404587741]}, "type": "Feature", "properties": {"collection_times": [{"days": "Mon-Fri", "time": "4:45pm"}, {"days": "Sat", "time": "3:00pm"}, {"days": "Sun", "time": "Closed"}], "id": "9361800011", "name": "USPS COLLECTION BOX - BLUE BOX", "address": {"city": "DINUBA", "state": "CA", "street": "222 S K ST", "postcode": "93618"}}},
{"geometry": {"type": "Point", "coordinates": [-119.387902124, 36.5404587741]}, "type": "Feature", "properties": {"collection_times": [{"days": "Mon-Fri", "time": "4:00pm"}, {"days": "Sat", "time": "3:00pm"}, {"days": "Sun", "time": "Closed"}], "id": "9361800013", "name": "USPS COLLECTION BOX - PO LOBBY", "address": {"city": "DINUBA", "state": "CA", "street": "222 S K ST", "postcode": "93618"}}},
{"geometry": {"type": "Point", "coordinates": [-119.387902124, 36.5404587741]}, "type": "Feature", "properties": {"collection_times": [{"days": "Mon-Fri", "time": "4:45pm"}, {"days": "Sat", "time": "3:00pm"}, {"days": "Sun", "time": "Closed"}], "id": "9361800014", "name": "USPS COLLECTION BOX - BLUE BOX", "address": {"city": "DINUBA", "state": "CA", "street": "222 S K ST", "postcode": "93618"}}},
{"geometry": {"type": "Point", "coordinates": [-120.6277909892, 36.9849887281]}, "type": "Feature", "properties": {"collection_times": [{"days": "Mon-Fri", "time": "4:25pm"}, {"days": "Sat", "time": "3:00pm"}, {"days": "Sun", "time": "Closed"}], "id": "9362000001", "name": "USPS COLLECTION BOX - BLUE BOX", "address": {"city": "DOS PALOS", "state": "CA", "street": "1555 GOLDEN GATE AVE", "postcode": "93620"}}},
{"geometry": {"type": "Point", "coordinates": [-120.6277909892, 36.9849887281]}, "type": "Feature", "properties": {"collection_times": [{"days": "Mon-Fri", "time": "4:00pm"}, {"days": "Sat", "time": "3:00pm"}, {"days": "Sun", "time": "Closed"}], "id": "9362000005", "name": "USPS COLLECTION BOX - PO LOBBY", "address": {"city": "DOS PALOS", "state": "CA", "street": "1555 GOLDEN GATE AVE", "postcode": "93620"}}},
{"geometry": {"type": "Point", "coordinates": [-119.1172410199, 36.7351284759]}, "type": "Feature", "properties": {"collection_times": [{"days": "Mon-Fri", "time": "1:30pm"}, {"days": "Sat", "time": "10:00am"}, {"days": "Sun", "time": "Closed"}], "id": "9362100001", "name": "USPS COLLECTION BOX - BLUE BOX", "address": {"city": "DUNLAP", "state": "CA", "street": "39400 DUNLAP RD", "postcode": "93621"}}},
{"geometry": {"type": "Point", "coordinates": [-119.1124983844, 36.760827887]}, "type": "Feature", "properties": {"collection_times": [{"days": "Mon-Fri", "time": "10:00am"}, {"days": "Sat-Sun", "time": "Closed"}], "id": "9362100002", "name": "USPS COLLECTION BOX - BLUE BOX", "address": {"city": "DUNLAP", "state": "CA", "street": "35671 E KINGS CANYON RD", "postcode": "93621"}}},
{"geometry": {"type": "Point", "coordinates": [-119.1172410199, 36.7351284759]}, "type": "Feature", "properties": {"collection_times": [{"days": "Mon-Fri", "time": "1:30pm"}, {"days": "Sat", "time": "10:00am"}, {"days": "Sun", "time": "Closed"}], "id": "9362100003", "name": "USPS COLLECTION BOX - PO LOBBY", "address": {"city": "DUNLAP", "state": "CA", "street": "39400 DUNLAP RD", "postcode": "93621"}}},
{"geometry": {"type": "Point", "coordinates": [-120.4560952033, 36.8590349863]}, "type": "Feature", "properties": {"collection_times": [{"days": "Mon-Fri", "time": "4:15pm"}, {"days": "Sat", "time": "3:00pm"}, {"days": "Sun", "time": "Closed"}], "id": "9362200007", "name": "USPS COLLECTION BOX - BLUE BOX", "address": {"city": "FIREBAUGH", "state": "CA", "street": "1580 11TH ST", "postcode": "93622"}}},
{"geometry": {"type": "Point", "coordinates": [-120.4560952033, 36.8590349863]}, "type": "Feature", "properties": {"collection_times": [{"days": "Mon-Fri", "time": "4:15pm"}, {"days": "Sat", "time": "3:00pm"}, {"days": "Sun", "time": "Closed"}], "id": "9362200010", "name": "USPS COLLECTION BOX - PO LOBBY", "address": {"city": "FIREBAUGH", "state": "CA", "street": "1580 11TH ST", "postcode": "93622"}}},
{"geometry": {"type": "Point", "coordinates": [-119.6506177084, 37.4982211347]}, "type": "Feature", "properties": {"collection_times": [{"days": "Mon-Fri", "time": "12:00pm"}, {"days": "Sat", "time": "10:00am"}, {"days": "Sun", "time": "Closed"}], "id": "9362300000", "name": "USPS COLLECTION BOX - PO LOBBY", "address": {"city": "FISH CAMP", "state": "CA", "street": "7733 FISH CAMP LN", "postcode": "93623"}}},
{"geometry": {"type": "Point", "coordinates": [-119.6506177084, 37.4982211347]}, "type": "Feature", "properties": {"collection_times": [{"days": "Mon-Fri", "time": "12:00pm"}, {"days": "Sat", "time": "10:00am"}, {"days": "Sun", "time": "Closed"}], "id": "9362300001", "name": "USPS COLLECTION BOX - PO LOBBY", "address": {"city": "FISH CAMP", "state": "CA", "street": "7733 FISH CAMP LN", "postcode": "93623"}}},
{"geometry": {"type": "Point", "coordinates": [-120.1030752203, 36.4292239121]}, "type": "Feature", "properties": {"collection_times": [{"days": "Mon-Fri", "time": "4:00pm"}, {"days": "Sat", "time": "9:15am"}, {"days": "Sun", "time": "Closed"}], "id": "9362400001", "name": "USPS COLLECTION BOX - BLUE BOX", "address": {"city": "FIVE POINTS", "state": "CA", "street": "21074 S LASSEN AVE", "postcode": "93624"}}},
{"geometry": {"type": "Point", "coordinates": [-120.1030752203, 36.4292239121]}, "type": "Feature", "properties": {"collection_times": [{"days": "Mon-Fri", "time": "4:00pm"}, {"days": "Sat", "time": "9:15am"}, {"days": "Sun", "time": "Closed"}], "id": "9362400002", "name": "USPS COLLECTION BOX - PO LOBBY", "address": {"city": "FIVE POINTS", "state": "CA", "street": "21074 S LASSEN AVE", "postcode": "93624"}}},
{"geometry": {"type": "Point", "coordinates": [-119.6806658898, 36.6291647715]}, "type": "Feature", "properties": {"collection_times": [{"days": "Mon-Fri", "time": "5:00pm"}, {"days": "Sat", "time": "2:30pm"}, {"days": "Sun", "time": "Closed"}], "id": "9362500001", "name": "USPS COLLECTION BOX - BLUE BOX", "address": {"city": "FOWLER", "state": "CA", "street": "19 E MERCED ST", "postcode": "93625"}}},
{"geometry": {"type": "Point", "coordinates": [-119.6806658898, 36.6291647715]}, "type": "Feature", "properties": {"collection_times": [{"days": "Mon-Fri", "time": "5:00pm"}, {"days": "Sat", "time": "2:30pm"}, {"days": "Sun", "time": "Closed"}], "id": "9362500002", "name": "USPS COLLECTION BOX - BLUE BOX", "address": {"city": "FOWLER", "state": "CA", "street": "19 E MERCED ST", "postcode": "93625"}}},
{"geometry": {"type": "Point", "coordinates": [-119.6806658898, 36.6291647715]}, "type": "Feature", "properties": {"collection_times": [{"days": "Mon-Fri", "time": "4:00pm"}, {"days": "Sat", "time": "2:30pm"}, {"days": "Sun", "time": "Closed"}], "id": "9362500004", "name": "USPS COLLECTION BOX - PO LOBBY", "address": {"city": "FOWLER", "state": "CA", "street": "19 E MERCED ST", "postcode": "93625"}}},
{"geometry": {"type": "Point", "coordinates": [-119.6806658898, 36.6291647715]}, "type": "Feature", "properties": {"collection_times": [{"days": "Mon-Fri", "time": "4:00pm"}, {"days": "Sat", "time": "2:30pm"}, {"days": "Sun", "time": "Closed"}], "id": "9362500005", "name": "USPS COLLECTION BOX - PO LOBBY", "address": {"city": "FOWLER", "state": "CA", "street": "19 E MERCED ST", "postcode": "93625"}}},
{"geometry": {"type": "Point", "coordinates": [-119.7115392369, 36.990276167]}, "type": "Feature", "properties": {"collection_times": [{"days": "Mon-Fri", "time": "3:15pm"}, {"days": "Sat", "time": "10:00am"}, {"days": "Sun", "time": "Closed"}], "id": "9362600001", "name": "USPS COLLECTION BOX - BLUE BOX", "address": {"city": "FRIANT", "state": "CA", "street": "17275 N FRIANT RD", "postcode": "93626"}}},
{"geometry": {"type": "Point", "coordinates": [-120.0979223664, 36.5332417874]}, "type": "Feature", "properties": {"collection_times": [{"days": "Mon-Fri", "time": "3:00pm"}, {"days": "Sat", "time": "9:00am"}, {"days": "Sun", "time": "Closed"}], "id": "9362700000", "name": "USPS COLLECTION BOX - BLUE BOX", "address": {"city": "HELM", "state": "CA", "street": "13883 S LASSEN AVE", "postcode": "93627"}}},
{"geometry": {"type": "Point", "coordinates": [-120.0979223664, 36.5332417874]}, "type": "Feature", "properties": {"collection_times": [{"days": "Mon-Fri", "time": "2:45pm"}, {"days": "Sat", "time": "9:00am"}, {"days": "Sun", "time": "Closed"}], "id": "9362700001", "name": "USPS COLLECTION BOX - PO LOBBY", "address": {"city": "HELM", "state": "CA", "street": "13883 S LASSEN AVE", "postcode": "93627"}}},
{"geometry": {"type": "Point", "coordinates": [-120.0592502363, 36.7236787498]}, "type": "Feature", "properties": {"collection_times": [{"days": "Mon-Fri", "time": "5:00pm"}, {"days": "Sat", "time": "2:30pm"}, {"days": "Sun", "time": "Closed"}], "id": "9363000002", "name": "USPS COLLECTION BOX - BLUE BOX", "address": {"city": "KERMAN", "state": "CA", "street": "14920 W D ST", "postcode": "93630"}}},
{"geometry": {"type": "Point", "coordinates": [-120.0592502363, 36.7236787498]}, "type": "Feature", "properties": {"collection_times": [{"days": "Mon-Fri", "time": "5:00pm"}, {"days": "Sat", "time": "2:30pm"}, {"days": "Sun", "time": "Closed"}], "id": "9363000003", "name": "USPS COLLECTION BOX - PO LOBBY", "address": {"city": "KERMAN", "state": "CA", "street": "14920 W D ST", "postcode": "93630"}}},
{"geometry": {"type": "Point", "coordinates": [-120.0592502363, 36.7236787498]}, "type": "Feature", "properties": {"collection_times": [{"days": "Mon-Fri", "time": "5:00pm"}, {"days": "Sat", "time": "2:30pm"}, {"days": "Sun", "time": "Closed"}], "id": "9363000004", "name": "USPS COLLECTION BOX - PO LOBBY", "address": {"city": "KERMAN", "state": "CA", "street": "14920 W D ST", "postcode": "93630"}}},
{"geometry": {"type": "Point", "coordinates": [-119.5518020572, 36.5153841521]}, "type": "Feature", "properties": {"collection_times": [{"days": "Mon-Fri", "time": "4:00pm"}, {"days": "Sat", "time": "12:15pm"}, {"days": "Sun", "time": "Closed"}], "id": "9363100002", "name": "USPS COLLECTION BOX - BLUE BOX", "address": {"city": "KINGSBURG", "state": "CA", "street": "1490 DRAPER ST", "postcode": "93631"}}},
{"geometry": {"type": "Point", "coordinates": [-119.5517997122, 36.5137307766]}, "type": "Feature", "properties": {"collection_times": [{"days": "Mon-Fri", "time": "4:15pm"}, {"days": "Sat", "time": "1:00pm"}, {"days": "Sun", "time": "Closed"}], "id": "9363100005", "name": "USPS COLLECTION BOX - BLUE BOX", "address": {"city": "KINGSBURG", "state": "CA", "street": "1401 MARION ST", "postcode": "93631"}}},
{"geometry": {"type": "Point", "coordinates": [-119.5517997122, 36.5137307766]}, "type": "Feature", "properties": {"collection_times": [{"days": "Mon-Fri", "time": "4:15pm"}, {"days": "Sat", "time": "1:00pm"}, {"days": "Sun", "time": "Closed"}], "id": "9363100006", "name": "USPS COLLECTION BOX - BLUE BOX", "address": {"city": "KINGSBURG", "state": "CA", "street": "1401 MARION ST", "postcode": "93631"}}},
{"geometry": {"type": "Point", "coordinates": [-119.5517997122, 36.5137307766]}, "type": "Feature", "properties": {"collection_times": [{"days": "Mon-Fri", "time": "4:15pm"}, {"days": "Sat", "time": "1:00pm"}, {"days": "Sun", "time": "Closed"}], "id": "9363100007", "name": "USPS COLLECTION BOX - BLUE BOX", "address": {"city": "KINGSBURG", "state": "CA", "street": "1401 MARION ST", "postcode": "93631"}}},
{"geometry": {"type": "Point", "coordinates": [-119.5517997122, 36.5137307766]}, "type": "Feature", "properties": {"collection_times": [{"days": "Mon-Fri", "time": "4:15pm"}, {"days": "Sat", "time": "1:00pm"}, {"days": "Sun", "time": "Closed"}], "id": "9363100008", "name": "USPS COLLECTION BOX - BLUE BOX", "address": {"city": "KINGSBURG", "state": "CA", "street": "1401 MARION ST", "postcode": "93631"}}},
{"geometry": {"type": "Point", "coordinates": [-119.5517997122, 36.5137307766]}, "type": "Feature", "properties": {"collection_times": [{"days": "Mon-Fri", "time": "4:00pm"}, {"days": "Sat", "time": "11:30am"}, {"days": "Sun", "time": "Closed"}], "id": "9363100009", "name": "USPS COLLECTION BOX - PO LOBBY", "address": {"city": "KINGSBURG", "state": "CA", "street": "1401 MARION ST", "postcode": "93631"}}},
{"geometry": {"type": "Point", "coordinates": [-119.5517997122, 36.5137307766]}, "type": "Feature", "properties": {"collection_times": [{"days": "Mon-Fri", "time": "4:00pm"}, {"days": "Sat", "time": "11:30am"}, {"days": "Sun", "time": "Closed"}], "id": "9363100010", "name": "USPS COLLECTION BOX - PO LOBBY", "address": {"city": "KINGSBURG", "state": "CA", "street": "1401 MARION ST", "postcode": "93631"}}},
{"geometry": {"type": "Point", "coordinates": [-119.5517997122, 36.5137307766]}, "type": "Feature", "properties": {"collection_times": [{"days": "Mon-Fri", "time": "4:00pm"}, {"days": "Sat", "time": "11:30am"}, {"days": "Sun", "time": "Closed"}], "id": "9363100011", "name": "USPS COLLECTION BOX - PO LOBBY", "address": {"city": "KINGSBURG", "state": "CA", "street": "1401 MARION ST", "postcode": "93631"}}},
{"geometry": {"type": "Point", "coordinates": [-119.5517997122, 36.5137307766]}, "type": "Feature", "properties": {"collection_times": [{"days": "Mon-Fri", "time": "4:00pm"}, {"days": "Sat", "time": "11:30am"}, {"days": "Sun", "time": "Closed"}], "id": "9363100012", "name": "USPS COLLECTION BOX - PO LOBBY", "address": {"city": "KINGSBURG", "state": "CA", "street": "1401 MARION ST", "postcode": "93631"}}},
{"geometry": {"type": "Point", "coordinates": [-119.1858476735, 37.2497215737]}, "type": "Feature", "properties": {"collection_times": [{"days": "Mon-Fri", "time": "1:00pm"}, {"days": "Sat", "time": "11:30am"}, {"days": "Sun", "time": "Closed"}], "id": "9363400000", "name": "USPS COLLECTION BOX - PO LOBBY", "address": {"city": "SHAVER LAKE", "state": "CA", "street": "62804 HUNTINGTON LAKE RD", "postcode": "93634"}}},
{"geometry": {"type": "Point", "coordinates": [-119.1858476735, 37.2497215737]}, "type": "Feature", "properties": {"collection_times": [{"days": "Mon-Fri", "time": "1:00pm"}, {"days": "Sat", "time": "11:30am"}, {"days": "Sun", "time": "Closed"}], "id": "9363400001", "name": "USPS COLLECTION BOX - BLUE BOX", "address": {"city": "SHAVER LAKE", "state": "CA", "street": "62804 HUNTINGTON LAKE RD", "postcode": "93634"}}},
{"geometry": {"type": "Point", "coordinates": [-120.8497625924, 37.0582470109]}, "type": "Feature", "properties": {"collection_times": [{"days": "Mon-Sat", "time": "4:30pm"}, {"days": "Sun", "time": "Closed"}], "id": "9363500024", "name": "USPS COLLECTION BOX - PO LOBBY", "address": {"city": "LOS BANOS", "state": "CA", "street": "1135 6TH ST", "postcode": "93635"}}},
{"geometry": {"type": "Point", "coordinates": [-120.8497625924, 37.0582470109]}, "type": "Feature", "properties": {"collection_times": [{"days": "Mon-Sat", "time": "4:15pm"}, {"days": "Sun", "time": "Closed"}], "id": "9363500026", "name": "USPS COLLECTION BOX - BLUE BOX", "address": {"city": "LOS BANOS", "state": "CA", "street": "1135 6TH ST", "postcode": "93635"}}},
{"geometry": {"type": "Point", "coordinates": [-120.0632668305, 36.9692242626]}, "type": "Feature", "properties": {"collection_times": [{"days": "Mon-Fri", "time": "3:00pm"}, {"days": "Sat-Sun", "time": "Closed"}], "id": "9363800008", "name": "USPS COLLECTION BOX - BLUE BOX", "address": {"city": "MADERA", "state": "CA", "street": "748 N D ST", "postcode": "93638"}}},
{"geometry": {"type": "Point", "coordinates": [-120.0741171994, 36.9969100852]}, "type": "Feature", "properties": {"collection_times": [{"days": "Mon-Fri", "time": "3:00pm"}, {"days": "Sat-Sun", "time": "Closed"}], "id": "9363800016", "name": "USPS COLLECTION BOX - BLUE BOX", "address": {"city": "MADERA", "state": "CA", "street": "17035 ROAD 26", "postcode": "93638"}}},
{"geometry": {"type": "Point", "coordinates": [-120.0574357654, 36.9616892748]}, "type": "Feature", "properties": {"collection_times": [{"days": "Mon-Fri", "time": "5:00pm"}, {"days": "Sat", "time": "3:00pm"}, {"days": "Sun", "time": "Closed"}], "id": "9363800018", "name": "USPS COLLECTION BOX - BLUE BOX", "address": {"city": "MADERA", "state": "CA", "street": "201 S D ST", "postcode": "93638"}}},
{"geometry": {"type": "Point", "coordinates": [-119.8721765807, 36.9230807137]}, "type": "Feature", "properties": {"collection_times": [{"days": "Mon-Sat", "time": "12:45pm"}, {"days": "Sun", "time": "Closed"}], "id": "9363800022", "name": "USPS COLLECTION BOX - BLUE BOX", "address": {"city": "MADERA", "state": "CA", "street": "37221 AVENUE 12", "postcode": "93638"}}},
{"geometry": {"type": "Point", "coordinates": [-120.0618378912, 36.9703166756]}, "type": "Feature", "properties": {"collection_times": [{"days": "Mon-Fri", "time": "3:00pm"}, {"days": "Sat-Sun", "time": "Closed"}], "id": "9363800024", "name": "USPS COLLECTION BOX - BLUE BOX", "address": {"city": "MADERA", "state": "CA", "street": "516 S \"I\" ST", "postcode": "93638"}}},
{"geometry": {"type": "Point", "coordinates": [-120.079249527, 36.9526765153]}, "type": "Feature", "properties": {"collection_times": [{"days": "Mon-Fri", "time": "3:00pm"}, {"days": "Sat-Sun", "time": "Closed"}], "id": "9363800027", "name": "USPS COLLECTION BOX - BLUE BOX", "address": {"city": "MADERA", "state": "CA", "street": "1820 HOWARD RD", "postcode": "93638"}}},
{"geometry": {"type": "Point", "coordinates": [-120.1360751879, 37.0182913874]}, "type": "Feature", "properties": {"collection_times": [{"days": "Mon-Sat", "time": "9:00am"}, {"days": "Sun", "time": "Closed"}], "id": "9363800028", "name": "USPS COLLECTION BOX - BLUE BOX", "address": {"city": "MADERA", "state": "CA", "street": "22717 AVENUE 18 1/2", "postcode": "93638"}}},
{"geometry": {"type": "Point", "coordinates": [-120.0574357654, 36.9616892748]}, "type": "Feature", "properties": {"collection_times": [{"days": "Mon-Fri", "time": "5:00pm"}, {"days": "Sat", "time": "3:00pm"}, {"days": "Sun", "time": "Closed"}], "id": "9363800031", "name": "USPS COLLECTION BOX - BLUE BOX", "address": {"city": "MADERA", "state": "CA", "street": "201 S D ST", "postcode": "93638"}}},
{"geometry": {"type": "Point", "coordinates": [-120.0574357654, 36.9616892748]}, "type": "Feature", "properties": {"collection_times": [{"days": "Mon-Fri", "time": "5:00pm"}, {"days": "Sat", "time": "3:00pm"}, {"days": "Sun", "time": "Closed"}], "id": "9363800032", "name": "USPS COLLECTION BOX - BLUE BOX", "address": {"city": "MADERA", "state": "CA", "street": "201 S D ST", "postcode": "93638"}}},
{"geometry": {"type": "Point", "coordinates": [-120.0705560523, 36.9630191642]}, "type": "Feature", "properties": {"collection_times": [{"days": "Mon-Fri", "time": "3:00pm"}, {"days": "Sat-Sun", "time": "Closed"}], "id": "9363800036", "name": "USPS COLLECTION BOX - BLUE BOX", "address": {"city": "MADERA", "state": "CA", "street": "153 N PARK DR", "postcode": "93638"}}},
{"geometry": {"type": "Point", "coordinates": [-120.0574357654, 36.9616892748]}, "type": "Feature", "properties": {"collection_times": [{"days": "Mon-Fri", "time": "5:00pm"}, {"days": "Sat", "time": "3:00pm"}, {"days": "Sun", "time": "Closed"}], "id": "9363800037", "name": "USPS COLLECTION BOX - PO LOBBY", "address": {"city": "MADERA", "state": "CA", "street": "201 S D ST", "postcode": "93638"}}},
{"geometry": {"type": "Point", "coordinates": [-120.0740681613, 36.9757939948]}, "type": "Feature", "properties": {"collection_times": [{"days": "Mon-Fri", "time": "3:00pm"}, {"days": "Sat-Sun", "time": "Closed"}], "id": "9363800040", "name": "USPS COLLECTION BOX - BLUE BOX", "address": {"city": "MADERA", "state": "CA", "street": "1157 COUNTRY CLUB DR", "postcode": "93638"}}},
{"geometry": {"type": "Point", "coordinates": [-120.074324111, 36.9988098623]}, "type": "Feature", "properties": {"collection_times": [{"days": "Mon-Fri", "time": "3:00pm"}, {"days": "Sat", "time": "2:00pm"}, {"days": "Sun", "time": "Closed"}], "id": "9363800045", "name": "USPS COLLECTION BOX - BLUE BOX", "address": {"city": "MADERA", "state": "CA", "street": "17170 ROAD 26", "postcode": "93638"}}},
{"geometry": {"type": "Point", "coordinates": [-120.3805903969, 36.7555999114]}, "type": "Feature", "properties": {"collection_times": [{"days": "Mon-Fri", "time": "4:30pm"}, {"days": "Sat", "time": "3:00pm"}, {"days": "Sun", "time": "Closed"}], "id": "9364000001", "name": "USPS COLLECTION BOX - BLUE BOX", "address": {"city": "MENDOTA", "state": "CA", "street": "655 OLLER ST", "postcode": "93640"}}},
{"geometry": {"type": "Point", "coordinates": [-120.3805903969, 36.7555999114]}, "type": "Feature", "properties": {"collection_times": [{"days": "Mon-Fri", "time": "4:30pm"}, {"days": "Sat", "time": "3:00pm"}, {"days": "Sun", "time": "Closed"}], "id": "9364000005", "name": "USPS COLLECTION BOX - PO LOBBY", "address": {"city": "MENDOTA", "state": "CA", "street": "655 OLLER ST", "postcode": "93640"}}},
{"geometry": {"type": "Point", "coordinates": [-120.3805903969, 36.7555999114]}, "type": "Feature", "properties": {"collection_times": [{"days": "Mon-Fri", "time": "4:30pm"}, {"days": "Sat", "time": "3:00pm"}, {"days": "Sun", "time": "Closed"}], "id": "9364000006", "name": "USPS COLLECTION BOX - PO LOBBY", "address": {"city": "MENDOTA", "state": "CA", "street": "655 OLLER ST", "postcode": "93640"}}},
{"geometry": {"type": "Point", "coordinates": [-119.0159216788, 36.6971336885]}, "type": "Feature", "properties": {"collection_times": [{"days": "Mon-Fri", "time": "11:30am"}, {"days": "Sat-Sun", "time": "Closed"}], "id": "9364100002", "name": "USPS COLLECTION BOX - BLUE BOX", "address": {"city": "MIRAMONTE", "state": "CA", "street": "53830 N HIGHWAY 245", "postcode": "93641"}}},
{"geometry": {"type": "Point", "coordinates": [-119.0389157422, 36.6839869259]}, "type": "Feature", "properties": {"collection_times": [{"days": "Mon-Fri", "time": "1:25pm"}, {"days": "Sat", "time": "9:00am"}, {"days": "Sun", "time": "Closed"}], "id": "9364100004", "name": "USPS COLLECTION BOX - PO LOBBY", "address": {"city": "MIRAMONTE", "state": "CA", "street": "46039 DUNLAP RD", "postcode": "93641"}}},
{"geometry": {"type": "Point", "coordinates": [-119.0460949973, 36.6973004698]}, "type": "Feature", "properties": {"collection_times": [{"days": "Mon-Fri", "time": "10:00am"}, {"days": "Sat-Sun", "time": "Closed"}], "id": "9364100006", "name": "USPS COLLECTION BOX - BLUE BOX", "address": {"city": "MIRAMONTE", "state": "CA", "street": "57611 ESHOM VALLEY DR", "postcode": "93641"}}},
{"geometry": {"type": "Point", "coordinates": [-119.0239376906, 36.6817124297]}, "type": "Feature", "properties": {"collection_times": [{"days": "Mon-Fri", "time": "10:30am"}, {"days": "Sat-Sun", "time": "Closed"}], "id": "9364100008", "name": "USPS COLLECTION BOX - BLUE BOX", "address": {"city": "MIRAMONTE", "state": "CA", "street": "64144 HUME LAKE RD", "postcode": "93641"}}},
{"geometry": {"type": "Point", "coordinates": [-119.5095303976, 37.2228043058]}, "type": "Feature", "properties": {"collection_times": [{"days": "Mon-Fri", "time": "3:00pm"}, {"days": "Sat", "time": "11:00am"}, {"days": "Sun", "time": "Closed"}], "id": "9364300000", "name": "USPS COLLECTION BOX - BLUE BOX", "address": {"city": "NORTH FORK", "state": "CA", "street": "33173 ROAD 222", "postcode": "93643"}}},
{"geometry": {"type": "Point", "coordinates": [-119.5095303976, 37.2228043058]}, "type": "Feature", "properties": {"collection_times": [{"days": "Mon-Fri", "time": "3:15pm"}, {"days": "Sat", "time": "11:00am"}, {"days": "Sun", "time": "Closed"}], "id": "9364300001", "name": "USPS COLLECTION BOX - PO LOBBY", "address": {"city": "NORTH FORK", "state": "CA", "street": "33173 ROAD 222", "postcode": "93643"}}},
{"geometry": {"type": "Point", "coordinates": [-119.5095303976, 37.2228043058]}, "type": "Feature", "properties": {"collection_times": [{"days": "Mon-Fri", "time": "3:15pm"}, {"days": "Sat", "time": "11:00am"}, {"days": "Sun", "time": "Closed"}], "id": "9364300002", "name": "USPS COLLECTION BOX - PO LOBBY", "address": {"city": "NORTH FORK", "state": "CA", "street": "33173 ROAD 222", "postcode": "93643"}}},
{"geometry": {"type": "Point", "coordinates": [-119.5095303976, 37.2228043058]}, "type": "Feature", "properties": {"collection_times": [{"days": "Mon-Fri", "time": "3:15pm"}, {"days": "Sat", "time": "11:00am"}, {"days": "Sun", "time": "Closed"}], "id": "9364300003", "name": "USPS COLLECTION BOX - PO LOBBY", "address": {"city": "NORTH FORK", "state": "CA", "street": "33173 ROAD 222", "postcode": "93643"}}},
{"geometry": {"type": "Point", "coordinates": [-119.659484575, 37.3332012393]}, "type": "Feature", "properties": {"collection_times": [{"days": "Mon-Sat", "time": "9:45am"}, {"days": "Sun", "time": "Closed"}], "id": "9364400002", "name": "USPS COLLECTION BOX - BLUE BOX", "address": {"city": "OAKHURST", "state": "CA", "street": "40041 HIGHWAY 49", "postcode": "93644"}}},
{"geometry": {"type": "Point", "coordinates": [-119.6481243253, 37.3281506851]}, "type": "Feature", "properties": {"collection_times": [{"days": "Mon-Sat", "time": "10:15am"}, {"days": "Sun", "time": "Closed"}], "id": "9364400004", "name": "USPS COLLECTION BOX - BLUE BOX", "address": {"city": "OAKHURST", "state": "CA", "street": "49165 ROAD 426", "postcode": "93644"}}},
{"geometry": {"type": "Point", "coordinates": [-119.6616809632, 37.3347771068]}, "type": "Feature", "properties": {"collection_times": [{"days": "Mon-Fri", "time": "3:30pm"}, {"days": "Sat", "time": "12:00pm"}, {"days": "Sun", "time": "Closed"}], "id": "9364400006", "name": "USPS COLLECTION BOX - BLUE BOX", "address": {"city": "OAKHURST", "state": "CA", "street": "40064 HIGHWAY 49", "postcode": "93644"}}},
{"geometry": {"type": "Point", "coordinates": [-119.6616809632, 37.3347771068]}, "type": "Feature", "properties": {"collection_times": [{"days": "Mon-Fri", "time": "3:30pm"}, {"days": "Sat", "time": "12:00pm"}, {"days": "Sun", "time": "Closed"}], "id": "9364400007", "name": "USPS COLLECTION BOX - BLUE BOX", "address": {"city": "OAKHURST", "state": "CA", "street": "40064 HIGHWAY 49", "postcode": "93644"}}},
{"geometry": {"type": "Point", "coordinates": [-119.6616809632, 37.3347771068]}, "type": "Feature", "properties": {"collection_times": [{"days": "Mon-Fri", "time": "3:30pm"}, {"days": "Sat", "time": "12:00pm"}, {"days": "Sun", "time": "Closed"}], "id": "9364400010", "name": "USPS COLLECTION BOX - PO LOBBY", "address": {"city": "OAKHURST", "state": "CA", "street": "40064 HIGHWAY 49", "postcode": "93644"}}},
{"geometry": {"type": "Point", "coordinates": [-119.6616809632, 37.3347771068]}, "type": "Feature", "properties": {"collection_times": [{"days": "Mon-Fri", "time": "3:30pm"}, {"days": "Sat", "time": "12:00pm"}, {"days": "Sun", "time": "Closed"}], "id": "9364400011", "name": "USPS COLLECTION BOX - PO LOBBY", "address": {"city": "OAKHURST", "state": "CA", "street": "40064 HIGHWAY 49", "postcode": "93644"}}},
{"geometry": {"type": "Point", "coordinates": [-119.6616809632, 37.3347771068]}, "type": "Feature", "properties": {"collection_times": [{"days": "Mon-Fri", "time": "3:30pm"}, {"days": "Sat", "time": "12:00pm"}, {"days": "Sun", "time": "Closed"}], "id": "9364400012", "name": "USPS COLLECTION BOX - PO LOBBY", "address": {"city": "OAKHURST", "state": "CA", "street": "40064 HIGHWAY 49", "postcode": "93644"}}},
{"geometry": {"type": "Point", "coordinates": [-119.6947439508, 37.1281332706]}, "type": "Feature", "properties": {"collection_times": [{"days": "Mon-Fri", "time": "3:15pm"}, {"days": "Sat", "time": "11:00am"}, {"days": "Sun", "time": "Closed"}], "id": "9364500001", "name": "USPS COLLECTION BOX - BLUE BOX", "address": {"city": "ONEALS", "state": "CA", "street": "47065 ROAD 201", "postcode": "93645"}}},
{"geometry": {"type": "Point", "coordinates": [-119.6947439508, 37.1281332706]}, "type": "Feature", "properties": {"collection_times": [{"days": "Mon-Fri", "time": "3:15pm"}, {"days": "Sat", "time": "11:00am"}, {"days": "Sun", "time": "Closed"}], "id": "9364500002", "name": "USPS COLLECTION BOX - PO LOBBY", "address": {"city": "ONEALS", "state": "CA", "street": "47065 ROAD 201", "postcode": "93645"}}},
{"geometry": {"type": "Point", "coordinates": [-119.3116961403, 36.6246183273]}, "type": "Feature", "properties": {"collection_times": [{"days": "Mon-Fri", "time": "3:55pm"}, {"days": "Sat", "time": "3:00pm"}, {"days": "Sun", "time": "Closed"}], "id": "9364600002", "name": "USPS COLLECTION BOX - BLUE BOX", "address": {"city": "ORANGE COVE", "state": "CA", "street": "550 PARK BLVD", "postcode": "93646"}}},
{"geometry": {"type": "Point", "coordinates": [-119.3116961403, 36.6246183273]}, "type": "Feature", "properties": {"collection_times": [{"days": "Mon-Fri", "time": "3:30pm"}, {"days": "Sat", "time": "3:00pm"}, {"days": "Sun", "time": "Closed"}], "id": "9364600003", "name": "USPS COLLECTION BOX - PO LOBBY", "address": {"city": "ORANGE COVE", "state": "CA", "street": "550 PARK BLVD", "postcode": "93646"}}},
{"geometry": {"type": "Point", "coordinates": [-119.2869016737, 36.539918426]}, "type": "Feature", "properties": {"collection_times": [{"days": "Mon-Fri", "time": "4:15pm"}, {"days": "Sat", "time": "1:00pm"}, {"days": "Sun", "time": "Closed"}], "id": "9364700001", "name": "USPS COLLECTION BOX - BLUE BOX", "address": {"city": "OROSI", "state": "CA", "street": "41323 ROAD 128", "postcode": "93647"}}},
{"geometry": {"type": "Point", "coordinates": [-119.2869016737, 36.539918426]}, "type": "Feature", "properties": {"collection_times": [{"days": "Mon-Fri", "time": "4:15pm"}, {"days": "Sat", "time": "1:00pm"}, {"days": "Sun", "time": "Closed"}], "id": "9364700002", "name": "USPS COLLECTION BOX - PO LOBBY", "address": {"city": "OROSI", "state": "CA", "street": "41323 ROAD 128", "postcode": "93647"}}},
{"geometry": {"type": "Point", "coordinates": [-119.5329496748, 36.6116884606]}, "type": "Feature", "properties": {"collection_times": [{"days": "Mon-Fri", "time": "4:15pm"}, {"days": "Sat", "time": "1:00pm"}, {"days": "Sun", "time": "Closed"}], "id": "9364800002", "name": "USPS COLLECTION BOX - BLUE BOX", "address": {"city": "PARLIER", "state": "CA", "street": "850 E PARLIER AVE", "postcode": "93648"}}},
{"geometry": {"type": "Point", "coordinates": [-119.5329496748, 36.6116884606]}, "type": "Feature", "properties": {"collection_times": [{"days": "Mon-Fri", "time": "4:15pm"}, {"days": "Sat", "time": "1:00pm"}, {"days": "Sun", "time": "Closed"}], "id": "9364800003", "name": "USPS COLLECTION BOX - PO LOBBY", "address": {"city": "PARLIER", "state": "CA", "street": "850 E PARLIER AVE", "postcode": "93648"}}},
{"geometry": {"type": "Point", "coordinates": [-119.4491830716, 36.5974320705]}, "type": "Feature", "properties": {"collection_times": [{"days": "Mon-Sat", "time": "11:30am"}, {"days": "Sun", "time": "Closed"}], "id": "9364900002", "name": "USPS COLLECTION BOX - PO LOBBY", "address": {"city": "PIEDRA", "state": "CA", "street": "26284 PINE FLAT RD", "postcode": "93649"}}},
{"geometry": {"type": "Point", "coordinates": [-119.7912225195, 36.8426633861]}, "type": "Feature", "properties": {"collection_times": [{"days": "Mon-Fri", "time": "5:00pm"}, {"days": "Sat", "time": "2:00pm"}, {"days": "Sun", "time": "Closed"}], "id": "9365000003", "name": "USPS COLLECTION BOX - BLUE BOX", "address": {"city": "FRESNO", "state": "CA", "street": "34 W MINARETS AVE", "postcode": "93650"}}},
{"geometry": {"type": "Point", "coordinates": [-119.7912225195, 36.8426633861]}, "type": "Feature", "properties": {"collection_times": [{"days": "Mon-Fri", "time": "4:45pm"}, {"days": "Sat-Sun", "time": "Closed"}], "id": "9365000009", "name": "USPS COLLECTION BOX - PO LOBBY", "address": {"city": "FRESNO", "state": "CA", "street": "34 W MINARETS AVE", "postcode": "93650"}}},
{"geometry": {"type": "Point", "coordinates": [-119.5384389282, 37.0249653018]}, "type": "Feature", "properties": {"collection_times": [{"days": "Mon-Fri", "time": "3:00pm"}, {"days": "Sat", "time": "10:00am"}, {"days": "Sun", "time": "Closed"}], "id": "9365100001", "name": "USPS COLLECTION BOX - BLUE BOX", "address": {"city": "PRATHER", "state": "CA", "street": "29460 AUBERRY RD", "postcode": "93651"}}},
{"geometry": {"type": "Point", "coordinates": [-119.5384389282, 37.0249653018]}, "type": "Feature", "properties": {"collection_times": [{"days": "Mon-Fri", "time": "4:00pm"}, {"days": "Sat", "time": "10:00am"}, {"days": "Sun", "time": "Closed"}], "id": "9365100002", "name": "USPS COLLECTION BOX - PO LOBBY", "address": {"city": "PRATHER", "state": "CA", "street": "29460 AUBERRY RD", "postcode": "93651"}}},
{"geometry": {"type": "Point", "coordinates": [-119.9035083949, 36.600819106]}, "type": "Feature", "properties": {"collection_times": [{"days": "Mon-Fri", "time": "4:00pm"}, {"days": "Sat", "time": "9:00am"}, {"days": "Sun", "time": "Closed"}], "id": "9365200001", "name": "USPS COLLECTION BOX - BLUE BOX", "address": {"city": "RAISIN CITY", "state": "CA", "street": "9221 S ORMUS AVE", "postcode": "93652"}}},
{"geometry": {"type": "Point", "coordinates": [-119.9035083949, 36.600819106]}, "type": "Feature", "properties": {"collection_times": [{"days": "Mon-Fri", "time": "4:00pm"}, {"days": "Sat", "time": "9:00am"}, {"days": "Sun", "time": "Closed"}], "id": "9365200002", "name": "USPS COLLECTION BOX - PO LOBBY", "address": {"city": "RAISIN CITY", "state": "CA", "street": "9221 S ORMUS AVE", "postcode": "93652"}}},
{"geometry": {"type": "Point", "coordinates": [-119.9035083949, 36.600819106]}, "type": "Feature", "properties": {"collection_times": [{"days": "Mon-Fri", "time": "4:00pm"}, {"days": "Sat", "time": "9:00am"}, {"days": "Sun", "time": "Closed"}], "id": "9365200003", "name": "USPS COLLECTION BOX - PO LOBBY", "address": {"city": "RAISIN CITY", "state": "CA", "street": "9221 S ORMUS AVE", "postcode": "93652"}}},
{"geometry": {"type": "Point", "coordinates": [-119.8868750524, 37.236424327]}, "type": "Feature", "properties": {"collection_times": [{"days": "Mon-Fri", "time": "2:40pm"}, {"days": "Sat", "time": "10:25am"}, {"days": "Sun", "time": "Closed"}], "id": "9365300001", "name": "USPS COLLECTION BOX - PO LOBBY", "address": {"city": "RAYMOND", "state": "CA", "street": "32120 ROAD 600", "postcode": "93653"}}},
{"geometry": {"type": "Point", "coordinates": [-119.8868750524, 37.236424327]}, "type": "Feature", "properties": {"collection_times": [{"days": "Mon-Fri", "time": "2:40pm"}, {"days": "Sat", "time": "10:25am"}, {"days": "Sun", "time": "Closed"}], "id": "9365300002", "name": "USPS COLLECTION BOX - PO LOBBY", "address": {"city": "RAYMOND", "state": "CA", "street": "32120 ROAD 600", "postcode": "93653"}}},
{"geometry": {"type": "Point", "coordinates": [-119.432093993, 36.6041715094]}, "type": "Feature", "properties": {"collection_times": [{"days": "Mon-Sat", "time": "10:00am"}, {"days": "Sun", "time": "Closed"}], "id": "9365400002", "name": "USPS COLLECTION BOX - BLUE BOX", "address": {"city": "REEDLEY", "state": "CA", "street": "1600 E MANNING AVE", "postcode": "93654"}}},
{"geometry": {"type": "Point", "coordinates": [-119.4535306128, 36.598889222]}, "type": "Feature", "properties": {"collection_times": [{"days": "Mon-Sat", "time": "2:30pm"}, {"days": "Sun", "time": "Closed"}], "id": "9365400005", "name": "USPS COLLECTION BOX - BLUE BOX", "address": {"city": "REEDLEY", "state": "CA", "street": "845 G ST", "postcode": "93654"}}},
{"geometry": {"type": "Point", "coordinates": [-119.4488908475, 36.5978312719]}, "type": "Feature", "properties": {"collection_times": [{"days": "Mon-Fri", "time": "4:00pm"}, {"days": "Sat", "time": "2:00pm"}, {"days": "Sun", "time": "Closed"}], "id": "9365400011", "name": "USPS COLLECTION BOX - PO LOBBY", "address": {"city": "REEDLEY", "state": "CA", "street": "1509 11TH ST", "postcode": "93654"}}},
{"geometry": {"type": "Point", "coordinates": [-119.4488908475, 36.5978312719]}, "type": "Feature", "properties": {"collection_times": [{"days": "Mon-Fri", "time": "4:45pm"}, {"days": "Sat", "time": "2:00pm"}, {"days": "Sun", "time": "Closed"}], "id": "9365400014", "name": "USPS COLLECTION BOX - BLUE BOX", "address": {"city": "REEDLEY", "state": "CA", "street": "1509 11TH ST", "postcode": "93654"}}},
{"geometry": {"type": "Point", "coordinates": [-119.4488908475, 36.5978312719]}, "type": "Feature", "properties": {"collection_times": [{"days": "Mon-Fri", "time": "4:00pm"}, {"days": "Sat", "time": "2:00pm"}, {"days": "Sun", "time": "Closed"}], "id": "9365400015", "name": "USPS COLLECTION BOX - PO LOBBY", "address": {"city": "REEDLEY", "state": "CA", "street": "1509 11TH ST", "postcode": "93654"}}},
{"geometry": {"type": "Point", "coordinates": [-119.4343790543, 36.6041475786]}, "type": "Feature", "properties": {"collection_times": [{"days": "Mon-Sat", "time": "2:30pm"}, {"days": "Sun", "time": "Closed"}], "id": "9365400016", "name": "USPS COLLECTION BOX - BLUE BOX", "address": {"city": "REEDLEY", "state": "CA", "street": "1384 E MANNING AVE", "postcode": "93654"}}},
{"geometry": {"type": "Point", "coordinates": [-119.8597110892, 36.4317936676]}, "type": "Feature", "properties": {"collection_times": [{"days": "Mon-Fri", "time": "4:00pm"}, {"days": "Sat", "time": "9:00am"}, {"days": "Sun", "time": "Closed"}], "id": "9365600001", "name": "USPS COLLECTION BOX - BLUE BOX", "address": {"city": "RIVERDALE", "state": "CA", "street": "3401 HENSON ST", "postcode": "93656"}}},
{"geometry": {"type": "Point", "coordinates": [-119.8597110892, 36.4317936676]}, "type": "Feature", "properties": {"collection_times": [{"days": "Mon-Fri", "time": "4:00pm"}, {"days": "Sat", "time": "9:00am"}, {"days": "Sun", "time": "Closed"}], "id": "9365600003", "name": "USPS COLLECTION BOX - PO LOBBY", "address": {"city": "RIVERDALE", "state": "CA", "street": "3401 HENSON ST", "postcode": "93656"}}},
{"geometry": {"type": "Point", "coordinates": [-119.5610375207, 36.7059614904]}, "type": "Feature", "properties": {"collection_times": [{"days": "Mon-Sat", "time": "12:00pm"}, {"days": "Sun", "time": "Closed"}], "id": "9365700002", "name": "USPS COLLECTION BOX - BLUE BOX", "address": {"city": "SANGER", "state": "CA", "street": "1700 7TH ST", "postcode": "93657"}}},
{"geometry": {"type": "Point", "coordinates": [-119.5584262817, 36.7052278045]}, "type": "Feature", "properties": {"collection_times": [{"days": "Mon-Fri", "time": "5:00pm"}, {"days": "Sat", "time": "3:30pm"}, {"days": "Sun", "time": "Closed"}], "id": "9365700010", "name": "USPS COLLECTION BOX - BLUE BOX", "address": {"city": "SANGER", "state": "CA", "street": "724 O ST", "postcode": "93657"}}},
{"geometry": {"type": "Point", "coordinates": [-119.5584262817, 36.7052278045]}, "type": "Feature", "properties": {"collection_times": [{"days": "Mon-Fri", "time": "5:00pm"}, {"days": "Sat", "time": "3:30pm"}, {"days": "Sun", "time": "Closed"}], "id": "9365700012", "name": "USPS COLLECTION BOX - BLUE BOX", "address": {"city": "SANGER", "state": "CA", "street": "724 O ST", "postcode": "93657"}}},
{"geometry": {"type": "Point", "coordinates": [-119.558478646, 36.7058537956]}, "type": "Feature", "properties": {"collection_times": [{"days": "Mon-Fri", "time": "4:30pm"}, {"days": "Sat", "time": "3:30pm"}, {"days": "Sun", "time": "Closed"}], "id": "9365700014", "name": "USPS COLLECTION BOX - PO LOBBY", "address": {"city": "SANGER", "state": "CA", "street": "724 O ST", "postcode": "93657"}}},
{"geometry": {"type": "Point", "coordinates": [-120.1894853798, 36.6065010388]}, "type": "Feature", "properties": {"collection_times": [{"days": "Mon-Fri", "time": "3:15pm"}, {"days": "Sat", "time": "11:30am"}, {"days": "Sun", "time": "Closed"}], "id": "9366000001", "name": "USPS COLLECTION BOX - BLUE BOX", "address": {"city": "SAN JOAQUIN", "state": "CA", "street": "8667 9TH ST", "postcode": "93660"}}},
{"geometry": {"type": "Point", "coordinates": [-120.1895046219, 36.6065238132]}, "type": "Feature", "properties": {"collection_times": [{"days": "Mon-Fri", "time": "4:00pm"}, {"days": "Sat", "time": "11:30am"}, {"days": "Sun", "time": "Closed"}], "id": "9366000002", "name": "USPS COLLECTION BOX - PO LOBBY", "address": {"city": "SAN JOAQUIN", "state": "CA", "street": "8667 9TH ST", "postcode": "93660"}}},
{"geometry": {"type": "Point", "coordinates": [-120.6278052243, 36.9856942532]}, "type": "Feature", "properties": {"collection_times": [{"days": "Mon-Fri", "time": "4:30pm"}, {"days": "Sat", "time": "11:30am"}, {"days": "Sun", "time": "Closed"}], "id": "9366100001", "name": "USPS COLLECTION BOX - BLUE BOX", "address": {"city": "SANTA RITA PARK", "state": "CA", "street": "8100 W AZUSA RD", "postcode": "93661"}}},
{"geometry": {"type": "Point", "coordinates": [-120.6278052243, 36.9856942532]}, "type": "Feature", "properties": {"collection_times": [{"days": "Mon-Fri", "time": "4:30pm"}, {"days": "Sat", "time": "11:30am"}, {"days": "Sun", "time": "Closed"}], "id": "9366100002", "name": "USPS COLLECTION BOX - PO LOBBY", "address": {"city": "SANTA RITA PARK", "state": "CA", "street": "8100 W AZUSA RD", "postcode": "93661"}}},
{"geometry": {"type": "Point", "coordinates": [-119.6106051757, 36.5839350717]}, "type": "Feature", "properties": {"collection_times": [{"days": "Mon-Fri", "time": "12:00pm"}, {"days": "Sat", "time": "8:30am"}, {"days": "Sun", "time": "Closed"}], "id": "9366200005", "name": "USPS COLLECTION BOX - BLUE BOX", "address": {"city": "SELMA", "state": "CA", "street": "3400 MCCALL AVE", "postcode": "93662"}}},
{"geometry": {"type": "Point", "coordinates": [-119.6126168988, 36.5694239618]}, "type": "Feature", "properties": {"collection_times": [{"days": "Mon-Fri", "time": "4:45pm"}, {"days": "Sat", "time": "4:00pm"}, {"days": "Sun", "time": "Closed"}], "id": "9366200016", "name": "USPS COLLECTION BOX - BLUE BOX", "address": {"city": "SELMA", "state": "CA", "street": "2058 HIGH ST", "postcode": "93662"}}},
{"geometry": {"type": "Point", "coordinates": [-119.6126168988, 36.5694239618]}, "type": "Feature", "properties": {"collection_times": [{"days": "Mon-Fri", "time": "4:45pm"}, {"days": "Sat", "time": "4:00pm"}, {"days": "Sun", "time": "Closed"}], "id": "9366200018", "name": "USPS COLLECTION BOX - BLUE BOX", "address": {"city": "SELMA", "state": "CA", "street": "2058 HIGH ST", "postcode": "93662"}}},
{"geometry": {"type": "Point", "coordinates": [-119.6126168988, 36.5694239618]}, "type": "Feature", "properties": {"collection_times": [{"days": "Mon-Fri", "time": "4:45pm"}, {"days": "Sat", "time": "4:00pm"}, {"days": "Sun", "time": "Closed"}], "id": "9366200019", "name": "USPS COLLECTION BOX - BLUE BOX", "address": {"city": "SELMA", "state": "CA", "street": "2058 HIGH ST", "postcode": "93662"}}},
{"geometry": {"type": "Point", "coordinates": [-119.6126168988, 36.5694239618]}, "type": "Feature", "properties": {"collection_times": [{"days": "Mon-Fri", "time": "4:30pm"}, {"days": "Sat", "time": "4:00pm"}, {"days": "Sun", "time": "Closed"}], "id": "9366200022", "name": "USPS COLLECTION BOX - PO LOBBY", "address": {"city": "SELMA", "state": "CA", "street": "2058 HIGH ST", "postcode": "93662"}}},
{"geometry": {"type": "Point", "coordinates": [-119.6126168988, 36.5694239618]}, "type": "Feature", "properties": {"collection_times": [{"days": "Mon-Fri", "time": "4:30pm"}, {"days": "Sat", "time": "4:00pm"}, {"days": "Sun", "time": "Closed"}], "id": "9366200023", "name": "USPS COLLECTION BOX - PO LOBBY", "address": {"city": "SELMA", "state": "CA", "street": "2058 HIGH ST", "postcode": "93662"}}},
{"geometry": {"type": "Point", "coordinates": [-119.0693077828, 37.1122435743]}, "type": "Feature", "properties": {"collection_times": [{"days": "Mon-Fri", "time": "3:00pm"}, {"days": "Sat", "time": "11:00am"}, {"days": "Sun", "time": "Closed"}], "id": "9366400001", "name": "USPS COLLECTION BOX - BLUE BOX", "address": {"city": "SHAVER LAKE", "state": "CA", "street": "40677 SHAVER FOREST RD", "postcode": "93664"}}},
{"geometry": {"type": "Point", "coordinates": [-119.0693077828, 37.1122435743]}, "type": "Feature", "properties": {"collection_times": [{"days": "Mon-Fri", "time": "3:00pm"}, {"days": "Sat", "time": "11:00am"}, {"days": "Sun", "time": "Closed"}], "id": "9366400003", "name": "USPS COLLECTION BOX - PO LOBBY", "address": {"city": "SHAVER LAKE", "state": "CA", "street": "40677 SHAVER FOREST RD", "postcode": "93664"}}},
{"geometry": {"type": "Point", "coordinates": [-119.0693077828, 37.1122435743]}, "type": "Feature", "properties": {"collection_times": [{"days": "Mon-Fri", "time": "3:00pm"}, {"days": "Sat", "time": "11:00am"}, {"days": "Sun", "time": "Closed"}], "id": "9366400005", "name": "USPS COLLECTION BOX - BLUE BOX", "address": {"city": "SHAVER LAKE", "state": "CA", "street": "40677 SHAVER FOREST RD", "postcode": "93664"}}},
{"geometry": {"type": "Point", "coordinates": [-119.313732926, 37.1261657116]}, "type": "Feature", "properties": {"collection_times": [{"days": "Mon-Sat", "time": "10:00am"}, {"days": "Sun", "time": "Closed"}], "id": "9366400006", "name": "USPS COLLECTION BOX - BLUE BOX", "address": {"city": "SHAVER LAKE", "state": "CA", "street": "42825 HIGHWAY 168", "postcode": "93664"}}},
{"geometry": {"type": "Point", "coordinates": [-120.6514179588, 36.9634415373]}, "type": "Feature", "properties": {"collection_times": [{"days": "Mon-Fri", "time": "11:15am"}, {"days": "Sat", "time": "9:30am"}, {"days": "Sun", "time": "Closed"}], "id": "9366500002", "name": "USPS COLLECTION BOX - PO LOBBY", "address": {"city": "SOUTH DOS PALOS", "state": "CA", "street": "8858 W M ST", "postcode": "93665"}}},
{"geometry": {"type": "Point", "coordinates": [-119.2702268805, 36.3741071704]}, "type": "Feature", "properties": {"collection_times": [{"days": "Mon-Fri", "time": "3:30pm"}, {"days": "Sat", "time": "9:00am"}, {"days": "Sun", "time": "Closed"}], "id": "9366600001", "name": "USPS COLLECTION BOX - BLUE BOX", "address": {"city": "SULTANA", "state": "CA", "street": "10457 AVENUE 416", "postcode": "93666"}}},
{"geometry": {"type": "Point", "coordinates": [-119.3886263728, 36.540263944]}, "type": "Feature", "properties": {"collection_times": [{"days": "Mon-Fri", "time": "3:30pm"}, {"days": "Sat", "time": "9:00am"}, {"days": "Sun", "time": "Closed"}], "id": "9366600002", "name": "USPS COLLECTION BOX - PO LOBBY", "address": {"city": "SULTANA", "state": "CA", "street": "10457 AVENUE 416", "postcode": "93666"}}},
{"geometry": {"type": "Point", "coordinates": [-119.3993639961, 37.0134967225]}, "type": "Feature", "properties": {"collection_times": [{"days": "Mon-Fri", "time": "2:30pm"}, {"days": "Sat", "time": "10:30am"}, {"days": "Sun", "time": "Closed"}], "id": "9366700001", "name": "USPS COLLECTION BOX - BLUE BOX", "address": {"city": "TOLLHOUSE", "state": "CA", "street": "28425 GIBBS RANCH RD", "postcode": "93667"}}},
{"geometry": {"type": "Point", "coordinates": [-119.3993639961, 37.0134967225]}, "type": "Feature", "properties": {"collection_times": [{"days": "Mon-Fri", "time": "2:30pm"}, {"days": "Sat", "time": "10:30am"}, {"days": "Sun", "time": "Closed"}], "id": "9366700002", "name": "USPS COLLECTION BOX - PO LOBBY", "address": {"city": "TOLLHOUSE", "state": "CA", "street": "28425 GIBBS RANCH RD", "postcode": "93667"}}},
{"geometry": {"type": "Point", "coordinates": [-120.2531414664, 36.6476712601]}, "type": "Feature", "properties": {"collection_times": [{"days": "Mon-Fri", "time": "3:30pm"}, {"days": "Sat", "time": "10:00am"}, {"days": "Sun", "time": "Closed"}], "id": "9366800001", "name": "USPS COLLECTION BOX - BLUE BOX", "address": {"city": "TRANQUILLITY", "state": "CA", "street": "25660 SCAGGS AVE", "postcode": "93668"}}},
{"geometry": {"type": "Point", "coordinates": [-120.2531414664, 36.6476712601]}, "type": "Feature", "properties": {"collection_times": [{"days": "Mon-Fri", "time": "3:00pm"}, {"days": "Sat", "time": "10:00am"}, {"days": "Sun", "time": "Closed"}], "id": "9366800002", "name": "USPS COLLECTION BOX - PO LOBBY", "address": {"city": "TRANQUILLITY", "state": "CA", "street": "25660 SCAGGS AVE", "postcode": "93668"}}},
{"geometry": {"type": "Point", "coordinates": [-119.268459218, 36.4864403453]}, "type": "Feature", "properties": {"collection_times": [{"days": "Mon-Fri", "time": "2:30pm"}, {"days": "Sat", "time": "9:00am"}, {"days": "Sun", "time": "Closed"}], "id": "9367000000", "name": "USPS COLLECTION BOX - BLUE BOX", "address": {"city": "YETTEM", "state": "CA", "street": "14026 AVENUE 384", "postcode": "93670"}}},
{"geometry": {"type": "Point", "coordinates": [-119.268459218, 36.4864403453]}, "type": "Feature", "properties": {"collection_times": [{"days": "Mon-Fri", "time": "2:30pm"}, {"days": "Sat", "time": "9:00am"}, {"days": "Sun", "time": "Closed"}], "id": "9367000001", "name": "USPS COLLECTION BOX - PO LOBBY", "address": {"city": "YETTEM", "state": "CA", "street": "14026 AVENUE 384", "postcode": "93670"}}},
{"geometry": {"type": "Point", "coordinates": [-119.4868275735, 36.4525308813]}, "type": "Feature", "properties": {"collection_times": [{"days": "Mon-Fri", "time": "4:00pm"}, {"days": "Sat", "time": "12:00pm"}, {"days": "Sun", "time": "Closed"}], "id": "9367300001", "name": "USPS COLLECTION BOX - BLUE BOX", "address": {"city": "TRAVER", "state": "CA", "street": "36501 BURKE DR", "postcode": "93673"}}},
{"geometry": {"type": "Point", "coordinates": [-119.4868275735, 36.4525308813]}, "type": "Feature", "properties": {"collection_times": [{"days": "Mon-Fri", "time": "4:00pm"}, {"days": "Sat", "time": "12:00pm"}, {"days": "Sun", "time": "Closed"}], "id": "9367300002", "name": "USPS COLLECTION BOX - PO LOBBY", "address": {"city": "TRAVER", "state": "CA", "street": "36501 BURKE DR", "postcode": "93673"}}},
{"geometry": {"type": "Point", "coordinates": [-119.4868275735, 36.4525308813]}, "type": "Feature", "properties": {"collection_times": [{"days": "Mon-Fri", "time": "4:00pm"}, {"days": "Sat", "time": "12:00pm"}, {"days": "Sun", "time": "Closed"}], "id": "9367300003", "name": "USPS COLLECTION BOX - PO LOBBY", "address": {"city": "TRAVER", "state": "CA", "street": "36501 BURKE DR", "postcode": "93673"}}},
{"geometry": {"type": "Point", "coordinates": [-119.2430194138, 36.7415725355]}, "type": "Feature", "properties": {"collection_times": [{"days": "Mon-Sat", "time": "2:00pm"}, {"days": "Sun", "time": "Closed"}], "id": "9367500000", "name": "USPS COLLECTION BOX - BLUE BOX", "address": {"city": "SQUAW VALLEY", "state": "CA", "street": "30754 E KINGS CANYON RD", "postcode": "93675"}}}
]}
