{"type": "FeatureCollection", "features": [
{"geometry": {"type": "Point", "coordinates": [-119.7796199052, 36.7577484836]}, "type": "Feature", "properties": {"collection_times": [{"days": "Mon-Fri", "time": "5:00pm"}, {"days": "Sat-Sun", "time": "Closed"}], "id": "9370100010", "name": "USPS COLLECTION BOX - PO LOBBY", "address": {"city": "FRESNO", "state": "CA", "street": "2601 E OLIVE AVE", "postcode": "93701"}}},
{"geometry": {"type": "Point", "coordinates": [-119.7796117772, 36.7577151028]}, "type": "Feature", "properties": {"collection_times": [{"days": "Mon-Fri", "time": "5:00pm"}, {"days": "Sat-Sun", "time": "Closed"}], "id": "9370100011", "name": "USPS COLLECTION BOX - PO LOBBY", "address": {"city": "FRESNO", "state": "CA", "street": "2601 E OLIVE AVE", "postcode": "93701"}}},
{"geometry": {"type": "Point", "coordinates": [-119.7796117772, 36.7577151028]}, "type": "Feature", "properties": {"collection_times": [{"days": "Mon-Fri", "time": "5:00pm"}, {"days": "Sat-Sun", "time": "Closed"}], "id": "9370100012", "name": "USPS COLLECTION BOX - PO LOBBY", "address": {"city": "FRESNO", "state": "CA", "street": "2601 E OLIVE AVE", "postcode": "93701"}}},
{"geometry": {"type": "Point", "coordinates": [-119.7796117772, 36.7577151028]}, "type": "Feature", "properties": {"collection_times": [{"days": "Mon-Fri", "time": "5:00pm"}, {"days": "Sat-Sun", "time": "Closed"}], "id": "9370100013", "name": "USPS COLLECTION BOX - PO LOBBY", "address": {"city": "FRESNO", "state": "CA", "street": "2601 E OLIVE AVE", "postcode": "93701"}}},
{"geometry": {"type": "Point", "coordinates": [-119.7363505582, 36.7244721412]}, "type": "Feature", "properties": {"collection_times": [{"days": "Mon-Fri", "time": "1:00pm"}, {"days": "Sat-Sun", "time": "Closed"}], "id": "9370200005", "name": "USPS COLLECTION BOX - BLUE BOX", "address": {"city": "FRESNO", "state": "CA", "street": "1917 S CHESTNUT AVE", "postcode": "93702"}}},
{"geometry": {"type": "Point", "coordinates": [-119.7506497303, 36.7431678238]}, "type": "Feature", "properties": {"collection_times": [{"days": "Mon-Fri", "time": "5:00pm"}, {"days": "Sat", "time": "4:00pm"}, {"days": "Sun", "time": "Closed"}], "id": "9370200012", "name": "USPS COLLECTION BOX - BLUE BOX", "address": {"city": "FRESNO", "state": "CA", "street": "4475 E TULARE ST", "postcode": "93702"}}},
{"geometry": {"type": "Point", "coordinates": [-119.7506624054, 36.7431505121]}, "type": "Feature", "properties": {"collection_times": [{"days": "Mon-Fri", "time": "5:00pm"}, {"days": "Sat-Sun", "time": "Closed"}], "id": "9370200019", "name": "USPS COLLECTION BOX - PO LOBBY", "address": {"city": "FRESNO", "state": "CA", "street": "4475 E TULARE ST", "postcode": "93702"}}},
{"geometry": {"type": "Point", "coordinates": [-119.7545239206, 36.7787511616]}, "type": "Feature", "properties": {"collection_times": [{"days": "Mon-Fri", "time": "4:00pm"}, {"days": "Sat", "time": "1:00pm"}, {"days": "Sun", "time": "Closed"}], "id": "9370300028", "name": "USPS COLLECTION BOX - BLUE BOX", "address": {"city": "FRESNO", "state": "CA", "street": "3141 N CEDAR AVE", "postcode": "93703"}}},
{"geometry": {"type": "Point", "coordinates": [-119.7317126304, 36.7704363627]}, "type": "Feature", "properties": {"collection_times": [{"days": "Mon-Fri", "time": "3:45pm"}, {"days": "Sat-Sun", "time": "Closed"}], "id": "9370300037", "name": "USPS COLLECTION BOX - BLUE BOX", "address": {"city": "FRESNO", "state": "CA", "street": "2190 N WINERY AVE", "postcode": "93703"}}},
{"geometry": {"type": "Point", "coordinates": [-119.8084450559, 36.8352553416]}, "type": "Feature", "properties": {"collection_times": [{"days": "Mon-Fri", "time": "4:30pm"}, {"days": "Sat-Sun", "time": "Closed"}], "id": "9370400002", "name": "USPS COLLECTION BOX - BLUE BOX", "address": {"city": "FRESNO", "state": "CA", "street": "6715 N PALM AVE", "postcode": "93704"}}},
{"geometry": {"type": "Point", "coordinates": [-119.7979828, 36.7658905677]}, "type": "Feature", "properties": {"collection_times": [{"days": "Mon-Fri", "time": "1:30pm"}, {"days": "Sat-Sun", "time": "Closed"}], "id": "9370400005", "name": "USPS COLLECTION BOX - BLUE BOX", "address": {"city": "FRESNO", "state": "CA", "street": "1101 E UNIVERSITY AVE", "postcode": "93704"}}},
{"geometry": {"type": "Point", "coordinates": [-119.7998817791, 36.7795300491]}, "type": "Feature", "properties": {"collection_times": [{"days": "Mon-Fri", "time": "1:45pm"}, {"days": "Sat", "time": "1:00pm"}, {"days": "Sun", "time": "Closed"}], "id": "9370400010", "name": "USPS COLLECTION BOX - BLUE BOX", "address": {"city": "FRESNO", "state": "CA", "street": "849 E SHIELDS AVE", "postcode": "93704"}}},
{"geometry": {"type": "Point", "coordinates": [-119.7983995315, 36.8084131752]}, "type": "Feature", "properties": {"collection_times": [{"days": "Mon-Fri", "time": "3:30pm"}, {"days": "Sat-Sun", "time": "Closed"}], "id": "9370400012", "name": "USPS COLLECTION BOX - BLUE BOX", "address": {"city": "FRESNO", "state": "CA", "street": "365 W SHAW AVE", "postcode": "93704"}}},
{"geometry": {"type": "Point", "coordinates": [-119.7917513021, 36.7904463944]}, "type": "Feature", "properties": {"collection_times": [{"days": "Mon-Fri", "time": "5:00pm"}, {"days": "Sat", "time": "2:00pm"}, {"days": "Sun", "time": "Closed"}], "id": "9370400016", "name": "USPS COLLECTION BOX - PO LOBBY", "address": {"city": "FRESNO", "state": "CA", "street": "1606 E GRIFFITH WAY", "postcode": "93704"}}},
{"geometry": {"type": "Point", "coordinates": [-119.7917513021, 36.7904463944]}, "type": "Feature", "properties": {"collection_times": [{"days": "Mon-Fri", "time": "5:00pm"}, {"days": "Sat", "time": "4:00pm"}, {"days": "Sun", "time": "Closed"}], "id": "9370400020", "name": "USPS COLLECTION BOX - BLUE BOX", "address": {"city": "FRESNO", "state": "CA", "street": "1606 E GRIFFITH WAY", "postcode": "93704"}}},
{"geometry": {"type": "Point", "coordinates": [-119.7917513021, 36.7904463944]}, "type": "Feature", "properties": {"collection_times": [{"days": "Mon-Fri", "time": "5:00pm"}, {"days": "Sat", "time": "4:00pm"}, {"days": "Sun", "time": "Closed"}], "id": "9370400021", "name": "USPS COLLECTION BOX - BLUE BOX", "address": {"city": "FRESNO", "state": "CA", "street": "1606 E GRIFFITH WAY", "postcode": "93704"}}},
{"geometry": {"type": "Point", "coordinates": [-119.8082731362, 36.8108056979]}, "type": "Feature", "properties": {"collection_times": [{"days": "Mon-Fri", "time": "5:00pm"}, {"days": "Sat", "time": "2:00pm"}, {"days": "Sun", "time": "Closed"}], "id": "9370400027", "name": "USPS COLLECTION BOX - BLUE BOX", "address": {"city": "FRESNO", "state": "CA", "street": "5136 N PALM AVE", "postcode": "93704"}}},
{"geometry": {"type": "Point", "coordinates": [-119.8077721154, 36.8084557617]}, "type": "Feature", "properties": {"collection_times": [{"days": "Mon-Fri", "time": "4:30pm"}, {"days": "Sat", "time": "2:00pm"}, {"days": "Sun", "time": "Closed"}], "id": "9370400029", "name": "USPS COLLECTION BOX - BLUE BOX", "address": {"city": "FRESNO", "state": "CA", "street": "780 W SHAW AVE", "postcode": "93704"}}},
{"geometry": {"type": "Point", "coordinates": [-119.8015791046, 36.7993542846]}, "type": "Feature", "properties": {"collection_times": [{"days": "Mon-Fri", "time": "3:00pm"}, {"days": "Sat", "time": "1:00pm"}, {"days": "Sun", "time": "Closed"}], "id": "9370400033", "name": "USPS COLLECTION BOX - BLUE BOX", "address": {"city": "FRESNO", "state": "CA", "street": "732 W BULLARD AVE", "postcode": "93704"}}},
{"geometry": {"type": "Point", "coordinates": [-119.8082674785, 36.812457831]}, "type": "Feature", "properties": {"collection_times": [{"days": "Mon-Fri", "time": "4:30pm"}, {"days": "Sat-Sun", "time": "Closed"}], "id": "9370400036", "name": "USPS COLLECTION BOX - BLUE BOX", "address": {"city": "FRESNO", "state": "CA", "street": "5250 N PALM AVE", "postcode": "93704"}}},
{"geometry": {"type": "Point", "coordinates": [-119.8084599566, 36.831112169]}, "type": "Feature", "properties": {"collection_times": [{"days": "Mon-Fri", "time": "4:30pm"}, {"days": "Sat-Sun", "time": "Closed"}], "id": "9370400041", "name": "USPS COLLECTION BOX - BLUE BOX", "address": {"city": "FRESNO", "state": "CA", "street": "6465 N PALM AVE", "postcode": "93704"}}},
{"geometry": {"type": "Point", "coordinates": [-119.8252148453, 36.779304104]}, "type": "Feature", "properties": {"collection_times": [{"days": "Mon-Fri", "time": "1:45pm"}, {"days": "Sat-Sun", "time": "Closed"}], "id": "9370500006", "name": "USPS COLLECTION BOX - BLUE BOX", "address": {"city": "FRESNO", "state": "CA", "street": "1121 W SHIELDS AVE", "postcode": "93705"}}},
{"geometry": {"type": "Point", "coordinates": [-119.8354486233, 36.7852756808]}, "type": "Feature", "properties": {"collection_times": [{"days": "Mon-Fri", "time": "5:00pm"}, {"days": "Sat", "time": "4:00pm"}, {"days": "Sun", "time": "Closed"}], "id": "9370500008", "name": "USPS COLLECTION BOX - BLUE BOX", "address": {"city": "FRESNO", "state": "CA", "street": "3727 N HUGHES AVE", "postcode": "93705"}}},
{"geometry": {"type": "Point", "coordinates": [-119.8354486233, 36.7852756808]}, "type": "Feature", "properties": {"collection_times": [{"days": "Mon-Fri", "time": "5:00pm"}, {"days": "Sat", "time": "4:00pm"}, {"days": "Sun", "time": "Closed"}], "id": "9370500012", "name": "USPS COLLECTION BOX - BLUE BOX", "address": {"city": "FRESNO", "state": "CA", "street": "3727 N HUGHES AVE", "postcode": "93705"}}},
{"geometry": {"type": "Point", "coordinates": [-119.8354486233, 36.7852756808]}, "type": "Feature", "properties": {"collection_times": [{"days": "Mon-Fri", "time": "5:00pm"}, {"days": "Sat", "time": "4:00pm"}, {"days": "Sun", "time": "Closed"}], "id": "9370500021", "name": "USPS COLLECTION BOX - PO LOBBY", "address": {"city": "FRESNO", "state": "CA", "street": "3727 N HUGHES AVE", "postcode": "93705"}}},
{"geometry": {"type": "Point", "coordinates": [-119.8056900675, 36.7387326582]}, "type": "Feature", "properties": {"collection_times": [{"days": "Mon-Fri", "time": "8:00pm"}, {"days": "Sat", "time": "6:00pm"}, {"days": "Sun", "time": "Closed"}], "id": "9370600003", "name": "USPS COLLECTION BOX - BLUE BOX", "address": {"city": "FRESNO", "state": "CA", "street": "1900 E ST", "postcode": "93706"}}},
{"geometry": {"type": "Point", "coordinates": [-119.8056900675, 36.7387326582]}, "type": "Feature", "properties": {"collection_times": [{"days": "Mon-Fri", "time": "8:00pm"}, {"days": "Sat", "time": "6:00pm"}, {"days": "Sun", "time": "Closed"}], "id": "9370600004", "name": "USPS COLLECTION BOX - BLUE BOX", "address": {"city": "FRESNO", "state": "CA", "street": "1900 E ST", "postcode": "93706"}}},
{"geometry": {"type": "Point", "coordinates": [-119.8056900675, 36.7387326582]}, "type": "Feature", "properties": {"collection_times": [{"days": "Mon-Fri", "time": "8:00pm"}, {"days": "Sat", "time": "6:00pm"}, {"days": "Sun", "time": "Closed"}], "id": "9370600005", "name": "USPS COLLECTION BOX - BLUE BOX", "address": {"city": "FRESNO", "state": "CA", "street": "1900 E ST", "postcode": "93706"}}},
{"geometry": {"type": "Point", "coordinates": [-119.8056900675, 36.7387326582]}, "type": "Feature", "properties": {"collection_times": [{"days": "Mon-Fri", "time": "8:00pm"}, {"days": "Sat", "time": "6:00pm"}, {"days": "Sun", "time": "Closed"}], "id": "9370600006", "name": "USPS COLLECTION BOX - PO LOBBY", "address": {"city": "FRESNO", "state": "CA", "street": "1900 E ST", "postcode": "93706"}}},
{"geometry": {"type": "Point", "coordinates": [-119.8056900675, 36.7387326582]}, "type": "Feature", "properties": {"collection_times": [{"days": "Mon-Fri", "time": "8:00pm"}, {"days": "Sat", "time": "6:00pm"}, {"days": "Sun", "time": "Closed"}], "id": "9370600007", "name": "USPS COLLECTION BOX - PO LOBBY", "address": {"city": "FRESNO", "state": "CA", "street": "1900 E ST", "postcode": "93706"}}},
{"geometry": {"type": "Point", "coordinates": [-119.8178163902, 36.703290558]}, "type": "Feature", "properties": {"collection_times": [{"days": "Mon-Fri", "time": "8:00pm"}, {"days": "Sat", "time": "6:00pm"}, {"days": "Sun", "time": "Closed"}], "id": "9370600008", "name": "USPS COLLECTION BOX - EXPRESS", "address": {"city": "FRESNO", "state": "CA", "street": "1900 E ST", "postcode": "93706"}}},
{"geometry": {"type": "Point", "coordinates": [-119.8056900675, 36.7387326582]}, "type": "Feature", "properties": {"collection_times": [{"days": "Mon-Fri", "time": "8:00pm"}, {"days": "Sat", "time": "6:00pm"}, {"days": "Sun", "time": "Closed"}], "id": "9370600009", "name": "USPS COLLECTION BOX - PO LOBBY", "address": {"city": "FRESNO", "state": "CA", "street": "1900 E ST", "postcode": "93706"}}},
{"geometry": {"type": "Point", "coordinates": [-119.8056900675, 36.7387326582]}, "type": "Feature", "properties": {"collection_times": [{"days": "Mon-Fri", "time": "8:00pm"}, {"days": "Sat", "time": "6:00pm"}, {"days": "Sun", "time": "Closed"}], "id": "9370600011", "name": "USPS COLLECTION BOX - APC", "address": {"city": "FRESNO", "state": "CA", "street": "1900 E ST", "postcode": "93706"}}},
{"geometry": {"type": "Point", "coordinates": [-119.7727141965, 36.7085203997]}, "type": "Feature", "properties": {"collection_times": [{"days": "Mon-Fri", "time": "3:45pm"}, {"days": "Sat-Sun", "time": "Closed"}], "id": "9370600013", "name": "USPS COLLECTION BOX - BLUE BOX", "address": {"city": "FRESNO", "state": "CA", "street": "2560 S EAST AVE", "postcode": "93706"}}},
{"geometry": {"type": "Point", "coordinates": [-119.7727068458, 36.7041022196]}, "type": "Feature", "properties": {"collection_times": [{"days": "Mon-Fri", "time": "4:00pm"}, {"days": "Sat-Sun", "time": "Closed"}], "id": "9370600017", "name": "USPS COLLECTION BOX - BLUE BOX", "address": {"city": "FRESNO", "state": "CA", "street": "2675 S EAST AVE", "postcode": "93706"}}},
{"geometry": {"type": "Point", "coordinates": [-119.7609346154, 36.8089433635]}, "type": "Feature", "properties": {"collection_times": [{"days": "Mon-Fri", "time": "4:00pm"}, {"days": "Sat-Sun", "time": "Closed"}], "id": "9371000002", "name": "USPS COLLECTION BOX - BLUE BOX", "address": {"city": "FRESNO", "state": "CA", "street": "1510 E SHAW AVE", "postcode": "93710"}}},
{"geometry": {"type": "Point", "coordinates": [-119.781485869, 36.8256220955]}, "type": "Feature", "properties": {"collection_times": [{"days": "Mon-Fri", "time": "3:15pm"}, {"days": "Sat-Sun", "time": "Closed"}], "id": "9371000007", "name": "USPS COLLECTION BOX - BLUE BOX", "address": {"city": "FRESNO", "state": "CA", "street": "6143 N FRESNO ST", "postcode": "93710"}}},
{"geometry": {"type": "Point", "coordinates": [-119.7733295918, 36.8231376743]}, "type": "Feature", "properties": {"collection_times": [{"days": "Mon-Fri", "time": "3:00pm"}, {"days": "Sat", "time": "1:00pm"}, {"days": "Sun", "time": "Closed"}], "id": "9371000014", "name": "USPS COLLECTION BOX - BLUE BOX", "address": {"city": "FRESNO", "state": "CA", "street": "758 E BULLARD AVE", "postcode": "93710"}}},
{"geometry": {"type": "Point", "coordinates": [-119.7659389281, 36.8087075601]}, "type": "Feature", "properties": {"collection_times": [{"days": "Mon-Fri", "time": "4:15pm"}, {"days": "Sat", "time": "1:00pm"}, {"days": "Sun", "time": "Closed"}], "id": "9371000025", "name": "USPS COLLECTION BOX - BLUE BOX", "address": {"city": "FRESNO", "state": "CA", "street": "1300 E SHAW AVE", "postcode": "93710"}}},
{"geometry": {"type": "Point", "coordinates": [-119.7660977897, 36.8218309981]}, "type": "Feature", "properties": {"collection_times": [{"days": "Mon-Fri", "time": "4:15pm"}, {"days": "Sat-Sun", "time": "Closed"}], "id": "9371000028", "name": "USPS COLLECTION BOX - BLUE BOX", "address": {"city": "FRESNO", "state": "CA", "street": "1320 E SHAW AVE", "postcode": "93710"}}},
{"geometry": {"type": "Point", "coordinates": [-119.7680297195, 36.8361854838]}, "type": "Feature", "properties": {"collection_times": [{"days": "Mon-Fri", "time": "3:45pm"}, {"days": "Sat-Sun", "time": "Closed"}], "id": "9371000033", "name": "USPS COLLECTION BOX - BLUE BOX", "address": {"city": "FRESNO", "state": "CA", "street": "1149 E WARNER AVE", "postcode": "93710"}}},
{"geometry": {"type": "Point", "coordinates": [-119.7831848477, 36.8249170161]}, "type": "Feature", "properties": {"collection_times": [{"days": "Mon-Fri", "time": "3:00pm"}, {"days": "Sat-Sun", "time": "Closed"}], "id": "9371000035", "name": "USPS COLLECTION BOX - BLUE BOX", "address": {"city": "FRESNO", "state": "CA", "street": "6107 N THESTA ST", "postcode": "93710"}}},
{"geometry": {"type": "Point", "coordinates": [-119.7831848477, 36.8249170161]}, "type": "Feature", "properties": {"collection_times": [{"days": "Mon-Fri", "time": "3:00pm"}, {"days": "Sat-Sun", "time": "Closed"}], "id": "9371000036", "name": "USPS COLLECTION BOX - BLUE BOX", "address": {"city": "FRESNO", "state": "CA", "street": "6107 N THESTA ST", "postcode": "93710"}}},
{"geometry": {"type": "Point", "coordinates": [-119.7607270203, 36.8083173555]}, "type": "Feature", "properties": {"collection_times": [{"days": "Mon-Fri", "time": "3:45pm"}, {"days": "Sat", "time": "1:00pm"}, {"days": "Sun", "time": "Closed"}], "id": "9371000042", "name": "USPS COLLECTION BOX - BLUE BOX", "address": {"city": "FRESNO", "state": "CA", "street": "1515 E SHAW AVE", "postcode": "93710"}}},
{"geometry": {"type": "Point", "coordinates": [-119.7888127817, 36.8302046162]}, "type": "Feature", "properties": {"collection_times": [{"days": "Mon-Fri", "time": "2:15pm"}, {"days": "Sat", "time": "1:00pm"}, {"days": "Sun", "time": "Closed"}], "id": "9371000056", "name": "USPS COLLECTION BOX - BLUE BOX", "address": {"city": "FRESNO", "state": "CA", "street": "64 E SIERRA AVE", "postcode": "93710"}}},
{"geometry": {"type": "Point", "coordinates": [-119.8262664959, 36.8375979558]}, "type": "Feature", "properties": {"collection_times": [{"days": "Mon-Fri", "time": "3:30pm"}, {"days": "Sat", "time": "1:00pm"}, {"days": "Sun", "time": "Closed"}], "id": "9371100012", "name": "USPS COLLECTION BOX - BLUE BOX", "address": {"city": "FRESNO", "state": "CA", "street": "7010 N WEST AVE", "postcode": "93711"}}},
{"geometry": {"type": "Point", "coordinates": [-119.8265288833, 36.8228343464]}, "type": "Feature", "properties": {"collection_times": [{"days": "Mon-Fri", "time": "4:00pm"}, {"days": "Sat", "time": "1:00pm"}, {"days": "Sun", "time": "Closed"}], "id": "9371100014", "name": "USPS COLLECTION BOX - BLUE BOX", "address": {"city": "FRESNO", "state": "CA", "street": "6001 N WEST AVE", "postcode": "93711"}}},
{"geometry": {"type": "Point", "coordinates": [-119.8295846958, 36.8081955108]}, "type": "Feature", "properties": {"collection_times": [{"days": "Mon-Fri", "time": "4:00pm"}, {"days": "Sat", "time": "1:00pm"}, {"days": "Sun", "time": "Closed"}], "id": "9371100029", "name": "USPS COLLECTION BOX - BLUE BOX", "address": {"city": "FRESNO", "state": "CA", "street": "2097 W SHAW AVE", "postcode": "93711"}}},
{"geometry": {"type": "Point", "coordinates": [-119.838353834, 36.8091167613]}, "type": "Feature", "properties": {"collection_times": [{"days": "Mon-Fri", "time": "4:30pm"}, {"days": "Sat", "time": "1:00pm"}, {"days": "Sun", "time": "Closed"}], "id": "9371100035", "name": "USPS COLLECTION BOX - BLUE BOX", "address": {"city": "FRESNO", "state": "CA", "street": "2540 W SHAW LN", "postcode": "93711"}}},
{"geometry": {"type": "Point", "coordinates": [-119.8373695567, 36.8081474737]}, "type": "Feature", "properties": {"collection_times": [{"days": "Mon-Fri", "time": "4:30pm"}, {"days": "Sat", "time": "1:00pm"}, {"days": "Sun", "time": "Closed"}], "id": "9371100038", "name": "USPS COLLECTION BOX - BLUE BOX", "address": {"city": "FRESNO", "state": "CA", "street": "2491 W SHAW AVE", "postcode": "93711"}}},
{"geometry": {"type": "Point", "coordinates": [-119.8317464778, 36.8300300235]}, "type": "Feature", "properties": {"collection_times": [{"days": "Mon-Fri", "time": "3:45pm"}, {"days": "Sat", "time": "1:00pm"}, {"days": "Sun", "time": "Closed"}], "id": "9371100048", "name": "USPS COLLECTION BOX - BLUE BOX", "address": {"city": "FRESNO", "state": "CA", "street": "7035 N MARKS AVE", "postcode": "93711"}}},
{"geometry": {"type": "Point", "coordinates": [-119.8539867733, 36.8081754005]}, "type": "Feature", "properties": {"collection_times": [{"days": "Mon-Fri", "time": "3:30pm"}, {"days": "Sat", "time": "1:00pm"}, {"days": "Sun", "time": "Closed"}], "id": "9371100060", "name": "USPS COLLECTION BOX - BLUE BOX", "address": {"city": "FRESNO", "state": "CA", "street": "3411 W SHAW AVE", "postcode": "93711"}}},
{"geometry": {"type": "Point", "coordinates": [-119.8018618958, 36.8446605642]}, "type": "Feature", "properties": {"collection_times": [{"days": "Mon-Fri", "time": "3:15pm"}, {"days": "Sat", "time": "1:00pm"}, {"days": "Sun", "time": "Closed"}], "id": "9371100077", "name": "USPS COLLECTION BOX - BLUE BOX", "address": {"city": "FRESNO", "state": "CA", "street": "7409 N INGRAM AVE", "postcode": "93711"}}},
{"geometry": {"type": "Point", "coordinates": [-119.8317464778, 36.8300300235]}, "type": "Feature", "properties": {"collection_times": [{"days": "Mon-Fri", "time": "3:45pm"}, {"days": "Sat", "time": "1:00pm"}, {"days": "Sun", "time": "Closed"}], "id": "9371100086", "name": "USPS COLLECTION BOX - BLUE BOX", "address": {"city": "FRESNO", "state": "CA", "street": "5002 N BRAWLEY", "postcode": "93711"}}},
{"geometry": {"type": "Point", "coordinates": [-119.8086274404, 36.8433340406]}, "type": "Feature", "properties": {"collection_times": [{"days": "Mon-Fri", "time": "2:30pm"}, {"days": "Sat-Sun", "time": "Closed"}], "id": "9371100088", "name": "USPS COLLECTION BOX - BLUE BOX", "address": {"city": "FRESNO", "state": "CA", "street": "7355 N PALM AVE", "postcode": "93711"}}},
{"geometry": {"type": "Point", "coordinates": [-119.7711003875, 36.8518514284]}, "type": "Feature", "properties": {"collection_times": [{"days": "Mon-Fri", "time": "5:00pm"}, {"days": "Sat", "time": "4:00pm"}, {"days": "Sun", "time": "Closed"}], "id": "9372000002", "name": "USPS COLLECTION BOX - BLUE BOX", "address": {"city": "FRESNO", "state": "CA", "street": "755 E NEES AVE", "postcode": "93720"}}},
{"geometry": {"type": "Point", "coordinates": [-119.7711003875, 36.8518514284]}, "type": "Feature", "properties": {"collection_times": [{"days": "Mon-Fri", "time": "5:00pm"}, {"days": "Sat", "time": "4:00pm"}, {"days": "Sun", "time": "Closed"}], "id": "9372000003", "name": "USPS COLLECTION BOX - BLUE BOX", "address": {"city": "FRESNO", "state": "CA", "street": "755 E NEES AVE", "postcode": "93720"}}},
{"geometry": {"type": "Point", "coordinates": [-119.7711003875, 36.8518514284]}, "type": "Feature", "properties": {"collection_times": [{"days": "Mon-Fri", "time": "5:00pm"}, {"days": "Sat", "time": "4:00pm"}, {"days": "Sun", "time": "Closed"}], "id": "9372000006", "name": "USPS COLLECTION BOX - BLUE BOX", "address": {"city": "FRESNO", "state": "CA", "street": "755 E NEES AVE", "postcode": "93720"}}},
{"geometry": {"type": "Point", "coordinates": [-119.7540279069, 36.8376033622]}, "type": "Feature", "properties": {"collection_times": [{"days": "Mon-Fri", "time": "1:15pm"}, {"days": "Sat", "time": "1:00pm"}, {"days": "Sun", "time": "Closed"}], "id": "9372000027", "name": "USPS COLLECTION BOX - BLUE BOX", "address": {"city": "FRESNO", "state": "CA", "street": "7014 N CEDAR AVE", "postcode": "93720"}}},
{"geometry": {"type": "Point", "coordinates": [-119.7632124171, 36.8712034541]}, "type": "Feature", "properties": {"collection_times": [{"days": "Mon-Fri", "time": "12:45pm"}, {"days": "Sat", "time": "1:00pm"}, {"days": "Sun", "time": "Closed"}], "id": "9372000039", "name": "USPS COLLECTION BOX - BLUE BOX", "address": {"city": "FRESNO", "state": "CA", "street": "1109 E CHAMPLAIN DR", "postcode": "93720"}}},
{"geometry": {"type": "Point", "coordinates": [-119.7711003875, 36.8518514284]}, "type": "Feature", "properties": {"collection_times": [{"days": "Mon-Fri", "time": "5:00pm"}, {"days": "Sat", "time": "4:00pm"}, {"days": "Sun", "time": "Closed"}], "id": "9372000040", "name": "USPS COLLECTION BOX - PO LOBBY", "address": {"city": "FRESNO", "state": "CA", "street": "755 E NEES AVE", "postcode": "93720"}}},
{"geometry": {"type": "Point", "coordinates": [-119.7711003875, 36.8518514284]}, "type": "Feature", "properties": {"collection_times": [{"days": "Mon-Fri", "time": "5:00pm"}, {"days": "Sat", "time": "4:00pm"}, {"days": "Sun", "time": "Closed"}], "id": "9372000045", "name": "USPS COLLECTION BOX - PO LOBBY", "address": {"city": "FRESNO", "state": "CA", "street": "755 E NEES AVE", "postcode": "93720"}}},
{"geometry": {"type": "Point", "coordinates": [-119.7838833788, 36.8531591477]}, "type": "Feature", "properties": {"collection_times": [{"days": "Mon-Fri", "time": "3:45pm"}, {"days": "Sat", "time": "1:00pm"}, {"days": "Sun", "time": "Closed"}], "id": "9372000046", "name": "USPS COLLECTION BOX - BLUE BOX", "address": {"city": "FRESNO", "state": "CA", "street": "8221 N FRESNO ST", "postcode": "93720"}}},
{"geometry": {"type": "Point", "coordinates": [-119.7711003875, 36.8518514284]}, "type": "Feature", "properties": {"collection_times": [{"days": "Mon-Fri", "time": "5:00pm"}, {"days": "Sat", "time": "4:00pm"}, {"days": "Sun", "time": "Closed"}], "id": "9372000055", "name": "USPS COLLECTION BOX - BLUE BOX", "address": {"city": "FRESNO", "state": "CA", "street": "755 E NEES AVE", "postcode": "93720"}}},
{"geometry": {"type": "Point", "coordinates": [-119.7711103689, 36.8518236409]}, "type": "Feature", "properties": {"collection_times": [{"days": "Mon-Fri", "time": "5:00pm"}, {"days": "Sat", "time": "4:00pm"}, {"days": "Sun", "time": "Closed"}], "id": "9372000056", "name": "USPS COLLECTION BOX - APC", "address": {"city": "FRESNO", "state": "CA", "street": "755 E NEES AVE", "postcode": "93720"}}},
{"geometry": {"type": "Point", "coordinates": [-119.7711003875, 36.8518514284]}, "type": "Feature", "properties": {"collection_times": [{"days": "Mon-Fri", "time": "5:00pm"}, {"days": "Sat", "time": "4:00pm"}, {"days": "Sun", "time": "Closed"}], "id": "9372000057", "name": "USPS COLLECTION BOX - APC", "address": {"city": "FRESNO", "state": "CA", "street": "755 E NEES AVE", "postcode": "93720"}}},
{"geometry": {"type": "Point", "coordinates": [-119.7989472415, 36.7598467949]}, "type": "Feature", "properties": {"collection_times": [{"days": "Mon-Fri", "time": "3:00pm"}, {"days": "Sat-Sun", "time": "Closed"}], "id": "9372100005", "name": "USPS COLLECTION BOX - BLUE BOX", "address": {"city": "FRESNO", "state": "CA", "street": "1315 VAN NESS AVE", "postcode": "93721"}}},
{"geometry": {"type": "Point", "coordinates": [-119.7813554588, 36.7275721255]}, "type": "Feature", "properties": {"collection_times": [{"days": "Mon-Fri", "time": "5:00pm"}, {"days": "Sat-Sun", "time": "Closed"}], "id": "9372100013", "name": "USPS COLLECTION BOX - BLUE BOX", "address": {"city": "FRESNO", "state": "CA", "street": "250 VAN NESS AVE", "postcode": "93721"}}},
{"geometry": {"type": "Point", "coordinates": [-119.7841467866, 36.7355045271]}, "type": "Feature", "properties": {"collection_times": [{"days": "Mon-Fri", "time": "3:45pm"}, {"days": "Sat-Sun", "time": "Closed"}], "id": "9372100018", "name": "USPS COLLECTION BOX - BLUE BOX", "address": {"city": "FRESNO", "state": "CA", "street": "2405 CAPITOL ST", "postcode": "93721"}}},
{"geometry": {"type": "Point", "coordinates": [-119.7828025727, 36.7425573658]}, "type": "Feature", "properties": {"collection_times": [{"days": "Mon-Fri", "time": "3:00pm"}, {"days": "Sat-Sun", "time": "Closed"}], "id": "9372100023", "name": "USPS COLLECTION BOX - BLUE BOX", "address": {"city": "FRESNO", "state": "CA", "street": "2900 FRESNO ST", "postcode": "93721"}}},
{"geometry": {"type": "Point", "coordinates": [-119.7918099593, 36.737037936]}, "type": "Feature", "properties": {"collection_times": [{"days": "Mon-Fri", "time": "3:00pm"}, {"days": "Sat-Sun", "time": "Closed"}], "id": "9372100028", "name": "USPS COLLECTION BOX - BLUE BOX", "address": {"city": "FRESNO", "state": "CA", "street": "1221 VAN NESS AVE", "postcode": "93721"}}},
{"geometry": {"type": "Point", "coordinates": [-119.7867828745, 36.739145013]}, "type": "Feature", "properties": {"collection_times": [{"days": "Mon-Fri", "time": "4:30pm"}, {"days": "Sat-Sun", "time": "Closed"}], "id": "9372100032", "name": "USPS COLLECTION BOX - BLUE BOX", "address": {"city": "FRESNO", "state": "CA", "street": "1130 O ST", "postcode": "93721"}}},
{"geometry": {"type": "Point", "coordinates": [-119.7910088679, 36.7369588957]}, "type": "Feature", "properties": {"collection_times": [{"days": "Mon-Fri", "time": "5:15pm"}, {"days": "Sat-Sun", "time": "Closed"}], "id": "9372100039", "name": "USPS COLLECTION BOX - BLUE BOX", "address": {"city": "FRESNO", "state": "CA", "street": "2135 FRESNO ST", "postcode": "93721"}}},
{"geometry": {"type": "Point", "coordinates": [-119.7925699097, 36.7357830436]}, "type": "Feature", "properties": {"collection_times": [{"days": "Mon-Fri", "time": "5:15pm"}, {"days": "Sat-Sun", "time": "Closed"}], "id": "9372100049", "name": "USPS COLLECTION BOX - BLUE BOX", "address": {"city": "FRESNO", "state": "CA", "street": "1199 FULTON MALL", "postcode": "93721"}}},
{"geometry": {"type": "Point", "coordinates": [-119.7865770404, 36.7405271452]}, "type": "Feature", "properties": {"collection_times": [{"days": "Mon-Fri", "time": "4:00pm"}, {"days": "Sat-Sun", "time": "Closed"}], "id": "9372100058", "name": "USPS COLLECTION BOX - BLUE BOX", "address": {"city": "FRESNO", "state": "CA", "street": "1151 P ST", "postcode": "93721"}}},
{"geometry": {"type": "Point", "coordinates": [-119.7868263176, 36.736264447]}, "type": "Feature", "properties": {"collection_times": [{"days": "Mon-Fri", "time": "5:00pm"}, {"days": "Sat", "time": "4:00pm"}, {"days": "Sun", "time": "Closed"}], "id": "9372100062", "name": "USPS COLLECTION BOX - BLUE BOX", "address": {"city": "FRESNO", "state": "CA", "street": "2309 TULARE ST", "postcode": "93721"}}},
{"geometry": {"type": "Point", "coordinates": [-119.7876228667, 36.7348501953]}, "type": "Feature", "properties": {"collection_times": [{"days": "Mon-Fri", "time": "3:30pm"}, {"days": "Sat-Sun", "time": "Closed"}], "id": "9372100072", "name": "USPS COLLECTION BOX - BLUE BOX", "address": {"city": "FRESNO", "state": "CA", "street": "955 L ST", "postcode": "93721"}}},
{"geometry": {"type": "Point", "coordinates": [-119.7809508868, 36.7354884869]}, "type": "Feature", "properties": {"collection_times": [{"days": "Mon-Fri", "time": "4:00pm"}, {"days": "Sat-Sun", "time": "Closed"}], "id": "9372100074", "name": "USPS COLLECTION BOX - BLUE BOX", "address": {"city": "FRESNO", "state": "CA", "street": "705 P ST", "postcode": "93721"}}},
{"geometry": {"type": "Point", "coordinates": [-119.7897813904, 36.7340154401]}, "type": "Feature", "properties": {"collection_times": [{"days": "Mon-Fri", "time": "3:15pm"}, {"days": "Sat-Sun", "time": "Closed"}], "id": "9372100075", "name": "USPS COLLECTION BOX - BLUE BOX", "address": {"city": "FRESNO", "state": "CA", "street": "2014 TULARE ST", "postcode": "93721"}}},
{"geometry": {"type": "Point", "coordinates": [-119.7870371862, 36.7362286389]}, "type": "Feature", "properties": {"collection_times": [{"days": "Mon-Fri", "time": "4:15pm"}, {"days": "Sat-Sun", "time": "Closed"}], "id": "9372100085", "name": "USPS COLLECTION BOX - PO LOBBY", "address": {"city": "FRESNO", "state": "CA", "street": "2309 TULARE ST", "postcode": "93721"}}},
{"geometry": {"type": "Point", "coordinates": [-119.7945985259, 36.7379127515]}, "type": "Feature", "properties": {"collection_times": [{"days": "Mon-Fri", "time": "3:00pm"}, {"days": "Sat-Sun", "time": "Closed"}], "id": "9372100089", "name": "USPS COLLECTION BOX - BLUE BOX", "address": {"city": "FRESNO", "state": "CA", "street": "1999 TUOLUMNE ST", "postcode": "93721"}}},
{"geometry": {"type": "Point", "coordinates": [-119.7855481319, 36.7388706903]}, "type": "Feature", "properties": {"collection_times": [{"days": "Mon-Fri", "time": "4:30pm"}, {"days": "Sat-Sun", "time": "Closed"}], "id": "9372100091", "name": "USPS COLLECTION BOX - BLUE BOX", "address": {"city": "FRESNO", "state": "CA", "street": "2550 MARIPOSA MALL", "postcode": "93721"}}},
{"geometry": {"type": "Point", "coordinates": [-119.8775593154, 36.8371885101]}, "type": "Feature", "properties": {"collection_times": [{"days": "Mon-Fri", "time": "3:45pm"}, {"days": "Sat", "time": "1:00pm"}, {"days": "Sun", "time": "Closed"}], "id": "9372200022", "name": "USPS COLLECTION BOX - BLUE BOX", "address": {"city": "FRESNO", "state": "CA", "street": "4770 W HERNDON AVE", "postcode": "93722"}}},
{"geometry": {"type": "Point", "coordinates": [-119.8773681424, 36.810845359]}, "type": "Feature", "properties": {"collection_times": [{"days": "Mon-Fri", "time": "4:15pm"}, {"days": "Sat-Sun", "time": "Closed"}], "id": "9372200024", "name": "USPS COLLECTION BOX - BLUE BOX", "address": {"city": "FRESNO", "state": "CA", "street": "4672 W JENNIFER AVE", "postcode": "93722"}}},
{"geometry": {"type": "Point", "coordinates": [-119.8627820732, 36.7718266203]}, "type": "Feature", "properties": {"collection_times": [{"days": "Mon-Fri", "time": "3:00pm"}, {"days": "Sat", "time": "1:00pm"}, {"days": "Sun", "time": "Closed"}], "id": "9372200028", "name": "USPS COLLECTION BOX - BLUE BOX", "address": {"city": "FRESNO", "state": "CA", "street": "4015 W CLINTON AVE", "postcode": "93722"}}},
{"geometry": {"type": "Point", "coordinates": [-119.8730253149, 36.8082724031]}, "type": "Feature", "properties": {"collection_times": [{"days": "Mon-Fri", "time": "4:15pm"}, {"days": "Sat", "time": "1:00pm"}, {"days": "Sun", "time": "Closed"}], "id": "9372200039", "name": "USPS COLLECTION BOX - BLUE BOX", "address": {"city": "FRESNO", "state": "CA", "street": "4460 W SHAW AVE", "postcode": "93722"}}},
{"geometry": {"type": "Point", "coordinates": [-119.7547232239, 36.7147908993]}, "type": "Feature", "properties": {"collection_times": [{"days": "Mon-Fri", "time": "5:00pm"}, {"days": "Sat", "time": "1:00pm"}, {"days": "Sun", "time": "Closed"}], "id": "9372500011", "name": "USPS COLLECTION BOX - BLUE BOX", "address": {"city": "FRESNO", "state": "CA", "street": "2382 S CEDAR AVE", "postcode": "93725"}}},
{"geometry": {"type": "Point", "coordinates": [-119.7566611904, 36.7069247597]}, "type": "Feature", "properties": {"collection_times": [{"days": "Mon-Fri", "time": "3:45pm"}, {"days": "Sat-Sun", "time": "Closed"}], "id": "9372500012", "name": "USPS COLLECTION BOX - PO LOBBY", "address": {"city": "FRESNO", "state": "CA", "street": "4026 E JENSEN AVE", "postcode": "93725"}}},
{"geometry": {"type": "Point", "coordinates": [-119.7546868318, 36.7147902538]}, "type": "Feature", "properties": {"collection_times": [{"days": "Mon-Fri", "time": "4:45pm"}, {"days": "Sat-Sun", "time": "Closed"}], "id": "9372500013", "name": "USPS COLLECTION BOX - PO LOBBY", "address": {"city": "FRESNO", "state": "CA", "street": "2382 S CEDAR AVE", "postcode": "93725"}}},
{"geometry": {"type": "Point", "coordinates": [-119.7566611904, 36.7069247597]}, "type": "Feature", "properties": {"collection_times": [{"days": "Mon-Fri", "time": "3:45pm"}, {"days": "Sat-Sun", "time": "Closed"}], "id": "9372500020", "name": "USPS COLLECTION BOX - PO LOBBY", "address": {"city": "FRESNO", "state": "CA", "street": "4026 E JENSEN AVE", "postcode": "93725"}}},
{"geometry": {"type": "Point", "coordinates": [-119.7556485775, 36.7941869107]}, "type": "Feature", "properties": {"collection_times": [{"days": "Mon-Fri", "time": "2:15pm"}, {"days": "Sat", "time": "1:00pm"}, {"days": "Sun", "time": "Closed"}], "id": "9372600014", "name": "USPS COLLECTION BOX - BLUE BOX", "address": {"city": "FRESNO", "state": "CA", "street": "4181 E ASHLAN AVE", "postcode": "93726"}}},
{"geometry": {"type": "Point", "coordinates": [-119.7724603014, 36.8043167214]}, "type": "Feature", "properties": {"collection_times": [{"days": "Mon-Fri", "time": "2:45pm"}, {"days": "Sat-Sun", "time": "Closed"}], "id": "9372600035", "name": "USPS COLLECTION BOX - BLUE BOX", "address": {"city": "FRESNO", "state": "CA", "street": "4747 N 1ST ST", "postcode": "93726"}}},
{"geometry": {"type": "Point", "coordinates": [-119.7499675126, 36.7941094429]}, "type": "Feature", "properties": {"collection_times": [{"days": "Mon-Fri", "time": "4:00pm"}, {"days": "Sat", "time": "1:00pm"}, {"days": "Sun", "time": "Closed"}], "id": "9372600051", "name": "USPS COLLECTION BOX - BLUE BOX", "address": {"city": "FRESNO", "state": "CA", "street": "4490 E ASHLAN AVE", "postcode": "93726"}}},
{"geometry": {"type": "Point", "coordinates": [-119.7886731201, 36.7797984218]}, "type": "Feature", "properties": {"collection_times": [{"days": "Mon-Fri", "time": "2:00pm"}, {"days": "Sat", "time": "1:00pm"}, {"days": "Sun", "time": "Closed"}], "id": "9372600053", "name": "USPS COLLECTION BOX - BLUE BOX", "address": {"city": "FRESNO", "state": "CA", "street": "1901 E SHIELDS AVE", "postcode": "93726"}}},
{"geometry": {"type": "Point", "coordinates": [-119.7035384005, 36.7486611055]}, "type": "Feature", "properties": {"collection_times": [{"days": "Mon-Fri", "time": "5:00pm"}, {"days": "Sat-Sun", "time": "Closed"}], "id": "9372700001", "name": "USPS COLLECTION BOX - PO LOBBY", "address": {"city": "FRESNO", "state": "CA", "street": "5555 E TULARE AVE", "postcode": "93727"}}},
{"geometry": {"type": "Point", "coordinates": [-119.7035384005, 36.7486611055]}, "type": "Feature", "properties": {"collection_times": [{"days": "Mon-Fri", "time": "5:00pm"}, {"days": "Sat", "time": "1:00pm"}, {"days": "Sun", "time": "Closed"}], "id": "9372700002", "name": "USPS COLLECTION BOX - BLUE BOX", "address": {"city": "FRESNO", "state": "CA", "street": "5555 E TULARE AVE", "postcode": "93727"}}},
{"geometry": {"type": "Point", "coordinates": [-119.7021792344, 36.7431685262]}, "type": "Feature", "properties": {"collection_times": [{"days": "Mon-Fri", "time": "5:00pm"}, {"days": "Sat", "time": "1:00pm"}, {"days": "Sun", "time": "Closed"}], "id": "9372700003", "name": "USPS COLLECTION BOX - BLUE BOX", "address": {"city": "FRESNO", "state": "CA", "street": "5555 E TULARE AVE", "postcode": "93727"}}},
{"geometry": {"type": "Point", "coordinates": [-119.7269286997, 36.7664382423]}, "type": "Feature", "properties": {"collection_times": [{"days": "Mon-Fri", "time": "4:00pm"}, {"days": "Sat-Sun", "time": "Closed"}], "id": "9372700012", "name": "USPS COLLECTION BOX - BLUE BOX", "address": {"city": "FRESNO", "state": "CA", "street": "1717 N GATEWAY BLVD", "postcode": "93727"}}},
{"geometry": {"type": "Point", "coordinates": [-119.6983256434, 36.7358171113]}, "type": "Feature", "properties": {"collection_times": [{"days": "Mon-Fri", "time": "1:30pm"}, {"days": "Sat", "time": "1:00pm"}, {"days": "Sun", "time": "Closed"}], "id": "9372700017", "name": "USPS COLLECTION BOX - BLUE BOX", "address": {"city": "FRESNO", "state": "CA", "street": "5636 E KINGS CANYON RD", "postcode": "93727"}}},
{"geometry": {"type": "Point", "coordinates": [-119.7004938923, 36.7928900888]}, "type": "Feature", "properties": {"collection_times": [{"days": "Mon-Fri", "time": "3:00pm"}, {"days": "Sat", "time": "1:00pm"}, {"days": "Sun", "time": "Closed"}], "id": "9372700044", "name": "USPS COLLECTION BOX - BLUE BOX", "address": {"city": "FRESNO", "state": "CA", "street": "4149 N CLOVIS AVE", "postcode": "93727"}}},
{"geometry": {"type": "Point", "coordinates": [-119.6931394587, 36.7793234317]}, "type": "Feature", "properties": {"collection_times": [{"days": "Mon-Fri", "time": "2:30pm"}, {"days": "Sat", "time": "1:00pm"}, {"days": "Sun", "time": "Closed"}], "id": "9372700048", "name": "USPS COLLECTION BOX - BLUE BOX", "address": {"city": "FRESNO", "state": "CA", "street": "5750 E SHIELDS AVE", "postcode": "93727"}}},
{"geometry": {"type": "Point", "coordinates": [-119.7268993141, 36.7725305906]}, "type": "Feature", "properties": {"collection_times": [{"days": "Mon-Fri", "time": "3:30pm"}, {"days": "Sat-Sun", "time": "Closed"}], "id": "9372700071", "name": "USPS COLLECTION BOX - BLUE BOX", "address": {"city": "FRESNO", "state": "CA", "street": "2415 N FINE", "postcode": "93727"}}},
{"geometry": {"type": "Point", "coordinates": [-119.7223262972, 36.7681359148]}, "type": "Feature", "properties": {"collection_times": [{"days": "Mon-Fri", "time": "3:45pm"}, {"days": "Sat-Sun", "time": "Closed"}], "id": "9372700093", "name": "USPS COLLECTION BOX - BLUE BOX", "address": {"city": "FRESNO", "state": "CA", "street": "5110 E CLINTON WAY", "postcode": "93727"}}},
{"geometry": {"type": "Point", "coordinates": [-119.7248820888, 36.7286075987]}, "type": "Feature", "properties": {"collection_times": [{"days": "Mon-Fri", "time": "1:15pm"}, {"days": "Sat-Sun", "time": "Closed"}], "id": "9372700095", "name": "USPS COLLECTION BOX - BLUE BOX", "address": {"city": "FRESNO", "state": "CA", "street": "5054 E BUTLER AVE", "postcode": "93727"}}},
{"geometry": {"type": "Point", "coordinates": [-119.8006732786, 36.7586575976]}, "type": "Feature", "properties": {"collection_times": [{"days": "Mon-Fri", "time": "5:00pm"}, {"days": "Sat", "time": "4:00pm"}, {"days": "Sun", "time": "Closed"}], "id": "9372800005", "name": "USPS COLLECTION BOX - BLUE BOX", "address": {"city": "FRESNO", "state": "CA", "street": "824 E FERN AVE", "postcode": "93728"}}},
{"geometry": {"type": "Point", "coordinates": [-119.8141665856, 36.7584938529]}, "type": "Feature", "properties": {"collection_times": [{"days": "Mon-Fri", "time": "2:15pm"}, {"days": "Sat-Sun", "time": "Closed"}], "id": "9372800013", "name": "USPS COLLECTION BOX - BLUE BOX", "address": {"city": "FRESNO", "state": "CA", "street": "555 W OLIVE AVE", "postcode": "93728"}}},
{"geometry": {"type": "Point", "coordinates": [-119.8006732786, 36.7586575976]}, "type": "Feature", "properties": {"collection_times": [{"days": "Mon-Fri", "time": "4:30pm"}, {"days": "Sat-Sun", "time": "Closed"}], "id": "9372800028", "name": "USPS COLLECTION BOX - PO LOBBY", "address": {"city": "FRESNO", "state": "CA", "street": "824 E FERN AVE", "postcode": "93728"}}},
{"geometry": {"type": "Point", "coordinates": [-119.8006732786, 36.7586575976]}, "type": "Feature", "properties": {"collection_times": [{"days": "Mon-Fri", "time": "4:30pm"}, {"days": "Sat-Sun", "time": "Closed"}], "id": "9372800029", "name": "USPS COLLECTION BOX - PO LOBBY", "address": {"city": "FRESNO", "state": "CA", "street": "824 E FERN AVE", "postcode": "93728"}}},
{"geometry": {"type": "Point", "coordinates": [-119.8006732786, 36.7586575976]}, "type": "Feature", "properties": {"collection_times": [{"days": "Mon-Fri", "time": "4:30pm"}, {"days": "Sat-Sun", "time": "Closed"}], "id": "9372800030", "name": "USPS COLLECTION BOX - PO LOBBY", "address": {"city": "FRESNO", "state": "CA", "street": "824 E FERN AVE", "postcode": "93728"}}}
]}
