{"type": "FeatureCollection", "features": [
{"geometry": {"type": "Point", "coordinates": [-121.65488, 36.67403]}, "type": "Feature", "properties": {"collection_times": [{"days": "Mon-Sat", "time": "10:00am"}, {"days": "Sun", "time": "Closed"}], "id": "9390100004", "name": "USPS COLLECTION BOX - BLUE BOX", "address": {"city": "SALINAS", "state": "CA", "street": "295 MAIN ST", "postcode": "93901"}}},
{"geometry": {"type": "Point", "coordinates": [-121.6538091543, 36.6743070321]}, "type": "Feature", "properties": {"collection_times": [{"days": "Mon-Sat", "time": "10:00am"}, {"days": "Sun", "time": "Closed"}], "id": "9390100005", "name": "USPS COLLECTION BOX - BLUE BOX", "address": {"city": "SALINAS", "state": "CA", "street": "235 MONTEREY ST", "postcode": "93901"}}},
{"geometry": {"type": "Point", "coordinates": [-121.6592767906, 36.6750948828]}, "type": "Feature", "properties": {"collection_times": [{"days": "Mon-Fri", "time": "10:00am"}, {"days": "Sat-Sun", "time": "Closed"}], "id": "9390100013", "name": "USPS COLLECTION BOX - BLUE BOX", "address": {"city": "SALINAS", "state": "CA", "street": "140 W GABILAN ST", "postcode": "93901"}}},
{"geometry": {"type": "Point", "coordinates": [-121.6576549539, 36.6627861948]}, "type": "Feature", "properties": {"collection_times": [{"days": "Mon-Sat", "time": "10:00am"}, {"days": "Sun", "time": "Closed"}], "id": "9390100026", "name": "USPS COLLECTION BOX - BLUE BOX", "address": {"city": "SALINAS", "state": "CA", "street": "944 S MAIN ST", "postcode": "93901"}}},
{"geometry": {"type": "Point", "coordinates": [-121.6605638499, 36.66223257]}, "type": "Feature", "properties": {"collection_times": [{"days": "Mon-Sat", "time": "10:00am"}, {"days": "Sun", "time": "Closed"}], "id": "9390100030", "name": "USPS COLLECTION BOX - BLUE BOX", "address": {"city": "SALINAS", "state": "CA", "street": "910 PADRE DR", "postcode": "93901"}}},
{"geometry": {"type": "Point", "coordinates": [-121.6453273385, 36.6596844764]}, "type": "Feature", "properties": {"collection_times": [{"days": "Mon-Sat", "time": "10:00am"}, {"days": "Sun", "time": "Closed"}], "id": "9390100047", "name": "USPS COLLECTION BOX - BLUE BOX", "address": {"city": "SALINAS", "state": "CA", "street": "535 E ROMIE LN", "postcode": "93901"}}},
{"geometry": {"type": "Point", "coordinates": [-121.6558781495, 36.6728638222]}, "type": "Feature", "properties": {"collection_times": [{"days": "Mon-Fri", "time": "12:00pm"}, {"days": "Sat-Sun", "time": "Closed"}], "id": "9390100049", "name": "USPS COLLECTION BOX - BLUE BOX", "address": {"city": "SALINAS", "state": "CA", "street": "333 SALINAS ST", "postcode": "93901"}}},
{"geometry": {"type": "Point", "coordinates": [-121.6749829368, 36.6674352235]}, "type": "Feature", "properties": {"collection_times": [{"days": "Mon-Sat", "time": "10:00am"}, {"days": "Sun", "time": "Closed"}], "id": "9390100055", "name": "USPS COLLECTION BOX - BLUE BOX", "address": {"city": "SALINAS", "state": "CA", "street": "975 W ALISAL ST", "postcode": "93901"}}},
{"geometry": {"type": "Point", "coordinates": [-121.637804071, 36.654403983]}, "type": "Feature", "properties": {"collection_times": [{"days": "Mon-Fri", "time": "12:00pm"}, {"days": "Sat-Sun", "time": "Closed"}], "id": "9390100065", "name": "USPS COLLECTION BOX - BLUE BOX", "address": {"city": "SALINAS", "state": "CA", "street": "915 BLANCO CIR", "postcode": "93901"}}},
{"geometry": {"type": "Point", "coordinates": [-121.6569231276, 36.6734667451]}, "type": "Feature", "properties": {"collection_times": [{"days": "Mon-Fri", "time": "5:00pm"}, {"days": "Sat", "time": "4:00pm"}, {"days": "Sun", "time": "Closed"}], "id": "9390100068", "name": "USPS COLLECTION BOX - BLUE BOX", "address": {"city": "SALINAS", "state": "CA", "street": "100 W ALISAL ST", "postcode": "93901"}}},
{"geometry": {"type": "Point", "coordinates": [-121.6379256002, 36.6533703062]}, "type": "Feature", "properties": {"collection_times": [{"days": "Mon-Fri", "time": "11:00am"}, {"days": "Sat-Sun", "time": "Closed"}], "id": "9390100072", "name": "USPS COLLECTION BOX - BLUE BOX", "address": {"city": "SALINAS", "state": "CA", "street": "928 E BLANCO RD", "postcode": "93901"}}},
{"geometry": {"type": "Point", "coordinates": [-121.6262450274, 36.6778606409]}, "type": "Feature", "properties": {"collection_times": [{"days": "Mon-Fri", "time": "5:00pm"}, {"days": "Sat", "time": "4:00pm"}, {"days": "Sun", "time": "Closed"}], "id": "9390500019", "name": "USPS COLLECTION BOX - BLUE BOX", "address": {"city": "SALINAS", "state": "CA", "street": "303 N SANBORN RD", "postcode": "93905"}}},
{"geometry": {"type": "Point", "coordinates": [-121.632239438, 36.673673059]}, "type": "Feature", "properties": {"collection_times": [{"days": "Mon-Sat", "time": "3:00pm"}, {"days": "Sun", "time": "Closed"}], "id": "9390500027", "name": "USPS COLLECTION BOX - BLUE BOX", "address": {"city": "SALINAS", "state": "CA", "street": "7 N HEBBRON AVE", "postcode": "93905"}}},
{"geometry": {"type": "Point", "coordinates": [-121.6320403434, 36.7035296675]}, "type": "Feature", "properties": {"collection_times": [{"days": "Mon-Sat", "time": "10:00am"}, {"days": "Sun", "time": "Closed"}], "id": "9390600002", "name": "USPS COLLECTION BOX - BLUE BOX", "address": {"city": "SALINAS", "state": "CA", "street": "631 E ALVIN DR", "postcode": "93906"}}},
{"geometry": {"type": "Point", "coordinates": [-121.6499669035, 36.6988510647]}, "type": "Feature", "properties": {"collection_times": [{"days": "Mon-Sat", "time": "10:00am"}, {"days": "Sun", "time": "Closed"}], "id": "9390600009", "name": "USPS COLLECTION BOX - BLUE BOX", "address": {"city": "SALINAS", "state": "CA", "street": "110 E LAUREL DR", "postcode": "93906"}}},
{"geometry": {"type": "Point", "coordinates": [-121.6540354246, 36.7115637892]}, "type": "Feature", "properties": {"collection_times": [{"days": "Mon-Sat", "time": "12:00pm"}, {"days": "Sun", "time": "Closed"}], "id": "9390600015", "name": "USPS COLLECTION BOX - BLUE BOX", "address": {"city": "SALINAS", "state": "CA", "street": "1546 N MAIN ST", "postcode": "93906"}}},
{"geometry": {"type": "Point", "coordinates": [-121.6275320736, 36.7246491605]}, "type": "Feature", "properties": {"collection_times": [{"days": "Mon-Sat", "time": "12:00pm"}, {"days": "Sun", "time": "Closed"}], "id": "9390600020", "name": "USPS COLLECTION BOX - BLUE BOX", "address": {"city": "SALINAS", "state": "CA", "street": "784 NORTHRIDGE MALL", "postcode": "93906"}}},
{"geometry": {"type": "Point", "coordinates": [-121.6382000107, 36.7336134969]}, "type": "Feature", "properties": {"collection_times": [{"days": "Mon-Sat", "time": "10:00am"}, {"days": "Sun", "time": "Closed"}], "id": "9390600023", "name": "USPS COLLECTION BOX - BLUE BOX", "address": {"city": "SALINAS", "state": "CA", "street": "307 SAN JUAN GRADE RD", "postcode": "93906"}}},
{"geometry": {"type": "Point", "coordinates": [-121.6533697627, 36.7057250005]}, "type": "Feature", "properties": {"collection_times": [{"days": "Mon-Sat", "time": "12:00pm"}, {"days": "Sun", "time": "Closed"}], "id": "9390600026", "name": "USPS COLLECTION BOX - BLUE BOX", "address": {"city": "SALINAS", "state": "CA", "street": "1403 N MAIN ST", "postcode": "93906"}}},
{"geometry": {"type": "Point", "coordinates": [-121.669097845, 36.6961519836]}, "type": "Feature", "properties": {"collection_times": [{"days": "Mon-Sat", "time": "5:00pm"}, {"days": "Sun", "time": "Closed"}], "id": "9390700000", "name": "USPS COLLECTION BOX - BLUE BOX", "address": {"city": "SALINAS", "state": "CA", "street": "1011 POST DR", "postcode": "93907"}}},
{"geometry": {"type": "Point", "coordinates": [-121.669097845, 36.6961519836]}, "type": "Feature", "properties": {"collection_times": [{"days": "Mon-Sat", "time": "5:00pm"}, {"days": "Sun", "time": "Closed"}], "id": "9390700001", "name": "USPS COLLECTION BOX - BLUE BOX", "address": {"city": "SALINAS", "state": "CA", "street": "1011 POST DR", "postcode": "93907"}}},
{"geometry": {"type": "Point", "coordinates": [-121.669097845, 36.6961519836]}, "type": "Feature", "properties": {"collection_times": [{"days": "Mon-Sat", "time": "5:00pm"}, {"days": "Sun", "time": "Closed"}], "id": "9390700003", "name": "USPS COLLECTION BOX - BLUE BOX", "address": {"city": "SALINAS", "state": "CA", "street": "1011 POST DR", "postcode": "93907"}}},
{"geometry": {"type": "Point", "coordinates": [-121.665425183, 36.8011961631]}, "type": "Feature", "properties": {"collection_times": [{"days": "Mon-Fri", "time": "12:00pm"}, {"days": "Sat-Sun", "time": "Closed"}], "id": "9390700007", "name": "USPS COLLECTION BOX - BLUE BOX", "address": {"city": "SALINAS", "state": "CA", "street": "7955 SAN MIGUEL CANYON RD", "postcode": "93907"}}},
{"geometry": {"type": "Point", "coordinates": [-121.66414, 36.79215]}, "type": "Feature", "properties": {"collection_times": [{"days": "Mon-Sat", "time": "12:00pm"}, {"days": "Sun", "time": "Closed"}], "id": "9390700009", "name": "USPS COLLECTION BOX - BLUE BOX", "address": {"city": "SALINAS", "state": "CA", "street": "17547 VIERRA CANYON RD", "postcode": "93907"}}},
{"geometry": {"type": "Point", "coordinates": [-121.6649260233, 36.7599103247]}, "type": "Feature", "properties": {"collection_times": [{"days": "Mon-Fri", "time": "5:00pm"}, {"days": "Sat", "time": "3:00pm"}, {"days": "Sun", "time": "Closed"}], "id": "9390700016", "name": "USPS COLLECTION BOX - EXPRESS", "address": {"city": "SALINAS", "state": "CA", "street": "1011 POST DR", "postcode": "93907"}}},
{"geometry": {"type": "Point", "coordinates": [-121.669097845, 36.6961519836]}, "type": "Feature", "properties": {"collection_times": [{"days": "Mon-Sat", "time": "5:00pm"}, {"days": "Sun", "time": "Closed"}], "id": "9390700017", "name": "USPS COLLECTION BOX - APC", "address": {"city": "SALINAS", "state": "CA", "street": "1011 POST DR", "postcode": "93907"}}},
{"geometry": {"type": "Point", "coordinates": [-121.7012690723, 36.5978722751]}, "type": "Feature", "properties": {"collection_times": [{"days": "Mon-Sat", "time": "10:00am"}, {"days": "Sun", "time": "Closed"}], "id": "9390800002", "name": "USPS COLLECTION BOX - BLUE BOX", "address": {"city": "SALINAS", "state": "CA", "street": "22758 PORTOLA DR", "postcode": "93908"}}},
{"geometry": {"type": "Point", "coordinates": [-121.6462990433, 36.6220216939]}, "type": "Feature", "properties": {"collection_times": [{"days": "Mon-Fri", "time": "5:00pm"}, {"days": "Sat", "time": "3:00pm"}, {"days": "Sun", "time": "Closed"}], "id": "9390800004", "name": "USPS COLLECTION BOX - BLUE BOX", "address": {"city": "SALINAS", "state": "CA", "street": "40 SPRECKELS BLVD", "postcode": "93908"}}},
{"geometry": {"type": "Point", "coordinates": [-121.5441447804, 36.0824585972]}, "type": "Feature", "properties": {"collection_times": [{"days": "Mon-Sat", "time": "2:00pm"}, {"days": "Sun", "time": "Closed"}], "id": "9392000002", "name": "USPS COLLECTION BOX - BLUE BOX", "address": {"city": "BIG SUR", "state": "CA", "street": "HC 67 BOX 1158", "postcode": "93920"}}},
{"geometry": {"type": "Point", "coordinates": [-121.8469663159, 36.2888839093]}, "type": "Feature", "properties": {"collection_times": [{"days": "Mon-Fri", "time": "4:00pm"}, {"days": "Sat", "time": "2:00pm"}, {"days": "Sun", "time": "Closed"}], "id": "9392000004", "name": "USPS COLLECTION BOX - BLUE BOX", "address": {"city": "BIG SUR", "state": "CA", "street": "47500 HIGHWAY 1", "postcode": "93920"}}},
{"geometry": {"type": "Point", "coordinates": [-121.9059618917, 36.5394654628]}, "type": "Feature", "properties": {"collection_times": [{"days": "Mon-Fri", "time": "4:00pm"}, {"days": "Sat", "time": "1:00pm"}, {"days": "Sun", "time": "Closed"}], "id": "9392100005", "name": "USPS COLLECTION BOX - BLUE BOX", "address": {"city": "CARMEL", "state": "CA", "street": "498 5TH AVE", "postcode": "93921"}}},
{"geometry": {"type": "Point", "coordinates": [-121.9059618917, 36.5394654628]}, "type": "Feature", "properties": {"collection_times": [{"days": "Mon-Fri", "time": "4:00pm"}, {"days": "Sat", "time": "1:00pm"}, {"days": "Sun", "time": "Closed"}], "id": "9392100007", "name": "USPS COLLECTION BOX - BLUE BOX", "address": {"city": "CARMEL", "state": "CA", "street": "498 5TH AVE", "postcode": "93921"}}},
{"geometry": {"type": "Point", "coordinates": [-121.9059618917, 36.5394654628]}, "type": "Feature", "properties": {"collection_times": [{"days": "Mon-Fri", "time": "4:00pm"}, {"days": "Sat", "time": "1:00pm"}, {"days": "Sun", "time": "Closed"}], "id": "9392100013", "name": "USPS COLLECTION BOX - BLUE BOX", "address": {"city": "CARMEL", "state": "CA", "street": "498 5TH AVE", "postcode": "93921"}}},
{"geometry": {"type": "Point", "coordinates": [-121.9059243914, 36.5389253933]}, "type": "Feature", "properties": {"collection_times": [{"days": "Mon-Fri", "time": "5:00pm"}, {"days": "Sat", "time": "1:00pm"}, {"days": "Sun", "time": "Closed"}], "id": "9392300001", "name": "USPS COLLECTION BOX - BLUE BOX", "address": {"city": "CARMEL", "state": "CA", "street": "3845 VIA NONA MARIE", "postcode": "93923"}}},
{"geometry": {"type": "Point", "coordinates": [-121.9059243914, 36.5389253933]}, "type": "Feature", "properties": {"collection_times": [{"days": "Mon-Fri", "time": "5:00pm"}, {"days": "Sat", "time": "1:00pm"}, {"days": "Sun", "time": "Closed"}], "id": "9392300006", "name": "USPS COLLECTION BOX - BLUE BOX", "address": {"city": "CARMEL", "state": "CA", "street": "3845 VIA NONA MARIE", "postcode": "93923"}}},
{"geometry": {"type": "Point", "coordinates": [-121.9059243914, 36.5389253933]}, "type": "Feature", "properties": {"collection_times": [{"days": "Mon-Fri", "time": "5:00pm"}, {"days": "Sat", "time": "1:00pm"}, {"days": "Sun", "time": "Closed"}], "id": "9392300007", "name": "USPS COLLECTION BOX - BLUE BOX", "address": {"city": "CARMEL", "state": "CA", "street": "3845 VIA NONA MARIE", "postcode": "93923"}}},
{"geometry": {"type": "Point", "coordinates": [-121.9059243914, 36.5389253933]}, "type": "Feature", "properties": {"collection_times": [{"days": "Mon-Fri", "time": "5:00pm"}, {"days": "Sat", "time": "1:00pm"}, {"days": "Sun", "time": "Closed"}], "id": "9392300011", "name": "USPS COLLECTION BOX - PO LOBBY", "address": {"city": "CARMEL", "state": "CA", "street": "3845 VIA NONA MARIE", "postcode": "93923"}}},
{"geometry": {"type": "Point", "coordinates": [-121.7281102884, 36.479776176]}, "type": "Feature", "properties": {"collection_times": [{"days": "Mon-Fri", "time": "4:30pm"}, {"days": "Sat", "time": "3:15pm"}, {"days": "Sun", "time": "Closed"}], "id": "9392400000", "name": "USPS COLLECTION BOX - BLUE BOX", "address": {"city": "CARMEL VALLEY", "state": "CA", "street": "11 VIA CONTENTA", "postcode": "93924"}}},
{"geometry": {"type": "Point", "coordinates": [-121.5179817051, 36.5708762402]}, "type": "Feature", "properties": {"collection_times": [{"days": "Mon-Fri", "time": "4:00pm"}, {"days": "Sat", "time": "10:00am"}, {"days": "Sun", "time": "Closed"}], "id": "9392500000", "name": "USPS COLLECTION BOX - BLUE BOX", "address": {"city": "CHUALAR", "state": "CA", "street": "25561 JACKSON ST", "postcode": "93925"}}},
{"geometry": {"type": "Point", "coordinates": [-121.4435689552, 36.5072211761]}, "type": "Feature", "properties": {"collection_times": [{"days": "Mon-Fri", "time": "5:00pm"}, {"days": "Sat", "time": "11:00am"}, {"days": "Sun", "time": "Closed"}], "id": "9392600002", "name": "USPS COLLECTION BOX - BLUE BOX", "address": {"city": "GONZALES", "state": "CA", "street": "346 BELDEN ST", "postcode": "93926"}}},
{"geometry": {"type": "Point", "coordinates": [-121.2436403796, 36.3208181988]}, "type": "Feature", "properties": {"collection_times": [{"days": "Mon-Fri", "time": "4:00pm"}, {"days": "Sat", "time": "11:00am"}, {"days": "Sun", "time": "Closed"}], "id": "9392700000", "name": "USPS COLLECTION BOX - BLUE BOX", "address": {"city": "GREENFIELD", "state": "CA", "street": "846 OAK AVE", "postcode": "93927"}}},
{"geometry": {"type": "Point", "coordinates": [-121.1756826576, 35.9680399386]}, "type": "Feature", "properties": {"collection_times": [{"days": "Mon-Fri", "time": "4:00pm"}, {"days": "Sat", "time": "2:45pm"}, {"days": "Sun", "time": "Closed"}], "id": "9392800000", "name": "USPS COLLECTION BOX - BLUE BOX", "address": {"city": "JOLON", "state": "CA", "street": "79 INFANTRY RD", "postcode": "93928"}}},
{"geometry": {"type": "Point", "coordinates": [-121.124057384, 36.2141749106]}, "type": "Feature", "properties": {"collection_times": [{"days": "Mon-Fri", "time": "3:00pm"}, {"days": "Sat", "time": "1:00pm"}, {"days": "Sun", "time": "Closed"}], "id": "9393000000", "name": "USPS COLLECTION BOX - BLUE BOX", "address": {"city": "KING CITY", "state": "CA", "street": "116 BROADWAY ST", "postcode": "93930"}}},
{"geometry": {"type": "Point", "coordinates": [-121.1261346157, 36.2127133403]}, "type": "Feature", "properties": {"collection_times": [{"days": "Mon-Fri", "time": "5:00pm"}, {"days": "Sat", "time": "4:00pm"}, {"days": "Sun", "time": "Closed"}], "id": "9393000005", "name": "USPS COLLECTION BOX - BLUE BOX", "address": {"city": "KING CITY", "state": "CA", "street": "123 S 3RD ST", "postcode": "93930"}}},
{"geometry": {"type": "Point", "coordinates": [-121.1261346157, 36.2127133403]}, "type": "Feature", "properties": {"collection_times": [{"days": "Mon-Fri", "time": "5:00pm"}, {"days": "Sat", "time": "4:00pm"}, {"days": "Sun", "time": "Closed"}], "id": "9393000007", "name": "USPS COLLECTION BOX - BLUE BOX", "address": {"city": "KING CITY", "state": "CA", "street": "123 S 3RD ST", "postcode": "93930"}}},
{"geometry": {"type": "Point", "coordinates": [-121.126323925, 36.2152115672]}, "type": "Feature", "properties": {"collection_times": [{"days": "Mon-Sat", "time": "3:00pm"}, {"days": "Sun", "time": "Closed"}], "id": "9393000015", "name": "USPS COLLECTION BOX - BLUE BOX", "address": {"city": "KING CITY", "state": "CA", "street": "221 N 2ND ST", "postcode": "93930"}}},
{"geometry": {"type": "Point", "coordinates": [-121.0809124679, 35.9368487707]}, "type": "Feature", "properties": {"collection_times": [{"days": "Mon-Fri", "time": "3:30pm"}, {"days": "Sat", "time": "2:30pm"}, {"days": "Sun", "time": "Closed"}], "id": "9393200001", "name": "USPS COLLECTION BOX - BLUE BOX", "address": {"city": "LOCKWOOD", "state": "CA", "street": "68025 JOLON RD", "postcode": "93932"}}},
{"geometry": {"type": "Point", "coordinates": [-121.7943355639, 36.6833849955]}, "type": "Feature", "properties": {"collection_times": [{"days": "Mon-Fri", "time": "5:00pm"}, {"days": "Sat", "time": "4:00pm"}, {"days": "Sun", "time": "Closed"}], "id": "9393300017", "name": "USPS COLLECTION BOX - BLUE BOX", "address": {"city": "MARINA", "state": "CA", "street": "3100 DE FOREST RD", "postcode": "93933"}}},
{"geometry": {"type": "Point", "coordinates": [-121.7943355639, 36.6833849955]}, "type": "Feature", "properties": {"collection_times": [{"days": "Mon-Fri", "time": "5:00pm"}, {"days": "Sat", "time": "4:00pm"}, {"days": "Sun", "time": "Closed"}], "id": "9393300018", "name": "USPS COLLECTION BOX - BLUE BOX", "address": {"city": "MARINA", "state": "CA", "street": "3100 DE FOREST RD", "postcode": "93933"}}},
{"geometry": {"type": "Point", "coordinates": [-121.7943355639, 36.6833849955]}, "type": "Feature", "properties": {"collection_times": [{"days": "Mon-Fri", "time": "5:00pm"}, {"days": "Sat", "time": "4:00pm"}, {"days": "Sun", "time": "Closed"}], "id": "9393300019", "name": "USPS COLLECTION BOX - BLUE BOX", "address": {"city": "MARINA", "state": "CA", "street": "3100 DE FOREST RD", "postcode": "93933"}}},
{"geometry": {"type": "Point", "coordinates": [-121.79331, 36.684814]}, "type": "Feature", "properties": {"collection_times": [{"days": "Mon-Fri", "time": "5:00pm"}, {"days": "Sat", "time": "4:00pm"}, {"days": "Sun", "time": "Closed"}], "id": "9393300020", "name": "USPS COLLECTION BOX - BLUE BOX", "address": {"city": "MARINA", "state": "CA", "street": "3100 DE FOREST RD", "postcode": "93933"}}},
{"geometry": {"type": "Point", "coordinates": [-121.8956733954, 36.5960803217]}, "type": "Feature", "properties": {"collection_times": [{"days": "Mon-Sat", "time": "3:00pm"}, {"days": "Sun", "time": "Closed"}], "id": "9394000002", "name": "USPS COLLECTION BOX - BLUE BOX", "address": {"city": "MONTEREY", "state": "CA", "street": "539 HARTNELL ST", "postcode": "93940"}}},
{"geometry": {"type": "Point", "coordinates": [-121.8950944193, 36.5998739718]}, "type": "Feature", "properties": {"collection_times": [{"days": "Mon-Fri", "time": "3:00pm"}, {"days": "Sat", "time": "12:00pm"}, {"days": "Sun", "time": "Closed"}], "id": "9394000004", "name": "USPS COLLECTION BOX - BLUE BOX", "address": {"city": "MONTEREY", "state": "CA", "street": "407 CALLE PRINCIPAL", "postcode": "93940"}}},
{"geometry": {"type": "Point", "coordinates": [-121.8930439772, 36.5996935519]}, "type": "Feature", "properties": {"collection_times": [{"days": "Mon-Fri", "time": "1:00pm"}, {"days": "Sat", "time": "12:00pm"}, {"days": "Sun", "time": "Closed"}], "id": "9394000006", "name": "USPS COLLECTION BOX - BLUE BOX", "address": {"city": "MONTEREY", "state": "CA", "street": "180 E FRANKLIN ST", "postcode": "93940"}}},
{"geometry": {"type": "Point", "coordinates": [-121.8943697746, 36.6012392058]}, "type": "Feature", "properties": {"collection_times": [{"days": "Mon-Fri", "time": "1:00pm"}, {"days": "Sat", "time": "12:00pm"}, {"days": "Sun", "time": "Closed"}], "id": "9394000007", "name": "USPS COLLECTION BOX - BLUE BOX", "address": {"city": "MONTEREY", "state": "CA", "street": "2 PORTOLA PLZ", "postcode": "93940"}}},
{"geometry": {"type": "Point", "coordinates": [-121.8965819079, 36.5969486136]}, "type": "Feature", "properties": {"collection_times": [{"days": "Mon-Sat", "time": "3:00pm"}, {"days": "Sun", "time": "Closed"}], "id": "9394000008", "name": "USPS COLLECTION BOX - BLUE BOX", "address": {"city": "MONTEREY", "state": "CA", "street": "580 CALLE PRINCIPAL", "postcode": "93940"}}},
{"geometry": {"type": "Point", "coordinates": [-121.8953350691, 36.6001118459]}, "type": "Feature", "properties": {"collection_times": [{"days": "Mon-Sat", "time": "12:00pm"}, {"days": "Sun", "time": "Closed"}], "id": "9394000009", "name": "USPS COLLECTION BOX - BLUE BOX", "address": {"city": "MONTEREY", "state": "CA", "street": "201 W FRANKLIN ST", "postcode": "93940"}}},
{"geometry": {"type": "Point", "coordinates": [-121.8341511548, 36.5838621528]}, "type": "Feature", "properties": {"collection_times": [{"days": "Mon-Sat", "time": "12:00pm"}, {"days": "Sun", "time": "Closed"}], "id": "9394000011", "name": "USPS COLLECTION BOX - BLUE BOX", "address": {"city": "MONTEREY", "state": "CA", "street": "375 HERITAGE HBR", "postcode": "93940"}}},
{"geometry": {"type": "Point", "coordinates": [-121.902976261, 36.6152266677]}, "type": "Feature", "properties": {"collection_times": [{"days": "Mon-Sat", "time": "12:00pm"}, {"days": "Sun", "time": "Closed"}], "id": "9394000019", "name": "USPS COLLECTION BOX - BLUE BOX", "address": {"city": "MONTEREY", "state": "CA", "street": "744 LIGHTHOUSE AVE", "postcode": "93940"}}},
{"geometry": {"type": "Point", "coordinates": [-121.91102, 36.606712]}, "type": "Feature", "properties": {"collection_times": [{"days": "Mon-Fri", "time": "3:30pm"}, {"days": "Sat", "time": "12:00pm"}, {"days": "Sun", "time": "Closed"}], "id": "9394000020", "name": "USPS COLLECTION BOX - BLUE BOX", "address": {"city": "MONTEREY", "state": "CA", "street": "1712 PRIVATE BOLIO RD BLDG 517", "postcode": "93940"}}},
{"geometry": {"type": "Point", "coordinates": [-121.8951489015, 36.5952651456]}, "type": "Feature", "properties": {"collection_times": [{"days": "Mon-Sat", "time": "3:00pm"}, {"days": "Sun", "time": "Closed"}], "id": "9394000022", "name": "USPS COLLECTION BOX - BLUE BOX", "address": {"city": "MONTEREY", "state": "CA", "street": "590 HARTNELL ST", "postcode": "93940"}}},
{"geometry": {"type": "Point", "coordinates": [-121.8979245663, 36.599215163]}, "type": "Feature", "properties": {"collection_times": [{"days": "Mon-Sat", "time": "12:00pm"}, {"days": "Sun", "time": "Closed"}], "id": "9394000024", "name": "USPS COLLECTION BOX - BLUE BOX", "address": {"city": "MONTEREY", "state": "CA", "street": "484 VAN BUREN ST", "postcode": "93940"}}},
{"geometry": {"type": "Point", "coordinates": [-121.8988342617, 36.5913863405]}, "type": "Feature", "properties": {"collection_times": [{"days": "Mon-Sat", "time": "11:00am"}, {"days": "Sun", "time": "Closed"}], "id": "9394000027", "name": "USPS COLLECTION BOX - BLUE BOX", "address": {"city": "MONTEREY", "state": "CA", "street": "965 PACIFIC ST", "postcode": "93940"}}},
{"geometry": {"type": "Point", "coordinates": [-121.903354124, 36.5845165381]}, "type": "Feature", "properties": {"collection_times": [{"days": "Mon-Sat", "time": "12:00pm"}, {"days": "Sun", "time": "Closed"}], "id": "9394000028", "name": "USPS COLLECTION BOX - BLUE BOX", "address": {"city": "MONTEREY", "state": "CA", "street": "21 SOLEDAD DR", "postcode": "93940"}}},
{"geometry": {"type": "Point", "coordinates": [-121.8964127447, 36.5922451687]}, "type": "Feature", "properties": {"collection_times": [{"days": "Mon-Sat", "time": "12:00pm"}, {"days": "Sun", "time": "Closed"}], "id": "9394000034", "name": "USPS COLLECTION BOX - BLUE BOX", "address": {"city": "MONTEREY", "state": "CA", "street": "993 CASS ST", "postcode": "93940"}}},
{"geometry": {"type": "Point", "coordinates": [-121.8934163097, 36.5937498925]}, "type": "Feature", "properties": {"collection_times": [{"days": "Mon-Sat", "time": "11:00am"}, {"days": "Sun", "time": "Closed"}], "id": "9394000038", "name": "USPS COLLECTION BOX - BLUE BOX", "address": {"city": "MONTEREY", "state": "CA", "street": "824 MUNRAS AVE", "postcode": "93940"}}},
{"geometry": {"type": "Point", "coordinates": [-121.8922721019, 36.5969061144]}, "type": "Feature", "properties": {"collection_times": [{"days": "Mon-Fri", "time": "3:00pm"}, {"days": "Sat", "time": "12:00pm"}, {"days": "Sun", "time": "Closed"}], "id": "9394000040", "name": "USPS COLLECTION BOX - BLUE BOX", "address": {"city": "MONTEREY", "state": "CA", "street": "585 ABREGO ST", "postcode": "93940"}}},
{"geometry": {"type": "Point", "coordinates": [-121.8597007962, 36.5965854452]}, "type": "Feature", "properties": {"collection_times": [{"days": "Mon-Fri", "time": "3:00pm"}, {"days": "Sat", "time": "12:00pm"}, {"days": "Sun", "time": "Closed"}], "id": "9394000041", "name": "USPS COLLECTION BOX - BLUE BOX", "address": {"city": "MONTEREY", "state": "CA", "street": "2170 FREMONT ST", "postcode": "93940"}}},
{"geometry": {"type": "Point", "coordinates": [-121.8887507195, 36.5970278718]}, "type": "Feature", "properties": {"collection_times": [{"days": "Mon-Fri", "time": "3:00pm"}, {"days": "Sat", "time": "12:00pm"}, {"days": "Sun", "time": "Closed"}], "id": "9394000042", "name": "USPS COLLECTION BOX - BLUE BOX", "address": {"city": "MONTEREY", "state": "CA", "street": "550 CAMINO EL ESTERO", "postcode": "93940"}}},
{"geometry": {"type": "Point", "coordinates": [-121.8826158943, 36.596937967]}, "type": "Feature", "properties": {"collection_times": [{"days": "Mon-Sat", "time": "12:00pm"}, {"days": "Sun", "time": "Closed"}], "id": "9394000045", "name": "USPS COLLECTION BOX - BLUE BOX", "address": {"city": "MONTEREY", "state": "CA", "street": "371 CAMINO AGUAJITO", "postcode": "93940"}}},
{"geometry": {"type": "Point", "coordinates": [-121.8326261357, 36.5871230089]}, "type": "Feature", "properties": {"collection_times": [{"days": "Mon-Sat", "time": "12:00pm"}, {"days": "Sun", "time": "Closed"}], "id": "9394000053", "name": "USPS COLLECTION BOX - BLUE BOX", "address": {"city": "MONTEREY", "state": "CA", "street": "100 DEL REY GARDENS DR", "postcode": "93940"}}},
{"geometry": {"type": "Point", "coordinates": [-121.8341511548, 36.5838621528]}, "type": "Feature", "properties": {"collection_times": [{"days": "Mon-Fri", "time": "3:00pm"}, {"days": "Sat", "time": "12:00pm"}, {"days": "Sun", "time": "Closed"}], "id": "9394000056", "name": "USPS COLLECTION BOX - BLUE BOX", "address": {"city": "MONTEREY", "state": "CA", "street": "50 WILSON RD", "postcode": "93940"}}},
{"geometry": {"type": "Point", "coordinates": [-121.8197022028, 36.5781627736]}, "type": "Feature", "properties": {"collection_times": [{"days": "Mon-Fri", "time": "3:00pm"}, {"days": "Sat", "time": "12:00pm"}, {"days": "Sun", "time": "Closed"}], "id": "9394000057", "name": "USPS COLLECTION BOX - BLUE BOX", "address": {"city": "MONTEREY", "state": "CA", "street": "1 UPPER RAGSDALE DR", "postcode": "93940"}}},
{"geometry": {"type": "Point", "coordinates": [-121.8559467457, 36.5973563163]}, "type": "Feature", "properties": {"collection_times": [{"days": "Mon-Sat", "time": "12:00pm"}, {"days": "Sun", "time": "Closed"}], "id": "9394000058", "name": "USPS COLLECTION BOX - BLUE BOX", "address": {"city": "MONTEREY", "state": "CA", "street": "2319 FREMONT ST", "postcode": "93940"}}},
{"geometry": {"type": "Point", "coordinates": [-121.8737280017, 36.581449865]}, "type": "Feature", "properties": {"collection_times": [{"days": "Mon-Fri", "time": "3:00pm"}, {"days": "Sat", "time": "12:00pm"}, {"days": "Sun", "time": "Closed"}], "id": "9394000066", "name": "USPS COLLECTION BOX - BLUE BOX", "address": {"city": "MONTEREY", "state": "CA", "street": "1200 AGUAJITO RD", "postcode": "93940"}}},
{"geometry": {"type": "Point", "coordinates": [-121.8492613585, 36.5866233278]}, "type": "Feature", "properties": {"collection_times": [{"days": "Mon-Sat", "time": "12:00pm"}, {"days": "Sun", "time": "Closed"}], "id": "9394000069", "name": "USPS COLLECTION BOX - BLUE BOX", "address": {"city": "MONTEREY", "state": "CA", "street": "200 FRED KANE DR", "postcode": "93940"}}},
{"geometry": {"type": "Point", "coordinates": [-121.8837868248, 36.5862848925]}, "type": "Feature", "properties": {"collection_times": [{"days": "Mon-Sat", "time": "12:00pm"}, {"days": "Sun", "time": "Closed"}], "id": "9394000074", "name": "USPS COLLECTION BOX - BLUE BOX", "address": {"city": "MONTEREY", "state": "CA", "street": "300 GLENWOOD CIR", "postcode": "93940"}}},
{"geometry": {"type": "Point", "coordinates": [-121.8800081406, 36.5956821518]}, "type": "Feature", "properties": {"collection_times": [{"days": "Mon-Fri", "time": "3:00pm"}, {"days": "Sat", "time": "12:00pm"}, {"days": "Sun", "time": "Closed"}], "id": "9394000080", "name": "USPS COLLECTION BOX - EXPRESS", "address": {"city": "MONTEREY", "state": "CA", "street": "395 DEL MONTE CTR", "postcode": "93940"}}},
{"geometry": {"type": "Point", "coordinates": [-121.8800081406, 36.5956821518]}, "type": "Feature", "properties": {"collection_times": [{"days": "Mon-Fri", "time": "3:00pm"}, {"days": "Sat", "time": "12:00pm"}, {"days": "Sun", "time": "Closed"}], "id": "9394000083", "name": "USPS COLLECTION BOX - EXPRESS", "address": {"city": "MONTEREY", "state": "CA", "street": "1 UPPER RAGSDALE DR", "postcode": "93940"}}},
{"geometry": {"type": "Point", "coordinates": [-121.8341511548, 36.5838621528]}, "type": "Feature", "properties": {"collection_times": [{"days": "Mon-Fri", "time": "3:00pm"}, {"days": "Sat", "time": "12:00pm"}, {"days": "Sun", "time": "Closed"}], "id": "9394000096", "name": "USPS COLLECTION BOX - BLUE BOX", "address": {"city": "MONTEREY", "state": "CA", "street": "50 WILSON RD", "postcode": "93940"}}},
{"geometry": {"type": "Point", "coordinates": [-121.861119164, 36.5862546645]}, "type": "Feature", "properties": {"collection_times": [{"days": "Mon-Sat", "time": "12:00pm"}, {"days": "Sun", "time": "Closed"}], "id": "9394000097", "name": "USPS COLLECTION BOX - BLUE BOX", "address": {"city": "MONTEREY", "state": "CA", "street": "2100 GARDEN RD", "postcode": "93940"}}},
{"geometry": {"type": "Point", "coordinates": [-121.8546365489, 36.5862144439]}, "type": "Feature", "properties": {"collection_times": [{"days": "Mon-Fri", "time": "3:00pm"}, {"days": "Sat", "time": "12:00pm"}, {"days": "Sun", "time": "Closed"}], "id": "9394000105", "name": "USPS COLLECTION BOX - BLUE BOX", "address": {"city": "MONTEREY", "state": "CA", "street": "2411 GARDEN RD", "postcode": "93940"}}},
{"geometry": {"type": "Point", "coordinates": [-121.8904639209, 36.5979088425]}, "type": "Feature", "properties": {"collection_times": [{"days": "Mon-Sat", "time": "12:00pm"}, {"days": "Sun", "time": "Closed"}], "id": "9394000106", "name": "USPS COLLECTION BOX - BLUE BOX", "address": {"city": "MONTEREY", "state": "CA", "street": "498 PEARL ST", "postcode": "93940"}}},
{"geometry": {"type": "Point", "coordinates": [-121.8500017156, 36.5856040371]}, "type": "Feature", "properties": {"collection_times": [{"days": "Mon-Sat", "time": "12:00pm"}, {"days": "Sun", "time": "Closed"}], "id": "9394000110", "name": "USPS COLLECTION BOX - BLUE BOX", "address": {"city": "MONTEREY", "state": "CA", "street": "2711 GARDEN RD", "postcode": "93940"}}},
{"geometry": {"type": "Point", "coordinates": [-121.9132730572, 36.6051414659]}, "type": "Feature", "properties": {"collection_times": [{"days": "Mon-Fri", "time": "3:00pm"}, {"days": "Sat", "time": "12:00pm"}, {"days": "Sun", "time": "Closed"}], "id": "9394000112", "name": "USPS COLLECTION BOX - BLUE BOX", "address": {"city": "MONTEREY", "state": "CA", "street": "619 RIFLE RANGE RD", "postcode": "93940"}}},
{"geometry": {"type": "Point", "coordinates": [-121.9130419068, 36.5756193178]}, "type": "Feature", "properties": {"collection_times": [{"days": "Mon-Sat", "time": "12:00pm"}, {"days": "Sun", "time": "Closed"}], "id": "9394000113", "name": "USPS COLLECTION BOX - BLUE BOX", "address": {"city": "MONTEREY", "state": "CA", "street": "23845 HOLMAN HWY", "postcode": "93940"}}},
{"geometry": {"type": "Point", "coordinates": [-121.8925787244, 36.5973705655]}, "type": "Feature", "properties": {"collection_times": [{"days": "Mon-Sat", "time": "12:00pm"}, {"days": "Sun", "time": "Closed"}], "id": "9394000130", "name": "USPS COLLECTION BOX - BLUE BOX", "address": {"city": "MONTEREY", "state": "CA", "street": "528 ABREGO ST", "postcode": "93940"}}},
{"geometry": {"type": "Point", "coordinates": [-121.8965819079, 36.5969486136]}, "type": "Feature", "properties": {"collection_times": [{"days": "Mon-Sat", "time": "3:00pm"}, {"days": "Sun", "time": "Closed"}], "id": "9394000132", "name": "USPS COLLECTION BOX - BLUE BOX", "address": {"city": "MONTEREY", "state": "CA", "street": "580 CALLE PRINCIPAL", "postcode": "93940"}}},
{"geometry": {"type": "Point", "coordinates": [-121.8141904532, 36.5748542447]}, "type": "Feature", "properties": {"collection_times": [{"days": "Mon-Fri", "time": "3:00pm"}, {"days": "Sat", "time": "12:00pm"}, {"days": "Sun", "time": "Closed"}], "id": "9394000135", "name": "USPS COLLECTION BOX - BLUE BOX", "address": {"city": "MONTEREY", "state": "CA", "street": "15 LOWER RAGSDALE DR", "postcode": "93940"}}},
{"geometry": {"type": "Point", "coordinates": [-121.8141904532, 36.5748542447]}, "type": "Feature", "properties": {"collection_times": [{"days": "Mon-Fri", "time": "3:00pm"}, {"days": "Sat", "time": "12:00pm"}, {"days": "Sun", "time": "Closed"}], "id": "9394000136", "name": "USPS COLLECTION BOX - BLUE BOX", "address": {"city": "MONTEREY", "state": "CA", "street": "15 LOWER RAGSDALE DR", "postcode": "93940"}}},
{"geometry": {"type": "Point", "coordinates": [-121.8800081406, 36.5956821518]}, "type": "Feature", "properties": {"collection_times": [{"days": "Mon-Fri", "time": "3:00pm"}, {"days": "Sat", "time": "12:00pm"}, {"days": "Sun", "time": "Closed"}], "id": "9394000137", "name": "USPS COLLECTION BOX - EXPRESS", "address": {"city": "MONTEREY", "state": "CA", "street": "15 LOWER RAGSDALE DR", "postcode": "93940"}}},
{"geometry": {"type": "Point", "coordinates": [-121.8238202105, 36.5783196794]}, "type": "Feature", "properties": {"collection_times": [{"days": "Mon-Fri", "time": "3:00pm"}, {"days": "Sat", "time": "12:00pm"}, {"days": "Sun", "time": "Closed"}], "id": "9394000138", "name": "USPS COLLECTION BOX - BLUE BOX", "address": {"city": "MONTEREY", "state": "CA", "street": "25 RAGSDALE DR", "postcode": "93940"}}},
{"geometry": {"type": "Point", "coordinates": [-121.8238202105, 36.5783196794]}, "type": "Feature", "properties": {"collection_times": [{"days": "Mon-Fri", "time": "3:00pm"}, {"days": "Sat", "time": "12:00pm"}, {"days": "Sun", "time": "Closed"}], "id": "9394000139", "name": "USPS COLLECTION BOX - BLUE BOX", "address": {"city": "MONTEREY", "state": "CA", "street": "25 RAGSDALE DR", "postcode": "93940"}}},
{"geometry": {"type": "Point", "coordinates": [-121.8341511548, 36.5838621528]}, "type": "Feature", "properties": {"collection_times": [{"days": "Mon-Fri", "time": "3:00pm"}, {"days": "Sat", "time": "12:00pm"}, {"days": "Sun", "time": "Closed"}], "id": "9394000140", "name": "USPS COLLECTION BOX - BLUE BOX", "address": {"city": "MONTEREY", "state": "CA", "street": "50 WILSON RD", "postcode": "93940"}}},
{"geometry": {"type": "Point", "coordinates": [-121.8955863891, 36.5940797624]}, "type": "Feature", "properties": {"collection_times": [{"days": "Mon-Fri", "time": "3:00pm"}, {"days": "Sat", "time": "12:00pm"}, {"days": "Sun", "time": "Closed"}], "id": "9394000142", "name": "USPS COLLECTION BOX - BLUE BOX", "address": {"city": "MONTEREY", "state": "CA", "street": "800 CASS ST", "postcode": "93940"}}},
{"geometry": {"type": "Point", "coordinates": [-121.892341, 36.5913827917]}, "type": "Feature", "properties": {"collection_times": [{"days": "Mon-Sat", "time": "12:00pm"}, {"days": "Sun", "time": "Closed"}], "id": "9394000143", "name": "USPS COLLECTION BOX - BLUE BOX", "address": {"city": "MONTEREY", "state": "CA", "street": "333 EL DORADO ST", "postcode": "93940"}}},
{"geometry": {"type": "Point", "coordinates": [-121.9256636067, 36.5989519949]}, "type": "Feature", "properties": {"collection_times": [{"days": "Mon-Fri", "time": "3:00pm"}, {"days": "Sat", "time": "12:00pm"}, {"days": "Sun", "time": "Closed"}], "id": "9394400000", "name": "USPS COLLECTION BOX - BLUE BOX", "address": {"city": "MONTEREY", "state": "CA", "street": "2555 MASON RD", "postcode": "93944"}}},
{"geometry": {"type": "Point", "coordinates": [-121.9046958232, 36.6076840092]}, "type": "Feature", "properties": {"collection_times": [{"days": "Mon-Fri", "time": "3:00pm"}, {"days": "Sat", "time": "12:00pm"}, {"days": "Sun", "time": "Closed"}], "id": "9394400001", "name": "USPS COLLECTION BOX - BLUE BOX", "address": {"city": "MONTEREY", "state": "CA", "street": "1325 PLUMMER ST", "postcode": "93944"}}},
{"geometry": {"type": "Point", "coordinates": [-121.931525973, 36.6194468136]}, "type": "Feature", "properties": {"collection_times": [{"days": "Mon-Sat", "time": "12:00pm"}, {"days": "Sun", "time": "Closed"}], "id": "9395000000", "name": "USPS COLLECTION BOX - BLUE BOX", "address": {"city": "PACIFIC GROVE", "state": "CA", "street": "1012 PACIFIC GROVE LN", "postcode": "93950"}}},
{"geometry": {"type": "Point", "coordinates": [-121.9039703276, 36.618830872]}, "type": "Feature", "properties": {"collection_times": [{"days": "Mon-Sat", "time": "12:00pm"}, {"days": "Sun", "time": "Closed"}], "id": "9395000002", "name": "USPS COLLECTION BOX - BLUE BOX", "address": {"city": "PACIFIC GROVE", "state": "CA", "street": "125 OCEAN VIEW BLVD", "postcode": "93950"}}},
{"geometry": {"type": "Point", "coordinates": [-121.9171629111, 36.6253512087]}, "type": "Feature", "properties": {"collection_times": [{"days": "Mon-Sat", "time": "12:00pm"}, {"days": "Sun", "time": "Closed"}], "id": "9395000003", "name": "USPS COLLECTION BOX - BLUE BOX", "address": {"city": "PACIFIC GROVE", "state": "CA", "street": "625 OCEAN VIEW BLVD", "postcode": "93950"}}},
{"geometry": {"type": "Point", "coordinates": [-121.9150443484, 36.6216156739]}, "type": "Feature", "properties": {"collection_times": [{"days": "Mon-Sat", "time": "12:00pm"}, {"days": "Sun", "time": "Closed"}], "id": "9395000004", "name": "USPS COLLECTION BOX - BLUE BOX", "address": {"city": "PACIFIC GROVE", "state": "CA", "street": "505 CENTRAL AVE", "postcode": "93950"}}},
{"geometry": {"type": "Point", "coordinates": [-121.9197998435, 36.6162899927]}, "type": "Feature", "properties": {"collection_times": [{"days": "Mon-Sat", "time": "12:00pm"}, {"days": "Sun", "time": "Closed"}], "id": "9395000006", "name": "USPS COLLECTION BOX - BLUE BOX", "address": {"city": "PACIFIC GROVE", "state": "CA", "street": "621 FOREST AVE", "postcode": "93950"}}},
{"geometry": {"type": "Point", "coordinates": [-121.9334330661, 36.6156882662]}, "type": "Feature", "properties": {"collection_times": [{"days": "Mon-Sat", "time": "12:00pm"}, {"days": "Sun", "time": "Closed"}], "id": "9395000009", "name": "USPS COLLECTION BOX - BLUE BOX", "address": {"city": "PACIFIC GROVE", "state": "CA", "street": "2106 SUNSET DR", "postcode": "93950"}}},
{"geometry": {"type": "Point", "coordinates": [-121.9204774305, 36.6045508467]}, "type": "Feature", "properties": {"collection_times": [{"days": "Mon-Sat", "time": "12:00pm"}, {"days": "Sun", "time": "Closed"}], "id": "9395000010", "name": "USPS COLLECTION BOX - BLUE BOX", "address": {"city": "PACIFIC GROVE", "state": "CA", "street": "1212 FOREST AVE", "postcode": "93950"}}},
{"geometry": {"type": "Point", "coordinates": [-121.9197998435, 36.6162899927]}, "type": "Feature", "properties": {"collection_times": [{"days": "Mon-Sat", "time": "1:00pm"}, {"days": "Sun", "time": "Closed"}], "id": "9395000011", "name": "USPS COLLECTION BOX - BLUE BOX", "address": {"city": "PACIFIC GROVE", "state": "CA", "street": "621 FOREST AVE", "postcode": "93950"}}},
{"geometry": {"type": "Point", "coordinates": [-121.9178361316, 36.6212158338]}, "type": "Feature", "properties": {"collection_times": [{"days": "Mon-Sat", "time": "1:00pm"}, {"days": "Sun", "time": "Closed"}], "id": "9395000014", "name": "USPS COLLECTION BOX - BLUE BOX", "address": {"city": "PACIFIC GROVE", "state": "CA", "street": "580 LIGHTHOUSE AVE", "postcode": "93950"}}},
{"geometry": {"type": "Point", "coordinates": [-121.91831523, 36.6196850849]}, "type": "Feature", "properties": {"collection_times": [{"days": "Mon-Sat", "time": "11:00am"}, {"days": "Sun", "time": "Closed"}], "id": "9395000015", "name": "USPS COLLECTION BOX - BLUE BOX", "address": {"city": "PACIFIC GROVE", "state": "CA", "street": "301 FOREST AVE", "postcode": "93950"}}},
{"geometry": {"type": "Point", "coordinates": [-121.9247200637, 36.6081739467]}, "type": "Feature", "properties": {"collection_times": [{"days": "Mon-Sat", "time": "12:00pm"}, {"days": "Sun", "time": "Closed"}], "id": "9395000016", "name": "USPS COLLECTION BOX - BLUE BOX", "address": {"city": "PACIFIC GROVE", "state": "CA", "street": "170 COUNTRY CLUB GATE CTR", "postcode": "93950"}}},
{"geometry": {"type": "Point", "coordinates": [-121.9063436852, 36.618587299]}, "type": "Feature", "properties": {"collection_times": [{"days": "Mon-Sat", "time": "12:00pm"}, {"days": "Sun", "time": "Closed"}], "id": "9395000021", "name": "USPS COLLECTION BOX - BLUE BOX", "address": {"city": "PACIFIC GROVE", "state": "CA", "street": "173 CENTRAL AVE", "postcode": "93950"}}},
{"geometry": {"type": "Point", "coordinates": [-121.9211075476, 36.6189322762]}, "type": "Feature", "properties": {"collection_times": [{"days": "Mon-Fri", "time": "5:00pm"}, {"days": "Sat", "time": "3:30pm"}, {"days": "Sun", "time": "Closed"}], "id": "9395000026", "name": "USPS COLLECTION BOX - EXPRESS", "address": {"city": "PACIFIC GROVE", "state": "CA", "street": "680 LIGHTHOUSE AVE", "postcode": "93950"}}},
{"geometry": {"type": "Point", "coordinates": [-121.920189037, 36.6222958753]}, "type": "Feature", "properties": {"collection_times": [{"days": "Mon-Fri", "time": "5:00pm"}, {"days": "Sat", "time": "3:30pm"}, {"days": "Sun", "time": "Closed"}], "id": "9395000027", "name": "USPS COLLECTION BOX - BLUE BOX", "address": {"city": "PACIFIC GROVE", "state": "CA", "street": "680 LIGHTHOUSE AVE", "postcode": "93950"}}},
{"geometry": {"type": "Point", "coordinates": [-121.920189037, 36.6222958753]}, "type": "Feature", "properties": {"collection_times": [{"days": "Mon-Fri", "time": "5:00pm"}, {"days": "Sat", "time": "3:30pm"}, {"days": "Sun", "time": "Closed"}], "id": "9395000028", "name": "USPS COLLECTION BOX - BLUE BOX", "address": {"city": "PACIFIC GROVE", "state": "CA", "street": "680 LIGHTHOUSE AVE", "postcode": "93950"}}},
{"geometry": {"type": "Point", "coordinates": [-121.920189037, 36.6222958753]}, "type": "Feature", "properties": {"collection_times": [{"days": "Mon-Fri", "time": "5:00pm"}, {"days": "Sat", "time": "3:30pm"}, {"days": "Sun", "time": "Closed"}], "id": "9395000029", "name": "USPS COLLECTION BOX - BLUE BOX", "address": {"city": "PACIFIC GROVE", "state": "CA", "street": "680 LIGHTHOUSE AVE", "postcode": "93950"}}},
{"geometry": {"type": "Point", "coordinates": [-121.920189037, 36.6222958753]}, "type": "Feature", "properties": {"collection_times": [{"days": "Mon-Fri", "time": "5:00pm"}, {"days": "Sat", "time": "3:30pm"}, {"days": "Sun", "time": "Closed"}], "id": "9395000030", "name": "USPS COLLECTION BOX - BLUE BOX", "address": {"city": "PACIFIC GROVE", "state": "CA", "street": "680 LIGHTHOUSE AVE", "postcode": "93950"}}},
{"geometry": {"type": "Point", "coordinates": [-121.9514939815, 36.5683292126]}, "type": "Feature", "properties": {"collection_times": [{"days": "Mon-Fri", "time": "5:00pm"}, {"days": "Sat", "time": "3:30pm"}, {"days": "Sun", "time": "Closed"}], "id": "9395300001", "name": "USPS COLLECTION BOX - BLUE BOX", "address": {"city": "PEBBLE BEACH", "state": "CA", "street": "1491 CYPRESS DR", "postcode": "93953"}}},
{"geometry": {"type": "Point", "coordinates": [-121.0189219208, 36.1288083762]}, "type": "Feature", "properties": {"collection_times": [{"days": "Mon-Fri", "time": "3:15pm"}, {"days": "Sat", "time": "10:00am"}, {"days": "Sun", "time": "Closed"}], "id": "9395400000", "name": "USPS COLLECTION BOX - BLUE BOX", "address": {"city": "SAN LUCAS", "state": "CA", "street": "53575 MAIN ST", "postcode": "93954"}}},
{"geometry": {"type": "Point", "coordinates": [-121.8429981902, 36.6092458068]}, "type": "Feature", "properties": {"collection_times": [{"days": "Mon-Fri", "time": "5:00pm"}, {"days": "Sat", "time": "4:30pm"}, {"days": "Sun", "time": "Closed"}], "id": "9395500000", "name": "USPS COLLECTION BOX - BLUE BOX", "address": {"city": "SEASIDE", "state": "CA", "street": "1093 BROADWAY AVE", "postcode": "93955"}}},
{"geometry": {"type": "Point", "coordinates": [-121.8429981902, 36.6092458068]}, "type": "Feature", "properties": {"collection_times": [{"days": "Mon-Fri", "time": "5:00pm"}, {"days": "Sat", "time": "4:30pm"}, {"days": "Sun", "time": "Closed"}], "id": "9395500001", "name": "USPS COLLECTION BOX - BLUE BOX", "address": {"city": "SEASIDE", "state": "CA", "street": "1093 BROADWAY AVE", "postcode": "93955"}}},
{"geometry": {"type": "Point", "coordinates": [-121.8499711029, 36.6007854642]}, "type": "Feature", "properties": {"collection_times": [{"days": "Mon-Sat", "time": "12:00pm"}, {"days": "Sun", "time": "Closed"}], "id": "9395500007", "name": "USPS COLLECTION BOX - BLUE BOX", "address": {"city": "SEASIDE", "state": "CA", "street": "668 WILLIAMS AVE", "postcode": "93955"}}},
{"geometry": {"type": "Point", "coordinates": [-121.8537910121, 36.6041373208]}, "type": "Feature", "properties": {"collection_times": [{"days": "Mon-Fri", "time": "12:00pm"}, {"days": "Sat-Sun", "time": "Closed"}], "id": "9395500008", "name": "USPS COLLECTION BOX - BLUE BOX", "address": {"city": "SEASIDE", "state": "CA", "street": "440 HARCOURT AVE", "postcode": "93955"}}},
{"geometry": {"type": "Point", "coordinates": [-121.8479554178, 36.6027035808]}, "type": "Feature", "properties": {"collection_times": [{"days": "Mon-Fri", "time": "12:00pm"}, {"days": "Sat-Sun", "time": "Closed"}], "id": "9395500009", "name": "USPS COLLECTION BOX - BLUE BOX", "address": {"city": "SEASIDE", "state": "CA", "street": "915 HILBY AVE", "postcode": "93955"}}},
{"geometry": {"type": "Point", "coordinates": [-121.837536877, 36.615041971]}, "type": "Feature", "properties": {"collection_times": [{"days": "Mon-Sat", "time": "12:00pm"}, {"days": "Sun", "time": "Closed"}], "id": "9395500012", "name": "USPS COLLECTION BOX - BLUE BOX", "address": {"city": "SEASIDE", "state": "CA", "street": "1800 NOCHE BUENA ST", "postcode": "93955"}}},
{"geometry": {"type": "Point", "coordinates": [-121.8134196723, 36.6441580035]}, "type": "Feature", "properties": {"collection_times": [{"days": "Mon-Fri", "time": "12:00pm"}, {"days": "Sat-Sun", "time": "Closed"}], "id": "9395500016", "name": "USPS COLLECTION BOX - BLUE BOX", "address": {"city": "SEASIDE", "state": "CA", "street": "199 GIGLING RD", "postcode": "93955"}}},
{"geometry": {"type": "Point", "coordinates": [-121.8469379265, 36.6169429091]}, "type": "Feature", "properties": {"collection_times": [{"days": "Mon-Fri", "time": "12:00pm"}, {"days": "Sat-Sun", "time": "Closed"}], "id": "9395500017", "name": "USPS COLLECTION BOX - BLUE BOX", "address": {"city": "SEASIDE", "state": "CA", "street": "801 TIOGA AVE", "postcode": "93955"}}},
{"geometry": {"type": "Point", "coordinates": [-121.8430352703, 36.613974942]}, "type": "Feature", "properties": {"collection_times": [{"days": "Mon-Fri", "time": "12:00pm"}, {"days": "Sat-Sun", "time": "Closed"}], "id": "9395500025", "name": "USPS COLLECTION BOX - BLUE BOX", "address": {"city": "SEASIDE", "state": "CA", "street": "1760 FREMONT BLVD", "postcode": "93955"}}},
{"geometry": {"type": "Point", "coordinates": [-121.8429981902, 36.6092458068]}, "type": "Feature", "properties": {"collection_times": [{"days": "Mon-Fri", "time": "5:00pm"}, {"days": "Sat", "time": "4:30pm"}, {"days": "Sun", "time": "Closed"}], "id": "9395500026", "name": "USPS COLLECTION BOX - BLUE BOX", "address": {"city": "SEASIDE", "state": "CA", "street": "1093 BROADWAY AVE", "postcode": "93955"}}},
{"geometry": {"type": "Point", "coordinates": [-121.3266187976, 36.4261165776]}, "type": "Feature", "properties": {"collection_times": [{"days": "Mon-Fri", "time": "5:00pm"}, {"days": "Sat", "time": "3:00pm"}, {"days": "Sun", "time": "Closed"}], "id": "9396000005", "name": "USPS COLLECTION BOX - BLUE BOX", "address": {"city": "SOLEDAD", "state": "CA", "street": "150 KIDDER ST", "postcode": "93960"}}}
]}
