{"type": "FeatureCollection", "features": [
{"geometry": {"type": "Point", "coordinates": [-122.1607850435, 37.4472859524]}, "type": "Feature", "properties": {"collection_times": [{"days": "Mon-Fri", "time": "5:00pm"}, {"days": "Sat", "time": "2:30pm"}, {"days": "Sun", "time": "Closed"}], "id": "9430100002", "name": "USPS COLLECTION BOX - BLUE BOX", "address": {"city": "PALO ALTO", "state": "CA", "street": "460 WAVERLEY ST", "postcode": "94301"}}},
{"geometry": {"type": "Point", "coordinates": [-122.1522903177, 37.4552480395]}, "type": "Feature", "properties": {"collection_times": [{"days": "Mon-Sat", "time": "3:15pm"}, {"days": "Sun", "time": "Closed"}], "id": "9430100004", "name": "USPS COLLECTION BOX - BLUE BOX", "address": {"city": "PALO ALTO", "state": "CA", "street": "1068 UNIVERSITY AVE", "postcode": "94301"}}},
{"geometry": {"type": "Point", "coordinates": [-122.1626707826, 37.4456163876]}, "type": "Feature", "properties": {"collection_times": [{"days": "Mon-Fri", "time": "5:00pm"}, {"days": "Sat", "time": "2:30pm"}, {"days": "Sun", "time": "Closed"}], "id": "9430100005", "name": "USPS COLLECTION BOX - BLUE BOX", "address": {"city": "PALO ALTO", "state": "CA", "street": "470 RAMONA ST", "postcode": "94301"}}},
{"geometry": {"type": "Point", "coordinates": [-122.1385650959, 37.4304916289]}, "type": "Feature", "properties": {"collection_times": [{"days": "Mon-Sat", "time": "12:45pm"}, {"days": "Sun", "time": "Closed"}], "id": "9430100006", "name": "USPS COLLECTION BOX - BLUE BOX", "address": {"city": "PALO ALTO", "state": "CA", "street": "2399 RAMONA ST", "postcode": "94301"}}},
{"geometry": {"type": "Point", "coordinates": [-122.1370375392, 37.4382266511]}, "type": "Feature", "properties": {"collection_times": [{"days": "Mon-Sat", "time": "12:45pm"}, {"days": "Sun", "time": "Closed"}], "id": "9430100007", "name": "USPS COLLECTION BOX - BLUE BOX", "address": {"city": "PALO ALTO", "state": "CA", "street": "2100 MIDDLEFIELD RD", "postcode": "94301"}}},
{"geometry": {"type": "Point", "coordinates": [-122.1642932846, 37.4433546065]}, "type": "Feature", "properties": {"collection_times": [{"days": "Mon-Sat", "time": "12:30pm"}, {"days": "Sun", "time": "Closed"}], "id": "9430100009", "name": "USPS COLLECTION BOX - BLUE BOX", "address": {"city": "PALO ALTO", "state": "CA", "street": "95 UNIVERSITY AVE", "postcode": "94301"}}},
{"geometry": {"type": "Point", "coordinates": [-122.1595831395, 37.4484972896]}, "type": "Feature", "properties": {"collection_times": [{"days": "Mon-Fri", "time": "5:00pm"}, {"days": "Sat", "time": "4:15pm"}, {"days": "Sun", "time": "Closed"}], "id": "9430100011", "name": "USPS COLLECTION BOX - BLUE BOX", "address": {"city": "PALO ALTO", "state": "CA", "street": "488 COWPER ST", "postcode": "94301"}}},
{"geometry": {"type": "Point", "coordinates": [-122.1572729409, 37.447105733]}, "type": "Feature", "properties": {"collection_times": [{"days": "Mon-Sat", "time": "2:45pm"}, {"days": "Sun", "time": "Closed"}], "id": "9430100012", "name": "USPS COLLECTION BOX - BLUE BOX", "address": {"city": "PALO ALTO", "state": "CA", "street": "630 COWPER ST", "postcode": "94301"}}},
{"geometry": {"type": "Point", "coordinates": [-122.1423605602, 37.4456648889]}, "type": "Feature", "properties": {"collection_times": [{"days": "Mon-Sat", "time": "1:30pm"}, {"days": "Sun", "time": "Closed"}], "id": "9430100013", "name": "USPS COLLECTION BOX - BLUE BOX", "address": {"city": "PALO ALTO", "state": "CA", "street": "1250 PARKINSON AVE", "postcode": "94301"}}},
{"geometry": {"type": "Point", "coordinates": [-122.1620388355, 37.4461159837]}, "type": "Feature", "properties": {"collection_times": [{"days": "Mon-Fri", "time": "4:45pm"}, {"days": "Sat", "time": "2:30pm"}, {"days": "Sun", "time": "Closed"}], "id": "9430100014", "name": "USPS COLLECTION BOX - BLUE BOX", "address": {"city": "PALO ALTO", "state": "CA", "street": "450 BRYANT ST", "postcode": "94301"}}},
{"geometry": {"type": "Point", "coordinates": [-122.151639254, 37.4376776033]}, "type": "Feature", "properties": {"collection_times": [{"days": "Mon-Sat", "time": "1:00pm"}, {"days": "Sun", "time": "Closed"}], "id": "9430100015", "name": "USPS COLLECTION BOX - BLUE BOX", "address": {"city": "PALO ALTO", "state": "CA", "street": "201 KELLOGG AVE", "postcode": "94301"}}},
{"geometry": {"type": "Point", "coordinates": [-122.1582501866, 37.4432253833]}, "type": "Feature", "properties": {"collection_times": [{"days": "Mon-Fri", "time": "4:30pm"}, {"days": "Sat", "time": "2:45pm"}, {"days": "Sun", "time": "Closed"}], "id": "9430100016", "name": "USPS COLLECTION BOX - BLUE BOX", "address": {"city": "PALO ALTO", "state": "CA", "street": "271 HOMER AVE", "postcode": "94301"}}},
{"geometry": {"type": "Point", "coordinates": [-122.152250218, 37.4399569575]}, "type": "Feature", "properties": {"collection_times": [{"days": "Mon-Sat", "time": "1:45pm"}, {"days": "Sun", "time": "Closed"}], "id": "9430100018", "name": "USPS COLLECTION BOX - BLUE BOX", "address": {"city": "PALO ALTO", "state": "CA", "street": "1226 BRYANT ST", "postcode": "94301"}}},
{"geometry": {"type": "Point", "coordinates": [-122.1476483867, 37.4371180104]}, "type": "Feature", "properties": {"collection_times": [{"days": "Mon-Sat", "time": "1:00pm"}, {"days": "Sun", "time": "Closed"}], "id": "9430100019", "name": "USPS COLLECTION BOX - BLUE BOX", "address": {"city": "PALO ALTO", "state": "CA", "street": "1600 BRYANT ST", "postcode": "94301"}}},
{"geometry": {"type": "Point", "coordinates": [-122.1634882073, 37.4404090023]}, "type": "Feature", "properties": {"collection_times": [{"days": "Mon-Sat", "time": "12:30pm"}, {"days": "Sun", "time": "Closed"}], "id": "9430100020", "name": "USPS COLLECTION BOX - BLUE BOX", "address": {"city": "PALO ALTO", "state": "CA", "street": "625 EL CAMINO REAL", "postcode": "94301"}}},
{"geometry": {"type": "Point", "coordinates": [-122.1518630692, 37.4535763376]}, "type": "Feature", "properties": {"collection_times": [{"days": "Mon-Sat", "time": "3:15pm"}, {"days": "Sun", "time": "Closed"}], "id": "9430100022", "name": "USPS COLLECTION BOX - BLUE BOX", "address": {"city": "PALO ALTO", "state": "CA", "street": "1002 HAMILTON AVE", "postcode": "94301"}}},
{"geometry": {"type": "Point", "coordinates": [-122.1596211162, 37.449508811]}, "type": "Feature", "properties": {"collection_times": [{"days": "Mon-Fri", "time": "4:45pm"}, {"days": "Sat-Sun", "time": "Closed"}], "id": "9430100023", "name": "USPS COLLECTION BOX - BLUE BOX", "address": {"city": "PALO ALTO", "state": "CA", "street": "420 TASSO ST", "postcode": "94301"}}},
{"geometry": {"type": "Point", "coordinates": [-122.142973277, 37.4362121943]}, "type": "Feature", "properties": {"collection_times": [{"days": "Mon-Sat", "time": "12:45pm"}, {"days": "Sun", "time": "Closed"}], "id": "9430100024", "name": "USPS COLLECTION BOX - BLUE BOX", "address": {"city": "PALO ALTO", "state": "CA", "street": "401 SEALE AVE", "postcode": "94301"}}},
{"geometry": {"type": "Point", "coordinates": [-122.1540966961, 37.447335227]}, "type": "Feature", "properties": {"collection_times": [{"days": "Mon-Fri", "time": "4:15pm"}, {"days": "Sat", "time": "2:45pm"}, {"days": "Sun", "time": "Closed"}], "id": "9430100025", "name": "USPS COLLECTION BOX - BLUE BOX", "address": {"city": "PALO ALTO", "state": "CA", "street": "600 HOMER AVE", "postcode": "94301"}}},
{"geometry": {"type": "Point", "coordinates": [-122.1532414167, 37.4502642334]}, "type": "Feature", "properties": {"collection_times": [{"days": "Mon-Sat", "time": "3:00pm"}, {"days": "Sun", "time": "Closed"}], "id": "9430100026", "name": "USPS COLLECTION BOX - BLUE BOX", "address": {"city": "PALO ALTO", "state": "CA", "street": "788 FOREST AVE", "postcode": "94301"}}},
{"geometry": {"type": "Point", "coordinates": [-122.1480955452, 37.435428745]}, "type": "Feature", "properties": {"collection_times": [{"days": "Mon-Sat", "time": "1:00pm"}, {"days": "Sun", "time": "Closed"}], "id": "9430100027", "name": "USPS COLLECTION BOX - BLUE BOX", "address": {"city": "PALO ALTO", "state": "CA", "street": "1664 EMERSON ST", "postcode": "94301"}}},
{"geometry": {"type": "Point", "coordinates": [-122.1618296988, 37.4497934157]}, "type": "Feature", "properties": {"collection_times": [{"days": "Mon-Sat", "time": "2:00pm"}, {"days": "Sun", "time": "Closed"}], "id": "9430100029", "name": "USPS COLLECTION BOX - BLUE BOX", "address": {"city": "PALO ALTO", "state": "CA", "street": "482 EVERETT AVE", "postcode": "94301"}}},
{"geometry": {"type": "Point", "coordinates": [-122.1663698953, 37.4469744245]}, "type": "Feature", "properties": {"collection_times": [{"days": "Mon-Sat", "time": "2:00pm"}, {"days": "Sun", "time": "Closed"}], "id": "9430100031", "name": "USPS COLLECTION BOX - BLUE BOX", "address": {"city": "PALO ALTO", "state": "CA", "street": "205 EMERSON ST", "postcode": "94301"}}},
{"geometry": {"type": "Point", "coordinates": [-122.1567427458, 37.4486688132]}, "type": "Feature", "properties": {"collection_times": [{"days": "Mon-Fri", "time": "5:15pm"}, {"days": "Sat", "time": "2:45pm"}, {"days": "Sun", "time": "Closed"}], "id": "9430100032", "name": "USPS COLLECTION BOX - BLUE BOX", "address": {"city": "PALO ALTO", "state": "CA", "street": "600 WEBSTER ST", "postcode": "94301"}}},
{"geometry": {"type": "Point", "coordinates": [-122.1596697031, 37.4456804897]}, "type": "Feature", "properties": {"collection_times": [{"days": "Mon-Sat", "time": "5:00pm"}, {"days": "Sun", "time": "Closed"}], "id": "9430100033", "name": "USPS COLLECTION BOX - BLUE BOX", "address": {"city": "PALO ALTO", "state": "CA", "street": "380 HAMILTON AVE", "postcode": "94301"}}},
{"geometry": {"type": "Point", "coordinates": [-122.16384947, 37.444448941]}, "type": "Feature", "properties": {"collection_times": [{"days": "Mon-Fri", "time": "5:00pm"}, {"days": "Sat", "time": "2:30pm"}, {"days": "Sun", "time": "Closed"}], "id": "9430100034", "name": "USPS COLLECTION BOX - BLUE BOX", "address": {"city": "PALO ALTO", "state": "CA", "street": "461 HIGH ST", "postcode": "94301"}}},
{"geometry": {"type": "Point", "coordinates": [-122.1562138526, 37.4522951237]}, "type": "Feature", "properties": {"collection_times": [{"days": "Mon-Sat", "time": "3:00pm"}, {"days": "Sun", "time": "Closed"}], "id": "9430100035", "name": "USPS COLLECTION BOX - BLUE BOX", "address": {"city": "PALO ALTO", "state": "CA", "street": "450 GUINDA ST", "postcode": "94301"}}},
{"geometry": {"type": "Point", "coordinates": [-122.1361642211, 37.4328747366]}, "type": "Feature", "properties": {"collection_times": [{"days": "Mon-Sat", "time": "12:45pm"}, {"days": "Sun", "time": "Closed"}], "id": "9430100037", "name": "USPS COLLECTION BOX - BLUE BOX", "address": {"city": "PALO ALTO", "state": "CA", "street": "465 OREGON AVE", "postcode": "94301"}}},
{"geometry": {"type": "Point", "coordinates": [-122.1596697031, 37.4456804897]}, "type": "Feature", "properties": {"collection_times": [{"days": "Mon-Sat", "time": "5:00pm"}, {"days": "Sun", "time": "Closed"}], "id": "9430100040", "name": "USPS COLLECTION BOX - BLUE BOX", "address": {"city": "PALO ALTO", "state": "CA", "street": "380 HAMILTON AVE", "postcode": "94301"}}},
{"geometry": {"type": "Point", "coordinates": [-122.1596211162, 37.449508811]}, "type": "Feature", "properties": {"collection_times": [{"days": "Mon-Fri", "time": "4:45pm"}, {"days": "Sat-Sun", "time": "Closed"}], "id": "9430100041", "name": "USPS COLLECTION BOX - BLUE BOX", "address": {"city": "PALO ALTO", "state": "CA", "street": "420 TASSO ST", "postcode": "94301"}}},
{"geometry": {"type": "Point", "coordinates": [-122.1639933308, 37.449381746]}, "type": "Feature", "properties": {"collection_times": [{"days": "Mon-Sat", "time": "2:00pm"}, {"days": "Sun", "time": "Closed"}], "id": "9430100043", "name": "USPS COLLECTION BOX - BLUE BOX", "address": {"city": "PALO ALTO", "state": "CA", "street": "204 WAVERLEY ST", "postcode": "94301"}}},
{"geometry": {"type": "Point", "coordinates": [-122.1426858739, 37.4323506858]}, "type": "Feature", "properties": {"collection_times": [{"days": "Mon-Sat", "time": "12:45pm"}, {"days": "Sun", "time": "Closed"}], "id": "9430100044", "name": "USPS COLLECTION BOX - BLUE BOX", "address": {"city": "PALO ALTO", "state": "CA", "street": "215 SANTA RITA AVE", "postcode": "94301"}}},
{"geometry": {"type": "Point", "coordinates": [-122.1596697031, 37.4456804897]}, "type": "Feature", "properties": {"collection_times": [{"days": "Mon-Sat", "time": "5:00pm"}, {"days": "Sun", "time": "Closed"}], "id": "9430100046", "name": "USPS COLLECTION BOX - BLUE BOX", "address": {"city": "PALO ALTO", "state": "CA", "street": "380 HAMILTON AVE", "postcode": "94301"}}},
{"geometry": {"type": "Point", "coordinates": [-122.16384947, 37.444448941]}, "type": "Feature", "properties": {"collection_times": [{"days": "Mon-Fri", "time": "5:00pm"}, {"days": "Sat", "time": "2:30pm"}, {"days": "Sun", "time": "Closed"}], "id": "9430100047", "name": "USPS COLLECTION BOX - BLUE BOX", "address": {"city": "PALO ALTO", "state": "CA", "street": "461 HIGH ST", "postcode": "94301"}}},
{"geometry": {"type": "Point", "coordinates": [-122.1494997175, 37.444163714]}, "type": "Feature", "properties": {"collection_times": [{"days": "Mon-Sat", "time": "1:45pm"}, {"days": "Sun", "time": "Closed"}], "id": "9430100049", "name": "USPS COLLECTION BOX - BLUE BOX", "address": {"city": "PALO ALTO", "state": "CA", "street": "1151 WEBSTER ST", "postcode": "94301"}}},
{"geometry": {"type": "Point", "coordinates": [-122.1463613274, 37.4459487991]}, "type": "Feature", "properties": {"collection_times": [{"days": "Mon-Sat", "time": "1:45pm"}, {"days": "Sun", "time": "Closed"}], "id": "9430100051", "name": "USPS COLLECTION BOX - BLUE BOX", "address": {"city": "PALO ALTO", "state": "CA", "street": "787 MELVILLE AVE", "postcode": "94301"}}},
{"geometry": {"type": "Point", "coordinates": [-122.1616939652, 37.451907465]}, "type": "Feature", "properties": {"collection_times": [{"days": "Mon-Sat", "time": "2:00pm"}, {"days": "Sun", "time": "Closed"}], "id": "9430100052", "name": "USPS COLLECTION BOX - BLUE BOX", "address": {"city": "PALO ALTO", "state": "CA", "street": "201 WEBSTER ST", "postcode": "94301"}}},
{"geometry": {"type": "Point", "coordinates": [-122.1546219298, 37.4454211994]}, "type": "Feature", "properties": {"collection_times": [{"days": "Mon-Sat", "time": "3:00pm"}, {"days": "Sun", "time": "Closed"}], "id": "9430100054", "name": "USPS COLLECTION BOX - BLUE BOX", "address": {"city": "PALO ALTO", "state": "CA", "street": "846 COWPER ST", "postcode": "94301"}}},
{"geometry": {"type": "Point", "coordinates": [-122.1463554126, 37.4485678702]}, "type": "Feature", "properties": {"collection_times": [{"days": "Mon-Sat", "time": "1:45pm"}, {"days": "Sun", "time": "Closed"}], "id": "9430100055", "name": "USPS COLLECTION BOX - BLUE BOX", "address": {"city": "PALO ALTO", "state": "CA", "street": "895 MELVILLE AVE", "postcode": "94301"}}},
{"geometry": {"type": "Point", "coordinates": [-122.1521258864, 37.4472914575]}, "type": "Feature", "properties": {"collection_times": [{"days": "Mon-Fri", "time": "4:00pm"}, {"days": "Sat", "time": "3:00pm"}, {"days": "Sun", "time": "Closed"}], "id": "9430100056", "name": "USPS COLLECTION BOX - BLUE BOX", "address": {"city": "PALO ALTO", "state": "CA", "street": "675 CHANNING AVE", "postcode": "94301"}}},
{"geometry": {"type": "Point", "coordinates": [-122.1407194465, 37.4405372948]}, "type": "Feature", "properties": {"collection_times": [{"days": "Mon-Sat", "time": "12:45pm"}, {"days": "Sun", "time": "Closed"}], "id": "9430100057", "name": "USPS COLLECTION BOX - BLUE BOX", "address": {"city": "PALO ALTO", "state": "CA", "street": "1799 MIDDLEFIELD RD", "postcode": "94301"}}},
{"geometry": {"type": "Point", "coordinates": [-122.1596697031, 37.4456804897]}, "type": "Feature", "properties": {"collection_times": [{"days": "Mon-Sat", "time": "5:00pm"}, {"days": "Sun", "time": "Closed"}], "id": "9430100058", "name": "USPS COLLECTION BOX - BLUE BOX", "address": {"city": "PALO ALTO", "state": "CA", "street": "380 HAMILTON AVE", "postcode": "94301"}}},
{"geometry": {"type": "Point", "coordinates": [-122.1493039445, 37.4418584902]}, "type": "Feature", "properties": {"collection_times": [{"days": "Mon-Sat", "time": "1:30pm"}, {"days": "Sun", "time": "Closed"}], "id": "9430100061", "name": "USPS COLLECTION BOX - BLUE BOX", "address": {"city": "PALO ALTO", "state": "CA", "street": "490 MELVILLE AVE", "postcode": "94301"}}},
{"geometry": {"type": "Point", "coordinates": [-122.1618758342, 37.4477066761]}, "type": "Feature", "properties": {"collection_times": [{"days": "Mon-Fri", "time": "4:30pm"}, {"days": "Sat", "time": "2:15pm"}, {"days": "Sun", "time": "Closed"}], "id": "9430100063", "name": "USPS COLLECTION BOX - BLUE BOX", "address": {"city": "PALO ALTO", "state": "CA", "street": "379 LYTTON AVE", "postcode": "94301"}}},
{"geometry": {"type": "Point", "coordinates": [-122.1540085324, 37.4451220371]}, "type": "Feature", "properties": {"collection_times": [{"days": "Mon-Fri", "time": "2:15pm"}, {"days": "Sat-Sun", "time": "Closed"}], "id": "9430100069", "name": "USPS COLLECTION BOX - EXPRESS", "address": {"city": "PALO ALTO", "state": "CA", "street": "525 UNIVERSITY AVE", "postcode": "94301"}}},
{"geometry": {"type": "Point", "coordinates": [-122.1596697031, 37.4456804897]}, "type": "Feature", "properties": {"collection_times": [{"days": "Mon-Sat", "time": "5:00pm"}, {"days": "Sun", "time": "Closed"}], "id": "9430100072", "name": "USPS COLLECTION BOX - PO LOBBY", "address": {"city": "PALO ALTO", "state": "CA", "street": "380 HAMILTON AVE", "postcode": "94301"}}},
{"geometry": {"type": "Point", "coordinates": [-122.168992499, 37.446733144]}, "type": "Feature", "properties": {"collection_times": [{"days": "Mon-Sat", "time": "2:00pm"}, {"days": "Sun", "time": "Closed"}], "id": "9430100078", "name": "USPS COLLECTION BOX - BLUE BOX", "address": {"city": "PALO ALTO", "state": "CA", "street": "101 ALMA ST", "postcode": "94301"}}},
{"geometry": {"type": "Point", "coordinates": [-122.1641635275, 37.4474409625]}, "type": "Feature", "properties": {"collection_times": [{"days": "Mon-Sat", "time": "2:15pm"}, {"days": "Sun", "time": "Closed"}], "id": "9430100079", "name": "USPS COLLECTION BOX - BLUE BOX", "address": {"city": "PALO ALTO", "state": "CA", "street": "298 BRYANT ST", "postcode": "94301"}}},
{"geometry": {"type": "Point", "coordinates": [-122.1562094608, 37.4405403107]}, "type": "Feature", "properties": {"collection_times": [{"days": "Mon-Sat", "time": "3:00pm"}, {"days": "Sun", "time": "Closed"}], "id": "9430100082", "name": "USPS COLLECTION BOX - BLUE BOX", "address": {"city": "PALO ALTO", "state": "CA", "street": "1017 EMERSON ST", "postcode": "94301"}}},
{"geometry": {"type": "Point", "coordinates": [-122.1596697031, 37.4456804897]}, "type": "Feature", "properties": {"collection_times": [{"days": "Mon-Fri", "time": "3:00pm"}, {"days": "Sat-Sun", "time": "Closed"}], "id": "9430100083", "name": "USPS COLLECTION BOX - PO LOBBY", "address": {"city": "PALO ALTO", "state": "CA", "street": "380 HAMILTON AVE", "postcode": "94301"}}},
{"geometry": {"type": "Point", "coordinates": [-122.1596697031, 37.4456804897]}, "type": "Feature", "properties": {"collection_times": [{"days": "Mon-Sat", "time": "5:00pm"}, {"days": "Sun", "time": "Closed"}], "id": "9430100084", "name": "USPS COLLECTION BOX - APC", "address": {"city": "PALO ALTO", "state": "CA", "street": "380 HAMILTON AVE", "postcode": "94301"}}},
{"geometry": {"type": "Point", "coordinates": [-122.10313533, 37.4306978358]}, "type": "Feature", "properties": {"collection_times": [{"days": "Mon-Fri", "time": "4:45pm"}, {"days": "Sat", "time": "4:15pm"}, {"days": "Sun", "time": "Closed"}], "id": "9430300002", "name": "USPS COLLECTION BOX - BLUE BOX", "address": {"city": "EAST PALO ALTO", "state": "CA", "street": "1010 CORPORATION WAY", "postcode": "94303"}}},
{"geometry": {"type": "Point", "coordinates": [-122.1188128318, 37.4476770197]}, "type": "Feature", "properties": {"collection_times": [{"days": "Mon-Fri", "time": "5:00pm"}, {"days": "Sat", "time": "4:00pm"}, {"days": "Sun", "time": "Closed"}], "id": "9430300005", "name": "USPS COLLECTION BOX - BLUE BOX", "address": {"city": "EAST PALO ALTO", "state": "CA", "street": "2465 E BAYSHORE RD", "postcode": "94303"}}},
{"geometry": {"type": "Point", "coordinates": [-122.1256488989, 37.434650358]}, "type": "Feature", "properties": {"collection_times": [{"days": "Mon-Sat", "time": "2:30pm"}, {"days": "Sun", "time": "Closed"}], "id": "9430300010", "name": "USPS COLLECTION BOX - BLUE BOX", "address": {"city": "EAST PALO ALTO", "state": "CA", "street": "784 COLORADO AVE", "postcode": "94303"}}},
{"geometry": {"type": "Point", "coordinates": [-122.1332233851, 37.4452165475]}, "type": "Feature", "properties": {"collection_times": [{"days": "Mon-Sat", "time": "1:30pm"}, {"days": "Sun", "time": "Closed"}], "id": "9430300011", "name": "USPS COLLECTION BOX - BLUE BOX", "address": {"city": "EAST PALO ALTO", "state": "CA", "street": "11 PRIMROSE WAY", "postcode": "94303"}}},
{"geometry": {"type": "Point", "coordinates": [-122.1368704476, 37.4412311587]}, "type": "Feature", "properties": {"collection_times": [{"days": "Mon-Sat", "time": "2:00pm"}, {"days": "Sun", "time": "Closed"}], "id": "9430300013", "name": "USPS COLLECTION BOX - BLUE BOX", "address": {"city": "EAST PALO ALTO", "state": "CA", "street": "1955 NEWELL RD", "postcode": "94303"}}},
{"geometry": {"type": "Point", "coordinates": [-122.1221059157, 37.4540546118]}, "type": "Feature", "properties": {"collection_times": [{"days": "Mon-Sat", "time": "3:00pm"}, {"days": "Sun", "time": "Closed"}], "id": "9430300014", "name": "USPS COLLECTION BOX - BLUE BOX", "address": {"city": "EAST PALO ALTO", "state": "CA", "street": "698 MONTROSE AVE", "postcode": "94303"}}},
{"geometry": {"type": "Point", "coordinates": [-122.1097158045, 37.419598769]}, "type": "Feature", "properties": {"collection_times": [{"days": "Mon-Sat", "time": "5:00pm"}, {"days": "Sun", "time": "Closed"}], "id": "9430300015", "name": "USPS COLLECTION BOX - BLUE BOX", "address": {"city": "EAST PALO ALTO", "state": "CA", "street": "3920 MIDDLEFIELD RD", "postcode": "94303"}}},
{"geometry": {"type": "Point", "coordinates": [-122.1078548301, 37.4279997627]}, "type": "Feature", "properties": {"collection_times": [{"days": "Mon-Fri", "time": "4:15pm"}, {"days": "Sat", "time": "2:45pm"}, {"days": "Sun", "time": "Closed"}], "id": "9430300016", "name": "USPS COLLECTION BOX - BLUE BOX", "address": {"city": "EAST PALO ALTO", "state": "CA", "street": "902 E MEADOW DR", "postcode": "94303"}}},
{"geometry": {"type": "Point", "coordinates": [-122.1174829331, 37.4329031276]}, "type": "Feature", "properties": {"collection_times": [{"days": "Mon-Sat", "time": "2:45pm"}, {"days": "Sun", "time": "Closed"}], "id": "9430300017", "name": "USPS COLLECTION BOX - BLUE BOX", "address": {"city": "EAST PALO ALTO", "state": "CA", "street": "891 LOMA VERDE AVE", "postcode": "94303"}}},
{"geometry": {"type": "Point", "coordinates": [-122.098486019, 37.4243220046]}, "type": "Feature", "properties": {"collection_times": [{"days": "Mon-Fri", "time": "4:30pm"}, {"days": "Sat", "time": "3:00pm"}, {"days": "Sun", "time": "Closed"}], "id": "9430300018", "name": "USPS COLLECTION BOX - BLUE BOX", "address": {"city": "EAST PALO ALTO", "state": "CA", "street": "4095 TRANSPORT ST", "postcode": "94303"}}},
{"geometry": {"type": "Point", "coordinates": [-122.1397627823, 37.4446297998]}, "type": "Feature", "properties": {"collection_times": [{"days": "Mon-Fri", "time": "4:15pm"}, {"days": "Sat", "time": "1:30pm"}, {"days": "Sun", "time": "Closed"}], "id": "9430300019", "name": "USPS COLLECTION BOX - BLUE BOX", "address": {"city": "EAST PALO ALTO", "state": "CA", "street": "1213 NEWELL RD", "postcode": "94303"}}},
{"geometry": {"type": "Point", "coordinates": [-122.1377789601, 37.4525757352]}, "type": "Feature", "properties": {"collection_times": [{"days": "Mon-Sat", "time": "1:15pm"}, {"days": "Sun", "time": "Closed"}], "id": "9430300020", "name": "USPS COLLECTION BOX - BLUE BOX", "address": {"city": "EAST PALO ALTO", "state": "CA", "street": "603 NEWELL RD", "postcode": "94303"}}},
{"geometry": {"type": "Point", "coordinates": [-122.1042006699, 37.4237754163]}, "type": "Feature", "properties": {"collection_times": [{"days": "Mon-Fri", "time": "4:30pm"}, {"days": "Sat", "time": "2:45pm"}, {"days": "Sun", "time": "Closed"}], "id": "9430300022", "name": "USPS COLLECTION BOX - BLUE BOX", "address": {"city": "EAST PALO ALTO", "state": "CA", "street": "3950 FABIAN WAY", "postcode": "94303"}}},
{"geometry": {"type": "Point", "coordinates": [-122.1260334985, 37.4520788509]}, "type": "Feature", "properties": {"collection_times": [{"days": "Mon-Fri", "time": "5:30pm"}, {"days": "Sat", "time": "5:00pm"}, {"days": "Sun", "time": "Closed"}], "id": "9430300025", "name": "USPS COLLECTION BOX - BLUE BOX", "address": {"city": "EAST PALO ALTO", "state": "CA", "street": "2085 E BAYSHORE RD", "postcode": "94303"}}},
{"geometry": {"type": "Point", "coordinates": [-122.1260334985, 37.4520788509]}, "type": "Feature", "properties": {"collection_times": [{"days": "Mon-Fri", "time": "5:30pm"}, {"days": "Sat", "time": "5:00pm"}, {"days": "Sun", "time": "Closed"}], "id": "9430300026", "name": "USPS COLLECTION BOX - BLUE BOX", "address": {"city": "EAST PALO ALTO", "state": "CA", "street": "2085 E BAYSHORE RD", "postcode": "94303"}}},
{"geometry": {"type": "Point", "coordinates": [-122.1289682657, 37.4506619191]}, "type": "Feature", "properties": {"collection_times": [{"days": "Mon-Sat", "time": "3:00pm"}, {"days": "Sun", "time": "Closed"}], "id": "9430300028", "name": "USPS COLLECTION BOX - EXPRESS", "address": {"city": "EAST PALO ALTO", "state": "CA", "street": "2085 E BAYSHORE RD", "postcode": "94303"}}},
{"geometry": {"type": "Point", "coordinates": [-122.1060153289, 37.4219453787]}, "type": "Feature", "properties": {"collection_times": [{"days": "Mon-Sat", "time": "2:45pm"}, {"days": "Sun", "time": "Closed"}], "id": "9430300029", "name": "USPS COLLECTION BOX - BLUE BOX", "address": {"city": "EAST PALO ALTO", "state": "CA", "street": "3946 LOUIS RD", "postcode": "94303"}}},
{"geometry": {"type": "Point", "coordinates": [-122.1397367572, 37.448948783]}, "type": "Feature", "properties": {"collection_times": [{"days": "Mon-Sat", "time": "1:45pm"}, {"days": "Sun", "time": "Closed"}], "id": "9430300030", "name": "USPS COLLECTION BOX - BLUE BOX", "address": {"city": "EAST PALO ALTO", "state": "CA", "street": "896 NEWELL RD", "postcode": "94303"}}},
{"geometry": {"type": "Point", "coordinates": [-122.1253886479, 37.4387540427]}, "type": "Feature", "properties": {"collection_times": [{"days": "Mon-Sat", "time": "2:00pm"}, {"days": "Sun", "time": "Closed"}], "id": "9430300034", "name": "USPS COLLECTION BOX - BLUE BOX", "address": {"city": "EAST PALO ALTO", "state": "CA", "street": "2675 LOUIS RD", "postcode": "94303"}}},
{"geometry": {"type": "Point", "coordinates": [-122.1223097884, 37.4411963856]}, "type": "Feature", "properties": {"collection_times": [{"days": "Mon-Sat", "time": "2:00pm"}, {"days": "Sun", "time": "Closed"}], "id": "9430300035", "name": "USPS COLLECTION BOX - BLUE BOX", "address": {"city": "EAST PALO ALTO", "state": "CA", "street": "2698 GREER RD", "postcode": "94303"}}},
{"geometry": {"type": "Point", "coordinates": [-122.1340774815, 37.4561376247]}, "type": "Feature", "properties": {"collection_times": [{"days": "Mon-Sat", "time": "1:15pm"}, {"days": "Sun", "time": "Closed"}], "id": "9430300037", "name": "USPS COLLECTION BOX - BLUE BOX", "address": {"city": "EAST PALO ALTO", "state": "CA", "street": "1800 W BAYSHORE RD", "postcode": "94303"}}},
{"geometry": {"type": "Point", "coordinates": [-122.1221059157, 37.4540546118]}, "type": "Feature", "properties": {"collection_times": [{"days": "Mon-Sat", "time": "2:00pm"}, {"days": "Sun", "time": "Closed"}], "id": "9430300041", "name": "USPS COLLECTION BOX - BLUE BOX", "address": {"city": "EAST PALO ALTO", "state": "CA", "street": "899 LOUIS RD", "postcode": "94303"}}},
{"geometry": {"type": "Point", "coordinates": [-122.1192538227, 37.4349188897]}, "type": "Feature", "properties": {"collection_times": [{"days": "Mon-Sat", "time": "2:30pm"}, {"days": "Sun", "time": "Closed"}], "id": "9430300044", "name": "USPS COLLECTION BOX - BLUE BOX", "address": {"city": "EAST PALO ALTO", "state": "CA", "street": "3101 LOUIS RD", "postcode": "94303"}}},
{"geometry": {"type": "Point", "coordinates": [-122.1266354867, 37.4470347554]}, "type": "Feature", "properties": {"collection_times": [{"days": "Mon-Sat", "time": "1:30pm"}, {"days": "Sun", "time": "Closed"}], "id": "9430300045", "name": "USPS COLLECTION BOX - BLUE BOX", "address": {"city": "EAST PALO ALTO", "state": "CA", "street": "2190 SAINT FRANCIS DR", "postcode": "94303"}}},
{"geometry": {"type": "Point", "coordinates": [-122.1296780571, 37.4609593654]}, "type": "Feature", "properties": {"collection_times": [{"days": "Mon-Sat", "time": "12:45pm"}, {"days": "Sun", "time": "Closed"}], "id": "9430300046", "name": "USPS COLLECTION BOX - BLUE BOX", "address": {"city": "EAST PALO ALTO", "state": "CA", "street": "1108 OCONNOR ST", "postcode": "94303"}}},
{"geometry": {"type": "Point", "coordinates": [-122.1012790691, 37.4217872514]}, "type": "Feature", "properties": {"collection_times": [{"days": "Mon-Fri", "time": "4:45pm"}, {"days": "Sat", "time": "3:00pm"}, {"days": "Sun", "time": "Closed"}], "id": "9430300048", "name": "USPS COLLECTION BOX - BLUE BOX", "address": {"city": "EAST PALO ALTO", "state": "CA", "street": "942 E CHARLESTON RD", "postcode": "94303"}}},
{"geometry": {"type": "Point", "coordinates": [-122.1019636945, 37.4212770069]}, "type": "Feature", "properties": {"collection_times": [{"days": "Mon-Fri", "time": "4:30pm"}, {"days": "Sat", "time": "3:00pm"}, {"days": "Sun", "time": "Closed"}], "id": "9430300049", "name": "USPS COLLECTION BOX - BLUE BOX", "address": {"city": "EAST PALO ALTO", "state": "CA", "street": "825 SAN ANTONIO RD", "postcode": "94303"}}},
{"geometry": {"type": "Point", "coordinates": [-122.1148559692, 37.4527722971]}, "type": "Feature", "properties": {"collection_times": [{"days": "Mon-Fri", "time": "5:00pm"}, {"days": "Sat", "time": "3:15pm"}, {"days": "Sun", "time": "Closed"}], "id": "9430300050", "name": "USPS COLLECTION BOX - BLUE BOX", "address": {"city": "EAST PALO ALTO", "state": "CA", "street": "1875 EMBARCADERO RD", "postcode": "94303"}}},
{"geometry": {"type": "Point", "coordinates": [-122.1170565969, 37.4512354059]}, "type": "Feature", "properties": {"collection_times": [{"days": "Mon-Fri", "time": "5:00pm"}, {"days": "Sat", "time": "3:15pm"}, {"days": "Sun", "time": "Closed"}], "id": "9430300057", "name": "USPS COLLECTION BOX - BLUE BOX", "address": {"city": "EAST PALO ALTO", "state": "CA", "street": "1804 EMBARCADERO RD", "postcode": "94303"}}},
{"geometry": {"type": "Point", "coordinates": [-122.1052783397, 37.4293761112]}, "type": "Feature", "properties": {"collection_times": [{"days": "Mon-Fri", "time": "4:35pm"}, {"days": "Sat", "time": "2:45pm"}, {"days": "Sun", "time": "Closed"}], "id": "9430300060", "name": "USPS COLLECTION BOX - BLUE BOX", "address": {"city": "EAST PALO ALTO", "state": "CA", "street": "1170 E MEADOW DR", "postcode": "94303"}}},
{"geometry": {"type": "Point", "coordinates": [-122.1042006699, 37.4237754163]}, "type": "Feature", "properties": {"collection_times": [{"days": "Mon-Fri", "time": "4:30pm"}, {"days": "Sat", "time": "2:45pm"}, {"days": "Sun", "time": "Closed"}], "id": "9430300068", "name": "USPS COLLECTION BOX - BLUE BOX", "address": {"city": "EAST PALO ALTO", "state": "CA", "street": "3950 FABIAN WAY", "postcode": "94303"}}},
{"geometry": {"type": "Point", "coordinates": [-122.1260334985, 37.4520788509]}, "type": "Feature", "properties": {"collection_times": [{"days": "Mon-Fri", "time": "5:30pm"}, {"days": "Sat", "time": "5:00pm"}, {"days": "Sun", "time": "Closed"}], "id": "9430300069", "name": "USPS COLLECTION BOX - PO LOBBY", "address": {"city": "EAST PALO ALTO", "state": "CA", "street": "2085 E BAYSHORE RD", "postcode": "94303"}}},
{"geometry": {"type": "Point", "coordinates": [-122.1260334985, 37.4520788509]}, "type": "Feature", "properties": {"collection_times": [{"days": "Mon-Fri", "time": "5:30pm"}, {"days": "Sat", "time": "5:00pm"}, {"days": "Sun", "time": "Closed"}], "id": "9430300070", "name": "USPS COLLECTION BOX - APC", "address": {"city": "EAST PALO ALTO", "state": "CA", "street": "2085 E BAYSHORE RD", "postcode": "94303"}}},
{"geometry": {"type": "Point", "coordinates": [-122.1860348537, 37.4318333164]}, "type": "Feature", "properties": {"collection_times": [{"days": "Mon-Sat", "time": "12:45pm"}, {"days": "Sun", "time": "Closed"}], "id": "9430400012", "name": "USPS COLLECTION BOX - BLUE BOX", "address": {"city": "PALO ALTO", "state": "CA", "street": "1600 SAND HILL RD", "postcode": "94304"}}},
{"geometry": {"type": "Point", "coordinates": [-122.1889469973, 37.4317237173]}, "type": "Feature", "properties": {"collection_times": [{"days": "Mon-Sat", "time": "1:00pm"}, {"days": "Sun", "time": "Closed"}], "id": "9430400014", "name": "USPS COLLECTION BOX - BLUE BOX", "address": {"city": "PALO ALTO", "state": "CA", "street": "1812 OAK CREEK DR", "postcode": "94304"}}},
{"geometry": {"type": "Point", "coordinates": [-122.1484338715, 37.4179694537]}, "type": "Feature", "properties": {"collection_times": [{"days": "Mon-Fri", "time": "4:00pm"}, {"days": "Sat", "time": "2:30pm"}, {"days": "Sun", "time": "Closed"}], "id": "9430400021", "name": "USPS COLLECTION BOX - BLUE BOX", "address": {"city": "PALO ALTO", "state": "CA", "street": "2626 HANOVER ST", "postcode": "94304"}}},
{"geometry": {"type": "Point", "coordinates": [-122.176525598, 37.4331148773]}, "type": "Feature", "properties": {"collection_times": [{"days": "Mon-Fri", "time": "4:45pm"}, {"days": "Sat", "time": "5:00pm"}, {"days": "Sun", "time": "Closed"}], "id": "9430400024", "name": "USPS COLLECTION BOX - BLUE BOX", "address": {"city": "PALO ALTO", "state": "CA", "street": "300 PASTEUR DR", "postcode": "94304"}}},
{"geometry": {"type": "Point", "coordinates": [-122.1802288317, 37.4378100832]}, "type": "Feature", "properties": {"collection_times": [{"days": "Mon-Sat", "time": "12:30pm"}, {"days": "Sun", "time": "Closed"}], "id": "9430400028", "name": "USPS COLLECTION BOX - BLUE BOX", "address": {"city": "PALO ALTO", "state": "CA", "street": "700 CLARK WAY", "postcode": "94304"}}},
{"geometry": {"type": "Point", "coordinates": [-122.1607874637, 37.4446621189]}, "type": "Feature", "properties": {"collection_times": [{"days": "Mon-Fri", "time": "4:30pm"}, {"days": "Sat-Sun", "time": "Closed"}], "id": "9430400030", "name": "USPS COLLECTION BOX - BLUE BOX", "address": {"city": "PALO ALTO", "state": "CA", "street": "1801 PAGE MILL RD", "postcode": "94304"}}},
{"geometry": {"type": "Point", "coordinates": [-122.1730737053, 37.4396099792]}, "type": "Feature", "properties": {"collection_times": [{"days": "Mon-Fri", "time": "4:30pm"}, {"days": "Sat", "time": "5:00pm"}, {"days": "Sun", "time": "Closed"}], "id": "9430400031", "name": "USPS COLLECTION BOX - BLUE BOX", "address": {"city": "PALO ALTO", "state": "CA", "street": "383 STANFORD SHOPPING CTR", "postcode": "94304"}}},
{"geometry": {"type": "Point", "coordinates": [-122.1443187499, 37.4182675602]}, "type": "Feature", "properties": {"collection_times": [{"days": "Mon-Fri", "time": "3:00pm"}, {"days": "Sat", "time": "2:15pm"}, {"days": "Sun", "time": "Closed"}], "id": "9430400032", "name": "USPS COLLECTION BOX - BLUE BOX", "address": {"city": "PALO ALTO", "state": "CA", "street": "3130 HANSEN WAY", "postcode": "94304"}}},
{"geometry": {"type": "Point", "coordinates": [-122.1645364807, 37.4250524567]}, "type": "Feature", "properties": {"collection_times": [{"days": "Mon-Sat", "time": "1:45pm"}, {"days": "Sun", "time": "Closed"}], "id": "9430500001", "name": "USPS COLLECTION BOX - EXPRESS", "address": {"city": "PALO ALTO", "state": "CA", "street": "100 SERRA ST", "postcode": "94305"}}},
{"geometry": {"type": "Point", "coordinates": [-122.1669359452, 37.4243488388]}, "type": "Feature", "properties": {"collection_times": [{"days": "Mon-Fri", "time": "5:00pm"}, {"days": "Sat", "time": "4:45pm"}, {"days": "Sun", "time": "Closed"}], "id": "9430500004", "name": "USPS COLLECTION BOX - BLUE BOX", "address": {"city": "PALO ALTO", "state": "CA", "street": "1 WHITE PLZ", "postcode": "94305"}}},
{"geometry": {"type": "Point", "coordinates": [-122.1669359452, 37.4243488388]}, "type": "Feature", "properties": {"collection_times": [{"days": "Mon-Fri", "time": "5:00pm"}, {"days": "Sat", "time": "4:45pm"}, {"days": "Sun", "time": "Closed"}], "id": "9430500006", "name": "USPS COLLECTION BOX - BLUE BOX", "address": {"city": "PALO ALTO", "state": "CA", "street": "1 WHITE PLZ", "postcode": "94305"}}},
{"geometry": {"type": "Point", "coordinates": [-122.1754314806, 37.4301323148]}, "type": "Feature", "properties": {"collection_times": [{"days": "Mon-Fri", "time": "5:00pm"}, {"days": "Sat", "time": "1:45pm"}, {"days": "Sun", "time": "Closed"}], "id": "9430500012", "name": "USPS COLLECTION BOX - BLUE BOX", "address": {"city": "PALO ALTO", "state": "CA", "street": "100 SERRA ST", "postcode": "94305"}}},
{"geometry": {"type": "Point", "coordinates": [-122.1738995027, 37.4298084094]}, "type": "Feature", "properties": {"collection_times": [{"days": "Mon-Fri", "time": "4:15pm"}, {"days": "Sat", "time": "1:45pm"}, {"days": "Sun", "time": "Closed"}], "id": "9430500016", "name": "USPS COLLECTION BOX - BLUE BOX", "address": {"city": "PALO ALTO", "state": "CA", "street": "250 SERRA ST", "postcode": "94305"}}},
{"geometry": {"type": "Point", "coordinates": [-122.1744500888, 37.4299227295]}, "type": "Feature", "properties": {"collection_times": [{"days": "Mon-Fri", "time": "4:15pm"}, {"days": "Sat", "time": "1:45pm"}, {"days": "Sun", "time": "Closed"}], "id": "9430500019", "name": "USPS COLLECTION BOX - BLUE BOX", "address": {"city": "PALO ALTO", "state": "CA", "street": "200 SERRA ST", "postcode": "94305"}}},
{"geometry": {"type": "Point", "coordinates": [-122.1744327203, 37.4254669496]}, "type": "Feature", "properties": {"collection_times": [{"days": "Mon-Fri", "time": "5:00pm"}, {"days": "Sat", "time": "1:15pm"}, {"days": "Sun", "time": "Closed"}], "id": "9430500021", "name": "USPS COLLECTION BOX - BLUE BOX", "address": {"city": "PALO ALTO", "state": "CA", "street": "400 SANTA TERESA ST", "postcode": "94305"}}},
{"geometry": {"type": "Point", "coordinates": [-122.1597513116, 37.425632393]}, "type": "Feature", "properties": {"collection_times": [{"days": "Mon-Sat", "time": "1:30pm"}, {"days": "Sun", "time": "Closed"}], "id": "9430500023", "name": "USPS COLLECTION BOX - BLUE BOX", "address": {"city": "PALO ALTO", "state": "CA", "street": "704 CAMPUS DR", "postcode": "94305"}}},
{"geometry": {"type": "Point", "coordinates": [-122.1525576665, 37.4135108813]}, "type": "Feature", "properties": {"collection_times": [{"days": "Mon-Sat", "time": "2:30pm"}, {"days": "Sun", "time": "Closed"}], "id": "9430500024", "name": "USPS COLLECTION BOX - BLUE BOX", "address": {"city": "PALO ALTO", "state": "CA", "street": "1 PETER COUTTS CIR", "postcode": "94305"}}},
{"geometry": {"type": "Point", "coordinates": [-122.1514395503, 37.4267593928]}, "type": "Feature", "properties": {"collection_times": [{"days": "Mon-Sat", "time": "2:30pm"}, {"days": "Sun", "time": "Closed"}], "id": "9430500027", "name": "USPS COLLECTION BOX - BLUE BOX", "address": {"city": "PALO ALTO", "state": "CA", "street": "62A ABRAMS CT", "postcode": "94305"}}},
{"geometry": {"type": "Point", "coordinates": [-122.1588983265, 37.4137084355]}, "type": "Feature", "properties": {"collection_times": [{"days": "Mon-Sat", "time": "2:30pm"}, {"days": "Sun", "time": "Closed"}], "id": "9430500031", "name": "USPS COLLECTION BOX - BLUE BOX", "address": {"city": "PALO ALTO", "state": "CA", "street": "793 MAYFIELD AVE", "postcode": "94305"}}},
{"geometry": {"type": "Point", "coordinates": [-122.1610347504, 37.4192624278]}, "type": "Feature", "properties": {"collection_times": [{"days": "Mon-Sat", "time": "1:15pm"}, {"days": "Sun", "time": "Closed"}], "id": "9430500033", "name": "USPS COLLECTION BOX - BLUE BOX", "address": {"city": "PALO ALTO", "state": "CA", "street": "720 ALVARADO ROW", "postcode": "94305"}}},
{"geometry": {"type": "Point", "coordinates": [-122.1669359452, 37.4243488388]}, "type": "Feature", "properties": {"collection_times": [{"days": "Mon-Fri", "time": "5:00pm"}, {"days": "Sat-Sun", "time": "Closed"}], "id": "9430500041", "name": "USPS COLLECTION BOX - PO LOBBY", "address": {"city": "PALO ALTO", "state": "CA", "street": "1 WHITE PLZ", "postcode": "94305"}}},
{"geometry": {"type": "Point", "coordinates": [-122.1669359452, 37.4243488388]}, "type": "Feature", "properties": {"collection_times": [{"days": "Mon-Fri", "time": "5:00pm"}, {"days": "Sat", "time": "4:45pm"}, {"days": "Sun", "time": "Closed"}], "id": "9430500042", "name": "USPS COLLECTION BOX - BLUE BOX", "address": {"city": "PALO ALTO", "state": "CA", "street": "1 WHITE PLZ", "postcode": "94305"}}},
{"geometry": {"type": "Point", "coordinates": [-122.170780191, 37.4264052441]}, "type": "Feature", "properties": {"collection_times": [{"days": "Mon-Fri", "time": "1:30pm"}, {"days": "Sat", "time": "1:45pm"}, {"days": "Sun", "time": "Closed"}], "id": "9430500050", "name": "USPS COLLECTION BOX - BLUE BOX", "address": {"city": "PALO ALTO", "state": "CA", "street": "500 ESCONDIDO MALL", "postcode": "94305"}}},
{"geometry": {"type": "Point", "coordinates": [-122.1260948744, 37.4148511738]}, "type": "Feature", "properties": {"collection_times": [{"days": "Mon-Fri", "time": "4:45pm"}, {"days": "Sat", "time": "2:00pm"}, {"days": "Sun", "time": "Closed"}], "id": "9430600001", "name": "USPS COLLECTION BOX - BLUE BOX", "address": {"city": "PALO ALTO", "state": "CA", "street": "4085 EL CAMINO WAY", "postcode": "94306"}}},
{"geometry": {"type": "Point", "coordinates": [-122.1342289002, 37.4150416302]}, "type": "Feature", "properties": {"collection_times": [{"days": "Mon-Sat", "time": "2:15pm"}, {"days": "Sun", "time": "Closed"}], "id": "9430600002", "name": "USPS COLLECTION BOX - BLUE BOX", "address": {"city": "PALO ALTO", "state": "CA", "street": "3711 LA DONNA AVE", "postcode": "94306"}}},
{"geometry": {"type": "Point", "coordinates": [-122.1442083421, 37.4287379291]}, "type": "Feature", "properties": {"collection_times": [{"days": "Mon-Fri", "time": "5:00pm"}, {"days": "Sat", "time": "4:30pm"}, {"days": "Sun", "time": "Closed"}], "id": "9430600003", "name": "USPS COLLECTION BOX - BLUE BOX", "address": {"city": "PALO ALTO", "state": "CA", "street": "265 CAMBRIDGE AVE", "postcode": "94306"}}},
{"geometry": {"type": "Point", "coordinates": [-122.138387001, 37.4210557936]}, "type": "Feature", "properties": {"collection_times": [{"days": "Mon-Sat", "time": "2:15pm"}, {"days": "Sun", "time": "Closed"}], "id": "9430600004", "name": "USPS COLLECTION BOX - BLUE BOX", "address": {"city": "PALO ALTO", "state": "CA", "street": "3200 EL CAMINO REAL", "postcode": "94306"}}},
{"geometry": {"type": "Point", "coordinates": [-122.1441557668, 37.4252885209]}, "type": "Feature", "properties": {"collection_times": [{"days": "Mon-Fri", "time": "4:30pm"}, {"days": "Sat", "time": "4:00pm"}, {"days": "Sun", "time": "Closed"}], "id": "9430600008", "name": "USPS COLLECTION BOX - BLUE BOX", "address": {"city": "PALO ALTO", "state": "CA", "street": "451 SHERMAN AVE", "postcode": "94306"}}},
{"geometry": {"type": "Point", "coordinates": [-122.1525735379, 37.4201074001]}, "type": "Feature", "properties": {"collection_times": [{"days": "Mon-Sat", "time": "2:45pm"}, {"days": "Sun", "time": "Closed"}], "id": "9430600009", "name": "USPS COLLECTION BOX - BLUE BOX", "address": {"city": "PALO ALTO", "state": "CA", "street": "2200 HANOVER ST", "postcode": "94306"}}},
{"geometry": {"type": "Point", "coordinates": [-122.1338882081, 37.430412999]}, "type": "Feature", "properties": {"collection_times": [{"days": "Mon-Sat", "time": "2:15pm"}, {"days": "Sun", "time": "Closed"}], "id": "9430600010", "name": "USPS COLLECTION BOX - BLUE BOX", "address": {"city": "PALO ALTO", "state": "CA", "street": "2600 WAVERLEY ST", "postcode": "94306"}}},
{"geometry": {"type": "Point", "coordinates": [-122.1442083421, 37.4287379291]}, "type": "Feature", "properties": {"collection_times": [{"days": "Mon-Fri", "time": "5:00pm"}, {"days": "Sat", "time": "4:30pm"}, {"days": "Sun", "time": "Closed"}], "id": "9430600012", "name": "USPS COLLECTION BOX - BLUE BOX", "address": {"city": "PALO ALTO", "state": "CA", "street": "265 CAMBRIDGE AVE", "postcode": "94306"}}},
{"geometry": {"type": "Point", "coordinates": [-122.1507734402, 37.4223440285]}, "type": "Feature", "properties": {"collection_times": [{"days": "Mon-Sat", "time": "2:45pm"}, {"days": "Sun", "time": "Closed"}], "id": "9430600013", "name": "USPS COLLECTION BOX - BLUE BOX", "address": {"city": "PALO ALTO", "state": "CA", "street": "2201 PRINCETON ST", "postcode": "94306"}}},
{"geometry": {"type": "Point", "coordinates": [-122.1447915408, 37.4263696453]}, "type": "Feature", "properties": {"collection_times": [{"days": "Mon-Fri", "time": "5:00pm"}, {"days": "Sat", "time": "3:00pm"}, {"days": "Sun", "time": "Closed"}], "id": "9430600015", "name": "USPS COLLECTION BOX - BLUE BOX", "address": {"city": "PALO ALTO", "state": "CA", "street": "414 S CALIFORNIA AVE", "postcode": "94306"}}},
{"geometry": {"type": "Point", "coordinates": [-122.1180823277, 37.4262596665]}, "type": "Feature", "properties": {"collection_times": [{"days": "Mon-Sat", "time": "2:30pm"}, {"days": "Sun", "time": "Closed"}], "id": "9430600016", "name": "USPS COLLECTION BOX - BLUE BOX", "address": {"city": "PALO ALTO", "state": "CA", "street": "3398 MIDDLEFIELD RD", "postcode": "94306"}}},
{"geometry": {"type": "Point", "coordinates": [-122.1285613438, 37.4159028243]}, "type": "Feature", "properties": {"collection_times": [{"days": "Mon-Fri", "time": "4:45pm"}, {"days": "Sat", "time": "2:00pm"}, {"days": "Sun", "time": "Closed"}], "id": "9430600017", "name": "USPS COLLECTION BOX - BLUE BOX", "address": {"city": "PALO ALTO", "state": "CA", "street": "3990 EL CAMINO REAL", "postcode": "94306"}}},
{"geometry": {"type": "Point", "coordinates": [-122.1292553058, 37.4156607384]}, "type": "Feature", "properties": {"collection_times": [{"days": "Mon-Sat", "time": "2:00pm"}, {"days": "Sun", "time": "Closed"}], "id": "9430600018", "name": "USPS COLLECTION BOX - BLUE BOX", "address": {"city": "PALO ALTO", "state": "CA", "street": "633 LOS PALOS AVE", "postcode": "94306"}}},
{"geometry": {"type": "Point", "coordinates": [-122.1289422522, 37.4331039375]}, "type": "Feature", "properties": {"collection_times": [{"days": "Mon-Fri", "time": "4:45pm"}, {"days": "Sat", "time": "2:15pm"}, {"days": "Sun", "time": "Closed"}], "id": "9430600021", "name": "USPS COLLECTION BOX - BLUE BOX", "address": {"city": "PALO ALTO", "state": "CA", "street": "2754 MIDDLEFIELD RD", "postcode": "94306"}}},
{"geometry": {"type": "Point", "coordinates": [-122.1102550539, 37.4116560017]}, "type": "Feature", "properties": {"collection_times": [{"days": "Mon-Sat", "time": "1:15pm"}, {"days": "Sun", "time": "Closed"}], "id": "9430600023", "name": "USPS COLLECTION BOX - BLUE BOX", "address": {"city": "PALO ALTO", "state": "CA", "street": "219 FERNE AVE", "postcode": "94306"}}},
{"geometry": {"type": "Point", "coordinates": [-122.1318460125, 37.4175912435]}, "type": "Feature", "properties": {"collection_times": [{"days": "Mon-Sat", "time": "2:00pm"}, {"days": "Sun", "time": "Closed"}], "id": "9430600024", "name": "USPS COLLECTION BOX - BLUE BOX", "address": {"city": "PALO ALTO", "state": "CA", "street": "3780 EL CAMINO REAL", "postcode": "94306"}}},
{"geometry": {"type": "Point", "coordinates": [-122.1303013491, 37.4235183391]}, "type": "Feature", "properties": {"collection_times": [{"days": "Mon-Sat", "time": "2:15pm"}, {"days": "Sun", "time": "Closed"}], "id": "9430600025", "name": "USPS COLLECTION BOX - BLUE BOX", "address": {"city": "PALO ALTO", "state": "CA", "street": "202 LOMA VERDE AVE", "postcode": "94306"}}},
{"geometry": {"type": "Point", "coordinates": [-122.1339922271, 37.4085137311]}, "type": "Feature", "properties": {"collection_times": [{"days": "Mon-Sat", "time": "2:15pm"}, {"days": "Sun", "time": "Closed"}], "id": "9430600026", "name": "USPS COLLECTION BOX - BLUE BOX", "address": {"city": "PALO ALTO", "state": "CA", "street": "4001 LAGUNA WAY", "postcode": "94306"}}},
{"geometry": {"type": "Point", "coordinates": [-122.1209055194, 37.4150157164]}, "type": "Feature", "properties": {"collection_times": [{"days": "Mon-Sat", "time": "1:30pm"}, {"days": "Sun", "time": "Closed"}], "id": "9430600027", "name": "USPS COLLECTION BOX - BLUE BOX", "address": {"city": "PALO ALTO", "state": "CA", "street": "220 TENNESSEE LN", "postcode": "94306"}}},
{"geometry": {"type": "Point", "coordinates": [-122.1375979674, 37.435025356]}, "type": "Feature", "properties": {"collection_times": [{"days": "Mon-Fri", "time": "5:00pm"}, {"days": "Sat", "time": "4:15pm"}, {"days": "Sun", "time": "Closed"}], "id": "9430600030", "name": "USPS COLLECTION BOX - BLUE BOX", "address": {"city": "PALO ALTO", "state": "CA", "street": "505 CALIFORNIA AVE", "postcode": "94306"}}},
{"geometry": {"type": "Point", "coordinates": [-122.1305833644, 37.430252663]}, "type": "Feature", "properties": {"collection_times": [{"days": "Mon-Sat", "time": "2:15pm"}, {"days": "Sun", "time": "Closed"}], "id": "9430600031", "name": "USPS COLLECTION BOX - BLUE BOX", "address": {"city": "PALO ALTO", "state": "CA", "street": "495 EL DORADO AVE", "postcode": "94306"}}},
{"geometry": {"type": "Point", "coordinates": [-122.1305877526, 37.4131394322]}, "type": "Feature", "properties": {"collection_times": [{"days": "Mon-Sat", "time": "2:15pm"}, {"days": "Sun", "time": "Closed"}], "id": "9430600033", "name": "USPS COLLECTION BOX - BLUE BOX", "address": {"city": "PALO ALTO", "state": "CA", "street": "3998 LA DONNA AVE", "postcode": "94306"}}},
{"geometry": {"type": "Point", "coordinates": [-122.1151903587, 37.4173093626]}, "type": "Feature", "properties": {"collection_times": [{"days": "Mon-Sat", "time": "1:15pm"}, {"days": "Sun", "time": "Closed"}], "id": "9430600034", "name": "USPS COLLECTION BOX - BLUE BOX", "address": {"city": "PALO ALTO", "state": "CA", "street": "330 E CHARLESTON RD", "postcode": "94306"}}},
{"geometry": {"type": "Point", "coordinates": [-122.1189415215, 37.4177801802]}, "type": "Feature", "properties": {"collection_times": [{"days": "Mon-Sat", "time": "1:30pm"}, {"days": "Sun", "time": "Closed"}], "id": "9430600035", "name": "USPS COLLECTION BOX - BLUE BOX", "address": {"city": "PALO ALTO", "state": "CA", "street": "2 ROOSEVELT CIR", "postcode": "94306"}}},
{"geometry": {"type": "Point", "coordinates": [-122.1509618548, 37.4329693733]}, "type": "Feature", "properties": {"collection_times": [{"days": "Mon-Sat", "time": "3:15pm"}, {"days": "Sun", "time": "Closed"}], "id": "9430600037", "name": "USPS COLLECTION BOX - BLUE BOX", "address": {"city": "PALO ALTO", "state": "CA", "street": "400 MIRAMONTE AVE", "postcode": "94306"}}},
{"geometry": {"type": "Point", "coordinates": [-122.149091419, 37.4244071045]}, "type": "Feature", "properties": {"collection_times": [{"days": "Mon-Sat", "time": "2:45pm"}, {"days": "Sun", "time": "Closed"}], "id": "9430600038", "name": "USPS COLLECTION BOX - BLUE BOX", "address": {"city": "PALO ALTO", "state": "CA", "street": "2200 WILLIAMS ST", "postcode": "94306"}}},
{"geometry": {"type": "Point", "coordinates": [-122.1330169983, 37.4274526339]}, "type": "Feature", "properties": {"collection_times": [{"days": "Mon-Sat", "time": "2:15pm"}, {"days": "Sun", "time": "Closed"}], "id": "9430600040", "name": "USPS COLLECTION BOX - BLUE BOX", "address": {"city": "PALO ALTO", "state": "CA", "street": "2810 BRYANT ST", "postcode": "94306"}}},
{"geometry": {"type": "Point", "coordinates": [-122.1273263347, 37.4262726426]}, "type": "Feature", "properties": {"collection_times": [{"days": "Mon-Sat", "time": "2:15pm"}, {"days": "Sun", "time": "Closed"}], "id": "9430600042", "name": "USPS COLLECTION BOX - BLUE BOX", "address": {"city": "PALO ALTO", "state": "CA", "street": "3140 WAVERLEY ST", "postcode": "94306"}}},
{"geometry": {"type": "Point", "coordinates": [-122.1230411236, 37.429365284]}, "type": "Feature", "properties": {"collection_times": [{"days": "Mon-Sat", "time": "2:30pm"}, {"days": "Sun", "time": "Closed"}], "id": "9430600043", "name": "USPS COLLECTION BOX - BLUE BOX", "address": {"city": "PALO ALTO", "state": "CA", "street": "3175 MIDDLEFIELD RD", "postcode": "94306"}}},
{"geometry": {"type": "Point", "coordinates": [-122.1186597247, 37.409563674]}, "type": "Feature", "properties": {"collection_times": [{"days": "Mon-Sat", "time": "1:30pm"}, {"days": "Sun", "time": "Closed"}], "id": "9430600044", "name": "USPS COLLECTION BOX - BLUE BOX", "address": {"city": "PALO ALTO", "state": "CA", "street": "4290 WILKIE WAY", "postcode": "94306"}}},
{"geometry": {"type": "Point", "coordinates": [-122.1225791885, 37.4186018384]}, "type": "Feature", "properties": {"collection_times": [{"days": "Mon-Sat", "time": "1:30pm"}, {"days": "Sun", "time": "Closed"}], "id": "9430600046", "name": "USPS COLLECTION BOX - BLUE BOX", "address": {"city": "PALO ALTO", "state": "CA", "street": "201 E MEADOW DR", "postcode": "94306"}}},
{"geometry": {"type": "Point", "coordinates": [-122.1034885286, 37.4161465139]}, "type": "Feature", "properties": {"collection_times": [{"days": "Mon-Sat", "time": "1:00pm"}, {"days": "Sun", "time": "Closed"}], "id": "9430600047", "name": "USPS COLLECTION BOX - BLUE BOX", "address": {"city": "PALO ALTO", "state": "CA", "street": "699 SAN ANTONIO RD", "postcode": "94306"}}},
{"geometry": {"type": "Point", "coordinates": [-122.1298637817, 37.4337465774]}, "type": "Feature", "properties": {"collection_times": [{"days": "Mon-Fri", "time": "4:30pm"}, {"days": "Sat", "time": "5:00pm"}, {"days": "Sun", "time": "Closed"}], "id": "9430600048", "name": "USPS COLLECTION BOX - BLUE BOX", "address": {"city": "PALO ALTO", "state": "CA", "street": "2675 MIDDLEFIELD RD", "postcode": "94306"}}},
{"geometry": {"type": "Point", "coordinates": [-122.1543096287, 37.4181835692]}, "type": "Feature", "properties": {"collection_times": [{"days": "Mon-Sat", "time": "2:45pm"}, {"days": "Sun", "time": "Closed"}], "id": "9430600049", "name": "USPS COLLECTION BOX - BLUE BOX", "address": {"city": "PALO ALTO", "state": "CA", "street": "1585 COLLEGE AVE", "postcode": "94306"}}},
{"geometry": {"type": "Point", "coordinates": [-122.1483225226, 37.4288042857]}, "type": "Feature", "properties": {"collection_times": [{"days": "Mon-Sat", "time": "3:00pm"}, {"days": "Sun", "time": "Closed"}], "id": "9430600050", "name": "USPS COLLECTION BOX - BLUE BOX", "address": {"city": "PALO ALTO", "state": "CA", "street": "399 STANFORD AVE", "postcode": "94306"}}},
{"geometry": {"type": "Point", "coordinates": [-122.1240731591, 37.4092827929]}, "type": "Feature", "properties": {"collection_times": [{"days": "Mon-Sat", "time": "2:00pm"}, {"days": "Sun", "time": "Closed"}], "id": "9430600051", "name": "USPS COLLECTION BOX - BLUE BOX", "address": {"city": "PALO ALTO", "state": "CA", "street": "4201 MCKELLAR LN", "postcode": "94306"}}},
{"geometry": {"type": "Point", "coordinates": [-122.1359228975, 37.4173720594]}, "type": "Feature", "properties": {"collection_times": [{"days": "Mon-Sat", "time": "2:15pm"}, {"days": "Sun", "time": "Closed"}], "id": "9430600055", "name": "USPS COLLECTION BOX - BLUE BOX", "address": {"city": "PALO ALTO", "state": "CA", "street": "604 MATADERO AVE", "postcode": "94306"}}},
{"geometry": {"type": "Point", "coordinates": [-122.1536478757, 37.4336178983]}, "type": "Feature", "properties": {"collection_times": [{"days": "Mon-Fri", "time": "4:15pm"}, {"days": "Sat", "time": "3:15pm"}, {"days": "Sun", "time": "Closed"}], "id": "9430600056", "name": "USPS COLLECTION BOX - BLUE BOX", "address": {"city": "PALO ALTO", "state": "CA", "street": "25 CHURCHILL AVE", "postcode": "94306"}}},
{"geometry": {"type": "Point", "coordinates": [-122.113192341, 37.4183480005]}, "type": "Feature", "properties": {"collection_times": [{"days": "Mon-Sat", "time": "1:15pm"}, {"days": "Sun", "time": "Closed"}], "id": "9430600058", "name": "USPS COLLECTION BOX - BLUE BOX", "address": {"city": "PALO ALTO", "state": "CA", "street": "455 E CHARLESTON RD", "postcode": "94306"}}},
{"geometry": {"type": "Point", "coordinates": [-122.1491625742, 37.431019857]}, "type": "Feature", "properties": {"collection_times": [{"days": "Mon-Sat", "time": "3:15pm"}, {"days": "Sun", "time": "Closed"}], "id": "9430600060", "name": "USPS COLLECTION BOX - BLUE BOX", "address": {"city": "PALO ALTO", "state": "CA", "street": "1810 BIRCH ST", "postcode": "94306"}}},
{"geometry": {"type": "Point", "coordinates": [-122.1283779852, 37.4038555702]}, "type": "Feature", "properties": {"collection_times": [{"days": "Mon-Sat", "time": "1:45pm"}, {"days": "Sun", "time": "Closed"}], "id": "9430600064", "name": "USPS COLLECTION BOX - BLUE BOX", "address": {"city": "PALO ALTO", "state": "CA", "street": "4191 DONALD DR", "postcode": "94306"}}},
{"geometry": {"type": "Point", "coordinates": [-122.136772262, 37.4203791411]}, "type": "Feature", "properties": {"collection_times": [{"days": "Mon-Sat", "time": "2:15pm"}, {"days": "Sun", "time": "Closed"}], "id": "9430600066", "name": "USPS COLLECTION BOX - BLUE BOX", "address": {"city": "PALO ALTO", "state": "CA", "street": "3305 EL CAMINO REAL", "postcode": "94306"}}},
{"geometry": {"type": "Point", "coordinates": [-122.147504606, 37.4263425848]}, "type": "Feature", "properties": {"collection_times": [{"days": "Mon-Sat", "time": "3:00pm"}, {"days": "Sun", "time": "Closed"}], "id": "9430600067", "name": "USPS COLLECTION BOX - BLUE BOX", "address": {"city": "PALO ALTO", "state": "CA", "street": "498 COLLEGE AVE", "postcode": "94306"}}},
{"geometry": {"type": "Point", "coordinates": [-122.1316795491, 37.4196603048]}, "type": "Feature", "properties": {"collection_times": [{"days": "Mon-Sat", "time": "2:45pm"}, {"days": "Sun", "time": "Closed"}], "id": "9430600069", "name": "USPS COLLECTION BOX - EXPRESS", "address": {"city": "PALO ALTO", "state": "CA", "street": "2600 EL CAMINO REAL", "postcode": "94306"}}},
{"geometry": {"type": "Point", "coordinates": [-122.1443171743, 37.4241669757]}, "type": "Feature", "properties": {"collection_times": [{"days": "Mon-Fri", "time": "5:00pm"}, {"days": "Sat", "time": "4:30pm"}, {"days": "Sun", "time": "Closed"}], "id": "9430600070", "name": "USPS COLLECTION BOX - BLUE BOX", "address": {"city": "PALO ALTO", "state": "CA", "street": "2600 EL CAMINO REAL", "postcode": "94306"}}},
{"geometry": {"type": "Point", "coordinates": [-122.1277428382, 37.4195187976]}, "type": "Feature", "properties": {"collection_times": [{"days": "Mon-Sat", "time": "2:00pm"}, {"days": "Sun", "time": "Closed"}], "id": "9430600072", "name": "USPS COLLECTION BOX - BLUE BOX", "address": {"city": "PALO ALTO", "state": "CA", "street": "3900 PARK BLVD", "postcode": "94306"}}},
{"geometry": {"type": "Point", "coordinates": [-122.1298637817, 37.4337465774]}, "type": "Feature", "properties": {"collection_times": [{"days": "Mon-Fri", "time": "4:30pm"}, {"days": "Sat", "time": "5:00pm"}, {"days": "Sun", "time": "Closed"}], "id": "9430600075", "name": "USPS COLLECTION BOX - BLUE BOX", "address": {"city": "PALO ALTO", "state": "CA", "street": "2675 MIDDLEFIELD RD", "postcode": "94306"}}},
{"geometry": {"type": "Point", "coordinates": [-122.1442083421, 37.4287379291]}, "type": "Feature", "properties": {"collection_times": [{"days": "Mon-Fri", "time": "5:00pm"}, {"days": "Sat", "time": "4:30pm"}, {"days": "Sun", "time": "Closed"}], "id": "9430600080", "name": "USPS COLLECTION BOX - BLUE BOX", "address": {"city": "PALO ALTO", "state": "CA", "street": "265 CAMBRIDGE AVE", "postcode": "94306"}}},
{"geometry": {"type": "Point", "coordinates": [-122.1413070517, 37.42752091]}, "type": "Feature", "properties": {"collection_times": [{"days": "Mon-Sat", "time": "3:00pm"}, {"days": "Sun", "time": "Closed"}], "id": "9430600082", "name": "USPS COLLECTION BOX - BLUE BOX", "address": {"city": "PALO ALTO", "state": "CA", "street": "2585 PARK BLVD", "postcode": "94306"}}},
{"geometry": {"type": "Point", "coordinates": [-122.1442083421, 37.4287379291]}, "type": "Feature", "properties": {"collection_times": [{"days": "Mon-Fri", "time": "5:00pm"}, {"days": "Sat-Sun", "time": "Closed"}], "id": "9430600085", "name": "USPS COLLECTION BOX - PO LOBBY", "address": {"city": "PALO ALTO", "state": "CA", "street": "265 CAMBRIDGE AVE", "postcode": "94306"}}},
{"geometry": {"type": "Point", "coordinates": [-122.1292553058, 37.4156607384]}, "type": "Feature", "properties": {"collection_times": [{"days": "Mon-Sat", "time": "1:45pm"}, {"days": "Sun", "time": "Closed"}], "id": "9430600086", "name": "USPS COLLECTION BOX - BLUE BOX", "address": {"city": "PALO ALTO", "state": "CA", "street": "400 MAYBELL", "postcode": "94306"}}},
{"geometry": {"type": "Point", "coordinates": [-122.1441980447, 37.4262986507]}, "type": "Feature", "properties": {"collection_times": [{"days": "Mon-Fri", "time": "4:45pm"}, {"days": "Sat", "time": "4:15pm"}, {"days": "Sun", "time": "Closed"}], "id": "9430600087", "name": "USPS COLLECTION BOX - BLUE BOX", "address": {"city": "PALO ALTO", "state": "CA", "street": "400 JACARANDA LN", "postcode": "94306"}}},
{"geometry": {"type": "Point", "coordinates": [-122.1442083421, 37.4287379291]}, "type": "Feature", "properties": {"collection_times": [{"days": "Mon-Fri", "time": "5:00pm"}, {"days": "Sat", "time": "4:30pm"}, {"days": "Sun", "time": "Closed"}], "id": "9430600089", "name": "USPS COLLECTION BOX - BLUE BOX", "address": {"city": "PALO ALTO", "state": "CA", "street": "265 CAMBRIDGE AVE", "postcode": "94306"}}},
{"geometry": {"type": "Point", "coordinates": [-119.2702268805, 36.3741071704]}, "type": "Feature", "properties": {"collection_times": [{"days": "Mon-Fri", "time": "4:00pm"}, {"days": "Sat", "time": "3:00pm"}, {"days": "Sun", "time": "Closed"}], "id": "9430600090", "name": "USPS COLLECTION BOX - BLUE BOX", "address": {"city": "PALO ALTO", "state": "CA", "street": "3876 EL CAMINO REAL", "postcode": "94306"}}}
]}
