{"type": "FeatureCollection", "features": [
{"geometry": {"type": "Point", "coordinates": [-122.3271877905, 37.5673594575]}, "type": "Feature", "properties": {"collection_times": [{"days": "Mon-Sat", "time": "3:00pm"}, {"days": "Sun", "time": "Closed"}], "id": "9440100007", "name": "USPS COLLECTION BOX - BLUE BOX", "address": {"city": "SAN MATEO", "state": "CA", "street": "35 N SAN MATEO DR", "postcode": "94401"}}},
{"geometry": {"type": "Point", "coordinates": [-122.3326537052, 37.5723361349]}, "type": "Feature", "properties": {"collection_times": [{"days": "Mon-Sat", "time": "3:00pm"}, {"days": "Sun", "time": "Closed"}], "id": "9440100009", "name": "USPS COLLECTION BOX - BLUE BOX", "address": {"city": "SAN MATEO", "state": "CA", "street": "400 N SAN MATEO DR", "postcode": "94401"}}},
{"geometry": {"type": "Point", "coordinates": [-122.3219407485, 37.5754123844]}, "type": "Feature", "properties": {"collection_times": [{"days": "Mon-Sat", "time": "3:00pm"}, {"days": "Sun", "time": "Closed"}], "id": "9440100011", "name": "USPS COLLECTION BOX - BLUE BOX", "address": {"city": "SAN MATEO", "state": "CA", "street": "900 PENINSULA AVE", "postcode": "94401"}}},
{"geometry": {"type": "Point", "coordinates": [-122.3064653596, 37.5734209083]}, "type": "Feature", "properties": {"collection_times": [{"days": "Mon-Fri", "time": "1:00pm"}, {"days": "Sat", "time": "2:00pm"}, {"days": "Sun", "time": "Closed"}], "id": "9440100013", "name": "USPS COLLECTION BOX - BLUE BOX", "address": {"city": "SAN MATEO", "state": "CA", "street": "1700 SHOREVIEW AVE", "postcode": "94401"}}},
{"geometry": {"type": "Point", "coordinates": [-122.3078842117, 37.5679781548]}, "type": "Feature", "properties": {"collection_times": [{"days": "Mon-Fri", "time": "1:00pm"}, {"days": "Sat", "time": "2:00pm"}, {"days": "Sun", "time": "Closed"}], "id": "9440100014", "name": "USPS COLLECTION BOX - BLUE BOX", "address": {"city": "SAN MATEO", "state": "CA", "street": "1407 NEWBRIDGE AVE", "postcode": "94401"}}},
{"geometry": {"type": "Point", "coordinates": [-122.3293709941, 37.5693598102]}, "type": "Feature", "properties": {"collection_times": [{"days": "Mon-Sat", "time": "3:00pm"}, {"days": "Sun", "time": "Closed"}], "id": "9440100016", "name": "USPS COLLECTION BOX - BLUE BOX", "address": {"city": "SAN MATEO", "state": "CA", "street": "153 N SAN MATEO DR", "postcode": "94401"}}},
{"geometry": {"type": "Point", "coordinates": [-122.3100904251, 37.5718363314]}, "type": "Feature", "properties": {"collection_times": [{"days": "Mon-Fri", "time": "1:00pm"}, {"days": "Sat", "time": "2:00pm"}, {"days": "Sun", "time": "Closed"}], "id": "9440100018", "name": "USPS COLLECTION BOX - BLUE BOX", "address": {"city": "SAN MATEO", "state": "CA", "street": "470 S NORFOLK ST", "postcode": "94401"}}},
{"geometry": {"type": "Point", "coordinates": [-122.3127882753, 37.5663882172]}, "type": "Feature", "properties": {"collection_times": [{"days": "Mon-Fri", "time": "1:00pm"}, {"days": "Sat", "time": "3:00pm"}, {"days": "Sun", "time": "Closed"}], "id": "9440100022", "name": "USPS COLLECTION BOX - BLUE BOX", "address": {"city": "SAN MATEO", "state": "CA", "street": "800 N HUMBOLDT ST", "postcode": "94401"}}},
{"geometry": {"type": "Point", "coordinates": [-122.3165483386, 37.5744449105]}, "type": "Feature", "properties": {"collection_times": [{"days": "Mon-Fri", "time": "1:00pm"}, {"days": "Sat", "time": "2:00pm"}, {"days": "Sun", "time": "Closed"}], "id": "9440100023", "name": "USPS COLLECTION BOX - BLUE BOX", "address": {"city": "SAN MATEO", "state": "CA", "street": "3 N KINGSTON ST", "postcode": "94401"}}},
{"geometry": {"type": "Point", "coordinates": [-122.3036652958, 37.5664331697]}, "type": "Feature", "properties": {"collection_times": [{"days": "Mon-Fri", "time": "1:00pm"}, {"days": "Sat", "time": "2:00pm"}, {"days": "Sun", "time": "Closed"}], "id": "9440100025", "name": "USPS COLLECTION BOX - BLUE BOX", "address": {"city": "SAN MATEO", "state": "CA", "street": "1508 HEMLOCK AVE", "postcode": "94401"}}},
{"geometry": {"type": "Point", "coordinates": [-122.3239567677, 37.5656173122]}, "type": "Feature", "properties": {"collection_times": [{"days": "Mon-Fri", "time": "5:00pm"}, {"days": "Sat", "time": "4:00pm"}, {"days": "Sun", "time": "Closed"}], "id": "9440100026", "name": "USPS COLLECTION BOX - BLUE BOX", "address": {"city": "SAN MATEO", "state": "CA", "street": "210 S ELLSWORTH AVE", "postcode": "94401"}}},
{"geometry": {"type": "Point", "coordinates": [-122.3205425713, 37.5619320108]}, "type": "Feature", "properties": {"collection_times": [{"days": "Mon-Sat", "time": "1:00pm"}, {"days": "Sun", "time": "Closed"}], "id": "9440100027", "name": "USPS COLLECTION BOX - BLUE BOX", "address": {"city": "SAN MATEO", "state": "CA", "street": "700 LAUREL AVE", "postcode": "94401"}}},
{"geometry": {"type": "Point", "coordinates": [-122.3239567677, 37.5656173122]}, "type": "Feature", "properties": {"collection_times": [{"days": "Mon-Fri", "time": "5:00pm"}, {"days": "Sat", "time": "4:00pm"}, {"days": "Sun", "time": "Closed"}], "id": "9440100029", "name": "USPS COLLECTION BOX - BLUE BOX", "address": {"city": "SAN MATEO", "state": "CA", "street": "210 S ELLSWORTH AVE", "postcode": "94401"}}},
{"geometry": {"type": "Point", "coordinates": [-122.3241589478, 37.5720135777]}, "type": "Feature", "properties": {"collection_times": [{"days": "Mon-Fri", "time": "3:00pm"}, {"days": "Sat", "time": "1:00pm"}, {"days": "Sun", "time": "Closed"}], "id": "9440100030", "name": "USPS COLLECTION BOX - EXPRESS", "address": {"city": "SAN MATEO", "state": "CA", "street": "210 S ELLSWORTH AVE", "postcode": "94401"}}},
{"geometry": {"type": "Point", "coordinates": [-122.3149642596, 37.5590725806]}, "type": "Feature", "properties": {"collection_times": [{"days": "Mon-Sat", "time": "1:00pm"}, {"days": "Sun", "time": "Closed"}], "id": "9440100032", "name": "USPS COLLECTION BOX - BLUE BOX", "address": {"city": "SAN MATEO", "state": "CA", "street": "1119 S B ST", "postcode": "94401"}}},
{"geometry": {"type": "Point", "coordinates": [-122.3210228527, 37.5783822382]}, "type": "Feature", "properties": {"collection_times": [{"days": "Mon-Sat", "time": "1:00pm"}, {"days": "Sun", "time": "Closed"}], "id": "9440100036", "name": "USPS COLLECTION BOX - BLUE BOX", "address": {"city": "SAN MATEO", "state": "CA", "street": "1200 DORE AVE", "postcode": "94401"}}},
{"geometry": {"type": "Point", "coordinates": [-122.3251669009, 37.5672357378]}, "type": "Feature", "properties": {"collection_times": [{"days": "Mon-Fri", "time": "1:00pm"}, {"days": "Sat", "time": "3:00pm"}, {"days": "Sun", "time": "Closed"}], "id": "9440100037", "name": "USPS COLLECTION BOX - BLUE BOX", "address": {"city": "SAN MATEO", "state": "CA", "street": "299 BALDWIN AVE", "postcode": "94401"}}},
{"geometry": {"type": "Point", "coordinates": [-122.3315463811, 37.5859561712]}, "type": "Feature", "properties": {"collection_times": [{"days": "Mon-Fri", "time": "1:00pm"}, {"days": "Sat-Sun", "time": "Closed"}], "id": "9440100038", "name": "USPS COLLECTION BOX - BLUE BOX", "address": {"city": "SAN MATEO", "state": "CA", "street": "1045 N AMPHLETT BLVD", "postcode": "94401"}}},
{"geometry": {"type": "Point", "coordinates": [-122.3181439707, 37.558377269]}, "type": "Feature", "properties": {"collection_times": [{"days": "Mon-Sat", "time": "1:00pm"}, {"days": "Sun", "time": "Closed"}], "id": "9440100039", "name": "USPS COLLECTION BOX - BLUE BOX", "address": {"city": "SAN MATEO", "state": "CA", "street": "998 PALM AVE", "postcode": "94401"}}},
{"geometry": {"type": "Point", "coordinates": [-122.3192779882, 37.5626808238]}, "type": "Feature", "properties": {"collection_times": [{"days": "Mon-Sat", "time": "1:00pm"}, {"days": "Sun", "time": "Closed"}], "id": "9440100041", "name": "USPS COLLECTION BOX - BLUE BOX", "address": {"city": "SAN MATEO", "state": "CA", "street": "701 S B ST", "postcode": "94401"}}},
{"geometry": {"type": "Point", "coordinates": [-122.3229418835, 37.5637365248]}, "type": "Feature", "properties": {"collection_times": [{"days": "Mon-Fri", "time": "1:00pm"}, {"days": "Sat", "time": "3:00pm"}, {"days": "Sun", "time": "Closed"}], "id": "9440100044", "name": "USPS COLLECTION BOX - BLUE BOX", "address": {"city": "SAN MATEO", "state": "CA", "street": "100 E 4TH AVE", "postcode": "94401"}}},
{"geometry": {"type": "Point", "coordinates": [-122.3220413218, 37.5658442216]}, "type": "Feature", "properties": {"collection_times": [{"days": "Mon-Fri", "time": "1:00pm"}, {"days": "Sat", "time": "3:00pm"}, {"days": "Sun", "time": "Closed"}], "id": "9440100046", "name": "USPS COLLECTION BOX - BLUE BOX", "address": {"city": "SAN MATEO", "state": "CA", "street": "301 E 3RD AVE", "postcode": "94401"}}},
{"geometry": {"type": "Point", "coordinates": [-122.3240784357, 37.5708444237]}, "type": "Feature", "properties": {"collection_times": [{"days": "Mon-Fri", "time": "1:00pm"}, {"days": "Sat", "time": "3:00pm"}, {"days": "Sun", "time": "Closed"}], "id": "9440100048", "name": "USPS COLLECTION BOX - BLUE BOX", "address": {"city": "SAN MATEO", "state": "CA", "street": "40 S DELAWARE ST", "postcode": "94401"}}},
{"geometry": {"type": "Point", "coordinates": [-122.3239567677, 37.5656173122]}, "type": "Feature", "properties": {"collection_times": [{"days": "Mon-Fri", "time": "5:00pm"}, {"days": "Sat", "time": "4:00pm"}, {"days": "Sun", "time": "Closed"}], "id": "9440100051", "name": "USPS COLLECTION BOX - PO LOBBY", "address": {"city": "SAN MATEO", "state": "CA", "street": "210 S ELLSWORTH AVE", "postcode": "94401"}}},
{"geometry": {"type": "Point", "coordinates": [-122.3275516032, 37.5619414745]}, "type": "Feature", "properties": {"collection_times": [{"days": "Mon-Sat", "time": "3:00pm"}, {"days": "Sun", "time": "Closed"}], "id": "9440100052", "name": "USPS COLLECTION BOX - BLUE BOX", "address": {"city": "SAN MATEO", "state": "CA", "street": "50 E 3RD AVE", "postcode": "94401"}}},
{"geometry": {"type": "Point", "coordinates": [-122.3239567677, 37.5656173122]}, "type": "Feature", "properties": {"collection_times": [{"days": "Mon-Fri", "time": "5:00pm"}, {"days": "Sat", "time": "4:00pm"}, {"days": "Sun", "time": "Closed"}], "id": "9440100053", "name": "USPS COLLECTION BOX - APC", "address": {"city": "SAN MATEO", "state": "CA", "street": "210 S ELLSWORTH AVE", "postcode": "94401"}}},
{"geometry": {"type": "Point", "coordinates": [-122.3359281356, 37.5752686902]}, "type": "Feature", "properties": {"collection_times": [{"days": "Mon-Sat", "time": "1:00pm"}, {"days": "Sun", "time": "Closed"}], "id": "9440100054", "name": "USPS COLLECTION BOX - BLUE BOX", "address": {"city": "SAN MATEO", "state": "CA", "street": "700 N SAN MATEO DR", "postcode": "94401"}}},
{"geometry": {"type": "Point", "coordinates": [-122.3260923611, 37.5616874246]}, "type": "Feature", "properties": {"collection_times": [{"days": "Mon-Sat", "time": "1:00pm"}, {"days": "Sun", "time": "Closed"}], "id": "9440200003", "name": "USPS COLLECTION BOX - BLUE BOX", "address": {"city": "SAN MATEO", "state": "CA", "street": "50 W 4TH AVE", "postcode": "94402"}}},
{"geometry": {"type": "Point", "coordinates": [-122.3249751186, 37.5623969137]}, "type": "Feature", "properties": {"collection_times": [{"days": "Mon-Fri", "time": "5:00pm"}, {"days": "Sat", "time": "1:00pm"}, {"days": "Sun", "time": "Closed"}], "id": "9440200005", "name": "USPS COLLECTION BOX - BLUE BOX", "address": {"city": "SAN MATEO", "state": "CA", "street": "1 W 4TH AVE", "postcode": "94402"}}},
{"geometry": {"type": "Point", "coordinates": [-122.325797275, 37.560714746]}, "type": "Feature", "properties": {"collection_times": [{"days": "Mon-Sat", "time": "1:00pm"}, {"days": "Sun", "time": "Closed"}], "id": "9440200010", "name": "USPS COLLECTION BOX - BLUE BOX", "address": {"city": "SAN MATEO", "state": "CA", "street": "55 W 5TH AVE", "postcode": "94402"}}},
{"geometry": {"type": "Point", "coordinates": [-122.321417961, 37.5589414906]}, "type": "Feature", "properties": {"collection_times": [{"days": "Mon-Sat", "time": "3:00pm"}, {"days": "Sun", "time": "Closed"}], "id": "9440200011", "name": "USPS COLLECTION BOX - BLUE BOX", "address": {"city": "SAN MATEO", "state": "CA", "street": "901 S EL CAMINO REAL", "postcode": "94402"}}},
{"geometry": {"type": "Point", "coordinates": [-122.3191159228, 37.5568961545]}, "type": "Feature", "properties": {"collection_times": [{"days": "Mon-Sat", "time": "3:00pm"}, {"days": "Sun", "time": "Closed"}], "id": "9440200014", "name": "USPS COLLECTION BOX - BLUE BOX", "address": {"city": "SAN MATEO", "state": "CA", "street": "1021 S EL CAMINO REAL", "postcode": "94402"}}},
{"geometry": {"type": "Point", "coordinates": [-122.3358737195, 37.553710446]}, "type": "Feature", "properties": {"collection_times": [{"days": "Mon-Sat", "time": "1:00pm"}, {"days": "Sun", "time": "Closed"}], "id": "9440200017", "name": "USPS COLLECTION BOX - BLUE BOX", "address": {"city": "SAN MATEO", "state": "CA", "street": "600 COLUMBIA DR", "postcode": "94402"}}},
{"geometry": {"type": "Point", "coordinates": [-122.3000738323, 37.5566075125]}, "type": "Feature", "properties": {"collection_times": [{"days": "Mon-Fri", "time": "5:00pm"}, {"days": "Sat-Sun", "time": "Closed"}], "id": "9440200025", "name": "USPS COLLECTION BOX - BLUE BOX", "address": {"city": "SAN MATEO", "state": "CA", "street": "1770 S AMPHLETT BLVD", "postcode": "94402"}}},
{"geometry": {"type": "Point", "coordinates": [-122.3228670857, 37.5560042034]}, "type": "Feature", "properties": {"collection_times": [{"days": "Mon-Sat", "time": "1:00pm"}, {"days": "Sun", "time": "Closed"}], "id": "9440200028", "name": "USPS COLLECTION BOX - BLUE BOX", "address": {"city": "SAN MATEO", "state": "CA", "street": "133 ARAGON BLVD", "postcode": "94402"}}},
{"geometry": {"type": "Point", "coordinates": [-122.3268784995, 37.5475945482]}, "type": "Feature", "properties": {"collection_times": [{"days": "Mon-Sat", "time": "1:00pm"}, {"days": "Sun", "time": "Closed"}], "id": "9440200030", "name": "USPS COLLECTION BOX - BLUE BOX", "address": {"city": "SAN MATEO", "state": "CA", "street": "641 BARNESON AVE", "postcode": "94402"}}},
{"geometry": {"type": "Point", "coordinates": [-122.3280188228, 37.5653304688]}, "type": "Feature", "properties": {"collection_times": [{"days": "Mon-Sat", "time": "1:00pm"}, {"days": "Sun", "time": "Closed"}], "id": "9440200031", "name": "USPS COLLECTION BOX - BLUE BOX", "address": {"city": "SAN MATEO", "state": "CA", "street": "1 BAYWOOD AVE", "postcode": "94402"}}},
{"geometry": {"type": "Point", "coordinates": [-122.3184603584, 37.549851001]}, "type": "Feature", "properties": {"collection_times": [{"days": "Mon-Sat", "time": "1:00pm"}, {"days": "Sun", "time": "Closed"}], "id": "9440200032", "name": "USPS COLLECTION BOX - BLUE BOX", "address": {"city": "SAN MATEO", "state": "CA", "street": "245 BOREL AVE", "postcode": "94402"}}},
{"geometry": {"type": "Point", "coordinates": [-122.3207460403, 37.5486757727]}, "type": "Feature", "properties": {"collection_times": [{"days": "Mon-Fri", "time": "5:00pm"}, {"days": "Sat", "time": "1:00pm"}, {"days": "Sun", "time": "Closed"}], "id": "9440200035", "name": "USPS COLLECTION BOX - BLUE BOX", "address": {"city": "SAN MATEO", "state": "CA", "street": "411 BOREL AVE", "postcode": "94402"}}},
{"geometry": {"type": "Point", "coordinates": [-122.3150193359, 37.5506891688]}, "type": "Feature", "properties": {"collection_times": [{"days": "Mon-Fri", "time": "5:00pm"}, {"days": "Sat", "time": "1:00pm"}, {"days": "Sun", "time": "Closed"}], "id": "9440200040", "name": "USPS COLLECTION BOX - BLUE BOX", "address": {"city": "SAN MATEO", "state": "CA", "street": "77 BOVET RD", "postcode": "94402"}}},
{"geometry": {"type": "Point", "coordinates": [-122.3175757102, 37.563628374]}, "type": "Feature", "properties": {"collection_times": [{"days": "Mon-Sat", "time": "3:00pm"}, {"days": "Sun", "time": "Closed"}], "id": "9440200046", "name": "USPS COLLECTION BOX - BLUE BOX", "address": {"city": "SAN MATEO", "state": "CA", "street": "800 S CLAREMONT ST", "postcode": "94402"}}},
{"geometry": {"type": "Point", "coordinates": [-122.3454021714, 37.5252501488]}, "type": "Feature", "properties": {"collection_times": [{"days": "Mon-Fri", "time": "1:00pm"}, {"days": "Sat-Sun", "time": "Closed"}], "id": "9440200049", "name": "USPS COLLECTION BOX - BLUE BOX", "address": {"city": "SAN MATEO", "state": "CA", "street": "3300 CLEARVIEW WAY", "postcode": "94402"}}},
{"geometry": {"type": "Point", "coordinates": [-122.3334255415, 37.5317395968]}, "type": "Feature", "properties": {"collection_times": [{"days": "Mon-Fri", "time": "3:00pm"}, {"days": "Sat-Sun", "time": "Closed"}], "id": "9440200050", "name": "USPS COLLECTION BOX - BLUE BOX", "address": {"city": "SAN MATEO", "state": "CA", "street": "1700 W HILLSDALE BLVD", "postcode": "94402"}}},
{"geometry": {"type": "Point", "coordinates": [-122.3234289869, 37.5533821941]}, "type": "Feature", "properties": {"collection_times": [{"days": "Mon-Fri", "time": "3:00pm"}, {"days": "Sat", "time": "3:30pm"}, {"days": "Sun", "time": "Closed"}], "id": "9440200054", "name": "USPS COLLECTION BOX - EXPRESS", "address": {"city": "SAN MATEO", "state": "CA", "street": "1630 S DELAWARE ST", "postcode": "94402"}}},
{"geometry": {"type": "Point", "coordinates": [-122.3241458643, 37.5612293332]}, "type": "Feature", "properties": {"collection_times": [{"days": "Mon-Fri", "time": "5:00pm"}, {"days": "Sat", "time": "3:00pm"}, {"days": "Sun", "time": "Closed"}], "id": "9440200061", "name": "USPS COLLECTION BOX - BLUE BOX", "address": {"city": "SAN MATEO", "state": "CA", "street": "520 S EL CAMINO REAL", "postcode": "94402"}}},
{"geometry": {"type": "Point", "coordinates": [-122.3162011119, 37.5542262161]}, "type": "Feature", "properties": {"collection_times": [{"days": "Mon-Sat", "time": "3:00pm"}, {"days": "Sun", "time": "Closed"}], "id": "9440200063", "name": "USPS COLLECTION BOX - BLUE BOX", "address": {"city": "SAN MATEO", "state": "CA", "street": "1495 S EL CAMINO REAL", "postcode": "94402"}}},
{"geometry": {"type": "Point", "coordinates": [-122.3021747675, 37.5530574527]}, "type": "Feature", "properties": {"collection_times": [{"days": "Mon-Fri", "time": "5:00pm"}, {"days": "Sat-Sun", "time": "Closed"}], "id": "9440200068", "name": "USPS COLLECTION BOX - BLUE BOX", "address": {"city": "SAN MATEO", "state": "CA", "street": "1875 S GRANT ST", "postcode": "94402"}}},
{"geometry": {"type": "Point", "coordinates": [-122.3307917278, 37.5569174478]}, "type": "Feature", "properties": {"collection_times": [{"days": "Mon-Sat", "time": "1:00pm"}, {"days": "Sun", "time": "Closed"}], "id": "9440200072", "name": "USPS COLLECTION BOX - BLUE BOX", "address": {"city": "SAN MATEO", "state": "CA", "street": "374 PARROTT DR", "postcode": "94402"}}},
{"geometry": {"type": "Point", "coordinates": [-122.3297368281, 37.5618994789]}, "type": "Feature", "properties": {"collection_times": [{"days": "Mon-Fri", "time": "4:30pm"}, {"days": "Sat", "time": "3:00pm"}, {"days": "Sun", "time": "Closed"}], "id": "9440200083", "name": "USPS COLLECTION BOX - BLUE BOX", "address": {"city": "SAN MATEO", "state": "CA", "street": "100 CRYSTAL SPRINGS SHOPPING CNT", "postcode": "94402"}}},
{"geometry": {"type": "Point", "coordinates": [-122.3263970352, 37.5693456147]}, "type": "Feature", "properties": {"collection_times": [{"days": "Mon-Sat", "time": "1:00pm"}, {"days": "Sun", "time": "Closed"}], "id": "9440200087", "name": "USPS COLLECTION BOX - BLUE BOX", "address": {"city": "SAN MATEO", "state": "CA", "street": "150 S B ST", "postcode": "94402"}}},
{"geometry": {"type": "Point", "coordinates": [-122.3082173219, 37.556275101]}, "type": "Feature", "properties": {"collection_times": [{"days": "Mon-Sat", "time": "5:00pm"}, {"days": "Sun", "time": "Closed"}], "id": "9440200089", "name": "USPS COLLECTION BOX - PO LOBBY", "address": {"city": "SAN MATEO", "state": "CA", "street": "1630 S DELAWARE ST", "postcode": "94402"}}},
{"geometry": {"type": "Point", "coordinates": [-122.3234289869, 37.5533821941]}, "type": "Feature", "properties": {"collection_times": [{"days": "Mon-Fri", "time": "3:00pm"}, {"days": "Sat", "time": "3:30pm"}, {"days": "Sun", "time": "Closed"}], "id": "9440200090", "name": "USPS COLLECTION BOX - EXPRESS", "address": {"city": "SAN MATEO", "state": "CA", "street": "1630 S DELAWARE ST", "postcode": "94402"}}},
{"geometry": {"type": "Point", "coordinates": [-122.3330665579, 37.5321522018]}, "type": "Feature", "properties": {"collection_times": [{"days": "Mon-Fri", "time": "3:00pm"}, {"days": "Sat-Sun", "time": "Closed"}], "id": "9440200091", "name": "USPS COLLECTION BOX - BLUE BOX", "address": {"city": "SAN MATEO", "state": "CA", "street": "3190 CLEARVIEW WAY", "postcode": "94402"}}},
{"geometry": {"type": "Point", "coordinates": [-122.3082173219, 37.556275101]}, "type": "Feature", "properties": {"collection_times": [{"days": "Mon-Sat", "time": "5:00pm"}, {"days": "Sun", "time": "Closed"}], "id": "9440200093", "name": "USPS COLLECTION BOX - BLUE BOX", "address": {"city": "SAN MATEO", "state": "CA", "street": "1630 S DELAWARE ST", "postcode": "94402"}}},
{"geometry": {"type": "Point", "coordinates": [-122.3082173219, 37.556275101]}, "type": "Feature", "properties": {"collection_times": [{"days": "Mon-Sat", "time": "5:00pm"}, {"days": "Sun", "time": "Closed"}], "id": "9440200094", "name": "USPS COLLECTION BOX - BLUE BOX", "address": {"city": "SAN MATEO", "state": "CA", "street": "1630 S DELAWARE ST", "postcode": "94402"}}},
{"geometry": {"type": "Point", "coordinates": [-122.3158979253, 37.55368453]}, "type": "Feature", "properties": {"collection_times": [{"days": "Mon-Fri", "time": "5:00pm"}, {"days": "Sat-Sun", "time": "Closed"}], "id": "9440200095", "name": "USPS COLLECTION BOX - BLUE BOX", "address": {"city": "SAN MATEO", "state": "CA", "street": "1528 S EL CAMINO REAL", "postcode": "94402"}}},
{"geometry": {"type": "Point", "coordinates": [-122.3082173219, 37.556275101]}, "type": "Feature", "properties": {"collection_times": [{"days": "Mon-Sat", "time": "5:00pm"}, {"days": "Sun", "time": "Closed"}], "id": "9440200096", "name": "USPS COLLECTION BOX - APC", "address": {"city": "SAN MATEO", "state": "CA", "street": "1630 S DELAWARE ST", "postcode": "94402"}}},
{"geometry": {"type": "Point", "coordinates": [-122.3144024969, 37.547101001]}, "type": "Feature", "properties": {"collection_times": [{"days": "Mon-Fri", "time": "3:00pm"}, {"days": "Sat", "time": "1:00pm"}, {"days": "Sun", "time": "Closed"}], "id": "9440300004", "name": "USPS COLLECTION BOX - BLUE BOX", "address": {"city": "SAN MATEO", "state": "CA", "street": "301 W 20TH AVE", "postcode": "94403"}}},
{"geometry": {"type": "Point", "coordinates": [-122.310173936, 37.5448003991]}, "type": "Feature", "properties": {"collection_times": [{"days": "Mon-Sat", "time": "1:00pm"}, {"days": "Sun", "time": "Closed"}], "id": "9440300007", "name": "USPS COLLECTION BOX - BLUE BOX", "address": {"city": "SAN MATEO", "state": "CA", "street": "200 23RD AVE", "postcode": "94403"}}},
{"geometry": {"type": "Point", "coordinates": [-122.3076945244, 37.5435714347]}, "type": "Feature", "properties": {"collection_times": [{"days": "Mon-Fri", "time": "5:00pm"}, {"days": "Sat", "time": "4:30pm"}, {"days": "Sun", "time": "Closed"}], "id": "9440300008", "name": "USPS COLLECTION BOX - BLUE BOX", "address": {"city": "SAN MATEO", "state": "CA", "street": "135 W 25TH AVE", "postcode": "94403"}}},
{"geometry": {"type": "Point", "coordinates": [-122.3007263331, 37.5388133907]}, "type": "Feature", "properties": {"collection_times": [{"days": "Mon-Fri", "time": "3:00pm"}, {"days": "Sat", "time": "2:00pm"}, {"days": "Sun", "time": "Closed"}], "id": "9440300010", "name": "USPS COLLECTION BOX - EXPRESS", "address": {"city": "SAN MATEO", "state": "CA", "street": "135 W 25TH AVE", "postcode": "94403"}}},
{"geometry": {"type": "Point", "coordinates": [-122.3172634091, 37.5390358401]}, "type": "Feature", "properties": {"collection_times": [{"days": "Mon-Sat", "time": "1:00pm"}, {"days": "Sun", "time": "Closed"}], "id": "9440300013", "name": "USPS COLLECTION BOX - BLUE BOX", "address": {"city": "SAN MATEO", "state": "CA", "street": "2602 DOLORES ST", "postcode": "94403"}}},
{"geometry": {"type": "Point", "coordinates": [-122.3072106238, 37.5398982171]}, "type": "Feature", "properties": {"collection_times": [{"days": "Mon-Sat", "time": "1:00pm"}, {"days": "Sun", "time": "Closed"}], "id": "9440300015", "name": "USPS COLLECTION BOX - BLUE BOX", "address": {"city": "SAN MATEO", "state": "CA", "street": "140 28TH AVE", "postcode": "94403"}}},
{"geometry": {"type": "Point", "coordinates": [-122.294976034, 37.5341241714]}, "type": "Feature", "properties": {"collection_times": [{"days": "Mon-Fri", "time": "5:00pm"}, {"days": "Sat", "time": "1:00pm"}, {"days": "Sun", "time": "Closed"}], "id": "9440300022", "name": "USPS COLLECTION BOX - BLUE BOX", "address": {"city": "SAN MATEO", "state": "CA", "street": "11 37TH AVE", "postcode": "94403"}}},
{"geometry": {"type": "Point", "coordinates": [-122.305569505, 37.5279456825]}, "type": "Feature", "properties": {"collection_times": [{"days": "Mon-Sat", "time": "1:00pm"}, {"days": "Sun", "time": "Closed"}], "id": "9440300025", "name": "USPS COLLECTION BOX - BLUE BOX", "address": {"city": "SAN MATEO", "state": "CA", "street": "3901 ALAMEDA DE LAS PULGAS", "postcode": "94403"}}},
{"geometry": {"type": "Point", "coordinates": [-122.3021274491, 37.5256790504]}, "type": "Feature", "properties": {"collection_times": [{"days": "Mon-Sat", "time": "1:00pm"}, {"days": "Sun", "time": "Closed"}], "id": "9440300027", "name": "USPS COLLECTION BOX - BLUE BOX", "address": {"city": "SAN MATEO", "state": "CA", "street": "345 42ND AVE", "postcode": "94403"}}},
{"geometry": {"type": "Point", "coordinates": [-122.2909492268, 37.5297519908]}, "type": "Feature", "properties": {"collection_times": [{"days": "Mon-Fri", "time": "5:00pm"}, {"days": "Sat", "time": "1:00pm"}, {"days": "Sun", "time": "Closed"}], "id": "9440300028", "name": "USPS COLLECTION BOX - BLUE BOX", "address": {"city": "SAN MATEO", "state": "CA", "street": "60 W 42ND AVE", "postcode": "94403"}}},
{"geometry": {"type": "Point", "coordinates": [-122.3206017193, 37.545322084]}, "type": "Feature", "properties": {"collection_times": [{"days": "Mon-Fri", "time": "3:00pm"}, {"days": "Sat-Sun", "time": "Closed"}], "id": "9440300031", "name": "USPS COLLECTION BOX - BLUE BOX", "address": {"city": "SAN MATEO", "state": "CA", "street": "2000 ALAMEDA DE LAS PULGAS", "postcode": "94403"}}},
{"geometry": {"type": "Point", "coordinates": [-122.2961747996, 37.5491252971]}, "type": "Feature", "properties": {"collection_times": [{"days": "Mon-Sat", "time": "1:00pm"}, {"days": "Sun", "time": "Closed"}], "id": "9440300032", "name": "USPS COLLECTION BOX - BLUE BOX", "address": {"city": "SAN MATEO", "state": "CA", "street": "1088 ANNAPOLIS DR", "postcode": "94403"}}},
{"geometry": {"type": "Point", "coordinates": [-122.2793164514, 37.5438244579]}, "type": "Feature", "properties": {"collection_times": [{"days": "Mon-Sat", "time": "1:00pm"}, {"days": "Sun", "time": "Closed"}], "id": "9440300033", "name": "USPS COLLECTION BOX - BLUE BOX", "address": {"city": "SAN MATEO", "state": "CA", "street": "3200 LOS PRADOS ST", "postcode": "94403"}}},
{"geometry": {"type": "Point", "coordinates": [-122.328104045, 37.5343158338]}, "type": "Feature", "properties": {"collection_times": [{"days": "Mon-Sat", "time": "3:00pm"}, {"days": "Sun", "time": "Closed"}], "id": "9440300046", "name": "USPS COLLECTION BOX - BLUE BOX", "address": {"city": "SAN MATEO", "state": "CA", "street": "3150 CAMPUS DR", "postcode": "94403"}}},
{"geometry": {"type": "Point", "coordinates": [-122.3085450015, 37.547197074]}, "type": "Feature", "properties": {"collection_times": [{"days": "Mon-Fri", "time": "5:00pm"}, {"days": "Sat", "time": "1:00pm"}, {"days": "Sun", "time": "Closed"}], "id": "9440300054", "name": "USPS COLLECTION BOX - BLUE BOX", "address": {"city": "SAN MATEO", "state": "CA", "street": "2121 S EL CAMINO REAL", "postcode": "94403"}}},
{"geometry": {"type": "Point", "coordinates": [-122.3085450015, 37.547197074]}, "type": "Feature", "properties": {"collection_times": [{"days": "Mon-Fri", "time": "5:00pm"}, {"days": "Sat", "time": "1:00pm"}, {"days": "Sun", "time": "Closed"}], "id": "9440300055", "name": "USPS COLLECTION BOX - BLUE BOX", "address": {"city": "SAN MATEO", "state": "CA", "street": "2121 S EL CAMINO REAL", "postcode": "94403"}}},
{"geometry": {"type": "Point", "coordinates": [-122.3067540016, 37.5433146026]}, "type": "Feature", "properties": {"collection_times": [{"days": "Mon-Sat", "time": "1:00pm"}, {"days": "Sun", "time": "Closed"}], "id": "9440300059", "name": "USPS COLLECTION BOX - BLUE BOX", "address": {"city": "SAN MATEO", "state": "CA", "street": "2555 FLORES ST", "postcode": "94403"}}},
{"geometry": {"type": "Point", "coordinates": [-122.3090584057, 37.5418725756]}, "type": "Feature", "properties": {"collection_times": [{"days": "Mon-Fri", "time": "1:00pm"}, {"days": "Sat-Sun", "time": "Closed"}], "id": "9440300060", "name": "USPS COLLECTION BOX - BLUE BOX", "address": {"city": "SAN MATEO", "state": "CA", "street": "221 PORTOLA DR", "postcode": "94403"}}},
{"geometry": {"type": "Point", "coordinates": [-122.299652699, 37.5353816798]}, "type": "Feature", "properties": {"collection_times": [{"days": "Mon-Sat", "time": "1:00pm"}, {"days": "Sun", "time": "Closed"}], "id": "9440300067", "name": "USPS COLLECTION BOX - BLUE BOX", "address": {"city": "SAN MATEO", "state": "CA", "street": "81 W HILLSDALE BLVD", "postcode": "94403"}}},
{"geometry": {"type": "Point", "coordinates": [-122.2900080345, 37.5660617206]}, "type": "Feature", "properties": {"collection_times": [{"days": "Mon-Fri", "time": "1:00pm"}, {"days": "Sat-Sun", "time": "Closed"}], "id": "9440300069", "name": "USPS COLLECTION BOX - BLUE BOX", "address": {"city": "SAN MATEO", "state": "CA", "street": "2372 KEHOE AVE", "postcode": "94403"}}},
{"geometry": {"type": "Point", "coordinates": [-122.2850206795, 37.5430354243]}, "type": "Feature", "properties": {"collection_times": [{"days": "Mon-Fri", "time": "3:00pm"}, {"days": "Sat", "time": "1:00pm"}, {"days": "Sun", "time": "Closed"}], "id": "9440300070", "name": "USPS COLLECTION BOX - BLUE BOX", "address": {"city": "SAN MATEO", "state": "CA", "street": "3130 LA SELVA ST", "postcode": "94403"}}},
{"geometry": {"type": "Point", "coordinates": [-122.2928890794, 37.5552272526]}, "type": "Feature", "properties": {"collection_times": [{"days": "Mon-Fri", "time": "1:00pm"}, {"days": "Sat", "time": "3:00pm"}, {"days": "Sun", "time": "Closed"}], "id": "9440300072", "name": "USPS COLLECTION BOX - BLUE BOX", "address": {"city": "SAN MATEO", "state": "CA", "street": "1850 S NORFOLK ST", "postcode": "94403"}}},
{"geometry": {"type": "Point", "coordinates": [-122.290657479, 37.5531781145]}, "type": "Feature", "properties": {"collection_times": [{"days": "Mon-Sat", "time": "3:00pm"}, {"days": "Sun", "time": "Closed"}], "id": "9440300073", "name": "USPS COLLECTION BOX - BLUE BOX", "address": {"city": "SAN MATEO", "state": "CA", "street": "1900 S NORFOLK ST", "postcode": "94403"}}},
{"geometry": {"type": "Point", "coordinates": [-122.2843158875, 37.5452579238]}, "type": "Feature", "properties": {"collection_times": [{"days": "Mon-Fri", "time": "3:00pm"}, {"days": "Sat", "time": "1:00pm"}, {"days": "Sun", "time": "Closed"}], "id": "9440300076", "name": "USPS COLLECTION BOX - BLUE BOX", "address": {"city": "SAN MATEO", "state": "CA", "street": "2968 S NORFOLK ST", "postcode": "94403"}}},
{"geometry": {"type": "Point", "coordinates": [-122.2944830867, 37.5564793829]}, "type": "Feature", "properties": {"collection_times": [{"days": "Mon-Sat", "time": "1:00pm"}, {"days": "Sun", "time": "Closed"}], "id": "9440300078", "name": "USPS COLLECTION BOX - BLUE BOX", "address": {"city": "SAN MATEO", "state": "CA", "street": "1501 ROBERTA DR", "postcode": "94403"}}},
{"geometry": {"type": "Point", "coordinates": [-122.2882219527, 37.5306167534]}, "type": "Feature", "properties": {"collection_times": [{"days": "Mon-Fri", "time": "5:00pm"}, {"days": "Sat", "time": "1:00pm"}, {"days": "Sun", "time": "Closed"}], "id": "9440300081", "name": "USPS COLLECTION BOX - BLUE BOX", "address": {"city": "SAN MATEO", "state": "CA", "street": "4055 PACIFIC BLVD", "postcode": "94403"}}},
{"geometry": {"type": "Point", "coordinates": [-122.306425139, 37.5464636394]}, "type": "Feature", "properties": {"collection_times": [{"days": "Mon-Fri", "time": "1:00pm"}, {"days": "Sat-Sun", "time": "Closed"}], "id": "9440300082", "name": "USPS COLLECTION BOX - BLUE BOX", "address": {"city": "SAN MATEO", "state": "CA", "street": "2211 PALM AVE", "postcode": "94403"}}},
{"geometry": {"type": "Point", "coordinates": [-122.312250917, 37.5476657913]}, "type": "Feature", "properties": {"collection_times": [{"days": "Mon-Fri", "time": "5:00pm"}, {"days": "Sat-Sun", "time": "Closed"}], "id": "9440300083", "name": "USPS COLLECTION BOX - BLUE BOX", "address": {"city": "SAN MATEO", "state": "CA", "street": "2001 PIONEER CT", "postcode": "94403"}}},
{"geometry": {"type": "Point", "coordinates": [-122.2904094643, 37.5414119902]}, "type": "Feature", "properties": {"collection_times": [{"days": "Mon-Sat", "time": "1:00pm"}, {"days": "Sun", "time": "Closed"}], "id": "9440300084", "name": "USPS COLLECTION BOX - BLUE BOX", "address": {"city": "SAN MATEO", "state": "CA", "street": "3301 SARATOGA DR", "postcode": "94403"}}},
{"geometry": {"type": "Point", "coordinates": [-122.3076945244, 37.5435714347]}, "type": "Feature", "properties": {"collection_times": [{"days": "Mon-Fri", "time": "5:00pm"}, {"days": "Sat", "time": "4:30pm"}, {"days": "Sun", "time": "Closed"}], "id": "9440300090", "name": "USPS COLLECTION BOX - PO LOBBY", "address": {"city": "SAN MATEO", "state": "CA", "street": "135 W 25TH AVE", "postcode": "94403"}}},
{"geometry": {"type": "Point", "coordinates": [-122.3254848512, 37.5331318858]}, "type": "Feature", "properties": {"collection_times": [{"days": "Mon-Sat", "time": "1:00pm"}, {"days": "Sun", "time": "Closed"}], "id": "9440300091", "name": "USPS COLLECTION BOX - BLUE BOX", "address": {"city": "SAN MATEO", "state": "CA", "street": "1202 W HILLSDALE BLVD", "postcode": "94403"}}},
{"geometry": {"type": "Point", "coordinates": [-122.2916305977, 37.5527543625]}, "type": "Feature", "properties": {"collection_times": [{"days": "Mon-Fri", "time": "3:00pm"}, {"days": "Sat-Sun", "time": "Closed"}], "id": "9440300095", "name": "USPS COLLECTION BOX - BLUE BOX", "address": {"city": "SAN MATEO", "state": "CA", "street": "1 WATERS PARK DR", "postcode": "94403"}}},
{"geometry": {"type": "Point", "coordinates": [-122.3046739482, 37.5381608222]}, "type": "Feature", "properties": {"collection_times": [{"days": "Mon-Fri", "time": "5:00pm"}, {"days": "Sat-Sun", "time": "Closed"}], "id": "9440300097", "name": "USPS COLLECTION BOX - BLUE BOX", "address": {"city": "SAN MATEO", "state": "CA", "street": "1391 PARK PL", "postcode": "94403"}}},
{"geometry": {"type": "Point", "coordinates": [-122.3014875992, 37.5382836157]}, "type": "Feature", "properties": {"collection_times": [{"days": "Mon-Fri", "time": "5:00pm"}, {"days": "Sat-Sun", "time": "Closed"}], "id": "9440300099", "name": "USPS COLLECTION BOX - BLUE BOX", "address": {"city": "SAN MATEO", "state": "CA", "street": "62 31ST AVE", "postcode": "94403"}}},
{"geometry": {"type": "Point", "coordinates": [-122.3007176429, 37.5388004014]}, "type": "Feature", "properties": {"collection_times": [{"days": "Mon-Fri", "time": "3:00pm"}, {"days": "Sat-Sun", "time": "Closed"}], "id": "9440300100", "name": "USPS COLLECTION BOX - BLUE BOX", "address": {"city": "SAN MATEO", "state": "CA", "street": "2495 S DELAWARE ST", "postcode": "94403"}}},
{"geometry": {"type": "Point", "coordinates": [-122.2919915606, 37.5430561051]}, "type": "Feature", "properties": {"collection_times": [{"days": "Mon-Fri", "time": "3:00pm"}, {"days": "Sat-Sun", "time": "Closed"}], "id": "9440300102", "name": "USPS COLLECTION BOX - BLUE BOX", "address": {"city": "SAN MATEO", "state": "CA", "street": "200 FRANKLIN PKWY", "postcode": "94403"}}},
{"geometry": {"type": "Point", "coordinates": [-122.2499480639, 37.5637956107]}, "type": "Feature", "properties": {"collection_times": [{"days": "Mon-Sat", "time": "3:00pm"}, {"days": "Sun", "time": "Closed"}], "id": "9440400002", "name": "USPS COLLECTION BOX - BLUE BOX", "address": {"city": "FOSTER CITY", "state": "CA", "street": "1485 MARLIN AVE", "postcode": "94404"}}},
{"geometry": {"type": "Point", "coordinates": [-122.2742623411, 37.5679429729]}, "type": "Feature", "properties": {"collection_times": [{"days": "Mon-Fri", "time": "5:00pm"}, {"days": "Sat", "time": "3:00pm"}, {"days": "Sun", "time": "Closed"}], "id": "9440400005", "name": "USPS COLLECTION BOX - BLUE BOX", "address": {"city": "FOSTER CITY", "state": "CA", "street": "1147 CHESS DR", "postcode": "94404"}}},
{"geometry": {"type": "Point", "coordinates": [-122.2687470926, 37.5541642951]}, "type": "Feature", "properties": {"collection_times": [{"days": "Mon-Sat", "time": "3:00pm"}, {"days": "Sun", "time": "Closed"}], "id": "9440400006", "name": "USPS COLLECTION BOX - EXPRESS", "address": {"city": "FOSTER CITY", "state": "CA", "street": "1147 CHESS DR", "postcode": "94404"}}},
{"geometry": {"type": "Point", "coordinates": [-122.2726837547, 37.5660800134]}, "type": "Feature", "properties": {"collection_times": [{"days": "Mon-Fri", "time": "5:00pm"}, {"days": "Sat", "time": "3:00pm"}, {"days": "Sun", "time": "Closed"}], "id": "9440400008", "name": "USPS COLLECTION BOX - BLUE BOX", "address": {"city": "FOSTER CITY", "state": "CA", "street": "1163 CHESS DR", "postcode": "94404"}}},
{"geometry": {"type": "Point", "coordinates": [-122.2805780789, 37.5557105029]}, "type": "Feature", "properties": {"collection_times": [{"days": "Mon-Fri", "time": "5:00pm"}, {"days": "Sat-Sun", "time": "Closed"}], "id": "9440400012", "name": "USPS COLLECTION BOX - BLUE BOX", "address": {"city": "FOSTER CITY", "state": "CA", "street": "1800 GATEWAY DR", "postcode": "94404"}}},
{"geometry": {"type": "Point", "coordinates": [-122.2765762079, 37.5533148304]}, "type": "Feature", "properties": {"collection_times": [{"days": "Mon-Fri", "time": "1:00pm"}, {"days": "Sat", "time": "3:00pm"}, {"days": "Sun", "time": "Closed"}], "id": "9440400013", "name": "USPS COLLECTION BOX - BLUE BOX", "address": {"city": "FOSTER CITY", "state": "CA", "street": "700 EDGEWATER BLVD", "postcode": "94404"}}},
{"geometry": {"type": "Point", "coordinates": [-122.271779183, 37.5451182089]}, "type": "Feature", "properties": {"collection_times": [{"days": "Mon-Sat", "time": "3:00pm"}, {"days": "Sun", "time": "Closed"}], "id": "9440400014", "name": "USPS COLLECTION BOX - BLUE BOX", "address": {"city": "FOSTER CITY", "state": "CA", "street": "939 EDGEWATER BLVD", "postcode": "94404"}}},
{"geometry": {"type": "Point", "coordinates": [-122.2684497903, 37.5608874581]}, "type": "Feature", "properties": {"collection_times": [{"days": "Mon-Sat", "time": "3:00pm"}, {"days": "Sun", "time": "Closed"}], "id": "9440400015", "name": "USPS COLLECTION BOX - BLUE BOX", "address": {"city": "FOSTER CITY", "state": "CA", "street": "610 FOSTER CITY BLVD", "postcode": "94404"}}},
{"geometry": {"type": "Point", "coordinates": [-122.2745443949, 37.56700099]}, "type": "Feature", "properties": {"collection_times": [{"days": "Mon-Fri", "time": "5:00pm"}, {"days": "Sat-Sun", "time": "Closed"}], "id": "9440400018", "name": "USPS COLLECTION BOX - BLUE BOX", "address": {"city": "FOSTER CITY", "state": "CA", "street": "330 HATCH DR", "postcode": "94404"}}},
{"geometry": {"type": "Point", "coordinates": [-122.2697380326, 37.5606686106]}, "type": "Feature", "properties": {"collection_times": [{"days": "Mon-Fri", "time": "5:00pm"}, {"days": "Sat", "time": "3:00pm"}, {"days": "Sun", "time": "Closed"}], "id": "9440400021", "name": "USPS COLLECTION BOX - BLUE BOX", "address": {"city": "FOSTER CITY", "state": "CA", "street": "1065 E HILLSDALE BLVD", "postcode": "94404"}}},
{"geometry": {"type": "Point", "coordinates": [-122.2687470926, 37.5541642951]}, "type": "Feature", "properties": {"collection_times": [{"days": "Mon-Fri", "time": "3:00pm"}, {"days": "Sat", "time": "2:00pm"}, {"days": "Sun", "time": "Closed"}], "id": "9440400025", "name": "USPS COLLECTION BOX - EXPRESS", "address": {"city": "FOSTER CITY", "state": "CA", "street": "1050 SHELL BLVD", "postcode": "94404"}}},
{"geometry": {"type": "Point", "coordinates": [-122.2640065965, 37.549618591]}, "type": "Feature", "properties": {"collection_times": [{"days": "Mon-Fri", "time": "5:00pm"}, {"days": "Sat", "time": "4:45pm"}, {"days": "Sun", "time": "Closed"}], "id": "9440400027", "name": "USPS COLLECTION BOX - BLUE BOX", "address": {"city": "FOSTER CITY", "state": "CA", "street": "1050 SHELL BLVD", "postcode": "94404"}}},
{"geometry": {"type": "Point", "coordinates": [-122.2640065965, 37.549618591]}, "type": "Feature", "properties": {"collection_times": [{"days": "Mon-Fri", "time": "5:00pm"}, {"days": "Sat", "time": "4:45pm"}, {"days": "Sun", "time": "Closed"}], "id": "9440400029", "name": "USPS COLLECTION BOX - BLUE BOX", "address": {"city": "FOSTER CITY", "state": "CA", "street": "1050 SHELL BLVD", "postcode": "94404"}}},
{"geometry": {"type": "Point", "coordinates": [-122.2702640174, 37.56410742]}, "type": "Feature", "properties": {"collection_times": [{"days": "Mon-Fri", "time": "5:00pm"}, {"days": "Sat", "time": "3:00pm"}, {"days": "Sun", "time": "Closed"}], "id": "9440400031", "name": "USPS COLLECTION BOX - BLUE BOX", "address": {"city": "FOSTER CITY", "state": "CA", "street": "1151 TRITON DR", "postcode": "94404"}}},
{"geometry": {"type": "Point", "coordinates": [-122.2784957509, 37.5649363911]}, "type": "Feature", "properties": {"collection_times": [{"days": "Mon-Fri", "time": "5:00pm"}, {"days": "Sat", "time": "3:00pm"}, {"days": "Sun", "time": "Closed"}], "id": "9440400036", "name": "USPS COLLECTION BOX - BLUE BOX", "address": {"city": "FOSTER CITY", "state": "CA", "street": "363 VINTAGE PARK DR", "postcode": "94404"}}},
{"geometry": {"type": "Point", "coordinates": [-122.286970432, 37.5577981244]}, "type": "Feature", "properties": {"collection_times": [{"days": "Mon-Fri", "time": "1:00pm"}, {"days": "Sat-Sun", "time": "Closed"}], "id": "9440400042", "name": "USPS COLLECTION BOX - BLUE BOX", "address": {"city": "FOSTER CITY", "state": "CA", "street": "1500 FASHION ISLAND BLVD", "postcode": "94404"}}},
{"geometry": {"type": "Point", "coordinates": [-122.2884214892, 37.5568192557]}, "type": "Feature", "properties": {"collection_times": [{"days": "Mon-Fri", "time": "5:00pm"}, {"days": "Sat", "time": "3:00pm"}, {"days": "Sun", "time": "Closed"}], "id": "9440400045", "name": "USPS COLLECTION BOX - BLUE BOX", "address": {"city": "FOSTER CITY", "state": "CA", "street": "1400 FASHION ISLAND BLVD", "postcode": "94404"}}},
{"geometry": {"type": "Point", "coordinates": [-122.2694706839, 37.570113355]}, "type": "Feature", "properties": {"collection_times": [{"days": "Mon-Fri", "time": "5:00pm"}, {"days": "Sat-Sun", "time": "Closed"}], "id": "9440400048", "name": "USPS COLLECTION BOX - BLUE BOX", "address": {"city": "FOSTER CITY", "state": "CA", "street": "101 LINCOLN CENTRE DR", "postcode": "94404"}}},
{"geometry": {"type": "Point", "coordinates": [-122.2858085302, 37.5633338172]}, "type": "Feature", "properties": {"collection_times": [{"days": "Mon-Fri", "time": "1:00pm"}, {"days": "Sat", "time": "3:00pm"}, {"days": "Sun", "time": "Closed"}], "id": "9440400051", "name": "USPS COLLECTION BOX - BLUE BOX", "address": {"city": "FOSTER CITY", "state": "CA", "street": "710 MARINERS ISLAND BLVD", "postcode": "94404"}}},
{"geometry": {"type": "Point", "coordinates": [-122.2875498458, 37.5584907832]}, "type": "Feature", "properties": {"collection_times": [{"days": "Mon-Fri", "time": "5:00pm"}, {"days": "Sat", "time": "3:00pm"}, {"days": "Sun", "time": "Closed"}], "id": "9440400054", "name": "USPS COLLECTION BOX - BLUE BOX", "address": {"city": "FOSTER CITY", "state": "CA", "street": "951 MARINERS ISLAND BLVD", "postcode": "94404"}}},
{"geometry": {"type": "Point", "coordinates": [-122.268738403, 37.5541513062]}, "type": "Feature", "properties": {"collection_times": [{"days": "Mon-Fri", "time": "5:00pm"}, {"days": "Sat-Sun", "time": "Closed"}], "id": "9440400056", "name": "USPS COLLECTION BOX - BLUE BOX", "address": {"city": "FOSTER CITY", "state": "CA", "street": "2001 WINWARD WAY", "postcode": "94404"}}},
{"geometry": {"type": "Point", "coordinates": [-122.2687470926, 37.5541642951]}, "type": "Feature", "properties": {"collection_times": [{"days": "Mon-Fri", "time": "1:00pm"}, {"days": "Sat", "time": "3:00pm"}, {"days": "Sun", "time": "Closed"}], "id": "9440400058", "name": "USPS COLLECTION BOX - EXPRESS", "address": {"city": "FOSTER CITY", "state": "CA", "street": "951 MARINERS ISLAND BLVD", "postcode": "94404"}}},
{"geometry": {"type": "Point", "coordinates": [-122.2753924176, 37.5558362927]}, "type": "Feature", "properties": {"collection_times": [{"days": "Mon-Sat", "time": "3:00pm"}, {"days": "Sun", "time": "Closed"}], "id": "9440400061", "name": "USPS COLLECTION BOX - BLUE BOX", "address": {"city": "FOSTER CITY", "state": "CA", "street": "927 E HILLSDALE BLVD", "postcode": "94404"}}},
{"geometry": {"type": "Point", "coordinates": [-122.2640065965, 37.549618591]}, "type": "Feature", "properties": {"collection_times": [{"days": "Mon-Fri", "time": "5:00pm"}, {"days": "Sat", "time": "4:45pm"}, {"days": "Sun", "time": "Closed"}], "id": "9440400062", "name": "USPS COLLECTION BOX - PO LOBBY", "address": {"city": "FOSTER CITY", "state": "CA", "street": "1050 SHELL BLVD", "postcode": "94404"}}},
{"geometry": {"type": "Point", "coordinates": [-122.2801279612, 37.5694982164]}, "type": "Feature", "properties": {"collection_times": [{"days": "Mon-Fri", "time": "5:00pm"}, {"days": "Sat-Sun", "time": "Closed"}], "id": "9440400063", "name": "USPS COLLECTION BOX - BLUE BOX", "address": {"city": "FOSTER CITY", "state": "CA", "street": "303 VELOCITY WAY", "postcode": "94404"}}},
{"geometry": {"type": "Point", "coordinates": [-122.2677447468, 37.5713625597]}, "type": "Feature", "properties": {"collection_times": [{"days": "Mon-Fri", "time": "5:00pm"}, {"days": "Sat-Sun", "time": "Closed"}], "id": "9440400065", "name": "USPS COLLECTION BOX - BLUE BOX", "address": {"city": "FOSTER CITY", "state": "CA", "street": "4000 E 3RD AVE", "postcode": "94404"}}},
{"geometry": {"type": "Point", "coordinates": [-122.2687470926, 37.5541642951]}, "type": "Feature", "properties": {"collection_times": [{"days": "Mon-Fri", "time": "1:00pm"}, {"days": "Sat-Sun", "time": "Closed"}], "id": "9440400066", "name": "USPS COLLECTION BOX - EXPRESS", "address": {"city": "FOSTER CITY", "state": "CA", "street": "4000 E 3RD AVE", "postcode": "94404"}}},
{"geometry": {"type": "Point", "coordinates": [-122.2557381456, 37.5536843707]}, "type": "Feature", "properties": {"collection_times": [{"days": "Mon-Sat", "time": "3:00pm"}, {"days": "Sun", "time": "Closed"}], "id": "9440400067", "name": "USPS COLLECTION BOX - BLUE BOX", "address": {"city": "FOSTER CITY", "state": "CA", "street": "1098 FOSTER CITY BLVD", "postcode": "94404"}}},
{"geometry": {"type": "Point", "coordinates": [-122.2640065965, 37.549618591]}, "type": "Feature", "properties": {"collection_times": [{"days": "Mon-Fri", "time": "5:00pm"}, {"days": "Sat", "time": "4:45pm"}, {"days": "Sun", "time": "Closed"}], "id": "9440400068", "name": "USPS COLLECTION BOX - APC", "address": {"city": "FOSTER CITY", "state": "CA", "street": "1050 SHELL BLVD", "postcode": "94404"}}}
]}
