{"type": "FeatureCollection", "features": [
{"geometry": {"type": "Point", "coordinates": [-122.2157050465, 37.7904816259]}, "type": "Feature", "properties": {"collection_times": [{"days": "Mon-Sat", "time": "11:30am"}, {"days": "Sun", "time": "Closed"}], "id": "9460100009", "name": "USPS COLLECTION BOX - BLUE BOX", "address": {"city": "OAKLAND", "state": "CA", "street": "2842 COOLIDGE AVE", "postcode": "94601"}}},
{"geometry": {"type": "Point", "coordinates": [-122.2199946082, 37.7906855177]}, "type": "Feature", "properties": {"collection_times": [{"days": "Mon-Sat", "time": "11:30am"}, {"days": "Sun", "time": "Closed"}], "id": "9460100018", "name": "USPS COLLECTION BOX - BLUE BOX", "address": {"city": "OAKLAND", "state": "CA", "street": "2701 FRUITVALE AVE", "postcode": "94601"}}},
{"geometry": {"type": "Point", "coordinates": [-122.2010975482, 37.772620108]}, "type": "Feature", "properties": {"collection_times": [{"days": "Mon-Sat", "time": "12:30pm"}, {"days": "Sun", "time": "Closed"}], "id": "9460100019", "name": "USPS COLLECTION BOX - BLUE BOX", "address": {"city": "OAKLAND", "state": "CA", "street": "5285 FOOTHILL BLVD", "postcode": "94601"}}},
{"geometry": {"type": "Point", "coordinates": [-122.2316928894, 37.7809024471]}, "type": "Feature", "properties": {"collection_times": [{"days": "Mon-Fri", "time": "11:00am"}, {"days": "Sat", "time": "1:00pm"}, {"days": "Sun", "time": "Closed"}], "id": "9460100029", "name": "USPS COLLECTION BOX - BLUE BOX", "address": {"city": "OAKLAND", "state": "CA", "street": "2648 INTERNATIONAL BLVD", "postcode": "94601"}}},
{"geometry": {"type": "Point", "coordinates": [-122.2252327505, 37.7869450015]}, "type": "Feature", "properties": {"collection_times": [{"days": "Mon-Sat", "time": "11:30am"}, {"days": "Sun", "time": "Closed"}], "id": "9460100030", "name": "USPS COLLECTION BOX - BLUE BOX", "address": {"city": "OAKLAND", "state": "CA", "street": "2700 E 23RD ST", "postcode": "94601"}}},
{"geometry": {"type": "Point", "coordinates": [-122.2353505985, 37.7727979952]}, "type": "Feature", "properties": {"collection_times": [{"days": "Mon-Sat", "time": "11:00am"}, {"days": "Sun", "time": "Closed"}], "id": "9460100033", "name": "USPS COLLECTION BOX - BLUE BOX", "address": {"city": "OAKLAND", "state": "CA", "street": "400 29TH AVE", "postcode": "94601"}}},
{"geometry": {"type": "Point", "coordinates": [-122.219706753, 37.774725623]}, "type": "Feature", "properties": {"collection_times": [{"days": "Mon-Sat", "time": "12:00pm"}, {"days": "Sun", "time": "Closed"}], "id": "9460100038", "name": "USPS COLLECTION BOX - BLUE BOX", "address": {"city": "OAKLAND", "state": "CA", "street": "3800 INTERNATIONAL BLVD", "postcode": "94601"}}},
{"geometry": {"type": "Point", "coordinates": [-122.2110620698, 37.767212919]}, "type": "Feature", "properties": {"collection_times": [{"days": "Mon-Sat", "time": "12:30pm"}, {"days": "Sun", "time": "Closed"}], "id": "9460100046", "name": "USPS COLLECTION BOX - BLUE BOX", "address": {"city": "OAKLAND", "state": "CA", "street": "1062 50TH AVE", "postcode": "94601"}}},
{"geometry": {"type": "Point", "coordinates": [-122.2296489486, 37.7740360716]}, "type": "Feature", "properties": {"collection_times": [{"days": "Mon-Fri", "time": "11:00am"}, {"days": "Sat", "time": "1:00pm"}, {"days": "Sun", "time": "Closed"}], "id": "9460100056", "name": "USPS COLLECTION BOX - BLUE BOX", "address": {"city": "OAKLAND", "state": "CA", "street": "3100 E 9TH ST", "postcode": "94601"}}},
{"geometry": {"type": "Point", "coordinates": [-122.2180238944, 37.8090570421]}, "type": "Feature", "properties": {"collection_times": [{"days": "Mon-Sat", "time": "11:00am"}, {"days": "Sun", "time": "Closed"}], "id": "9460200022", "name": "USPS COLLECTION BOX - BLUE BOX", "address": {"city": "OAKLAND", "state": "CA", "street": "4600 PARK BLVD", "postcode": "94602"}}},
{"geometry": {"type": "Point", "coordinates": [-122.1917893176, 37.8014681887]}, "type": "Feature", "properties": {"collection_times": [{"days": "Mon-Sat", "time": "11:00am"}, {"days": "Sun", "time": "Closed"}], "id": "9460200030", "name": "USPS COLLECTION BOX - BLUE BOX", "address": {"city": "OAKLAND", "state": "CA", "street": "3363 GUIDO ST", "postcode": "94602"}}},
{"geometry": {"type": "Point", "coordinates": [-122.2244460828, 37.8061716335]}, "type": "Feature", "properties": {"collection_times": [{"days": "Mon-Sat", "time": "11:00am"}, {"days": "Sun", "time": "Closed"}], "id": "9460200032", "name": "USPS COLLECTION BOX - BLUE BOX", "address": {"city": "OAKLAND", "state": "CA", "street": "1301 HAMPEL ST", "postcode": "94602"}}},
{"geometry": {"type": "Point", "coordinates": [-122.1973740668, 37.8112808333]}, "type": "Feature", "properties": {"collection_times": [{"days": "Mon-Fri", "time": "4:00pm"}, {"days": "Sat", "time": "1:00pm"}, {"days": "Sun", "time": "Closed"}], "id": "9460200034", "name": "USPS COLLECTION BOX - BLUE BOX", "address": {"city": "OAKLAND", "state": "CA", "street": "5000 WOODMINSTER LN", "postcode": "94602"}}},
{"geometry": {"type": "Point", "coordinates": [-122.2123183874, 37.8115647434]}, "type": "Feature", "properties": {"collection_times": [{"days": "Mon-Fri", "time": "4:00pm"}, {"days": "Sat", "time": "1:00pm"}, {"days": "Sun", "time": "Closed"}], "id": "9460200037", "name": "USPS COLLECTION BOX - BLUE BOX", "address": {"city": "OAKLAND", "state": "CA", "street": "1454 LEIMERT BLVD", "postcode": "94602"}}},
{"geometry": {"type": "Point", "coordinates": [-122.1969198106, 37.7983428111]}, "type": "Feature", "properties": {"collection_times": [{"days": "Mon-Sat", "time": "11:00am"}, {"days": "Sun", "time": "Closed"}], "id": "9460200045", "name": "USPS COLLECTION BOX - BLUE BOX", "address": {"city": "OAKLAND", "state": "CA", "street": "3342 WISCONSIN ST", "postcode": "94602"}}},
{"geometry": {"type": "Point", "coordinates": [-122.2156, 37.80026]}, "type": "Feature", "properties": {"collection_times": [{"days": "Mon-Fri", "time": "5:00pm"}, {"days": "Sat", "time": "2:30pm"}, {"days": "Sun", "time": "Closed"}], "id": "9460200048", "name": "USPS COLLECTION BOX - BLUE BOX", "address": {"city": "OAKLAND", "state": "CA", "street": "2226 MACARTHUR BLVD", "postcode": "94602"}}},
{"geometry": {"type": "Point", "coordinates": [-122.2153439153, 37.8002060322]}, "type": "Feature", "properties": {"collection_times": [{"days": "Mon-Fri", "time": "5:00pm"}, {"days": "Sat", "time": "2:30pm"}, {"days": "Sun", "time": "Closed"}], "id": "9460200049", "name": "USPS COLLECTION BOX - BLUE BOX", "address": {"city": "OAKLAND", "state": "CA", "street": "2226 MACARTHUR BLVD", "postcode": "94602"}}},
{"geometry": {"type": "Point", "coordinates": [-122.222432068, 37.8074363007]}, "type": "Feature", "properties": {"collection_times": [{"days": "Mon-Fri", "time": "4:00pm"}, {"days": "Sat", "time": "1:00pm"}, {"days": "Sun", "time": "Closed"}], "id": "9460200055", "name": "USPS COLLECTION BOX - BLUE BOX", "address": {"city": "OAKLAND", "state": "CA", "street": "4219 PARK BLVD", "postcode": "94602"}}},
{"geometry": {"type": "Point", "coordinates": [-122.2046114098, 37.8081235158]}, "type": "Feature", "properties": {"collection_times": [{"days": "Mon-Fri", "time": "4:00pm"}, {"days": "Sat", "time": "11:00am"}, {"days": "Sun", "time": "Closed"}], "id": "9460200056", "name": "USPS COLLECTION BOX - BLUE BOX", "address": {"city": "OAKLAND", "state": "CA", "street": "4315 LINCOLN AVE", "postcode": "94602"}}},
{"geometry": {"type": "Point", "coordinates": [-122.1565124329, 37.7402097064]}, "type": "Feature", "properties": {"collection_times": [{"days": "Mon-Fri", "time": "1:30pm"}, {"days": "Sat", "time": "1:00pm"}, {"days": "Sun", "time": "Closed"}], "id": "9460300018", "name": "USPS COLLECTION BOX - BLUE BOX", "address": {"city": "OAKLAND", "state": "CA", "street": "2175 108TH AVE", "postcode": "94603"}}},
{"geometry": {"type": "Point", "coordinates": [-122.1735349894, 37.7482919799]}, "type": "Feature", "properties": {"collection_times": [{"days": "Mon-Fri", "time": "5:00pm"}, {"days": "Sat", "time": "2:00pm"}, {"days": "Sun", "time": "Closed"}], "id": "9460300019", "name": "USPS COLLECTION BOX - BLUE BOX", "address": {"city": "OAKLAND", "state": "CA", "street": "9201 INTERNATIONAL BLVD", "postcode": "94603"}}},
{"geometry": {"type": "Point", "coordinates": [-122.1655844106, 37.763491657]}, "type": "Feature", "properties": {"collection_times": [{"days": "Mon-Fri", "time": "5:00pm"}, {"days": "Sat", "time": "2:30pm"}, {"days": "Sun", "time": "Closed"}], "id": "9460500001", "name": "USPS COLLECTION BOX - BLUE BOX", "address": {"city": "OAKLAND", "state": "CA", "street": "8033 MACARTHUR BLVD", "postcode": "94605"}}},
{"geometry": {"type": "Point", "coordinates": [-122.1933129687, 37.7721177938]}, "type": "Feature", "properties": {"collection_times": [{"days": "Mon-Sat", "time": "12:15pm"}, {"days": "Sun", "time": "Closed"}], "id": "9460500005", "name": "USPS COLLECTION BOX - BLUE BOX", "address": {"city": "OAKLAND", "state": "CA", "street": "5717 FOOTHILL BLVD", "postcode": "94605"}}},
{"geometry": {"type": "Point", "coordinates": [-122.1788496186, 37.7676598246]}, "type": "Feature", "properties": {"collection_times": [{"days": "Mon-Fri", "time": "5:00pm"}, {"days": "Sat", "time": "1:00pm"}, {"days": "Sun", "time": "Closed"}], "id": "9460500008", "name": "USPS COLLECTION BOX - BLUE BOX", "address": {"city": "OAKLAND", "state": "CA", "street": "6950 BANCROFT AVE", "postcode": "94605"}}},
{"geometry": {"type": "Point", "coordinates": [-122.1658781298, 37.7736444994]}, "type": "Feature", "properties": {"collection_times": [{"days": "Mon-Sat", "time": "11:45am"}, {"days": "Sun", "time": "Closed"}], "id": "9460500013", "name": "USPS COLLECTION BOX - BLUE BOX", "address": {"city": "OAKLAND", "state": "CA", "street": "7300 GREENLY DR", "postcode": "94605"}}},
{"geometry": {"type": "Point", "coordinates": [-122.129761953, 37.7702989866]}, "type": "Feature", "properties": {"collection_times": [{"days": "Mon-Sat", "time": "1:00pm"}, {"days": "Sun", "time": "Closed"}], "id": "9460500018", "name": "USPS COLLECTION BOX - BLUE BOX", "address": {"city": "OAKLAND", "state": "CA", "street": "45 GRAEAGLE", "postcode": "94605"}}},
{"geometry": {"type": "Point", "coordinates": [-122.1822948889, 37.7704711149]}, "type": "Feature", "properties": {"collection_times": [{"days": "Mon-Sat", "time": "12:15pm"}, {"days": "Sun", "time": "Closed"}], "id": "9460500019", "name": "USPS COLLECTION BOX - BLUE BOX", "address": {"city": "OAKLAND", "state": "CA", "street": "6537 FOOTHILL BLVD", "postcode": "94605"}}},
{"geometry": {"type": "Point", "coordinates": [-122.1504408426, 37.7534110462]}, "type": "Feature", "properties": {"collection_times": [{"days": "Mon-Fri", "time": "5:00pm"}, {"days": "Sat", "time": "1:00pm"}, {"days": "Sun", "time": "Closed"}], "id": "9460500023", "name": "USPS COLLECTION BOX - BLUE BOX", "address": {"city": "OAKLAND", "state": "CA", "street": "9750 GOLF LINKS RD", "postcode": "94605"}}},
{"geometry": {"type": "Point", "coordinates": [-122.127122476, 37.7541483606]}, "type": "Feature", "properties": {"collection_times": [{"days": "Mon-Sat", "time": "12:45pm"}, {"days": "Sun", "time": "Closed"}], "id": "9460500024", "name": "USPS COLLECTION BOX - BLUE BOX", "address": {"city": "OAKLAND", "state": "CA", "street": "10800 GOLF LINKS RD", "postcode": "94605"}}},
{"geometry": {"type": "Point", "coordinates": [-122.1548070818, 37.7710514395]}, "type": "Feature", "properties": {"collection_times": [{"days": "Mon-Sat", "time": "1:00pm"}, {"days": "Sun", "time": "Closed"}], "id": "9460500033", "name": "USPS COLLECTION BOX - BLUE BOX", "address": {"city": "OAKLAND", "state": "CA", "street": "7980 MOUNTAIN BLVD", "postcode": "94605"}}},
{"geometry": {"type": "Point", "coordinates": [-122.174999581, 37.7800258745]}, "type": "Feature", "properties": {"collection_times": [{"days": "Mon-Sat", "time": "11:45am"}, {"days": "Sun", "time": "Closed"}], "id": "9460500035", "name": "USPS COLLECTION BOX - BLUE BOX", "address": {"city": "OAKLAND", "state": "CA", "street": "6150 OVERDALE AVE", "postcode": "94605"}}},
{"geometry": {"type": "Point", "coordinates": [-122.1448400422, 37.7437303275]}, "type": "Feature", "properties": {"collection_times": [{"days": "Mon-Fri", "time": "5:00pm"}, {"days": "Sat", "time": "1:00pm"}, {"days": "Sun", "time": "Closed"}], "id": "9460500036", "name": "USPS COLLECTION BOX - BLUE BOX", "address": {"city": "OAKLAND", "state": "CA", "street": "2901 PERALTA OAKS CT", "postcode": "94605"}}},
{"geometry": {"type": "Point", "coordinates": [-122.1481653398, 37.7454680942]}, "type": "Feature", "properties": {"collection_times": [{"days": "Mon-Sat", "time": "12:45pm"}, {"days": "Sun", "time": "Closed"}], "id": "9460500056", "name": "USPS COLLECTION BOX - BLUE BOX", "address": {"city": "OAKLAND", "state": "CA", "street": "2960 106TH AVE", "postcode": "94605"}}},
{"geometry": {"type": "Point", "coordinates": [-122.165642925, 37.76350982]}, "type": "Feature", "properties": {"collection_times": [{"days": "Mon-Fri", "time": "5:00pm"}, {"days": "Sat", "time": "2:30pm"}, {"days": "Sun", "time": "Closed"}], "id": "9460500059", "name": "USPS COLLECTION BOX - BLUE BOX", "address": {"city": "OAKLAND", "state": "CA", "street": "8033 MACARTHUR BLVD", "postcode": "94605"}}},
{"geometry": {"type": "Point", "coordinates": [-122.1386886555, 37.7355809232]}, "type": "Feature", "properties": {"collection_times": [{"days": "Mon-Sat", "time": "12:30pm"}, {"days": "Sun", "time": "Closed"}], "id": "9460500063", "name": "USPS COLLECTION BOX - BLUE BOX", "address": {"city": "OAKLAND", "state": "CA", "street": "55 MARLOW DR", "postcode": "94605"}}},
{"geometry": {"type": "Point", "coordinates": [-122.2494270362, 37.8047541671]}, "type": "Feature", "properties": {"collection_times": [{"days": "Mon-Sat", "time": "11:00am"}, {"days": "Sun", "time": "Closed"}], "id": "9460600002", "name": "USPS COLLECTION BOX - BLUE BOX", "address": {"city": "OAKLAND", "state": "CA", "street": "500 WESLEY AVE", "postcode": "94606"}}},
{"geometry": {"type": "Point", "coordinates": [-122.248972371, 37.8028924713]}, "type": "Feature", "properties": {"collection_times": [{"days": "Mon-Sat", "time": "1:00pm"}, {"days": "Sun", "time": "Closed"}], "id": "9460600011", "name": "USPS COLLECTION BOX - BLUE BOX", "address": {"city": "OAKLAND", "state": "CA", "street": "350 NEWTON AVE", "postcode": "94606"}}},
{"geometry": {"type": "Point", "coordinates": [-122.2532445011, 37.802233739]}, "type": "Feature", "properties": {"collection_times": [{"days": "Mon-Sat", "time": "1:00pm"}, {"days": "Sun", "time": "Closed"}], "id": "9460600012", "name": "USPS COLLECTION BOX - BLUE BOX", "address": {"city": "OAKLAND", "state": "CA", "street": "283 WAYNE AVE", "postcode": "94606"}}},
{"geometry": {"type": "Point", "coordinates": [-122.2585791807, 37.7990277443]}, "type": "Feature", "properties": {"collection_times": [{"days": "Mon-Sat", "time": "1:00pm"}, {"days": "Sun", "time": "Closed"}], "id": "9460600014", "name": "USPS COLLECTION BOX - BLUE BOX", "address": {"city": "OAKLAND", "state": "CA", "street": "1200 LAKESHORE AVE", "postcode": "94606"}}},
{"geometry": {"type": "Point", "coordinates": [-122.2540498399, 37.7981759093]}, "type": "Feature", "properties": {"collection_times": [{"days": "Mon-Sat", "time": "1:00pm"}, {"days": "Sun", "time": "Closed"}], "id": "9460600023", "name": "USPS COLLECTION BOX - BLUE BOX", "address": {"city": "OAKLAND", "state": "CA", "street": "1550 3RD AVE", "postcode": "94606"}}},
{"geometry": {"type": "Point", "coordinates": [-122.2523485359, 37.7944307658]}, "type": "Feature", "properties": {"collection_times": [{"days": "Mon-Sat", "time": "1:00pm"}, {"days": "Sun", "time": "Closed"}], "id": "9460600030", "name": "USPS COLLECTION BOX - BLUE BOX", "address": {"city": "OAKLAND", "state": "CA", "street": "650 INTERNATIONAL BLVD", "postcode": "94606"}}},
{"geometry": {"type": "Point", "coordinates": [-122.2474664643, 37.7962998412]}, "type": "Feature", "properties": {"collection_times": [{"days": "Mon-Sat", "time": "1:00pm"}, {"days": "Sun", "time": "Closed"}], "id": "9460600034", "name": "USPS COLLECTION BOX - BLUE BOX", "address": {"city": "OAKLAND", "state": "CA", "street": "1805 8TH AVE", "postcode": "94606"}}},
{"geometry": {"type": "Point", "coordinates": [-122.2445067009, 37.7885278006]}, "type": "Feature", "properties": {"collection_times": [{"days": "Mon-Sat", "time": "1:00pm"}, {"days": "Sun", "time": "Closed"}], "id": "9460600048", "name": "USPS COLLECTION BOX - BLUE BOX", "address": {"city": "OAKLAND", "state": "CA", "street": "1544 INTERNATIONAL BLVD", "postcode": "94606"}}},
{"geometry": {"type": "Point", "coordinates": [-122.2322488801, 37.7956267373]}, "type": "Feature", "properties": {"collection_times": [{"days": "Mon-Sat", "time": "11:00am"}, {"days": "Sun", "time": "Closed"}], "id": "9460600052", "name": "USPS COLLECTION BOX - BLUE BOX", "address": {"city": "OAKLAND", "state": "CA", "street": "2625 19TH AVE", "postcode": "94606"}}},
{"geometry": {"type": "Point", "coordinates": [-122.2428744796, 37.7822768123]}, "type": "Feature", "properties": {"collection_times": [{"days": "Mon-Fri", "time": "3:00pm"}, {"days": "Sat", "time": "1:00pm"}, {"days": "Sun", "time": "Closed"}], "id": "9460600060", "name": "USPS COLLECTION BOX - BLUE BOX", "address": {"city": "OAKLAND", "state": "CA", "street": "1900 EMBARCADERO", "postcode": "94606"}}},
{"geometry": {"type": "Point", "coordinates": [-122.2428744796, 37.7822768123]}, "type": "Feature", "properties": {"collection_times": [{"days": "Mon-Fri", "time": "3:00pm"}, {"days": "Sat", "time": "1:00pm"}, {"days": "Sun", "time": "Closed"}], "id": "9460600061", "name": "USPS COLLECTION BOX - BLUE BOX", "address": {"city": "OAKLAND", "state": "CA", "street": "1900 EMBARCADERO", "postcode": "94606"}}},
{"geometry": {"type": "Point", "coordinates": [-122.2426558274, 37.7806217579]}, "type": "Feature", "properties": {"collection_times": [{"days": "Mon-Fri", "time": "3:00pm"}, {"days": "Sat", "time": "1:00pm"}, {"days": "Sun", "time": "Closed"}], "id": "9460600062", "name": "USPS COLLECTION BOX - BLUE BOX", "address": {"city": "OAKLAND", "state": "CA", "street": "2000 EMBARCADERO", "postcode": "94606"}}},
{"geometry": {"type": "Point", "coordinates": [-122.2426558274, 37.7806217579]}, "type": "Feature", "properties": {"collection_times": [{"days": "Mon-Fri", "time": "3:00pm"}, {"days": "Sat", "time": "1:00pm"}, {"days": "Sun", "time": "Closed"}], "id": "9460600065", "name": "USPS COLLECTION BOX - BLUE BOX", "address": {"city": "OAKLAND", "state": "CA", "street": "2000 EMBARCADERO", "postcode": "94606"}}},
{"geometry": {"type": "Point", "coordinates": [-122.2717969389, 37.8003529819]}, "type": "Feature", "properties": {"collection_times": [{"days": "Mon-Fri", "time": "5:00pm"}, {"days": "Sat", "time": "1:00pm"}, {"days": "Sun", "time": "Closed"}], "id": "9460700002", "name": "USPS COLLECTION BOX - BLUE BOX", "address": {"city": "OAKLAND", "state": "CA", "street": "388 9TH ST", "postcode": "94607"}}},
{"geometry": {"type": "Point", "coordinates": [-122.2765057125, 37.795136913]}, "type": "Feature", "properties": {"collection_times": [{"days": "Mon-Fri", "time": "4:00pm"}, {"days": "Sat", "time": "1:00pm"}, {"days": "Sun", "time": "Closed"}], "id": "9460700013", "name": "USPS COLLECTION BOX - BLUE BOX", "address": {"city": "OAKLAND", "state": "CA", "street": "499 EMBARCADERO W", "postcode": "94607"}}},
{"geometry": {"type": "Point", "coordinates": [-122.2637785204, 37.7971554687]}, "type": "Feature", "properties": {"collection_times": [{"days": "Mon-Fri", "time": "3:00pm"}, {"days": "Sat", "time": "1:00pm"}, {"days": "Sun", "time": "Closed"}], "id": "9460700014", "name": "USPS COLLECTION BOX - BLUE BOX", "address": {"city": "OAKLAND", "state": "CA", "street": "900 FALLON ST", "postcode": "94607"}}},
{"geometry": {"type": "Point", "coordinates": [-122.2779543876, 37.8141301146]}, "type": "Feature", "properties": {"collection_times": [{"days": "Mon-Sat", "time": "1:00pm"}, {"days": "Sun", "time": "Closed"}], "id": "9460700019", "name": "USPS COLLECTION BOX - BLUE BOX", "address": {"city": "OAKLAND", "state": "CA", "street": "889 W GRAND AVE", "postcode": "94607"}}},
{"geometry": {"type": "Point", "coordinates": [-122.2756571177, 37.7996365049]}, "type": "Feature", "properties": {"collection_times": [{"days": "Mon-Fri", "time": "4:00pm"}, {"days": "Sat", "time": "1:00pm"}, {"days": "Sun", "time": "Closed"}], "id": "9460700027", "name": "USPS COLLECTION BOX - BLUE BOX", "address": {"city": "OAKLAND", "state": "CA", "street": "661 WASHINGTON ST", "postcode": "94607"}}},
{"geometry": {"type": "Point", "coordinates": [-122.27086848, 37.7955458645]}, "type": "Feature", "properties": {"collection_times": [{"days": "Mon-Sat", "time": "1:00pm"}, {"days": "Sun", "time": "Closed"}], "id": "9460700036", "name": "USPS COLLECTION BOX - BLUE BOX", "address": {"city": "OAKLAND", "state": "CA", "street": "255 4TH ST", "postcode": "94607"}}},
{"geometry": {"type": "Point", "coordinates": [-122.2738772917, 37.8002173156]}, "type": "Feature", "properties": {"collection_times": [{"days": "Mon-Fri", "time": "3:00pm"}, {"days": "Sat", "time": "1:00pm"}, {"days": "Sun", "time": "Closed"}], "id": "9460700050", "name": "USPS COLLECTION BOX - BLUE BOX", "address": {"city": "OAKLAND", "state": "CA", "street": "799 BROADWAY", "postcode": "94607"}}},
{"geometry": {"type": "Point", "coordinates": [-122.2712921268, 37.7992519067]}, "type": "Feature", "properties": {"collection_times": [{"days": "Mon-Fri", "time": "3:00pm"}, {"days": "Sat", "time": "1:00pm"}, {"days": "Sun", "time": "Closed"}], "id": "9460700054", "name": "USPS COLLECTION BOX - BLUE BOX", "address": {"city": "OAKLAND", "state": "CA", "street": "800 WEBSTER ST", "postcode": "94607"}}},
{"geometry": {"type": "Point", "coordinates": [-122.2746390582, 37.8013579368]}, "type": "Feature", "properties": {"collection_times": [{"days": "Mon-Fri", "time": "3:00pm"}, {"days": "Sat", "time": "1:00pm"}, {"days": "Sun", "time": "Closed"}], "id": "9460700057", "name": "USPS COLLECTION BOX - BLUE BOX", "address": {"city": "OAKLAND", "state": "CA", "street": "899 WASHINGTON ST", "postcode": "94607"}}},
{"geometry": {"type": "Point", "coordinates": [-122.2752518014, 37.8025034282]}, "type": "Feature", "properties": {"collection_times": [{"days": "Mon-Sat", "time": "1:00pm"}, {"days": "Sun", "time": "Closed"}], "id": "9460700058", "name": "USPS COLLECTION BOX - BLUE BOX", "address": {"city": "OAKLAND", "state": "CA", "street": "1000 CLAY ST", "postcode": "94607"}}},
{"geometry": {"type": "Point", "coordinates": [-122.2668690939, 37.7991381046]}, "type": "Feature", "properties": {"collection_times": [{"days": "Mon-Fri", "time": "3:00pm"}, {"days": "Sat", "time": "1:00pm"}, {"days": "Sun", "time": "Closed"}], "id": "9460700060", "name": "USPS COLLECTION BOX - BLUE BOX", "address": {"city": "OAKLAND", "state": "CA", "street": "195 10TH ST", "postcode": "94607"}}},
{"geometry": {"type": "Point", "coordinates": [-122.2706909658, 37.8002067142]}, "type": "Feature", "properties": {"collection_times": [{"days": "Mon-Sat", "time": "1:00pm"}, {"days": "Sun", "time": "Closed"}], "id": "9460700062", "name": "USPS COLLECTION BOX - BLUE BOX", "address": {"city": "OAKLAND", "state": "CA", "street": "940 WEBSTER ST", "postcode": "94607"}}},
{"geometry": {"type": "Point", "coordinates": [-122.2706962611, 37.8014965726]}, "type": "Feature", "properties": {"collection_times": [{"days": "Mon-Fri", "time": "4:00pm"}, {"days": "Sat", "time": "1:00pm"}, {"days": "Sun", "time": "Closed"}], "id": "9460700064", "name": "USPS COLLECTION BOX - BLUE BOX", "address": {"city": "OAKLAND", "state": "CA", "street": "375 11TH ST", "postcode": "94607"}}},
{"geometry": {"type": "Point", "coordinates": [-122.2717969389, 37.8003529819]}, "type": "Feature", "properties": {"collection_times": [{"days": "Mon-Fri", "time": "5:00pm"}, {"days": "Sat", "time": "1:00pm"}, {"days": "Sun", "time": "Closed"}], "id": "9460700086", "name": "USPS COLLECTION BOX - BLUE BOX", "address": {"city": "OAKLAND", "state": "CA", "street": "388 9TH ST", "postcode": "94607"}}},
{"geometry": {"type": "Point", "coordinates": [-122.2663429579, 37.7914464887]}, "type": "Feature", "properties": {"collection_times": [{"days": "Mon-Fri", "time": "4:00pm"}, {"days": "Sat", "time": "1:00pm"}, {"days": "Sun", "time": "Closed"}], "id": "9460700088", "name": "USPS COLLECTION BOX - BLUE BOX", "address": {"city": "OAKLAND", "state": "CA", "street": "11 EMBARCADERO W", "postcode": "94607"}}},
{"geometry": {"type": "Point", "coordinates": [-122.2827062272, 37.7995116141]}, "type": "Feature", "properties": {"collection_times": [{"days": "Mon-Sat", "time": "1:00pm"}, {"days": "Sun", "time": "Closed"}], "id": "9460700096", "name": "USPS COLLECTION BOX - BLUE BOX", "address": {"city": "OAKLAND", "state": "CA", "street": "774 3RD ST", "postcode": "94607"}}},
{"geometry": {"type": "Point", "coordinates": [-122.2680665116, 37.7927604277]}, "type": "Feature", "properties": {"collection_times": [{"days": "Mon-Fri", "time": "4:00pm"}, {"days": "Sat", "time": "1:00pm"}, {"days": "Sun", "time": "Closed"}], "id": "9460700099", "name": "USPS COLLECTION BOX - BLUE BOX", "address": {"city": "OAKLAND", "state": "CA", "street": "100 OAK ST", "postcode": "94607"}}},
{"geometry": {"type": "Point", "coordinates": [-122.2753133182, 37.7978365047]}, "type": "Feature", "properties": {"collection_times": [{"days": "Mon-Fri", "time": "4:00pm"}, {"days": "Sat", "time": "1:00pm"}, {"days": "Sun", "time": "Closed"}], "id": "9460700100", "name": "USPS COLLECTION BOX - BLUE BOX", "address": {"city": "OAKLAND", "state": "CA", "street": "401 BROADWAY", "postcode": "94607"}}},
{"geometry": {"type": "Point", "coordinates": [-122.2654864781, 37.8003680368]}, "type": "Feature", "properties": {"collection_times": [{"days": "Mon-Fri", "time": "4:00pm"}, {"days": "Sat", "time": "1:00pm"}, {"days": "Sun", "time": "Closed"}], "id": "9460700106", "name": "USPS COLLECTION BOX - BLUE BOX", "address": {"city": "OAKLAND", "state": "CA", "street": "171 12TH ST", "postcode": "94607"}}},
{"geometry": {"type": "Point", "coordinates": [-122.2663429579, 37.7914464887]}, "type": "Feature", "properties": {"collection_times": [{"days": "Mon-Fri", "time": "4:00pm"}, {"days": "Sat", "time": "1:00pm"}, {"days": "Sun", "time": "Closed"}], "id": "9460700107", "name": "USPS COLLECTION BOX - BLUE BOX", "address": {"city": "OAKLAND", "state": "CA", "street": "11 EMBARCADERO W", "postcode": "94607"}}},
{"geometry": {"type": "Point", "coordinates": [-122.2713302954, 37.7940948055]}, "type": "Feature", "properties": {"collection_times": [{"days": "Mon-Sat", "time": "1:00pm"}, {"days": "Sun", "time": "Closed"}], "id": "9460700110", "name": "USPS COLLECTION BOX - BLUE BOX", "address": {"city": "OAKLAND", "state": "CA", "street": "245 2ND ST", "postcode": "94607"}}},
{"geometry": {"type": "Point", "coordinates": [-122.2712611539, 37.8018903386]}, "type": "Feature", "properties": {"collection_times": [{"days": "Mon-Fri", "time": "4:00pm"}, {"days": "Sat", "time": "1:00pm"}, {"days": "Sun", "time": "Closed"}], "id": "9460700113", "name": "USPS COLLECTION BOX - BLUE BOX", "address": {"city": "OAKLAND", "state": "CA", "street": "1111 FRANKLIN ST", "postcode": "94607"}}},
{"geometry": {"type": "Point", "coordinates": [-122.2695485365, 37.8019072703]}, "type": "Feature", "properties": {"collection_times": [{"days": "Mon-Sat", "time": "1:00pm"}, {"days": "Sun", "time": "Closed"}], "id": "9460700116", "name": "USPS COLLECTION BOX - BLUE BOX", "address": {"city": "OAKLAND", "state": "CA", "street": "345 12TH ST", "postcode": "94607"}}},
{"geometry": {"type": "Point", "coordinates": [-122.2851715901, 37.8124093197]}, "type": "Feature", "properties": {"collection_times": [{"days": "Mon-Sat", "time": "1:00pm"}, {"days": "Sun", "time": "Closed"}], "id": "9460700117", "name": "USPS COLLECTION BOX - BLUE BOX", "address": {"city": "OAKLAND", "state": "CA", "street": "1801 ADELINE ST", "postcode": "94607"}}},
{"geometry": {"type": "Point", "coordinates": [-122.2949334106, 37.8408950291]}, "type": "Feature", "properties": {"collection_times": [{"days": "Mon-Fri", "time": "4:00pm"}, {"days": "Sat", "time": "1:00pm"}, {"days": "Sun", "time": "Closed"}], "id": "9460800013", "name": "USPS COLLECTION BOX - BLUE BOX", "address": {"city": "EMERYVILLE", "state": "CA", "street": "6005 CHRISTIE AVE", "postcode": "94608"}}},
{"geometry": {"type": "Point", "coordinates": [-122.2958790599, 37.8440724558]}, "type": "Feature", "properties": {"collection_times": [{"days": "Mon-Fri", "time": "4:00pm"}, {"days": "Sat", "time": "1:00pm"}, {"days": "Sun", "time": "Closed"}], "id": "9460800014", "name": "USPS COLLECTION BOX - BLUE BOX", "address": {"city": "EMERYVILLE", "state": "CA", "street": "6425 CHRISTIE AVE", "postcode": "94608"}}},
{"geometry": {"type": "Point", "coordinates": [-122.2842139015, 37.831525993]}, "type": "Feature", "properties": {"collection_times": [{"days": "Mon-Fri", "time": "4:00pm"}, {"days": "Sat", "time": "1:00pm"}, {"days": "Sun", "time": "Closed"}], "id": "9460800017", "name": "USPS COLLECTION BOX - BLUE BOX", "address": {"city": "EMERYVILLE", "state": "CA", "street": "1255 PARK AVE", "postcode": "94608"}}},
{"geometry": {"type": "Point", "coordinates": [-122.2904185213, 37.8392057626]}, "type": "Feature", "properties": {"collection_times": [{"days": "Mon-Fri", "time": "4:00pm"}, {"days": "Sat", "time": "1:00pm"}, {"days": "Sun", "time": "Closed"}], "id": "9460800018", "name": "USPS COLLECTION BOX - BLUE BOX", "address": {"city": "EMERYVILLE", "state": "CA", "street": "1475 POWELL ST", "postcode": "94608"}}},
{"geometry": {"type": "Point", "coordinates": [-122.2887138774, 37.8306068339]}, "type": "Feature", "properties": {"collection_times": [{"days": "Mon-Fri", "time": "4:00pm"}, {"days": "Sat", "time": "1:00pm"}, {"days": "Sun", "time": "Closed"}], "id": "9460800022", "name": "USPS COLLECTION BOX - BLUE BOX", "address": {"city": "EMERYVILLE", "state": "CA", "street": "1485 PARK AVE", "postcode": "94608"}}},
{"geometry": {"type": "Point", "coordinates": [-122.2855796439, 37.8361812221]}, "type": "Feature", "properties": {"collection_times": [{"days": "Mon-Fri", "time": "1:15pm"}, {"days": "Sat", "time": "1:00pm"}, {"days": "Sun", "time": "Closed"}], "id": "9460800023", "name": "USPS COLLECTION BOX - BLUE BOX", "address": {"city": "EMERYVILLE", "state": "CA", "street": "5885 HORTON ST", "postcode": "94608"}}},
{"geometry": {"type": "Point", "coordinates": [-122.3040081094, 37.8370208808]}, "type": "Feature", "properties": {"collection_times": [{"days": "Mon-Fri", "time": "4:00pm"}, {"days": "Sat", "time": "1:00pm"}, {"days": "Sun", "time": "Closed"}], "id": "9460800031", "name": "USPS COLLECTION BOX - BLUE BOX", "address": {"city": "EMERYVILLE", "state": "CA", "street": "2449 POWELL ST", "postcode": "94608"}}},
{"geometry": {"type": "Point", "coordinates": [-122.2832345041, 37.8407140554]}, "type": "Feature", "properties": {"collection_times": [{"days": "Mon-Fri", "time": "12:00pm"}, {"days": "Sat", "time": "1:00pm"}, {"days": "Sun", "time": "Closed"}], "id": "9460800033", "name": "USPS COLLECTION BOX - BLUE BOX", "address": {"city": "EMERYVILLE", "state": "CA", "street": "1107 STANFORD AVE", "postcode": "94608"}}},
{"geometry": {"type": "Point", "coordinates": [-122.2881618954, 37.8231458016]}, "type": "Feature", "properties": {"collection_times": [{"days": "Mon-Sat", "time": "12:00pm"}, {"days": "Sun", "time": "Closed"}], "id": "9460800039", "name": "USPS COLLECTION BOX - BLUE BOX", "address": {"city": "EMERYVILLE", "state": "CA", "street": "1607 32ND ST", "postcode": "94608"}}},
{"geometry": {"type": "Point", "coordinates": [-122.2742344597, 37.8392081285]}, "type": "Feature", "properties": {"collection_times": [{"days": "Mon-Sat", "time": "11:15am"}, {"days": "Sun", "time": "Closed"}], "id": "9460800056", "name": "USPS COLLECTION BOX - BLUE BOX", "address": {"city": "EMERYVILLE", "state": "CA", "street": "901 55TH ST", "postcode": "94608"}}},
{"geometry": {"type": "Point", "coordinates": [-122.2745624848, 37.8415990657]}, "type": "Feature", "properties": {"collection_times": [{"days": "Mon-Fri", "time": "11:00am"}, {"days": "Sat", "time": "12:00pm"}, {"days": "Sun", "time": "Closed"}], "id": "9460800057", "name": "USPS COLLECTION BOX - BLUE BOX", "address": {"city": "EMERYVILLE", "state": "CA", "street": "5701 MARKET ST", "postcode": "94608"}}},
{"geometry": {"type": "Point", "coordinates": [-122.285238344, 37.8478934133]}, "type": "Feature", "properties": {"collection_times": [{"days": "Mon-Sat", "time": "11:00am"}, {"days": "Sun", "time": "Closed"}], "id": "9460800068", "name": "USPS COLLECTION BOX - BLUE BOX", "address": {"city": "EMERYVILLE", "state": "CA", "street": "6444 SAN PABLO AVE", "postcode": "94608"}}},
{"geometry": {"type": "Point", "coordinates": [-122.2855796439, 37.8361812221]}, "type": "Feature", "properties": {"collection_times": [{"days": "Mon-Fri", "time": "4:00pm"}, {"days": "Sat", "time": "1:00pm"}, {"days": "Sun", "time": "Closed"}], "id": "9460800070", "name": "USPS COLLECTION BOX - EXPRESS", "address": {"city": "EMERYVILLE", "state": "CA", "street": "1321 67TH ST", "postcode": "94608"}}},
{"geometry": {"type": "Point", "coordinates": [-122.2925594573, 37.8424099769]}, "type": "Feature", "properties": {"collection_times": [{"days": "Mon-Fri", "time": "5:00pm"}, {"days": "Sat", "time": "4:30pm"}, {"days": "Sun", "time": "Closed"}], "id": "9460800072", "name": "USPS COLLECTION BOX - BLUE BOX", "address": {"city": "EMERYVILLE", "state": "CA", "street": "1585 62ND ST", "postcode": "94608"}}},
{"geometry": {"type": "Point", "coordinates": [-122.2945347486, 37.8377895032]}, "type": "Feature", "properties": {"collection_times": [{"days": "Mon-Fri", "time": "4:00pm"}, {"days": "Sat", "time": "1:00pm"}, {"days": "Sun", "time": "Closed"}], "id": "9460800075", "name": "USPS COLLECTION BOX - BLUE BOX", "address": {"city": "EMERYVILLE", "state": "CA", "street": "5769 CHRISTIE AVE", "postcode": "94608"}}},
{"geometry": {"type": "Point", "coordinates": [-122.2949334106, 37.8408950291]}, "type": "Feature", "properties": {"collection_times": [{"days": "Mon-Fri", "time": "4:00pm"}, {"days": "Sat", "time": "1:00pm"}, {"days": "Sun", "time": "Closed"}], "id": "9460800076", "name": "USPS COLLECTION BOX - BLUE BOX", "address": {"city": "EMERYVILLE", "state": "CA", "street": "6005 CHRISTIE AVE", "postcode": "94608"}}},
{"geometry": {"type": "Point", "coordinates": [-122.2917706434, 37.8489296853]}, "type": "Feature", "properties": {"collection_times": [{"days": "Mon-Fri", "time": "4:00pm"}, {"days": "Sat", "time": "1:00pm"}, {"days": "Sun", "time": "Closed"}], "id": "9460800086", "name": "USPS COLLECTION BOX - BLUE BOX", "address": {"city": "EMERYVILLE", "state": "CA", "street": "1321 67TH ST", "postcode": "94608"}}},
{"geometry": {"type": "Point", "coordinates": [-122.2925594573, 37.8424099769]}, "type": "Feature", "properties": {"collection_times": [{"days": "Mon-Fri", "time": "5:00pm"}, {"days": "Sat", "time": "4:30pm"}, {"days": "Sun", "time": "Closed"}], "id": "9460800094", "name": "USPS COLLECTION BOX - BLUE BOX", "address": {"city": "EMERYVILLE", "state": "CA", "street": "1585 62ND ST", "postcode": "94608"}}},
{"geometry": {"type": "Point", "coordinates": [-122.2949334106, 37.8408950291]}, "type": "Feature", "properties": {"collection_times": [{"days": "Mon-Fri", "time": "4:00pm"}, {"days": "Sat", "time": "1:00pm"}, {"days": "Sun", "time": "Closed"}], "id": "9460800099", "name": "USPS COLLECTION BOX - BLUE BOX", "address": {"city": "EMERYVILLE", "state": "CA", "street": "6005 CHRISTIE AVE", "postcode": "94608"}}},
{"geometry": {"type": "Point", "coordinates": [-122.2917706434, 37.8489296853]}, "type": "Feature", "properties": {"collection_times": [{"days": "Mon-Fri", "time": "4:00pm"}, {"days": "Sat", "time": "1:00pm"}, {"days": "Sun", "time": "Closed"}], "id": "9460800102", "name": "USPS COLLECTION BOX - BLUE BOX", "address": {"city": "EMERYVILLE", "state": "CA", "street": "1321 67TH ST", "postcode": "94608"}}},
{"geometry": {"type": "Point", "coordinates": [-122.2796611216, 37.8300598683]}, "type": "Feature", "properties": {"collection_times": [{"days": "Mon-Fri", "time": "12:00pm"}, {"days": "Sat", "time": "12:45pm"}, {"days": "Sun", "time": "Closed"}], "id": "9460800103", "name": "USPS COLLECTION BOX - BLUE BOX", "address": {"city": "EMERYVILLE", "state": "CA", "street": "3889 SAN PABLO AVE", "postcode": "94608"}}},
{"geometry": {"type": "Point", "coordinates": [-122.2805739368, 37.8334790583]}, "type": "Feature", "properties": {"collection_times": [{"days": "Mon-Sat", "time": "12:00pm"}, {"days": "Sun", "time": "Closed"}], "id": "9460800104", "name": "USPS COLLECTION BOX - BLUE BOX", "address": {"city": "EMERYVILLE", "state": "CA", "street": "4310 SAN PABLO AVE", "postcode": "94608"}}},
{"geometry": {"type": "Point", "coordinates": [-122.2884216865, 37.8415645828]}, "type": "Feature", "properties": {"collection_times": [{"days": "Mon-Fri", "time": "4:00pm"}, {"days": "Sat", "time": "1:00pm"}, {"days": "Sun", "time": "Closed"}], "id": "9460800106", "name": "USPS COLLECTION BOX - BLUE BOX", "address": {"city": "EMERYVILLE", "state": "CA", "street": "1301 59TH ST", "postcode": "94608"}}},
{"geometry": {"type": "Point", "coordinates": [-122.2884216865, 37.8415645828]}, "type": "Feature", "properties": {"collection_times": [{"days": "Mon-Fri", "time": "4:00pm"}, {"days": "Sat", "time": "1:00pm"}, {"days": "Sun", "time": "Closed"}], "id": "9460800107", "name": "USPS COLLECTION BOX - BLUE BOX", "address": {"city": "EMERYVILLE", "state": "CA", "street": "1301 59TH ST", "postcode": "94608"}}},
{"geometry": {"type": "Point", "coordinates": [-122.2605428926, 37.849976604]}, "type": "Feature", "properties": {"collection_times": [{"days": "Mon-Sat", "time": "12:00pm"}, {"days": "Sun", "time": "Closed"}], "id": "9460900003", "name": "USPS COLLECTION BOX - BLUE BOX", "address": {"city": "OAKLAND", "state": "CA", "street": "6398 TELEGRAPH AVE", "postcode": "94609"}}},
{"geometry": {"type": "Point", "coordinates": [-122.2641587664, 37.8338436552]}, "type": "Feature", "properties": {"collection_times": [{"days": "Mon-Sat", "time": "12:00pm"}, {"days": "Sun", "time": "Closed"}], "id": "9460900004", "name": "USPS COLLECTION BOX - BLUE BOX", "address": {"city": "OAKLAND", "state": "CA", "street": "555 40TH ST", "postcode": "94609"}}},
{"geometry": {"type": "Point", "coordinates": [-122.2641587664, 37.8338436552]}, "type": "Feature", "properties": {"collection_times": [{"days": "Mon-Fri", "time": "4:00pm"}, {"days": "Sat", "time": "1:00pm"}, {"days": "Sun", "time": "Closed"}], "id": "9460900005", "name": "USPS COLLECTION BOX - BLUE BOX", "address": {"city": "OAKLAND", "state": "CA", "street": "365 HAWTHORNE AVE", "postcode": "94609"}}},
{"geometry": {"type": "Point", "coordinates": [-122.2606415205, 37.8251399444]}, "type": "Feature", "properties": {"collection_times": [{"days": "Mon-Sat", "time": "12:30pm"}, {"days": "Sun", "time": "Closed"}], "id": "9460900011", "name": "USPS COLLECTION BOX - BLUE BOX", "address": {"city": "OAKLAND", "state": "CA", "street": "380 W MACARTHUR BLVD", "postcode": "94609"}}},
{"geometry": {"type": "Point", "coordinates": [-122.2649636103, 37.817745704]}, "type": "Feature", "properties": {"collection_times": [{"days": "Mon-Fri", "time": "4:00pm"}, {"days": "Sat", "time": "1:00pm"}, {"days": "Sun", "time": "Closed"}], "id": "9460900014", "name": "USPS COLLECTION BOX - BLUE BOX", "address": {"city": "OAKLAND", "state": "CA", "street": "401 29TH ST", "postcode": "94609"}}},
{"geometry": {"type": "Point", "coordinates": [-122.2674557513, 37.8182261936]}, "type": "Feature", "properties": {"collection_times": [{"days": "Mon-Fri", "time": "3:00pm"}, {"days": "Sat", "time": "1:00pm"}, {"days": "Sun", "time": "Closed"}], "id": "9460900015", "name": "USPS COLLECTION BOX - BLUE BOX", "address": {"city": "OAKLAND", "state": "CA", "street": "2899 TELEGRAPH AVE", "postcode": "94609"}}},
{"geometry": {"type": "Point", "coordinates": [-122.2648788884, 37.8189691244]}, "type": "Feature", "properties": {"collection_times": [{"days": "Mon-Fri", "time": "4:00pm"}, {"days": "Sat", "time": "1:00pm"}, {"days": "Sun", "time": "Closed"}], "id": "9460900018", "name": "USPS COLLECTION BOX - BLUE BOX", "address": {"city": "OAKLAND", "state": "CA", "street": "411 30TH ST", "postcode": "94609"}}},
{"geometry": {"type": "Point", "coordinates": [-122.2638690131, 37.8188083233]}, "type": "Feature", "properties": {"collection_times": [{"days": "Mon-Sat", "time": "12:00pm"}, {"days": "Sun", "time": "Closed"}], "id": "9460900019", "name": "USPS COLLECTION BOX - BLUE BOX", "address": {"city": "OAKLAND", "state": "CA", "street": "353 30TH ST", "postcode": "94609"}}},
{"geometry": {"type": "Point", "coordinates": [-122.2641587664, 37.8338436552]}, "type": "Feature", "properties": {"collection_times": [{"days": "Mon-Sat", "time": "12:00pm"}, {"days": "Sun", "time": "Closed"}], "id": "9460900024", "name": "USPS COLLECTION BOX - BLUE BOX", "address": {"city": "OAKLAND", "state": "CA", "street": "468 34TH ST", "postcode": "94609"}}},
{"geometry": {"type": "Point", "coordinates": [-122.259206149, 37.8283769563]}, "type": "Feature", "properties": {"collection_times": [{"days": "Mon-Sat", "time": "12:00pm"}, {"days": "Sun", "time": "Closed"}], "id": "9460900027", "name": "USPS COLLECTION BOX - BLUE BOX", "address": {"city": "OAKLAND", "state": "CA", "street": "390 40TH ST", "postcode": "94609"}}},
{"geometry": {"type": "Point", "coordinates": [-122.26394, 37.83105]}, "type": "Feature", "properties": {"collection_times": [{"days": "Mon-Sat", "time": "12:00pm"}, {"days": "Sun", "time": "Closed"}], "id": "9460900032", "name": "USPS COLLECTION BOX - BLUE BOX", "address": {"city": "OAKLAND", "state": "CA", "street": "4201 TELEGRAPH AVE", "postcode": "94609"}}},
{"geometry": {"type": "Point", "coordinates": [-122.2600754269, 37.8328435376]}, "type": "Feature", "properties": {"collection_times": [{"days": "Mon-Sat", "time": "12:00pm"}, {"days": "Sun", "time": "Closed"}], "id": "9460900034", "name": "USPS COLLECTION BOX - BLUE BOX", "address": {"city": "OAKLAND", "state": "CA", "street": "4435 WEBSTER ST", "postcode": "94609"}}},
{"geometry": {"type": "Point", "coordinates": [-122.2615664691, 37.8430754599]}, "type": "Feature", "properties": {"collection_times": [{"days": "Mon-Sat", "time": "12:00pm"}, {"days": "Sun", "time": "Closed"}], "id": "9460900041", "name": "USPS COLLECTION BOX - BLUE BOX", "address": {"city": "OAKLAND", "state": "CA", "street": "5701 TELEGRAPH AVE", "postcode": "94609"}}},
{"geometry": {"type": "Point", "coordinates": [-122.2600324129, 37.8437195698]}, "type": "Feature", "properties": {"collection_times": [{"days": "Mon-Sat", "time": "12:00pm"}, {"days": "Sun", "time": "Closed"}], "id": "9460900042", "name": "USPS COLLECTION BOX - BLUE BOX", "address": {"city": "OAKLAND", "state": "CA", "street": "5754 VICENTE ST", "postcode": "94609"}}},
{"geometry": {"type": "Point", "coordinates": [-122.2641587664, 37.8338436552]}, "type": "Feature", "properties": {"collection_times": [{"days": "Mon-Fri", "time": "4:00pm"}, {"days": "Sat", "time": "1:00pm"}, {"days": "Sun", "time": "Closed"}], "id": "9460900050", "name": "USPS COLLECTION BOX - BLUE BOX", "address": {"city": "OAKLAND", "state": "CA", "street": "3300 WEBSTER ST", "postcode": "94609"}}},
{"geometry": {"type": "Point", "coordinates": [-122.2649636103, 37.817745704]}, "type": "Feature", "properties": {"collection_times": [{"days": "Mon-Fri", "time": "4:00pm"}, {"days": "Sat", "time": "1:00pm"}, {"days": "Sun", "time": "Closed"}], "id": "9460900055", "name": "USPS COLLECTION BOX - BLUE BOX", "address": {"city": "OAKLAND", "state": "CA", "street": "401 29TH ST", "postcode": "94609"}}},
{"geometry": {"type": "Point", "coordinates": [-122.2648788884, 37.8189691244]}, "type": "Feature", "properties": {"collection_times": [{"days": "Mon-Fri", "time": "4:00pm"}, {"days": "Sat", "time": "1:00pm"}, {"days": "Sun", "time": "Closed"}], "id": "9460900057", "name": "USPS COLLECTION BOX - BLUE BOX", "address": {"city": "OAKLAND", "state": "CA", "street": "411 30TH ST", "postcode": "94609"}}},
{"geometry": {"type": "Point", "coordinates": [-122.2639010091, 37.8363171103]}, "type": "Feature", "properties": {"collection_times": [{"days": "Mon-Fri", "time": "5:00pm"}, {"days": "Sat", "time": "4:00pm"}, {"days": "Sun", "time": "Closed"}], "id": "9460900059", "name": "USPS COLLECTION BOX - BLUE BOX", "address": {"city": "OAKLAND", "state": "CA", "street": "4900 SHATTUCK AVE", "postcode": "94609"}}},
{"geometry": {"type": "Point", "coordinates": [-122.2469281598, 37.8132354195]}, "type": "Feature", "properties": {"collection_times": [{"days": "Mon-Fri", "time": "4:00pm"}, {"days": "Sat", "time": "1:00pm"}, {"days": "Sun", "time": "Closed"}], "id": "9461000002", "name": "USPS COLLECTION BOX - BLUE BOX", "address": {"city": "PIEDMONT", "state": "CA", "street": "3351 GRAND AVE", "postcode": "94610"}}},
{"geometry": {"type": "Point", "coordinates": [-122.2472259049, 37.8106558189]}, "type": "Feature", "properties": {"collection_times": [{"days": "Mon-Fri", "time": "5:00pm"}, {"days": "Sat", "time": "2:45pm"}, {"days": "Sun", "time": "Closed"}], "id": "9461000004", "name": "USPS COLLECTION BOX - BLUE BOX", "address": {"city": "PIEDMONT", "state": "CA", "street": "490 LAKE PARK AVE", "postcode": "94610"}}},
{"geometry": {"type": "Point", "coordinates": [-122.24750077, 37.8091160184]}, "type": "Feature", "properties": {"collection_times": [{"days": "Mon-Sat", "time": "12:00pm"}, {"days": "Sun", "time": "Closed"}], "id": "9461000011", "name": "USPS COLLECTION BOX - BLUE BOX", "address": {"city": "PIEDMONT", "state": "CA", "street": "3000 LAKESHORE AVE", "postcode": "94610"}}},
{"geometry": {"type": "Point", "coordinates": [-122.2375627318, 37.8155891698]}, "type": "Feature", "properties": {"collection_times": [{"days": "Mon-Sat", "time": "1:00pm"}, {"days": "Sun", "time": "Closed"}], "id": "9461000014", "name": "USPS COLLECTION BOX - BLUE BOX", "address": {"city": "PIEDMONT", "state": "CA", "street": "3901 LAKESHORE AVE", "postcode": "94610"}}},
{"geometry": {"type": "Point", "coordinates": [-122.2393313431, 37.810510246]}, "type": "Feature", "properties": {"collection_times": [{"days": "Mon-Sat", "time": "12:45pm"}, {"days": "Sun", "time": "Closed"}], "id": "9461000016", "name": "USPS COLLECTION BOX - BLUE BOX", "address": {"city": "PIEDMONT", "state": "CA", "street": "650 MANDANA BLVD", "postcode": "94610"}}},
{"geometry": {"type": "Point", "coordinates": [-122.234476185, 37.8033599589]}, "type": "Feature", "properties": {"collection_times": [{"days": "Mon-Sat", "time": "12:15pm"}, {"days": "Sun", "time": "Closed"}], "id": "9461000021", "name": "USPS COLLECTION BOX - BLUE BOX", "address": {"city": "PIEDMONT", "state": "CA", "street": "3400 PARK BLVD", "postcode": "94610"}}},
{"geometry": {"type": "Point", "coordinates": [-122.2514787878, 37.8110141357]}, "type": "Feature", "properties": {"collection_times": [{"days": "Mon-Fri", "time": "1:30pm"}, {"days": "Sat", "time": "1:00pm"}, {"days": "Sun", "time": "Closed"}], "id": "9461000024", "name": "USPS COLLECTION BOX - BLUE BOX", "address": {"city": "PIEDMONT", "state": "CA", "street": "398 EUCLID AVE", "postcode": "94610"}}},
{"geometry": {"type": "Point", "coordinates": [-122.2441305199, 37.8206226602]}, "type": "Feature", "properties": {"collection_times": [{"days": "Mon-Fri", "time": "4:00pm"}, {"days": "Sat", "time": "1:00pm"}, {"days": "Sun", "time": "Closed"}], "id": "9461000031", "name": "USPS COLLECTION BOX - BLUE BOX", "address": {"city": "PIEDMONT", "state": "CA", "street": "1333 GRAND AVE", "postcode": "94610"}}},
{"geometry": {"type": "Point", "coordinates": [-122.2496431087, 37.8094496128]}, "type": "Feature", "properties": {"collection_times": [{"days": "Mon-Fri", "time": "4:00pm"}, {"days": "Sat", "time": "1:00pm"}, {"days": "Sun", "time": "Closed"}], "id": "9461000033", "name": "USPS COLLECTION BOX - BLUE BOX", "address": {"city": "PIEDMONT", "state": "CA", "street": "600 GRAND AVE", "postcode": "94610"}}},
{"geometry": {"type": "Point", "coordinates": [-122.2623061432, 37.8108920105]}, "type": "Feature", "properties": {"collection_times": [{"days": "Mon-Fri", "time": "4:00pm"}, {"days": "Sat", "time": "1:00pm"}, {"days": "Sun", "time": "Closed"}], "id": "9461000036", "name": "USPS COLLECTION BOX - BLUE BOX", "address": {"city": "PIEDMONT", "state": "CA", "street": "3655 GRAND AVE", "postcode": "94610"}}},
{"geometry": {"type": "Point", "coordinates": [-122.2311203372, 37.8061113026]}, "type": "Feature", "properties": {"collection_times": [{"days": "Mon-Sat", "time": "11:00am"}, {"days": "Sun", "time": "Closed"}], "id": "9461000037", "name": "USPS COLLECTION BOX - BLUE BOX", "address": {"city": "PIEDMONT", "state": "CA", "street": "800 GROSVENOR PL", "postcode": "94610"}}},
{"geometry": {"type": "Point", "coordinates": [-122.2474782907, 37.8120403715]}, "type": "Feature", "properties": {"collection_times": [{"days": "Mon-Fri", "time": "4:00pm"}, {"days": "Sat", "time": "12:00pm"}, {"days": "Sun", "time": "Closed"}], "id": "9461000046", "name": "USPS COLLECTION BOX - EXPRESS", "address": {"city": "PIEDMONT", "state": "CA", "street": "3347 LAKESHORE AVE", "postcode": "94610"}}},
{"geometry": {"type": "Point", "coordinates": [-122.2564094019, 37.8107364358]}, "type": "Feature", "properties": {"collection_times": [{"days": "Mon-Fri", "time": "1:30pm"}, {"days": "Sat", "time": "1:00pm"}, {"days": "Sun", "time": "Closed"}], "id": "9461000047", "name": "USPS COLLECTION BOX - BLUE BOX", "address": {"city": "PIEDMONT", "state": "CA", "street": "402 LEE ST", "postcode": "94610"}}},
{"geometry": {"type": "Point", "coordinates": [-122.258780875, 37.8121568988]}, "type": "Feature", "properties": {"collection_times": [{"days": "Mon-Sat", "time": "11:00am"}, {"days": "Sun", "time": "Closed"}], "id": "9461000048", "name": "USPS COLLECTION BOX - BLUE BOX", "address": {"city": "PIEDMONT", "state": "CA", "street": "180 MONTECITO AVE", "postcode": "94610"}}},
{"geometry": {"type": "Point", "coordinates": [-122.2508132959, 37.8197881643]}, "type": "Feature", "properties": {"collection_times": [{"days": "Mon-Sat", "time": "12:00pm"}, {"days": "Sun", "time": "Closed"}], "id": "9461000052", "name": "USPS COLLECTION BOX - BLUE BOX", "address": {"city": "PIEDMONT", "state": "CA", "street": "151 SANTA ROSA AVE", "postcode": "94610"}}},
{"geometry": {"type": "Point", "coordinates": [-122.2483069619, 37.8138492048]}, "type": "Feature", "properties": {"collection_times": [{"days": "Mon-Fri", "time": "1:15pm"}, {"days": "Sat", "time": "1:00pm"}, {"days": "Sun", "time": "Closed"}], "id": "9461000057", "name": "USPS COLLECTION BOX - BLUE BOX", "address": {"city": "PIEDMONT", "state": "CA", "street": "368 SANTA CLARA AVE", "postcode": "94610"}}},
{"geometry": {"type": "Point", "coordinates": [-122.2496608531, 37.8188091842]}, "type": "Feature", "properties": {"collection_times": [{"days": "Mon-Sat", "time": "11:00am"}, {"days": "Sun", "time": "Closed"}], "id": "9461000058", "name": "USPS COLLECTION BOX - BLUE BOX", "address": {"city": "PIEDMONT", "state": "CA", "street": "589 VERNON ST", "postcode": "94610"}}},
{"geometry": {"type": "Point", "coordinates": [-122.2347910589, 37.8075332193]}, "type": "Feature", "properties": {"collection_times": [{"days": "Mon-Sat", "time": "11:00am"}, {"days": "Sun", "time": "Closed"}], "id": "9461000060", "name": "USPS COLLECTION BOX - BLUE BOX", "address": {"city": "PIEDMONT", "state": "CA", "street": "857 SUNNYHILLS RD", "postcode": "94610"}}},
{"geometry": {"type": "Point", "coordinates": [-122.2530750058, 37.8087702295]}, "type": "Feature", "properties": {"collection_times": [{"days": "Mon-Sat", "time": "1:00pm"}, {"days": "Sun", "time": "Closed"}], "id": "9461000064", "name": "USPS COLLECTION BOX - BLUE BOX", "address": {"city": "PIEDMONT", "state": "CA", "street": "440 GRAND AVE", "postcode": "94610"}}},
{"geometry": {"type": "Point", "coordinates": [-122.2474782907, 37.8120403715]}, "type": "Feature", "properties": {"collection_times": [{"days": "Mon-Fri", "time": "5:00pm"}, {"days": "Sat", "time": "9:30am"}, {"days": "Sun", "time": "Closed"}], "id": "9461000067", "name": "USPS COLLECTION BOX - EXPRESS", "address": {"city": "PIEDMONT", "state": "CA", "street": "490 LAKE PARK AVE", "postcode": "94610"}}},
{"geometry": {"type": "Point", "coordinates": [-122.2472259049, 37.8106558189]}, "type": "Feature", "properties": {"collection_times": [{"days": "Mon-Fri", "time": "5:00pm"}, {"days": "Sat", "time": "2:45pm"}, {"days": "Sun", "time": "Closed"}], "id": "9461000068", "name": "USPS COLLECTION BOX - BLUE BOX", "address": {"city": "PIEDMONT", "state": "CA", "street": "490 LAKE PARK AVE", "postcode": "94610"}}},
{"geometry": {"type": "Point", "coordinates": [-122.2456115846, 37.8159736315]}, "type": "Feature", "properties": {"collection_times": [{"days": "Mon-Fri", "time": "4:00pm"}, {"days": "Sat", "time": "1:00pm"}, {"days": "Sun", "time": "Closed"}], "id": "9461000069", "name": "USPS COLLECTION BOX - BLUE BOX", "address": {"city": "PIEDMONT", "state": "CA", "street": "3655 GRAND AVE", "postcode": "94610"}}},
{"geometry": {"type": "Point", "coordinates": [-122.2433683348, 37.8110330991]}, "type": "Feature", "properties": {"collection_times": [{"days": "Mon-Fri", "time": "4:00pm"}, {"days": "Sat", "time": "12:00pm"}, {"days": "Sun", "time": "Closed"}], "id": "9461000070", "name": "USPS COLLECTION BOX - BLUE BOX", "address": {"city": "PIEDMONT", "state": "CA", "street": "3347 LAKESHORE AVE", "postcode": "94610"}}},
{"geometry": {"type": "Point", "coordinates": [-122.2521436428, 37.8183822877]}, "type": "Feature", "properties": {"collection_times": [{"days": "Mon-Sat", "time": "1:15pm"}, {"days": "Sun", "time": "Closed"}], "id": "9461000071", "name": "USPS COLLECTION BOX - BLUE BOX", "address": {"city": "PIEDMONT", "state": "CA", "street": "150 SANTA CLARA AVE", "postcode": "94610"}}},
{"geometry": {"type": "Point", "coordinates": [-122.2472259049, 37.8106558189]}, "type": "Feature", "properties": {"collection_times": [{"days": "Mon-Fri", "time": "5:00pm"}, {"days": "Sat", "time": "2:45pm"}, {"days": "Sun", "time": "Closed"}], "id": "9461000072", "name": "USPS COLLECTION BOX - BLUE BOX", "address": {"city": "PIEDMONT", "state": "CA", "street": "490 LAKE PARK AVE", "postcode": "94610"}}},
{"geometry": {"type": "Point", "coordinates": [-122.2472259049, 37.8106558189]}, "type": "Feature", "properties": {"collection_times": [{"days": "Mon-Fri", "time": "5:00pm"}, {"days": "Sat", "time": "2:45pm"}, {"days": "Sun", "time": "Closed"}], "id": "9461000073", "name": "USPS COLLECTION BOX - BLUE BOX", "address": {"city": "PIEDMONT", "state": "CA", "street": "490 LAKE PARK AVE", "postcode": "94610"}}},
{"geometry": {"type": "Point", "coordinates": [-122.2472259049, 37.8106558189]}, "type": "Feature", "properties": {"collection_times": [{"days": "Mon-Fri", "time": "5:00pm"}, {"days": "Sat", "time": "2:45pm"}, {"days": "Sun", "time": "Closed"}], "id": "9461000074", "name": "USPS COLLECTION BOX - BLUE BOX", "address": {"city": "PIEDMONT", "state": "CA", "street": "490 LAKE PARK AVE", "postcode": "94610"}}},
{"geometry": {"type": "Point", "coordinates": [-122.2584473756, 37.8094031621]}, "type": "Feature", "properties": {"collection_times": [{"days": "Mon-Fri", "time": "4:00pm"}, {"days": "Sat", "time": "1:00pm"}, {"days": "Sun", "time": "Closed"}], "id": "9461000075", "name": "USPS COLLECTION BOX - BLUE BOX", "address": {"city": "PIEDMONT", "state": "CA", "street": "268 GRAND AVE", "postcode": "94610"}}},
{"geometry": {"type": "Point", "coordinates": [-122.2454116814, 37.8163707186]}, "type": "Feature", "properties": {"collection_times": [{"days": "Mon-Fri", "time": "4:00pm"}, {"days": "Sat", "time": "1:00pm"}, {"days": "Sun", "time": "Closed"}], "id": "9461000078", "name": "USPS COLLECTION BOX - BLUE BOX", "address": {"city": "PIEDMONT", "state": "CA", "street": "3700 GRAND AVE", "postcode": "94610"}}},
{"geometry": {"type": "Point", "coordinates": [-122.24750077, 37.8091160184]}, "type": "Feature", "properties": {"collection_times": [{"days": "Mon-Sat", "time": "12:00pm"}, {"days": "Sun", "time": "Closed"}], "id": "9461000082", "name": "USPS COLLECTION BOX - BLUE BOX", "address": {"city": "PIEDMONT", "state": "CA", "street": "3000 LAKESHORE AVE", "postcode": "94610"}}},
{"geometry": {"type": "Point", "coordinates": [-122.2444357233, 37.8106160104]}, "type": "Feature", "properties": {"collection_times": [{"days": "Mon-Fri", "time": "4:00pm"}, {"days": "Sat", "time": "12:00pm"}, {"days": "Sun", "time": "Closed"}], "id": "9461000083", "name": "USPS COLLECTION BOX - BLUE BOX", "address": {"city": "PIEDMONT", "state": "CA", "street": "3268 LAKESHORE AVE", "postcode": "94610"}}},
{"geometry": {"type": "Point", "coordinates": [-122.2104895329, 37.8280457277]}, "type": "Feature", "properties": {"collection_times": [{"days": "Mon-Fri", "time": "5:00pm"}, {"days": "Sat", "time": "2:30pm"}, {"days": "Sun", "time": "Closed"}], "id": "9461100004", "name": "USPS COLLECTION BOX - BLUE BOX", "address": {"city": "PIEDMONT", "state": "CA", "street": "1954 MOUNTAIN BLVD", "postcode": "94611"}}},
{"geometry": {"type": "Point", "coordinates": [-122.2552029586, 37.8296946425]}, "type": "Feature", "properties": {"collection_times": [{"days": "Mon-Sat", "time": "11:00am"}, {"days": "Sun", "time": "Closed"}], "id": "9461100011", "name": "USPS COLLECTION BOX - BLUE BOX", "address": {"city": "PIEDMONT", "state": "CA", "street": "4190 BROADWAY", "postcode": "94611"}}},
{"geometry": {"type": "Point", "coordinates": [-122.1975455959, 37.8402124607]}, "type": "Feature", "properties": {"collection_times": [{"days": "Mon-Sat", "time": "1:15pm"}, {"days": "Sun", "time": "Closed"}], "id": "9461100017", "name": "USPS COLLECTION BOX - BLUE BOX", "address": {"city": "PIEDMONT", "state": "CA", "street": "7403 SKYLINE BLVD", "postcode": "94611"}}},
{"geometry": {"type": "Point", "coordinates": [-122.2528892924, 37.8259658347]}, "type": "Feature", "properties": {"collection_times": [{"days": "Mon-Fri", "time": "4:00pm"}, {"days": "Sat", "time": "1:00pm"}, {"days": "Sun", "time": "Closed"}], "id": "9461100022", "name": "USPS COLLECTION BOX - BLUE BOX", "address": {"city": "PIEDMONT", "state": "CA", "street": "4048 PIEDMONT AVE", "postcode": "94611"}}},
{"geometry": {"type": "Point", "coordinates": [-122.2311291917, 37.8245279332]}, "type": "Feature", "properties": {"collection_times": [{"days": "Mon-Fri", "time": "5:00pm"}, {"days": "Sat", "time": "1:45pm"}, {"days": "Sun", "time": "Closed"}], "id": "9461100028", "name": "USPS COLLECTION BOX - BLUE BOX", "address": {"city": "PIEDMONT", "state": "CA", "street": "370 HIGHLAND AVE", "postcode": "94611"}}},
{"geometry": {"type": "Point", "coordinates": [-122.2327953839, 37.8262671257]}, "type": "Feature", "properties": {"collection_times": [{"days": "Mon-Fri", "time": "5:00pm"}, {"days": "Sat", "time": "1:45pm"}, {"days": "Sun", "time": "Closed"}], "id": "9461100029", "name": "USPS COLLECTION BOX - BLUE BOX", "address": {"city": "PIEDMONT", "state": "CA", "street": "300 HIGHLAND AVE", "postcode": "94611"}}},
{"geometry": {"type": "Point", "coordinates": [-122.2105678795, 37.8262640688]}, "type": "Feature", "properties": {"collection_times": [{"days": "Mon-Fri", "time": "4:00pm"}, {"days": "Sat", "time": "1:00pm"}, {"days": "Sun", "time": "Closed"}], "id": "9461100035", "name": "USPS COLLECTION BOX - BLUE BOX", "address": {"city": "PIEDMONT", "state": "CA", "street": "6101 LA SALLE AVE", "postcode": "94611"}}},
{"geometry": {"type": "Point", "coordinates": [-122.2197343572, 37.8178273282]}, "type": "Feature", "properties": {"collection_times": [{"days": "Mon-Sat", "time": "1:00pm"}, {"days": "Sun", "time": "Closed"}], "id": "9461100037", "name": "USPS COLLECTION BOX - BLUE BOX", "address": {"city": "PIEDMONT", "state": "CA", "street": "39 LA SALLE AVE", "postcode": "94611"}}},
{"geometry": {"type": "Point", "coordinates": [-122.2479491115, 37.8253604109]}, "type": "Feature", "properties": {"collection_times": [{"days": "Mon-Sat", "time": "11:15am"}, {"days": "Sun", "time": "Closed"}], "id": "9461100038", "name": "USPS COLLECTION BOX - BLUE BOX", "address": {"city": "PIEDMONT", "state": "CA", "street": "902 ROSE AVE", "postcode": "94611"}}},
{"geometry": {"type": "Point", "coordinates": [-122.2487752498, 37.8219350414]}, "type": "Feature", "properties": {"collection_times": [{"days": "Mon-Sat", "time": "11:15am"}, {"days": "Sun", "time": "Closed"}], "id": "9461100040", "name": "USPS COLLECTION BOX - BLUE BOX", "address": {"city": "PIEDMONT", "state": "CA", "street": "424 MONTE VISTA AVE", "postcode": "94611"}}},
{"geometry": {"type": "Point", "coordinates": [-122.2398186345, 37.8294203261]}, "type": "Feature", "properties": {"collection_times": [{"days": "Mon-Sat", "time": "12:00pm"}, {"days": "Sun", "time": "Closed"}], "id": "9461100042", "name": "USPS COLLECTION BOX - BLUE BOX", "address": {"city": "PIEDMONT", "state": "CA", "street": "104 MONTICELLO AVE", "postcode": "94611"}}},
{"geometry": {"type": "Point", "coordinates": [-122.2573701967, 37.816392399]}, "type": "Feature", "properties": {"collection_times": [{"days": "Mon-Sat", "time": "11:15am"}, {"days": "Sun", "time": "Closed"}], "id": "9461100045", "name": "USPS COLLECTION BOX - BLUE BOX", "address": {"city": "PIEDMONT", "state": "CA", "street": "261 OAKLAND AVE", "postcode": "94611"}}},
{"geometry": {"type": "Point", "coordinates": [-122.2599992394, 37.8224561495]}, "type": "Feature", "properties": {"collection_times": [{"days": "Mon-Fri", "time": "4:00pm"}, {"days": "Sat", "time": "1:00pm"}, {"days": "Sun", "time": "Closed"}], "id": "9461100050", "name": "USPS COLLECTION BOX - BLUE BOX", "address": {"city": "PIEDMONT", "state": "CA", "street": "3505 BROADWAY", "postcode": "94611"}}},
{"geometry": {"type": "Point", "coordinates": [-122.2500358511, 37.8281995124]}, "type": "Feature", "properties": {"collection_times": [{"days": "Mon-Fri", "time": "4:00pm"}, {"days": "Sat", "time": "1:00pm"}, {"days": "Sun", "time": "Closed"}], "id": "9461100052", "name": "USPS COLLECTION BOX - BLUE BOX", "address": {"city": "PIEDMONT", "state": "CA", "street": "4237 PIEDMONT AVE", "postcode": "94611"}}},
{"geometry": {"type": "Point", "coordinates": [-122.1997844947, 37.8310897514]}, "type": "Feature", "properties": {"collection_times": [{"days": "Mon-Fri", "time": "4:00pm"}, {"days": "Sat", "time": "1:00pm"}, {"days": "Sun", "time": "Closed"}], "id": "9461100056", "name": "USPS COLLECTION BOX - BLUE BOX", "address": {"city": "PIEDMONT", "state": "CA", "street": "2100 PLEASANT VALLEY RD", "postcode": "94611"}}},
{"geometry": {"type": "Point", "coordinates": [-122.2332241186, 37.8243910427]}, "type": "Feature", "properties": {"collection_times": [{"days": "Mon-Fri", "time": "4:00pm"}, {"days": "Sat", "time": "1:00pm"}, {"days": "Sun", "time": "Closed"}], "id": "9461100059", "name": "USPS COLLECTION BOX - BLUE BOX", "address": {"city": "PIEDMONT", "state": "CA", "street": "120 VISTA AVE", "postcode": "94611"}}},
{"geometry": {"type": "Point", "coordinates": [-122.2631327228, 37.8169733034]}, "type": "Feature", "properties": {"collection_times": [{"days": "Mon-Fri", "time": "1:45pm"}, {"days": "Sat", "time": "11:00am"}, {"days": "Sun", "time": "Closed"}], "id": "9461100063", "name": "USPS COLLECTION BOX - BLUE BOX", "address": {"city": "PIEDMONT", "state": "CA", "street": "2860 BROADWAY", "postcode": "94611"}}},
{"geometry": {"type": "Point", "coordinates": [-122.2577173906, 37.8261111916]}, "type": "Feature", "properties": {"collection_times": [{"days": "Mon-Fri", "time": "4:00pm"}, {"days": "Sat", "time": "1:00pm"}, {"days": "Sun", "time": "Closed"}], "id": "9461100065", "name": "USPS COLLECTION BOX - BLUE BOX", "address": {"city": "PIEDMONT", "state": "CA", "street": "3801 BROADWAY", "postcode": "94611"}}},
{"geometry": {"type": "Point", "coordinates": [-122.2566071881, 37.8277949404]}, "type": "Feature", "properties": {"collection_times": [{"days": "Mon-Sat", "time": "12:00pm"}, {"days": "Sun", "time": "Closed"}], "id": "9461100066", "name": "USPS COLLECTION BOX - BLUE BOX", "address": {"city": "PIEDMONT", "state": "CA", "street": "4001 BROADWAY", "postcode": "94611"}}},
{"geometry": {"type": "Point", "coordinates": [-122.2508979452, 37.8274782589]}, "type": "Feature", "properties": {"collection_times": [{"days": "Mon-Fri", "time": "4:00pm"}, {"days": "Sat", "time": "1:00pm"}, {"days": "Sun", "time": "Closed"}], "id": "9461100070", "name": "USPS COLLECTION BOX - BLUE BOX", "address": {"city": "PIEDMONT", "state": "CA", "street": "4192 PIEDMONT AVE", "postcode": "94611"}}},
{"geometry": {"type": "Point", "coordinates": [-122.2537889971, 37.8273934222]}, "type": "Feature", "properties": {"collection_times": [{"days": "Mon-Fri", "time": "5:00pm"}, {"days": "Sat", "time": "2:30pm"}, {"days": "Sun", "time": "Closed"}], "id": "9461100071", "name": "USPS COLLECTION BOX - BLUE BOX", "address": {"city": "PIEDMONT", "state": "CA", "street": "195 41ST ST", "postcode": "94611"}}},
{"geometry": {"type": "Point", "coordinates": [-122.2311291917, 37.8245279332]}, "type": "Feature", "properties": {"collection_times": [{"days": "Mon-Fri", "time": "5:00pm"}, {"days": "Sat", "time": "1:45pm"}, {"days": "Sun", "time": "Closed"}], "id": "9461100077", "name": "USPS COLLECTION BOX - BLUE BOX", "address": {"city": "PIEDMONT", "state": "CA", "street": "370 HIGHLAND AVE", "postcode": "94611"}}},
{"geometry": {"type": "Point", "coordinates": [-122.2093775515, 37.8265291744]}, "type": "Feature", "properties": {"collection_times": [{"days": "Mon-Fri", "time": "4:00pm"}, {"days": "Sat", "time": "1:00pm"}, {"days": "Sun", "time": "Closed"}], "id": "9461100078", "name": "USPS COLLECTION BOX - BLUE BOX", "address": {"city": "PIEDMONT", "state": "CA", "street": "2051 MOUNTAIN BLVD", "postcode": "94611"}}},
{"geometry": {"type": "Point", "coordinates": [-122.2480091273, 37.8296570433]}, "type": "Feature", "properties": {"collection_times": [{"days": "Mon-Fri", "time": "4:00pm"}, {"days": "Sat", "time": "1:00pm"}, {"days": "Sun", "time": "Closed"}], "id": "9461100080", "name": "USPS COLLECTION BOX - BLUE BOX", "address": {"city": "PIEDMONT", "state": "CA", "street": "4364 PIEDMONT AVE", "postcode": "94611"}}},
{"geometry": {"type": "Point", "coordinates": [-122.2599749097, 37.821246125]}, "type": "Feature", "properties": {"collection_times": [{"days": "Mon-Sat", "time": "12:00pm"}, {"days": "Sun", "time": "Closed"}], "id": "9461100081", "name": "USPS COLLECTION BOX - BLUE BOX", "address": {"city": "PIEDMONT", "state": "CA", "street": "3356 PIEDMONT AVE", "postcode": "94611"}}},
{"geometry": {"type": "Point", "coordinates": [-122.2559616305, 37.8250027742]}, "type": "Feature", "properties": {"collection_times": [{"days": "Mon-Fri", "time": "4:00pm"}, {"days": "Sat", "time": "1:00pm"}, {"days": "Sun", "time": "Closed"}], "id": "9461100084", "name": "USPS COLLECTION BOX - BLUE BOX", "address": {"city": "PIEDMONT", "state": "CA", "street": "3801 HOWE ST", "postcode": "94611"}}},
{"geometry": {"type": "Point", "coordinates": [-122.2104895329, 37.8280457277]}, "type": "Feature", "properties": {"collection_times": [{"days": "Mon-Fri", "time": "5:00pm"}, {"days": "Sat", "time": "2:30pm"}, {"days": "Sun", "time": "Closed"}], "id": "9461100086", "name": "USPS COLLECTION BOX - BLUE BOX", "address": {"city": "PIEDMONT", "state": "CA", "street": "1954 MOUNTAIN BLVD", "postcode": "94611"}}},
{"geometry": {"type": "Point", "coordinates": [-122.2104895329, 37.8280457277]}, "type": "Feature", "properties": {"collection_times": [{"days": "Mon-Fri", "time": "5:00pm"}, {"days": "Sat", "time": "2:30pm"}, {"days": "Sun", "time": "Closed"}], "id": "9461100087", "name": "USPS COLLECTION BOX - BLUE BOX", "address": {"city": "PIEDMONT", "state": "CA", "street": "1954 MOUNTAIN BLVD", "postcode": "94611"}}},
{"geometry": {"type": "Point", "coordinates": [-122.2311291917, 37.8245279332]}, "type": "Feature", "properties": {"collection_times": [{"days": "Mon-Fri", "time": "5:00pm"}, {"days": "Sat", "time": "1:45pm"}, {"days": "Sun", "time": "Closed"}], "id": "9461100089", "name": "USPS COLLECTION BOX - BLUE BOX", "address": {"city": "PIEDMONT", "state": "CA", "street": "370 HIGHLAND AVE", "postcode": "94611"}}},
{"geometry": {"type": "Point", "coordinates": [-122.2550338027, 37.8244891261]}, "type": "Feature", "properties": {"collection_times": [{"days": "Mon-Sat", "time": "12:00pm"}, {"days": "Sun", "time": "Closed"}], "id": "9461100090", "name": "USPS COLLECTION BOX - BLUE BOX", "address": {"city": "PIEDMONT", "state": "CA", "street": "3901 PIEDMONT AVE", "postcode": "94611"}}},
{"geometry": {"type": "Point", "coordinates": [-122.1997844947, 37.8310897514]}, "type": "Feature", "properties": {"collection_times": [{"days": "Mon-Fri", "time": "4:00pm"}, {"days": "Sat", "time": "1:00pm"}, {"days": "Sun", "time": "Closed"}], "id": "9461100091", "name": "USPS COLLECTION BOX - BLUE BOX", "address": {"city": "PIEDMONT", "state": "CA", "street": "2100 PLEASANT VALLEY RD", "postcode": "94611"}}},
{"geometry": {"type": "Point", "coordinates": [-122.2537889971, 37.8273934222]}, "type": "Feature", "properties": {"collection_times": [{"days": "Mon-Fri", "time": "5:00pm"}, {"days": "Sat", "time": "2:30pm"}, {"days": "Sun", "time": "Closed"}], "id": "9461100092", "name": "USPS COLLECTION BOX - BLUE BOX", "address": {"city": "PIEDMONT", "state": "CA", "street": "195 41ST ST", "postcode": "94611"}}},
{"geometry": {"type": "Point", "coordinates": [-122.2537889971, 37.8273934222]}, "type": "Feature", "properties": {"collection_times": [{"days": "Mon-Fri", "time": "5:00pm"}, {"days": "Sat", "time": "2:30pm"}, {"days": "Sun", "time": "Closed"}], "id": "9461100093", "name": "USPS COLLECTION BOX - BLUE BOX", "address": {"city": "PIEDMONT", "state": "CA", "street": "195 41ST ST", "postcode": "94611"}}},
{"geometry": {"type": "Point", "coordinates": [-122.2093775515, 37.8265291744]}, "type": "Feature", "properties": {"collection_times": [{"days": "Mon-Fri", "time": "4:00pm"}, {"days": "Sat", "time": "1:00pm"}, {"days": "Sun", "time": "Closed"}], "id": "9461100096", "name": "USPS COLLECTION BOX - BLUE BOX", "address": {"city": "PIEDMONT", "state": "CA", "street": "2051 MOUNTAIN BLVD", "postcode": "94611"}}},
{"geometry": {"type": "Point", "coordinates": [-122.2481580412, 37.8295832033]}, "type": "Feature", "properties": {"collection_times": [{"days": "Mon-Fri", "time": "4:00pm"}, {"days": "Sat", "time": "1:00pm"}, {"days": "Sun", "time": "Closed"}], "id": "9461100097", "name": "USPS COLLECTION BOX - BLUE BOX", "address": {"city": "PIEDMONT", "state": "CA", "street": "4364 PIEDMONT AVE", "postcode": "94611"}}},
{"geometry": {"type": "Point", "coordinates": [-122.2141863397, 37.8421245928]}, "type": "Feature", "properties": {"collection_times": [{"days": "Mon-Sat", "time": "12:00pm"}, {"days": "Sun", "time": "Closed"}], "id": "9461100101", "name": "USPS COLLECTION BOX - BLUE BOX", "address": {"city": "PIEDMONT", "state": "CA", "street": "12079 BROADWAY TER", "postcode": "94611"}}},
{"geometry": {"type": "Point", "coordinates": [-122.2110108367, 37.8294528326]}, "type": "Feature", "properties": {"collection_times": [{"days": "Mon-Fri", "time": "5:00pm"}, {"days": "Sat", "time": "1:00pm"}, {"days": "Sun", "time": "Closed"}], "id": "9461100102", "name": "USPS COLLECTION BOX - BLUE BOX", "address": {"city": "PIEDMONT", "state": "CA", "street": "1901 MOUNTAIN BLVD", "postcode": "94611"}}},
{"geometry": {"type": "Point", "coordinates": [-122.21213, 37.83469]}, "type": "Feature", "properties": {"collection_times": [{"days": "Mon-Sat", "time": "1:30pm"}, {"days": "Sun", "time": "Closed"}], "id": "9461100104", "name": "USPS COLLECTION BOX - BLUE BOX", "address": {"city": "PIEDMONT", "state": "CA", "street": "5745 THORNHILL DR", "postcode": "94611"}}},
{"geometry": {"type": "Point", "coordinates": [-122.2537889971, 37.8273934222]}, "type": "Feature", "properties": {"collection_times": [{"days": "Mon-Fri", "time": "5:00pm"}, {"days": "Sat", "time": "2:30pm"}, {"days": "Sun", "time": "Closed"}], "id": "9461100105", "name": "USPS COLLECTION BOX - APC", "address": {"city": "PIEDMONT", "state": "CA", "street": "195 41ST ST", "postcode": "94611"}}},
{"geometry": {"type": "Point", "coordinates": [-122.2110108367, 37.8294528326]}, "type": "Feature", "properties": {"collection_times": [{"days": "Mon-Fri", "time": "5:00pm"}, {"days": "Sat", "time": "1:00pm"}, {"days": "Sun", "time": "Closed"}], "id": "9461100106", "name": "USPS COLLECTION BOX - BLUE BOX", "address": {"city": "PIEDMONT", "state": "CA", "street": "1901 MOUNTAIN BLVD", "postcode": "94611"}}},
{"geometry": {"type": "Point", "coordinates": [-122.2709033181, 37.812118823]}, "type": "Feature", "properties": {"collection_times": [{"days": "Mon-Fri", "time": "5:00pm"}, {"days": "Sat", "time": "1:00pm"}, {"days": "Sun", "time": "Closed"}], "id": "9461200008", "name": "USPS COLLECTION BOX - BLUE BOX", "address": {"city": "OAKLAND", "state": "CA", "street": "577 W GRAND AVE", "postcode": "94612"}}},
{"geometry": {"type": "Point", "coordinates": [-122.2641658504, 37.8112111457]}, "type": "Feature", "properties": {"collection_times": [{"days": "Mon-Fri", "time": "3:00pm"}, {"days": "Sat", "time": "1:00pm"}, {"days": "Sun", "time": "Closed"}], "id": "9461200029", "name": "USPS COLLECTION BOX - BLUE BOX", "address": {"city": "OAKLAND", "state": "CA", "street": "144 GRAND AVE", "postcode": "94612"}}},
{"geometry": {"type": "Point", "coordinates": [-122.2650783573, 37.8069594842]}, "type": "Feature", "properties": {"collection_times": [{"days": "Mon-Fri", "time": "4:00pm"}, {"days": "Sat", "time": "1:00pm"}, {"days": "Sun", "time": "Closed"}], "id": "9461200035", "name": "USPS COLLECTION BOX - BLUE BOX", "address": {"city": "OAKLAND", "state": "CA", "street": "1939 HARRISON ST", "postcode": "94612"}}},
{"geometry": {"type": "Point", "coordinates": [-122.2635477877, 37.8000167581]}, "type": "Feature", "properties": {"collection_times": [{"days": "Mon-Fri", "time": "3:00pm"}, {"days": "Sat", "time": "1:00pm"}, {"days": "Sun", "time": "Closed"}], "id": "9461200045", "name": "USPS COLLECTION BOX - EXPRESS", "address": {"city": "OAKLAND", "state": "CA", "street": "1221 OAK ST", "postcode": "94612"}}},
{"geometry": {"type": "Point", "coordinates": [-122.2690550809, 37.8028435704]}, "type": "Feature", "properties": {"collection_times": [{"days": "Mon-Fri", "time": "3:00pm"}, {"days": "Sat", "time": "1:00pm"}, {"days": "Sun", "time": "Closed"}], "id": "9461200053", "name": "USPS COLLECTION BOX - BLUE BOX", "address": {"city": "OAKLAND", "state": "CA", "street": "1322 WEBSTER ST", "postcode": "94612"}}},
{"geometry": {"type": "Point", "coordinates": [-122.2691381431, 37.8064831095]}, "type": "Feature", "properties": {"collection_times": [{"days": "Mon-Sat", "time": "5:00pm"}, {"days": "Sun", "time": "Closed"}], "id": "9461200058", "name": "USPS COLLECTION BOX - EXPRESS", "address": {"city": "OAKLAND", "state": "CA", "street": "200 13TH ST", "postcode": "94612"}}},
{"geometry": {"type": "Point", "coordinates": [-122.2656600181, 37.8013611777]}, "type": "Feature", "properties": {"collection_times": [{"days": "Mon-Sat", "time": "5:00pm"}, {"days": "Sun", "time": "Closed"}], "id": "9461200059", "name": "USPS COLLECTION BOX - BLUE BOX", "address": {"city": "OAKLAND", "state": "CA", "street": "200 13TH ST", "postcode": "94612"}}},
{"geometry": {"type": "Point", "coordinates": [-122.2768798525, 37.8048694806]}, "type": "Feature", "properties": {"collection_times": [{"days": "Mon-Fri", "time": "4:00pm"}, {"days": "Sat", "time": "1:00pm"}, {"days": "Sun", "time": "Closed"}], "id": "9461200060", "name": "USPS COLLECTION BOX - BLUE BOX", "address": {"city": "OAKLAND", "state": "CA", "street": "1201 MARTIN LUTHER KING JR WAY", "postcode": "94612"}}},
{"geometry": {"type": "Point", "coordinates": [-122.2680466969, 37.8044458385]}, "type": "Feature", "properties": {"collection_times": [{"days": "Mon-Fri", "time": "3:00pm"}, {"days": "Sat", "time": "1:00pm"}, {"days": "Sun", "time": "Closed"}], "id": "9461200075", "name": "USPS COLLECTION BOX - BLUE BOX", "address": {"city": "OAKLAND", "state": "CA", "street": "1510 WEBSTER ST", "postcode": "94612"}}},
{"geometry": {"type": "Point", "coordinates": [-122.2707553107, 37.8061676388]}, "type": "Feature", "properties": {"collection_times": [{"days": "Mon-Fri", "time": "4:00pm"}, {"days": "Sat", "time": "1:00pm"}, {"days": "Sun", "time": "Closed"}], "id": "9461200077", "name": "USPS COLLECTION BOX - BLUE BOX", "address": {"city": "OAKLAND", "state": "CA", "street": "508 16TH ST", "postcode": "94612"}}},
{"geometry": {"type": "Point", "coordinates": [-122.274310169, 37.8072303818]}, "type": "Feature", "properties": {"collection_times": [{"days": "Mon-Fri", "time": "4:00pm"}, {"days": "Sat", "time": "1:00pm"}, {"days": "Sun", "time": "Closed"}], "id": "9461200078", "name": "USPS COLLECTION BOX - BLUE BOX", "address": {"city": "OAKLAND", "state": "CA", "street": "610 16TH ST", "postcode": "94612"}}},
{"geometry": {"type": "Point", "coordinates": [-122.2638353092, 37.8041182221]}, "type": "Feature", "properties": {"collection_times": [{"days": "Mon-Sat", "time": "11:00am"}, {"days": "Sun", "time": "Closed"}], "id": "9461200082", "name": "USPS COLLECTION BOX - BLUE BOX", "address": {"city": "OAKLAND", "state": "CA", "street": "1570 JACKSON ST", "postcode": "94612"}}},
{"geometry": {"type": "Point", "coordinates": [-122.2624900431, 37.8040517711]}, "type": "Feature", "properties": {"collection_times": [{"days": "Mon-Sat", "time": "12:00pm"}, {"days": "Sun", "time": "Closed"}], "id": "9461200083", "name": "USPS COLLECTION BOX - BLUE BOX", "address": {"city": "OAKLAND", "state": "CA", "street": "1593 MADISON ST", "postcode": "94612"}}},
{"geometry": {"type": "Point", "coordinates": [-122.270386482, 37.8065672787]}, "type": "Feature", "properties": {"collection_times": [{"days": "Mon-Fri", "time": "4:00pm"}, {"days": "Sat", "time": "1:00pm"}, {"days": "Sun", "time": "Closed"}], "id": "9461200085", "name": "USPS COLLECTION BOX - BLUE BOX", "address": {"city": "OAKLAND", "state": "CA", "street": "1645 TELEGRAPH AVE", "postcode": "94612"}}},
{"geometry": {"type": "Point", "coordinates": [-122.2689569823, 37.8079581054]}, "type": "Feature", "properties": {"collection_times": [{"days": "Mon-Fri", "time": "3:00pm"}, {"days": "Sat", "time": "1:00pm"}, {"days": "Sun", "time": "Closed"}], "id": "9461200088", "name": "USPS COLLECTION BOX - BLUE BOX", "address": {"city": "OAKLAND", "state": "CA", "street": "1901 BROADWAY", "postcode": "94612"}}},
{"geometry": {"type": "Point", "coordinates": [-122.2630213868, 37.805486794]}, "type": "Feature", "properties": {"collection_times": [{"days": "Mon-Fri", "time": "2:00pm"}, {"days": "Sat", "time": "1:00pm"}, {"days": "Sun", "time": "Closed"}], "id": "9461200091", "name": "USPS COLLECTION BOX - BLUE BOX", "address": {"city": "OAKLAND", "state": "CA", "street": "200 19TH ST", "postcode": "94612"}}},
{"geometry": {"type": "Point", "coordinates": [-122.266843796, 37.8063692891]}, "type": "Feature", "properties": {"collection_times": [{"days": "Mon-Fri", "time": "3:00pm"}, {"days": "Sat", "time": "1:00pm"}, {"days": "Sun", "time": "Closed"}], "id": "9461200092", "name": "USPS COLLECTION BOX - BLUE BOX", "address": {"city": "OAKLAND", "state": "CA", "street": "1820 WEBSTER ST", "postcode": "94612"}}},
{"geometry": {"type": "Point", "coordinates": [-122.2656600181, 37.8013611777]}, "type": "Feature", "properties": {"collection_times": [{"days": "Mon-Sat", "time": "5:00pm"}, {"days": "Sun", "time": "Closed"}], "id": "9461200120", "name": "USPS COLLECTION BOX - BLUE BOX", "address": {"city": "OAKLAND", "state": "CA", "street": "200 13TH ST", "postcode": "94612"}}},
{"geometry": {"type": "Point", "coordinates": [-122.2635121196, 37.8000439061]}, "type": "Feature", "properties": {"collection_times": [{"days": "Mon-Fri", "time": "3:00pm"}, {"days": "Sat", "time": "1:00pm"}, {"days": "Sun", "time": "Closed"}], "id": "9461200136", "name": "USPS COLLECTION BOX - BLUE BOX", "address": {"city": "OAKLAND", "state": "CA", "street": "1221 OAK ST", "postcode": "94612"}}},
{"geometry": {"type": "Point", "coordinates": [-122.2768798525, 37.8048694806]}, "type": "Feature", "properties": {"collection_times": [{"days": "Mon-Fri", "time": "4:00pm"}, {"days": "Sat", "time": "1:00pm"}, {"days": "Sun", "time": "Closed"}], "id": "9461200138", "name": "USPS COLLECTION BOX - BLUE BOX", "address": {"city": "OAKLAND", "state": "CA", "street": "1201 MARTIN LUTHER KING JR WAY", "postcode": "94612"}}},
{"geometry": {"type": "Point", "coordinates": [-122.2627665403, 37.8012681359]}, "type": "Feature", "properties": {"collection_times": [{"days": "Mon-Fri", "time": "4:00pm"}, {"days": "Sat", "time": "1:00pm"}, {"days": "Sun", "time": "Closed"}], "id": "9461200140", "name": "USPS COLLECTION BOX - BLUE BOX", "address": {"city": "OAKLAND", "state": "CA", "street": "1401 LAKESIDE DR", "postcode": "94612"}}},
{"geometry": {"type": "Point", "coordinates": [-122.2696340058, 37.8066673024]}, "type": "Feature", "properties": {"collection_times": [{"days": "Mon-Fri", "time": "4:00pm"}, {"days": "Sat", "time": "1:00pm"}, {"days": "Sun", "time": "Closed"}], "id": "9461200142", "name": "USPS COLLECTION BOX - BLUE BOX", "address": {"city": "OAKLAND", "state": "CA", "street": "1700 BROADWAY", "postcode": "94612"}}},
{"geometry": {"type": "Point", "coordinates": [-122.2680171097, 37.8068286416]}, "type": "Feature", "properties": {"collection_times": [{"days": "Mon-Fri", "time": "4:00pm"}, {"days": "Sat", "time": "1:00pm"}, {"days": "Sun", "time": "Closed"}], "id": "9461200144", "name": "USPS COLLECTION BOX - BLUE BOX", "address": {"city": "OAKLAND", "state": "CA", "street": "1820 FRANKLIN ST", "postcode": "94612"}}},
{"geometry": {"type": "Point", "coordinates": [-122.2654679354, 37.8064503881]}, "type": "Feature", "properties": {"collection_times": [{"days": "Mon-Fri", "time": "4:00pm"}, {"days": "Sat", "time": "1:00pm"}, {"days": "Sun", "time": "Closed"}], "id": "9461200145", "name": "USPS COLLECTION BOX - BLUE BOX", "address": {"city": "OAKLAND", "state": "CA", "street": "1901 HARRISON ST", "postcode": "94612"}}},
{"geometry": {"type": "Point", "coordinates": [-122.2668681742, 37.8090509556]}, "type": "Feature", "properties": {"collection_times": [{"days": "Mon-Fri", "time": "4:00pm"}, {"days": "Sat", "time": "1:00pm"}, {"days": "Sun", "time": "Closed"}], "id": "9461200147", "name": "USPS COLLECTION BOX - BLUE BOX", "address": {"city": "OAKLAND", "state": "CA", "street": "2001 FRANKLIN ST", "postcode": "94612"}}},
{"geometry": {"type": "Point", "coordinates": [-122.2660532557, 37.808480401]}, "type": "Feature", "properties": {"collection_times": [{"days": "Mon-Fri", "time": "4:00pm"}, {"days": "Sat", "time": "1:00pm"}, {"days": "Sun", "time": "Closed"}], "id": "9461200148", "name": "USPS COLLECTION BOX - BLUE BOX", "address": {"city": "OAKLAND", "state": "CA", "street": "350 20TH ST", "postcode": "94612"}}},
{"geometry": {"type": "Point", "coordinates": [-122.2671161994, 37.8110387906]}, "type": "Feature", "properties": {"collection_times": [{"days": "Mon-Fri", "time": "4:00pm"}, {"days": "Sat", "time": "1:00pm"}, {"days": "Sun", "time": "Closed"}], "id": "9461200150", "name": "USPS COLLECTION BOX - BLUE BOX", "address": {"city": "OAKLAND", "state": "CA", "street": "2201 BROADWAY", "postcode": "94612"}}},
{"geometry": {"type": "Point", "coordinates": [-122.270033949, 37.8038072373]}, "type": "Feature", "properties": {"collection_times": [{"days": "Mon-Fri", "time": "4:00pm"}, {"days": "Sat", "time": "1:00pm"}, {"days": "Sun", "time": "Closed"}], "id": "9461200153", "name": "USPS COLLECTION BOX - BLUE BOX", "address": {"city": "OAKLAND", "state": "CA", "street": "401 14TH ST", "postcode": "94612"}}},
{"geometry": {"type": "Point", "coordinates": [-122.270033949, 37.8038072373]}, "type": "Feature", "properties": {"collection_times": [{"days": "Mon-Fri", "time": "4:00pm"}, {"days": "Sat", "time": "1:00pm"}, {"days": "Sun", "time": "Closed"}], "id": "9461200154", "name": "USPS COLLECTION BOX - BLUE BOX", "address": {"city": "OAKLAND", "state": "CA", "street": "401 14TH ST", "postcode": "94612"}}},
{"geometry": {"type": "Point", "coordinates": [-122.2627665403, 37.8012681359]}, "type": "Feature", "properties": {"collection_times": [{"days": "Mon-Fri", "time": "4:00pm"}, {"days": "Sat", "time": "1:00pm"}, {"days": "Sun", "time": "Closed"}], "id": "9461200157", "name": "USPS COLLECTION BOX - BLUE BOX", "address": {"city": "OAKLAND", "state": "CA", "street": "1401 LAKESIDE DR", "postcode": "94612"}}},
{"geometry": {"type": "Point", "coordinates": [-122.2627665403, 37.8012681359]}, "type": "Feature", "properties": {"collection_times": [{"days": "Mon-Fri", "time": "4:00pm"}, {"days": "Sat", "time": "1:00pm"}, {"days": "Sun", "time": "Closed"}], "id": "9461200158", "name": "USPS COLLECTION BOX - BLUE BOX", "address": {"city": "OAKLAND", "state": "CA", "street": "1401 LAKESIDE DR", "postcode": "94612"}}},
{"geometry": {"type": "Point", "coordinates": [-122.2696175055, 37.8042776748]}, "type": "Feature", "properties": {"collection_times": [{"days": "Mon-Fri", "time": "5:00pm"}, {"days": "Sat", "time": "1:00pm"}, {"days": "Sun", "time": "Closed"}], "id": "9461200159", "name": "USPS COLLECTION BOX - BLUE BOX", "address": {"city": "OAKLAND", "state": "CA", "street": "1446 FRANKLIN ST", "postcode": "94612"}}},
{"geometry": {"type": "Point", "coordinates": [-122.2709033181, 37.812118823]}, "type": "Feature", "properties": {"collection_times": [{"days": "Mon-Fri", "time": "5:00pm"}, {"days": "Sat", "time": "1:00pm"}, {"days": "Sun", "time": "Closed"}], "id": "9461200161", "name": "USPS COLLECTION BOX - BLUE BOX", "address": {"city": "OAKLAND", "state": "CA", "street": "577 W GRAND AVE", "postcode": "94612"}}},
{"geometry": {"type": "Point", "coordinates": [-122.2650783573, 37.8069594842]}, "type": "Feature", "properties": {"collection_times": [{"days": "Mon-Fri", "time": "4:00pm"}, {"days": "Sat", "time": "1:00pm"}, {"days": "Sun", "time": "Closed"}], "id": "9461200164", "name": "USPS COLLECTION BOX - BLUE BOX", "address": {"city": "OAKLAND", "state": "CA", "street": "1939 HARRISON ST", "postcode": "94612"}}},
{"geometry": {"type": "Point", "coordinates": [-122.2657841867, 37.801299891]}, "type": "Feature", "properties": {"collection_times": [{"days": "Mon-Sat", "time": "5:00pm"}, {"days": "Sun", "time": "Closed"}], "id": "9461200167", "name": "USPS COLLECTION BOX - BLUE BOX", "address": {"city": "OAKLAND", "state": "CA", "street": "201 13TH ST", "postcode": "94612"}}},
{"geometry": {"type": "Point", "coordinates": [-122.2707776526, 37.8062266388]}, "type": "Feature", "properties": {"collection_times": [{"days": "Mon-Fri", "time": "4:00pm"}, {"days": "Sat", "time": "1:00pm"}, {"days": "Sun", "time": "Closed"}], "id": "9461200173", "name": "USPS COLLECTION BOX - BLUE BOX", "address": {"city": "OAKLAND", "state": "CA", "street": "508 16TH ST", "postcode": "94612"}}},
{"geometry": {"type": "Point", "coordinates": [-122.2707776526, 37.8062266388]}, "type": "Feature", "properties": {"collection_times": [{"days": "Mon-Fri", "time": "4:00pm"}, {"days": "Sat", "time": "1:00pm"}, {"days": "Sun", "time": "Closed"}], "id": "9461200174", "name": "USPS COLLECTION BOX - BLUE BOX", "address": {"city": "OAKLAND", "state": "CA", "street": "508 16TH ST", "postcode": "94612"}}},
{"geometry": {"type": "Point", "coordinates": [-122.270386482, 37.8065672787]}, "type": "Feature", "properties": {"collection_times": [{"days": "Mon-Fri", "time": "4:00pm"}, {"days": "Sat", "time": "1:00pm"}, {"days": "Sun", "time": "Closed"}], "id": "9461200178", "name": "USPS COLLECTION BOX - BLUE BOX", "address": {"city": "OAKLAND", "state": "CA", "street": "1645 TELEGRAPH AVE", "postcode": "94612"}}},
{"geometry": {"type": "Point", "coordinates": [-122.2675673971, 37.8052124751]}, "type": "Feature", "properties": {"collection_times": [{"days": "Mon-Fri", "time": "3:00pm"}, {"days": "Sat", "time": "1:00pm"}, {"days": "Sun", "time": "Closed"}], "id": "9461200179", "name": "USPS COLLECTION BOX - BLUE BOX", "address": {"city": "OAKLAND", "state": "CA", "street": "1630 WEBSTER ST", "postcode": "94612"}}},
{"geometry": {"type": "Point", "coordinates": [-122.2656600181, 37.8013611777]}, "type": "Feature", "properties": {"collection_times": [{"days": "Mon-Sat", "time": "5:00pm"}, {"days": "Sun", "time": "Closed"}], "id": "9461200184", "name": "USPS COLLECTION BOX - BLUE BOX", "address": {"city": "OAKLAND", "state": "CA", "street": "200 13TH ST", "postcode": "94612"}}},
{"geometry": {"type": "Point", "coordinates": [-122.2630154331, 37.8110279628]}, "type": "Feature", "properties": {"collection_times": [{"days": "Mon-Fri", "time": "3:00pm"}, {"days": "Sat", "time": "1:00pm"}, {"days": "Sun", "time": "Closed"}], "id": "9461200188", "name": "USPS COLLECTION BOX - BLUE BOX", "address": {"city": "OAKLAND", "state": "CA", "street": "180 GRAND AVE", "postcode": "94612"}}},
{"geometry": {"type": "Point", "coordinates": [-122.2691294534, 37.8064831552]}, "type": "Feature", "properties": {"collection_times": [{"days": "Mon-Fri", "time": "4:00pm"}, {"days": "Sat-Sun", "time": "Closed"}], "id": "9461200190", "name": "USPS COLLECTION BOX - BLUE BOX", "address": {"city": "OAKLAND", "state": "CA", "street": "1800 HARRISON ST", "postcode": "94612"}}},
{"geometry": {"type": "Point", "coordinates": [-122.2680171097, 37.8068286416]}, "type": "Feature", "properties": {"collection_times": [{"days": "Mon-Fri", "time": "4:00pm"}, {"days": "Sat", "time": "1:00pm"}, {"days": "Sun", "time": "Closed"}], "id": "9461200193", "name": "USPS COLLECTION BOX - BLUE BOX", "address": {"city": "OAKLAND", "state": "CA", "street": "1820 FRANKLIN ST", "postcode": "94612"}}},
{"geometry": {"type": "Point", "coordinates": [-122.2668681742, 37.8090509556]}, "type": "Feature", "properties": {"collection_times": [{"days": "Mon-Fri", "time": "4:00pm"}, {"days": "Sat", "time": "1:00pm"}, {"days": "Sun", "time": "Closed"}], "id": "9461200194", "name": "USPS COLLECTION BOX - BLUE BOX", "address": {"city": "OAKLAND", "state": "CA", "street": "2001 FRANKLIN ST", "postcode": "94612"}}},
{"geometry": {"type": "Point", "coordinates": [-122.2660532557, 37.808480401]}, "type": "Feature", "properties": {"collection_times": [{"days": "Mon-Fri", "time": "4:00pm"}, {"days": "Sat", "time": "1:00pm"}, {"days": "Sun", "time": "Closed"}], "id": "9461200196", "name": "USPS COLLECTION BOX - BLUE BOX", "address": {"city": "OAKLAND", "state": "CA", "street": "350 20TH ST", "postcode": "94612"}}},
{"geometry": {"type": "Point", "coordinates": [-122.2671161994, 37.8110387906]}, "type": "Feature", "properties": {"collection_times": [{"days": "Mon-Fri", "time": "4:00pm"}, {"days": "Sat", "time": "1:00pm"}, {"days": "Sun", "time": "Closed"}], "id": "9461200198", "name": "USPS COLLECTION BOX - BLUE BOX", "address": {"city": "OAKLAND", "state": "CA", "street": "2201 BROADWAY", "postcode": "94612"}}},
{"geometry": {"type": "Point", "coordinates": [-122.2671161994, 37.8110387906]}, "type": "Feature", "properties": {"collection_times": [{"days": "Mon-Fri", "time": "4:00pm"}, {"days": "Sat", "time": "1:00pm"}, {"days": "Sun", "time": "Closed"}], "id": "9461200199", "name": "USPS COLLECTION BOX - BLUE BOX", "address": {"city": "OAKLAND", "state": "CA", "street": "2201 BROADWAY", "postcode": "94612"}}},
{"geometry": {"type": "Point", "coordinates": [-122.2768798525, 37.8048694806]}, "type": "Feature", "properties": {"collection_times": [{"days": "Mon-Fri", "time": "4:00pm"}, {"days": "Sat", "time": "1:00pm"}, {"days": "Sun", "time": "Closed"}], "id": "9461200207", "name": "USPS COLLECTION BOX - BLUE BOX", "address": {"city": "OAKLAND", "state": "CA", "street": "1201 MARTIN LUTHER KING JR WAY", "postcode": "94612"}}},
{"geometry": {"type": "Point", "coordinates": [-122.2704553782, 37.803122156]}, "type": "Feature", "properties": {"collection_times": [{"days": "Mon-Fri", "time": "4:00pm"}, {"days": "Sat", "time": "1:00pm"}, {"days": "Sun", "time": "Closed"}], "id": "9461200208", "name": "USPS COLLECTION BOX - BLUE BOX", "address": {"city": "OAKLAND", "state": "CA", "street": "401 13TH ST", "postcode": "94612"}}},
{"geometry": {"type": "Point", "coordinates": [-122.2731142064, 37.8061067161]}, "type": "Feature", "properties": {"collection_times": [{"days": "Mon-Fri", "time": "4:00pm"}, {"days": "Sat", "time": "1:00pm"}, {"days": "Sun", "time": "Closed"}], "id": "9461200211", "name": "USPS COLLECTION BOX - BLUE BOX", "address": {"city": "OAKLAND", "state": "CA", "street": "1515 CLAY ST", "postcode": "94612"}}},
{"geometry": {"type": "Point", "coordinates": [-122.2731142064, 37.8061067161]}, "type": "Feature", "properties": {"collection_times": [{"days": "Mon-Fri", "time": "4:00pm"}, {"days": "Sat", "time": "1:00pm"}, {"days": "Sun", "time": "Closed"}], "id": "9461200212", "name": "USPS COLLECTION BOX - BLUE BOX", "address": {"city": "OAKLAND", "state": "CA", "street": "1515 CLAY ST", "postcode": "94612"}}},
{"geometry": {"type": "Point", "coordinates": [-122.2630154331, 37.8110279628]}, "type": "Feature", "properties": {"collection_times": [{"days": "Mon-Fri", "time": "3:00pm"}, {"days": "Sat", "time": "1:00pm"}, {"days": "Sun", "time": "Closed"}], "id": "9461200214", "name": "USPS COLLECTION BOX - BLUE BOX", "address": {"city": "OAKLAND", "state": "CA", "street": "180 GRAND AVE", "postcode": "94612"}}},
{"geometry": {"type": "Point", "coordinates": [-122.1878467023, 37.7826731845]}, "type": "Feature", "properties": {"collection_times": [{"days": "Mon-Fri", "time": "3:00pm"}, {"days": "Sat", "time": "1:00pm"}, {"days": "Sun", "time": "Closed"}], "id": "9461300001", "name": "USPS COLLECTION BOX - BLUE BOX", "address": {"city": "OAKLAND", "state": "CA", "street": "5000 MACARTHUR BLVD", "postcode": "94613"}}},
{"geometry": {"type": "Point", "coordinates": [-122.2005696113, 37.7299328026]}, "type": "Feature", "properties": {"collection_times": [{"days": "Mon-Sat", "time": "5:00pm"}, {"days": "Sun", "time": "Closed"}], "id": "9461400006", "name": "USPS COLLECTION BOX - EXPRESS", "address": {"city": "OAKLAND", "state": "CA", "street": "8495 PARDEE DR", "postcode": "94614"}}},
{"geometry": {"type": "Point", "coordinates": [-122.2024217527, 37.7306113126]}, "type": "Feature", "properties": {"collection_times": [{"days": "Mon-Sat", "time": "5:00pm"}, {"days": "Sun", "time": "Closed"}], "id": "9461400008", "name": "USPS COLLECTION BOX - BLUE BOX", "address": {"city": "OAKLAND", "state": "CA", "street": "8495 PARDEE DR", "postcode": "94614"}}},
{"geometry": {"type": "Point", "coordinates": [-122.2024217527, 37.7306113126]}, "type": "Feature", "properties": {"collection_times": [{"days": "Mon-Sat", "time": "5:00pm"}, {"days": "Sun", "time": "Closed"}], "id": "9461400011", "name": "USPS COLLECTION BOX - BLUE BOX", "address": {"city": "OAKLAND", "state": "CA", "street": "8495 PARDEE DR", "postcode": "94614"}}},
{"geometry": {"type": "Point", "coordinates": [-122.3004873578, 37.8065613196]}, "type": "Feature", "properties": {"collection_times": [{"days": "Mon-Sat", "time": "5:00pm"}, {"days": "Sun", "time": "Closed"}], "id": "9461500001", "name": "USPS COLLECTION BOX - EXPRESS", "address": {"city": "OAKLAND", "state": "CA", "street": "1675 7TH ST", "postcode": "94615"}}},
{"geometry": {"type": "Point", "coordinates": [-122.3008723296, 37.8065963158]}, "type": "Feature", "properties": {"collection_times": [{"days": "Mon-Sat", "time": "8:00pm"}, {"days": "Sun", "time": "Closed"}], "id": "9461500005", "name": "USPS COLLECTION BOX - BLUE BOX", "address": {"city": "OAKLAND", "state": "CA", "street": "1675 7TH ST", "postcode": "94615"}}},
{"geometry": {"type": "Point", "coordinates": [-122.3008723296, 37.8065963158]}, "type": "Feature", "properties": {"collection_times": [{"days": "Mon-Sat", "time": "8:00pm"}, {"days": "Sun", "time": "Closed"}], "id": "9461500006", "name": "USPS COLLECTION BOX - BLUE BOX", "address": {"city": "OAKLAND", "state": "CA", "street": "1675 7TH ST", "postcode": "94615"}}},
{"geometry": {"type": "Point", "coordinates": [-122.3008723296, 37.8065963158]}, "type": "Feature", "properties": {"collection_times": [{"days": "Mon-Sat", "time": "8:00pm"}, {"days": "Sun", "time": "Closed"}], "id": "9461500007", "name": "USPS COLLECTION BOX - BLUE BOX", "address": {"city": "OAKLAND", "state": "CA", "street": "1675 7TH ST", "postcode": "94615"}}},
{"geometry": {"type": "Point", "coordinates": [-122.3008723296, 37.8065963158]}, "type": "Feature", "properties": {"collection_times": [{"days": "Mon-Sat", "time": "8:00pm"}, {"days": "Sun", "time": "Closed"}], "id": "9461500008", "name": "USPS COLLECTION BOX - BLUE BOX", "address": {"city": "OAKLAND", "state": "CA", "street": "1675 7TH ST", "postcode": "94615"}}},
{"geometry": {"type": "Point", "coordinates": [-122.3008723296, 37.8065963158]}, "type": "Feature", "properties": {"collection_times": [{"days": "Mon-Sat", "time": "8:00pm"}, {"days": "Sun", "time": "Closed"}], "id": "9461500009", "name": "USPS COLLECTION BOX - BLUE BOX", "address": {"city": "OAKLAND", "state": "CA", "street": "1675 7TH ST", "postcode": "94615"}}},
{"geometry": {"type": "Point", "coordinates": [-122.3008723296, 37.8065963158]}, "type": "Feature", "properties": {"collection_times": [{"days": "Mon-Sat", "time": "8:00pm"}, {"days": "Sun", "time": "Closed"}], "id": "9461500010", "name": "USPS COLLECTION BOX - BLUE BOX", "address": {"city": "OAKLAND", "state": "CA", "street": "1675 7TH ST", "postcode": "94615"}}},
{"geometry": {"type": "Point", "coordinates": [-122.3008723296, 37.8065963158]}, "type": "Feature", "properties": {"collection_times": [{"days": "Mon-Sat", "time": "8:00pm"}, {"days": "Sun", "time": "Closed"}], "id": "9461500011", "name": "USPS COLLECTION BOX - BLUE BOX", "address": {"city": "OAKLAND", "state": "CA", "street": "1675 7TH ST", "postcode": "94615"}}},
{"geometry": {"type": "Point", "coordinates": [-122.2569656247, 37.8506639032]}, "type": "Feature", "properties": {"collection_times": [{"days": "Mon-Sat", "time": "11:00am"}, {"days": "Sun", "time": "Closed"}], "id": "9461800004", "name": "USPS COLLECTION BOX - BLUE BOX", "address": {"city": "OAKLAND", "state": "CA", "street": "400 ALCATRAZ AVE", "postcode": "94618"}}},
{"geometry": {"type": "Point", "coordinates": [-122.2505149495, 37.8487605222]}, "type": "Feature", "properties": {"collection_times": [{"days": "Mon-Sat", "time": "11:00am"}, {"days": "Sun", "time": "Closed"}], "id": "9461800006", "name": "USPS COLLECTION BOX - BLUE BOX", "address": {"city": "OAKLAND", "state": "CA", "street": "6060 HARWOOD AVE", "postcode": "94618"}}},
{"geometry": {"type": "Point", "coordinates": [-122.2504794607, 37.8374183116]}, "type": "Feature", "properties": {"collection_times": [{"days": "Mon-Sat", "time": "12:00pm"}, {"days": "Sun", "time": "Closed"}], "id": "9461800008", "name": "USPS COLLECTION BOX - BLUE BOX", "address": {"city": "OAKLAND", "state": "CA", "street": "5300 BROADWAY TER", "postcode": "94618"}}},
{"geometry": {"type": "Point", "coordinates": [-122.2464869742, 37.8438914631]}, "type": "Feature", "properties": {"collection_times": [{"days": "Mon-Sat", "time": "11:00am"}, {"days": "Sun", "time": "Closed"}], "id": "9461800011", "name": "USPS COLLECTION BOX - BLUE BOX", "address": {"city": "OAKLAND", "state": "CA", "street": "5758 BROADWAY", "postcode": "94618"}}},
{"geometry": {"type": "Point", "coordinates": [-122.2505717315, 37.8374620811]}, "type": "Feature", "properties": {"collection_times": [{"days": "Mon-Fri", "time": "4:00pm"}, {"days": "Sat", "time": "1:00pm"}, {"days": "Sun", "time": "Closed"}], "id": "9461800012", "name": "USPS COLLECTION BOX - BLUE BOX", "address": {"city": "OAKLAND", "state": "CA", "street": "5301 BROADWAY", "postcode": "94618"}}},
{"geometry": {"type": "Point", "coordinates": [-122.2372279544, 37.8409305168]}, "type": "Feature", "properties": {"collection_times": [{"days": "Mon-Sat", "time": "11:00am"}, {"days": "Sun", "time": "Closed"}], "id": "9461800014", "name": "USPS COLLECTION BOX - BLUE BOX", "address": {"city": "OAKLAND", "state": "CA", "street": "5865 BROADWAY TER", "postcode": "94618"}}},
{"geometry": {"type": "Point", "coordinates": [-122.2284350204, 37.8424092155]}, "type": "Feature", "properties": {"collection_times": [{"days": "Mon-Sat", "time": "11:00am"}, {"days": "Sun", "time": "Closed"}], "id": "9461800016", "name": "USPS COLLECTION BOX - BLUE BOX", "address": {"city": "OAKLAND", "state": "CA", "street": "1 SHERIDAN RD", "postcode": "94618"}}},
{"geometry": {"type": "Point", "coordinates": [-122.2574092343, 37.8377802971]}, "type": "Feature", "properties": {"collection_times": [{"days": "Mon-Sat", "time": "12:00pm"}, {"days": "Sun", "time": "Closed"}], "id": "9461800018", "name": "USPS COLLECTION BOX - BLUE BOX", "address": {"city": "OAKLAND", "state": "CA", "street": "5173 SHAFTER AVE", "postcode": "94618"}}},
{"geometry": {"type": "Point", "coordinates": [-122.2437700223, 37.850356494]}, "type": "Feature", "properties": {"collection_times": [{"days": "Mon-Sat", "time": "11:00am"}, {"days": "Sun", "time": "Closed"}], "id": "9461800019", "name": "USPS COLLECTION BOX - BLUE BOX", "address": {"city": "OAKLAND", "state": "CA", "street": "6667 CHABOT RD", "postcode": "94618"}}},
{"geometry": {"type": "Point", "coordinates": [-122.2519329238, 37.8467350362]}, "type": "Feature", "properties": {"collection_times": [{"days": "Mon-Sat", "time": "1:00pm"}, {"days": "Sun", "time": "Closed"}], "id": "9461800020", "name": "USPS COLLECTION BOX - BLUE BOX", "address": {"city": "OAKLAND", "state": "CA", "street": "5856 COLLEGE AVE", "postcode": "94618"}}},
{"geometry": {"type": "Point", "coordinates": [-122.2260773832, 37.8538354161]}, "type": "Feature", "properties": {"collection_times": [{"days": "Mon-Sat", "time": "11:00am"}, {"days": "Sun", "time": "Closed"}], "id": "9461800022", "name": "USPS COLLECTION BOX - BLUE BOX", "address": {"city": "OAKLAND", "state": "CA", "street": "400 HILLER DR", "postcode": "94618"}}},
{"geometry": {"type": "Point", "coordinates": [-122.2609378697, 37.838929315]}, "type": "Feature", "properties": {"collection_times": [{"days": "Mon-Fri", "time": "4:00pm"}, {"days": "Sat", "time": "1:00pm"}, {"days": "Sun", "time": "Closed"}], "id": "9461800024", "name": "USPS COLLECTION BOX - BLUE BOX", "address": {"city": "OAKLAND", "state": "CA", "street": "5238 CLAREMONT AVE", "postcode": "94618"}}},
{"geometry": {"type": "Point", "coordinates": [-122.2518233021, 37.8499907995]}, "type": "Feature", "properties": {"collection_times": [{"days": "Mon-Sat", "time": "12:00pm"}, {"days": "Sun", "time": "Closed"}], "id": "9461800026", "name": "USPS COLLECTION BOX - BLUE BOX", "address": {"city": "OAKLAND", "state": "CA", "street": "6230 CLAREMONT AVE", "postcode": "94618"}}},
{"geometry": {"type": "Point", "coordinates": [-122.2537515252, 37.8384723281]}, "type": "Feature", "properties": {"collection_times": [{"days": "Mon-Sat", "time": "11:00am"}, {"days": "Sun", "time": "Closed"}], "id": "9461800027", "name": "USPS COLLECTION BOX - BLUE BOX", "address": {"city": "OAKLAND", "state": "CA", "street": "5301 JAMES AVE", "postcode": "94618"}}},
{"geometry": {"type": "Point", "coordinates": [-122.2515073675, 37.8425519788]}, "type": "Feature", "properties": {"collection_times": [{"days": "Mon-Sat", "time": "12:00pm"}, {"days": "Sun", "time": "Closed"}], "id": "9461800028", "name": "USPS COLLECTION BOX - BLUE BOX", "address": {"city": "OAKLAND", "state": "CA", "street": "5498 COLLEGE AVE", "postcode": "94618"}}},
{"geometry": {"type": "Point", "coordinates": [-122.2527164361, 37.8362661096]}, "type": "Feature", "properties": {"collection_times": [{"days": "Mon-Sat", "time": "12:00pm"}, {"days": "Sun", "time": "Closed"}], "id": "9461800031", "name": "USPS COLLECTION BOX - BLUE BOX", "address": {"city": "OAKLAND", "state": "CA", "street": "5204 DESMOND ST", "postcode": "94618"}}},
{"geometry": {"type": "Point", "coordinates": [-122.2293849364, 37.8402065459]}, "type": "Feature", "properties": {"collection_times": [{"days": "Mon-Sat", "time": "12:00pm"}, {"days": "Sun", "time": "Closed"}], "id": "9461800032", "name": "USPS COLLECTION BOX - BLUE BOX", "address": {"city": "OAKLAND", "state": "CA", "street": "253 FLORENCE AVE", "postcode": "94618"}}},
{"geometry": {"type": "Point", "coordinates": [-122.2242816515, 37.8372148427]}, "type": "Feature", "properties": {"collection_times": [{"days": "Mon-Sat", "time": "12:00pm"}, {"days": "Sun", "time": "Closed"}], "id": "9461800033", "name": "USPS COLLECTION BOX - BLUE BOX", "address": {"city": "OAKLAND", "state": "CA", "street": "5241 PROCTOR AVE", "postcode": "94618"}}},
{"geometry": {"type": "Point", "coordinates": [-122.2477338129, 37.8500830703]}, "type": "Feature", "properties": {"collection_times": [{"days": "Mon-Sat", "time": "11:00am"}, {"days": "Sun", "time": "Closed"}], "id": "9461800036", "name": "USPS COLLECTION BOX - BLUE BOX", "address": {"city": "OAKLAND", "state": "CA", "street": "6001 ROSS ST", "postcode": "94618"}}},
{"geometry": {"type": "Point", "coordinates": [-122.2322047312, 37.8535788967]}, "type": "Feature", "properties": {"collection_times": [{"days": "Mon-Sat", "time": "11:00am"}, {"days": "Sun", "time": "Closed"}], "id": "9461800037", "name": "USPS COLLECTION BOX - BLUE BOX", "address": {"city": "OAKLAND", "state": "CA", "street": "47 HILLER DR", "postcode": "94618"}}},
{"geometry": {"type": "Point", "coordinates": [-122.2565066366, 37.8488149383]}, "type": "Feature", "properties": {"collection_times": [{"days": "Mon-Sat", "time": "11:00am"}, {"days": "Sun", "time": "Closed"}], "id": "9461800044", "name": "USPS COLLECTION BOX - BLUE BOX", "address": {"city": "OAKLAND", "state": "CA", "street": "396 62ND ST", "postcode": "94618"}}},
{"geometry": {"type": "Point", "coordinates": [-122.2513712596, 37.8386401645]}, "type": "Feature", "properties": {"collection_times": [{"days": "Mon-Fri", "time": "4:00pm"}, {"days": "Sat", "time": "1:00pm"}, {"days": "Sun", "time": "Closed"}], "id": "9461800050", "name": "USPS COLLECTION BOX - BLUE BOX", "address": {"city": "OAKLAND", "state": "CA", "street": "5337 COLLEGE AVE", "postcode": "94618"}}},
{"geometry": {"type": "Point", "coordinates": [-122.2366802444, 37.8459486287]}, "type": "Feature", "properties": {"collection_times": [{"days": "Mon-Sat", "time": "12:00pm"}, {"days": "Sun", "time": "Closed"}], "id": "9461800054", "name": "USPS COLLECTION BOX - BLUE BOX", "address": {"city": "OAKLAND", "state": "CA", "street": "5400 GOLDEN GATE AVE", "postcode": "94618"}}},
{"geometry": {"type": "Point", "coordinates": [-122.2517421, 37.8448056195]}, "type": "Feature", "properties": {"collection_times": [{"days": "Mon-Sat", "time": "12:00pm"}, {"days": "Sun", "time": "Closed"}], "id": "9461800055", "name": "USPS COLLECTION BOX - BLUE BOX", "address": {"city": "OAKLAND", "state": "CA", "street": "5650 COLLEGE AVE", "postcode": "94618"}}},
{"geometry": {"type": "Point", "coordinates": [-122.2005325673, 37.784393359]}, "type": "Feature", "properties": {"collection_times": [{"days": "Mon-Fri", "time": "2:30pm"}, {"days": "Sat", "time": "1:00pm"}, {"days": "Sun", "time": "Closed"}], "id": "9461900021", "name": "USPS COLLECTION BOX - BLUE BOX", "address": {"city": "OAKLAND", "state": "CA", "street": "3001 HIGH ST", "postcode": "94619"}}},
{"geometry": {"type": "Point", "coordinates": [-122.1899836526, 37.7992388481]}, "type": "Feature", "properties": {"collection_times": [{"days": "Mon-Fri", "time": "2:00pm"}, {"days": "Sat", "time": "1:00pm"}, {"days": "Sun", "time": "Closed"}], "id": "9461900025", "name": "USPS COLLECTION BOX - BLUE BOX", "address": {"city": "OAKLAND", "state": "CA", "street": "3595 MONTEREY BLVD", "postcode": "94619"}}},
{"geometry": {"type": "Point", "coordinates": [-122.1830528366, 37.7976084887]}, "type": "Feature", "properties": {"collection_times": [{"days": "Mon-Fri", "time": "4:00pm"}, {"days": "Sat", "time": "1:00pm"}, {"days": "Sun", "time": "Closed"}], "id": "9461900040", "name": "USPS COLLECTION BOX - BLUE BOX", "address": {"city": "OAKLAND", "state": "CA", "street": "4100 REDWOOD RD", "postcode": "94619"}}},
{"geometry": {"type": "Point", "coordinates": [-122.1942119791, 37.7875260859]}, "type": "Feature", "properties": {"collection_times": [{"days": "Mon-Fri", "time": "5:00pm"}, {"days": "Sat", "time": "2:30pm"}, {"days": "Sun", "time": "Closed"}], "id": "9461900045", "name": "USPS COLLECTION BOX - BLUE BOX", "address": {"city": "OAKLAND", "state": "CA", "street": "3630 HIGH ST", "postcode": "94619"}}},
{"geometry": {"type": "Point", "coordinates": [-122.1715703485, 37.7992550997]}, "type": "Feature", "properties": {"collection_times": [{"days": "Mon-Fri", "time": "2:00pm"}, {"days": "Sat", "time": "1:00pm"}, {"days": "Sun", "time": "Closed"}], "id": "9461900046", "name": "USPS COLLECTION BOX - BLUE BOX", "address": {"city": "OAKLAND", "state": "CA", "street": "11889 SKYLINE BLVD", "postcode": "94619"}}},
{"geometry": {"type": "Point", "coordinates": [-122.1967754896, 37.7895061076]}, "type": "Feature", "properties": {"collection_times": [{"days": "Mon-Sat", "time": "12:00pm"}, {"days": "Sun", "time": "Closed"}], "id": "9461900049", "name": "USPS COLLECTION BOX - BLUE BOX", "address": {"city": "OAKLAND", "state": "CA", "street": "4100 MACARTHUR BLVD", "postcode": "94619"}}},
{"geometry": {"type": "Point", "coordinates": [-122.2085535797, 37.7215159696]}, "type": "Feature", "properties": {"collection_times": [{"days": "Mon-Sat", "time": "1:00pm"}, {"days": "Sun", "time": "Closed"}], "id": "9462100003", "name": "USPS COLLECTION BOX - BLUE BOX", "address": {"city": "OAKLAND", "state": "CA", "street": "7200 SNELL ST", "postcode": "94621"}}},
{"geometry": {"type": "Point", "coordinates": [-122.2085535797, 37.7215159696]}, "type": "Feature", "properties": {"collection_times": [{"days": "Mon-Sat", "time": "1:00pm"}, {"days": "Sun", "time": "Closed"}], "id": "9462100012", "name": "USPS COLLECTION BOX - BLUE BOX", "address": {"city": "OAKLAND", "state": "CA", "street": "142 EARHART RD", "postcode": "94621"}}},
{"geometry": {"type": "Point", "coordinates": [-122.1980007937, 37.7343533576]}, "type": "Feature", "properties": {"collection_times": [{"days": "Mon-Fri", "time": "4:00pm"}, {"days": "Sat", "time": "1:00pm"}, {"days": "Sun", "time": "Closed"}], "id": "9462100023", "name": "USPS COLLECTION BOX - BLUE BOX", "address": {"city": "OAKLAND", "state": "CA", "street": "303 HEGENBERGER RD", "postcode": "94621"}}},
{"geometry": {"type": "Point", "coordinates": [-122.1903588484, 37.7546211238]}, "type": "Feature", "properties": {"collection_times": [{"days": "Mon-Sat", "time": "1:00pm"}, {"days": "Sun", "time": "Closed"}], "id": "9462100030", "name": "USPS COLLECTION BOX - EXPRESS", "address": {"city": "OAKLAND", "state": "CA", "street": "1 AIRPORT DR", "postcode": "94621"}}},
{"geometry": {"type": "Point", "coordinates": [-122.2064536102, 37.7309482741]}, "type": "Feature", "properties": {"collection_times": [{"days": "Mon-Sat", "time": "1:00pm"}, {"days": "Sun", "time": "Closed"}], "id": "9462100036", "name": "USPS COLLECTION BOX - BLUE BOX", "address": {"city": "OAKLAND", "state": "CA", "street": "80 SWAN WAY", "postcode": "94621"}}},
{"geometry": {"type": "Point", "coordinates": [-122.2004935273, 37.7357528688]}, "type": "Feature", "properties": {"collection_times": [{"days": "Mon-Fri", "time": "4:00pm"}, {"days": "Sat", "time": "1:00pm"}, {"days": "Sun", "time": "Closed"}], "id": "9462100059", "name": "USPS COLLECTION BOX - BLUE BOX", "address": {"city": "OAKLAND", "state": "CA", "street": "406 PENDLETON WAY", "postcode": "94621"}}},
{"geometry": {"type": "Point", "coordinates": [-122.2132328526, 37.7124978966]}, "type": "Feature", "properties": {"collection_times": [{"days": "Mon-Sat", "time": "1:00pm"}, {"days": "Sun", "time": "Closed"}], "id": "9462100067", "name": "USPS COLLECTION BOX - BLUE BOX", "address": {"city": "OAKLAND", "state": "CA", "street": "1 AIRPORT DR", "postcode": "94621"}}},
{"geometry": {"type": "Point", "coordinates": [-122.2032439092, 37.7389653688]}, "type": "Feature", "properties": {"collection_times": [{"days": "Mon-Fri", "time": "4:00pm"}, {"days": "Sat", "time": "1:00pm"}, {"days": "Sun", "time": "Closed"}], "id": "9462100070", "name": "USPS COLLECTION BOX - BLUE BOX", "address": {"city": "OAKLAND", "state": "CA", "street": "8001 CAPWELL DR", "postcode": "94621"}}},
{"geometry": {"type": "Point", "coordinates": [-122.2050163847, 37.7443203273]}, "type": "Feature", "properties": {"collection_times": [{"days": "Mon-Fri", "time": "4:00pm"}, {"days": "Sat", "time": "1:00pm"}, {"days": "Sun", "time": "Closed"}], "id": "9462100073", "name": "USPS COLLECTION BOX - BLUE BOX", "address": {"city": "OAKLAND", "state": "CA", "street": "7700 EDGEWATER DR", "postcode": "94621"}}},
{"geometry": {"type": "Point", "coordinates": [-122.2050163847, 37.7443203273]}, "type": "Feature", "properties": {"collection_times": [{"days": "Mon-Fri", "time": "4:00pm"}, {"days": "Sat", "time": "1:00pm"}, {"days": "Sun", "time": "Closed"}], "id": "9462100074", "name": "USPS COLLECTION BOX - BLUE BOX", "address": {"city": "OAKLAND", "state": "CA", "street": "7700 EDGEWATER DR", "postcode": "94621"}}},
{"geometry": {"type": "Point", "coordinates": [-122.1977338245, 37.734940863]}, "type": "Feature", "properties": {"collection_times": [{"days": "Mon-Fri", "time": "4:00pm"}, {"days": "Sat", "time": "1:00pm"}, {"days": "Sun", "time": "Closed"}], "id": "9462100078", "name": "USPS COLLECTION BOX - BLUE BOX", "address": {"city": "OAKLAND", "state": "CA", "street": "333 HEGENBERGER RD", "postcode": "94621"}}},
{"geometry": {"type": "Point", "coordinates": [-122.1977338245, 37.734940863]}, "type": "Feature", "properties": {"collection_times": [{"days": "Mon-Fri", "time": "4:00pm"}, {"days": "Sat", "time": "1:00pm"}, {"days": "Sun", "time": "Closed"}], "id": "9462100079", "name": "USPS COLLECTION BOX - BLUE BOX", "address": {"city": "OAKLAND", "state": "CA", "street": "333 HEGENBERGER RD", "postcode": "94621"}}},
{"geometry": {"type": "Point", "coordinates": [-122.1965483615, 37.7497941752]}, "type": "Feature", "properties": {"collection_times": [{"days": "Mon-Fri", "time": "4:00pm"}, {"days": "Sat", "time": "1:00pm"}, {"days": "Sun", "time": "Closed"}], "id": "9462100081", "name": "USPS COLLECTION BOX - BLUE BOX", "address": {"city": "OAKLAND", "state": "CA", "street": "675 HEGENBERGER RD", "postcode": "94621"}}},
{"geometry": {"type": "Point", "coordinates": [-122.1997344206, 37.743750837]}, "type": "Feature", "properties": {"collection_times": [{"days": "Mon-Fri", "time": "4:00pm"}, {"days": "Sat", "time": "1:00pm"}, {"days": "Sun", "time": "Closed"}], "id": "9462100082", "name": "USPS COLLECTION BOX - BLUE BOX", "address": {"city": "OAKLAND", "state": "CA", "street": "7801 OAKPORT ST", "postcode": "94621"}}},
{"geometry": {"type": "Point", "coordinates": [-122.1949135122, 37.744034348]}, "type": "Feature", "properties": {"collection_times": [{"days": "Mon-Fri,Sun", "time": "Closed"}, {"days": "Sat", "time": "1:00pm"}], "id": "9462100087", "name": "USPS COLLECTION BOX - BLUE BOX", "address": {"city": "OAKLAND", "state": "CA", "street": "8400 ENTERPRISE WAY", "postcode": "94621"}}}
]}
