{"type": "FeatureCollection", "features": [
{"geometry": {"type": "Point", "coordinates": [-122.2851856884, 37.8689835876]}, "type": "Feature", "properties": {"collection_times": [{"days": "Mon-Fri", "time": "12:00pm"}, {"days": "Sat", "time": "11:00am"}, {"days": "Sun", "time": "Closed"}], "id": "9470200003", "name": "USPS COLLECTION BOX - BLUE BOX", "address": {"city": "BERKELEY", "state": "CA", "street": "1320 ADDISON ST", "postcode": "94702"}}},
{"geometry": {"type": "Point", "coordinates": [-122.2942415059, 37.876059984]}, "type": "Feature", "properties": {"collection_times": [{"days": "Mon-Fri", "time": "12:00pm"}, {"days": "Sat", "time": "11:00am"}, {"days": "Sun", "time": "Closed"}], "id": "9470200010", "name": "USPS COLLECTION BOX - BLUE BOX", "address": {"city": "BERKELEY", "state": "CA", "street": "1531 SAN PABLO AVE", "postcode": "94702"}}},
{"geometry": {"type": "Point", "coordinates": [-122.2895009169, 37.8695532754]}, "type": "Feature", "properties": {"collection_times": [{"days": "Mon-Fri", "time": "12:00pm"}, {"days": "Sat", "time": "11:00am"}, {"days": "Sun", "time": "Closed"}], "id": "9470200012", "name": "USPS COLLECTION BOX - BLUE BOX", "address": {"city": "BERKELEY", "state": "CA", "street": "1201 UNIVERSITY AVE", "postcode": "94702"}}},
{"geometry": {"type": "Point", "coordinates": [-122.2896873159, 37.8610402829]}, "type": "Feature", "properties": {"collection_times": [{"days": "Mon-Fri", "time": "12:00pm"}, {"days": "Sat", "time": "11:00am"}, {"days": "Sun", "time": "Closed"}], "id": "9470200014", "name": "USPS COLLECTION BOX - BLUE BOX", "address": {"city": "BERKELEY", "state": "CA", "street": "2500 SAN PABLO AVE", "postcode": "94702"}}},
{"geometry": {"type": "Point", "coordinates": [-122.2887943186, 37.8781369422]}, "type": "Feature", "properties": {"collection_times": [{"days": "Mon-Sat", "time": "11:00am"}, {"days": "Sun", "time": "Closed"}], "id": "9470200017", "name": "USPS COLLECTION BOX - BLUE BOX", "address": {"city": "BERKELEY", "state": "CA", "street": "1422 PERALTA AVE", "postcode": "94702"}}},
{"geometry": {"type": "Point", "coordinates": [-122.2846125587, 37.8574872105]}, "type": "Feature", "properties": {"collection_times": [{"days": "Mon-Fri", "time": "12:00pm"}, {"days": "Sat", "time": "11:00am"}, {"days": "Sun", "time": "Closed"}], "id": "9470200020", "name": "USPS COLLECTION BOX - BLUE BOX", "address": {"city": "BERKELEY", "state": "CA", "street": "2717 MABEL ST", "postcode": "94702"}}},
{"geometry": {"type": "Point", "coordinates": [-122.2883896768, 37.857053021]}, "type": "Feature", "properties": {"collection_times": [{"days": "Mon-Fri", "time": "12:00pm"}, {"days": "Sat", "time": "11:00am"}, {"days": "Sun", "time": "Closed"}], "id": "9470200022", "name": "USPS COLLECTION BOX - BLUE BOX", "address": {"city": "BERKELEY", "state": "CA", "street": "2720 SAN PABLO AVE", "postcode": "94702"}}},
{"geometry": {"type": "Point", "coordinates": [-122.2915708652, 37.8678350645]}, "type": "Feature", "properties": {"collection_times": [{"days": "Mon-Fri", "time": "5:00pm"}, {"days": "Sat", "time": "4:30pm"}, {"days": "Sun", "time": "Closed"}], "id": "9470200028", "name": "USPS COLLECTION BOX - BLUE BOX", "address": {"city": "BERKELEY", "state": "CA", "street": "2111 SAN PABLO AVE", "postcode": "94702"}}},
{"geometry": {"type": "Point", "coordinates": [-122.2795110988, 37.8548714353]}, "type": "Feature", "properties": {"collection_times": [{"days": "Mon-Fri", "time": "5:00pm"}, {"days": "Sat", "time": "4:30pm"}, {"days": "Sun", "time": "Closed"}], "id": "9470200029", "name": "USPS COLLECTION BOX - BLUE BOX", "address": {"city": "BERKELEY", "state": "CA", "street": "2900 SACRAMENTO ST", "postcode": "94702"}}},
{"geometry": {"type": "Point", "coordinates": [-122.2866658953, 37.8660314099]}, "type": "Feature", "properties": {"collection_times": [{"days": "Mon-Sat", "time": "11:00am"}, {"days": "Sun", "time": "Closed"}], "id": "9470200034", "name": "USPS COLLECTION BOX - BLUE BOX", "address": {"city": "BERKELEY", "state": "CA", "street": "2900 SAN PABLO AVE", "postcode": "94702"}}},
{"geometry": {"type": "Point", "coordinates": [-122.2915708652, 37.8678350645]}, "type": "Feature", "properties": {"collection_times": [{"days": "Mon-Fri", "time": "5:00pm"}, {"days": "Sat", "time": "4:30pm"}, {"days": "Sun", "time": "Closed"}], "id": "9470200035", "name": "USPS COLLECTION BOX - BLUE BOX", "address": {"city": "BERKELEY", "state": "CA", "street": "2111 SAN PABLO AVE", "postcode": "94702"}}},
{"geometry": {"type": "Point", "coordinates": [-122.282500006, 37.873882182]}, "type": "Feature", "properties": {"collection_times": [{"days": "Mon-Fri", "time": "5:00pm"}, {"days": "Sat", "time": "11:00am"}, {"days": "Sun", "time": "Closed"}], "id": "9470200036", "name": "USPS COLLECTION BOX - BLUE BOX", "address": {"city": "BERKELEY", "state": "CA", "street": "1730 SACRAMENTO ST", "postcode": "94702"}}},
{"geometry": {"type": "Point", "coordinates": [-122.2715976164, 37.848730981]}, "type": "Feature", "properties": {"collection_times": [{"days": "Mon-Sat", "time": "11:00am"}, {"days": "Sun", "time": "Closed"}], "id": "9470300002", "name": "USPS COLLECTION BOX - BLUE BOX", "address": {"city": "BERKELEY", "state": "CA", "street": "3300 ADELINE ST", "postcode": "94703"}}},
{"geometry": {"type": "Point", "coordinates": [-122.2698626263, 37.8529706378]}, "type": "Feature", "properties": {"collection_times": [{"days": "Mon-Fri", "time": "12:00pm"}, {"days": "Sat", "time": "11:00am"}, {"days": "Sun", "time": "Closed"}], "id": "9470300005", "name": "USPS COLLECTION BOX - BLUE BOX", "address": {"city": "BERKELEY", "state": "CA", "street": "3100 ADELINE ST", "postcode": "94703"}}},
{"geometry": {"type": "Point", "coordinates": [-122.2759571951, 37.8602326128]}, "type": "Feature", "properties": {"collection_times": [{"days": "Mon-Sat", "time": "11:00am"}, {"days": "Sun", "time": "Closed"}], "id": "9470300009", "name": "USPS COLLECTION BOX - BLUE BOX", "address": {"city": "BERKELEY", "state": "CA", "street": "1701 CARLETON ST", "postcode": "94703"}}},
{"geometry": {"type": "Point", "coordinates": [-122.2782231462, 37.8771809462]}, "type": "Feature", "properties": {"collection_times": [{"days": "Mon-Fri", "time": "12:00pm"}, {"days": "Sat", "time": "11:00am"}, {"days": "Sun", "time": "Closed"}], "id": "9470300010", "name": "USPS COLLECTION BOX - BLUE BOX", "address": {"city": "BERKELEY", "state": "CA", "street": "1700 CEDAR ST", "postcode": "94703"}}},
{"geometry": {"type": "Point", "coordinates": [-122.2778389356, 37.8734831816]}, "type": "Feature", "properties": {"collection_times": [{"days": "Mon-Fri", "time": "12:00pm"}, {"days": "Sat", "time": "11:00am"}, {"days": "Sun", "time": "Closed"}], "id": "9470300012", "name": "USPS COLLECTION BOX - BLUE BOX", "address": {"city": "BERKELEY", "state": "CA", "street": "1801 MCGEE AVE", "postcode": "94703"}}},
{"geometry": {"type": "Point", "coordinates": [-122.2751777008, 37.8621339399]}, "type": "Feature", "properties": {"collection_times": [{"days": "Mon-Fri", "time": "12:00pm"}, {"days": "Sat", "time": "11:00am"}, {"days": "Sun", "time": "Closed"}], "id": "9470300014", "name": "USPS COLLECTION BOX - BLUE BOX", "address": {"city": "BERKELEY", "state": "CA", "street": "1901 RUSSELL ST", "postcode": "94703"}}},
{"geometry": {"type": "Point", "coordinates": [-122.2774336543, 37.8708794221]}, "type": "Feature", "properties": {"collection_times": [{"days": "Mon-Fri", "time": "3:00pm"}, {"days": "Sat", "time": "1:00pm"}, {"days": "Sun", "time": "Closed"}], "id": "9470300016", "name": "USPS COLLECTION BOX - BLUE BOX", "address": {"city": "BERKELEY", "state": "CA", "street": "1700 UNIVERSITY AVE", "postcode": "94703"}}},
{"geometry": {"type": "Point", "coordinates": [-122.2590897927, 37.8686739577]}, "type": "Feature", "properties": {"collection_times": [{"days": "Mon-Sat", "time": "12:00pm"}, {"days": "Sun", "time": "Closed"}], "id": "9470400010", "name": "USPS COLLECTION BOX - BLUE BOX", "address": {"city": "BERKELEY", "state": "CA", "street": "2548 BANCROFT WAY", "postcode": "94704"}}},
{"geometry": {"type": "Point", "coordinates": [-122.2729057029, 37.8699543378]}, "type": "Feature", "properties": {"collection_times": [{"days": "Mon-Fri", "time": "12:00pm"}, {"days": "Sat", "time": "1:00pm"}, {"days": "Sun", "time": "Closed"}], "id": "9470400012", "name": "USPS COLLECTION BOX - BLUE BOX", "address": {"city": "BERKELEY", "state": "CA", "street": "2134 MARTIN LUTHER KING JR WAY", "postcode": "94704"}}},
{"geometry": {"type": "Point", "coordinates": [-122.2706624949, 37.870487028]}, "type": "Feature", "properties": {"collection_times": [{"days": "Mon-Fri", "time": "11:00am"}, {"days": "Sat", "time": "1:00pm"}, {"days": "Sun", "time": "Closed"}], "id": "9470400019", "name": "USPS COLLECTION BOX - BLUE BOX", "address": {"city": "BERKELEY", "state": "CA", "street": "2120 MILVIA ST", "postcode": "94704"}}},
{"geometry": {"type": "Point", "coordinates": [-122.2674396463, 37.8658246969]}, "type": "Feature", "properties": {"collection_times": [{"days": "Mon-Fri", "time": "12:00pm"}, {"days": "Sat", "time": "1:00pm"}, {"days": "Sun", "time": "Closed"}], "id": "9470400023", "name": "USPS COLLECTION BOX - BLUE BOX", "address": {"city": "BERKELEY", "state": "CA", "street": "2399 SHATTUCK AVE", "postcode": "94704"}}},
{"geometry": {"type": "Point", "coordinates": [-122.2635803359, 37.8671616017]}, "type": "Feature", "properties": {"collection_times": [{"days": "Mon-Sat", "time": "11:00am"}, {"days": "Sun", "time": "Closed"}], "id": "9470400031", "name": "USPS COLLECTION BOX - BLUE BOX", "address": {"city": "BERKELEY", "state": "CA", "street": "2298 DURANT AVE", "postcode": "94704"}}},
{"geometry": {"type": "Point", "coordinates": [-122.2605392548, 37.8636190388]}, "type": "Feature", "properties": {"collection_times": [{"days": "Mon-Sat", "time": "11:00am"}, {"days": "Sun", "time": "Closed"}], "id": "9470400032", "name": "USPS COLLECTION BOX - BLUE BOX", "address": {"city": "BERKELEY", "state": "CA", "street": "2550 DANA ST", "postcode": "94704"}}},
{"geometry": {"type": "Point", "coordinates": [-122.2631359387, 37.8645163526]}, "type": "Feature", "properties": {"collection_times": [{"days": "Mon-Sat", "time": "11:00am"}, {"days": "Sun", "time": "Closed"}], "id": "9470400033", "name": "USPS COLLECTION BOX - BLUE BOX", "address": {"city": "BERKELEY", "state": "CA", "street": "2247 DWIGHT WAY", "postcode": "94704"}}},
{"geometry": {"type": "Point", "coordinates": [-122.2677230073, 37.8683527163]}, "type": "Feature", "properties": {"collection_times": [{"days": "Mon-Fri", "time": "5:00pm"}, {"days": "Sat", "time": "1:00pm"}, {"days": "Sun", "time": "Closed"}], "id": "9470400038", "name": "USPS COLLECTION BOX - BLUE BOX", "address": {"city": "BERKELEY", "state": "CA", "street": "2257 SHATTUCK AVE", "postcode": "94704"}}},
{"geometry": {"type": "Point", "coordinates": [-122.2728898103, 37.871043271]}, "type": "Feature", "properties": {"collection_times": [{"days": "Mon-Fri", "time": "12:00pm"}, {"days": "Sat", "time": "1:00pm"}, {"days": "Sun", "time": "Closed"}], "id": "9470400039", "name": "USPS COLLECTION BOX - BLUE BOX", "address": {"city": "BERKELEY", "state": "CA", "street": "2031 MARTIN LUTHER KING JR WAY", "postcode": "94704"}}},
{"geometry": {"type": "Point", "coordinates": [-122.2662205334, 37.872350645]}, "type": "Feature", "properties": {"collection_times": [{"days": "Mon-Fri", "time": "12:00pm"}, {"days": "Sat", "time": "1:00pm"}, {"days": "Sun", "time": "Closed"}], "id": "9470400042", "name": "USPS COLLECTION BOX - BLUE BOX", "address": {"city": "BERKELEY", "state": "CA", "street": "1990 OXFORD ST", "postcode": "94704"}}},
{"geometry": {"type": "Point", "coordinates": [-122.2673195486, 37.8624778826]}, "type": "Feature", "properties": {"collection_times": [{"days": "Mon-Fri", "time": "12:00pm"}, {"days": "Sat", "time": "1:00pm"}, {"days": "Sun", "time": "Closed"}], "id": "9470400045", "name": "USPS COLLECTION BOX - BLUE BOX", "address": {"city": "BERKELEY", "state": "CA", "street": "2578 SHATTUCK AVE", "postcode": "94704"}}},
{"geometry": {"type": "Point", "coordinates": [-122.2704235555, 37.8690090223]}, "type": "Feature", "properties": {"collection_times": [{"days": "Mon-Sat", "time": "5:30pm"}, {"days": "Sun", "time": "Closed"}], "id": "9470400059", "name": "USPS COLLECTION BOX - BLUE BOX", "address": {"city": "BERKELEY", "state": "CA", "street": "2000 ALLSTON WAY", "postcode": "94704"}}},
{"geometry": {"type": "Point", "coordinates": [-122.2586229794, 37.8679172474]}, "type": "Feature", "properties": {"collection_times": [{"days": "Mon-Fri", "time": "5:00pm"}, {"days": "Sat", "time": "4:50pm"}, {"days": "Sun", "time": "Closed"}], "id": "9470400060", "name": "USPS COLLECTION BOX - BLUE BOX", "address": {"city": "BERKELEY", "state": "CA", "street": "2515 1/2 DURANT AVE", "postcode": "94704"}}},
{"geometry": {"type": "Point", "coordinates": [-122.2586229794, 37.8679172474]}, "type": "Feature", "properties": {"collection_times": [{"days": "Mon-Fri", "time": "5:00pm"}, {"days": "Sat", "time": "4:50pm"}, {"days": "Sun", "time": "Closed"}], "id": "9470400064", "name": "USPS COLLECTION BOX - BLUE BOX", "address": {"city": "BERKELEY", "state": "CA", "street": "2515 1/2 DURANT AVE", "postcode": "94704"}}},
{"geometry": {"type": "Point", "coordinates": [-122.2682061008, 37.8706227868]}, "type": "Feature", "properties": {"collection_times": [{"days": "Mon-Fri", "time": "5:00pm"}, {"days": "Sat", "time": "1:00pm"}, {"days": "Sun", "time": "Closed"}], "id": "9470400076", "name": "USPS COLLECTION BOX - BLUE BOX", "address": {"city": "BERKELEY", "state": "CA", "street": "2144 SHATTUCK AVE", "postcode": "94704"}}},
{"geometry": {"type": "Point", "coordinates": [-122.2704235555, 37.8690090223]}, "type": "Feature", "properties": {"collection_times": [{"days": "Mon-Sat", "time": "5:30pm"}, {"days": "Sun", "time": "Closed"}], "id": "9470400079", "name": "USPS COLLECTION BOX - BLUE BOX", "address": {"city": "BERKELEY", "state": "CA", "street": "2000 ALLSTON WAY", "postcode": "94704"}}},
{"geometry": {"type": "Point", "coordinates": [-122.2676483205, 37.8712136173]}, "type": "Feature", "properties": {"collection_times": [{"days": "Mon-Fri", "time": "11:00am"}, {"days": "Sat", "time": "1:00pm"}, {"days": "Sun", "time": "Closed"}], "id": "9470400081", "name": "USPS COLLECTION BOX - BLUE BOX", "address": {"city": "BERKELEY", "state": "CA", "street": "2101 SHATTUCK AVE", "postcode": "94704"}}},
{"geometry": {"type": "Point", "coordinates": [-122.2684688983, 37.8720749253]}, "type": "Feature", "properties": {"collection_times": [{"days": "Mon-Fri", "time": "12:00pm"}, {"days": "Sat", "time": "1:00pm"}, {"days": "Sun", "time": "Closed"}], "id": "9470400084", "name": "USPS COLLECTION BOX - BLUE BOX", "address": {"city": "BERKELEY", "state": "CA", "street": "2000 SHATTUCK AVE", "postcode": "94704"}}},
{"geometry": {"type": "Point", "coordinates": [-122.2660268004, 37.8710144717]}, "type": "Feature", "properties": {"collection_times": [{"days": "Mon-Fri", "time": "12:00pm"}, {"days": "Sat", "time": "1:00pm"}, {"days": "Sun", "time": "Closed"}], "id": "9470400085", "name": "USPS COLLECTION BOX - BLUE BOX", "address": {"city": "BERKELEY", "state": "CA", "street": "2120 OXFORD ST", "postcode": "94704"}}},
{"geometry": {"type": "Point", "coordinates": [-122.2537988636, 37.8639264038]}, "type": "Feature", "properties": {"collection_times": [{"days": "Mon-Fri", "time": "12:00pm"}, {"days": "Sat", "time": "11:00am"}, {"days": "Sun", "time": "Closed"}], "id": "9470400108", "name": "USPS COLLECTION BOX - BLUE BOX", "address": {"city": "BERKELEY", "state": "CA", "street": "2600 COLLEGE AVE", "postcode": "94704"}}},
{"geometry": {"type": "Point", "coordinates": [-122.2698008162, 37.8637170493]}, "type": "Feature", "properties": {"collection_times": [{"days": "Mon-Fri", "time": "12:00pm"}, {"days": "Sat", "time": "1:00pm"}, {"days": "Sun", "time": "Closed"}], "id": "9470400112", "name": "USPS COLLECTION BOX - BLUE BOX", "address": {"city": "BERKELEY", "state": "CA", "street": "2001 DWIGHT WAY", "postcode": "94704"}}},
{"geometry": {"type": "Point", "coordinates": [-122.254543704, 37.8692342974]}, "type": "Feature", "properties": {"collection_times": [{"days": "Mon-Fri", "time": "12:00pm"}, {"days": "Sat", "time": "1:00pm"}, {"days": "Sun", "time": "Closed"}], "id": "9470400114", "name": "USPS COLLECTION BOX - BLUE BOX", "address": {"city": "BERKELEY", "state": "CA", "street": "2700 BANCROFT WAY", "postcode": "94704"}}},
{"geometry": {"type": "Point", "coordinates": [-122.2704235555, 37.8690090223]}, "type": "Feature", "properties": {"collection_times": [{"days": "Mon-Fri", "time": "5:30pm"}, {"days": "Sat", "time": "5:00pm"}, {"days": "Sun", "time": "Closed"}], "id": "9470400115", "name": "USPS COLLECTION BOX - APC", "address": {"city": "BERKELEY", "state": "CA", "street": "2000 ALLSTON WAY", "postcode": "94704"}}},
{"geometry": {"type": "Point", "coordinates": [-122.2577354693, 37.8555006546]}, "type": "Feature", "properties": {"collection_times": [{"days": "Mon-Fri", "time": "12:00pm"}, {"days": "Sat", "time": "1:00pm"}, {"days": "Sun", "time": "Closed"}], "id": "9470500001", "name": "USPS COLLECTION BOX - BLUE BOX", "address": {"city": "BERKELEY", "state": "CA", "street": "3001 COLBY ST", "postcode": "94705"}}},
{"geometry": {"type": "Point", "coordinates": [-122.252984029, 37.8570910133]}, "type": "Feature", "properties": {"collection_times": [{"days": "Mon-Fri", "time": "12:00pm"}, {"days": "Sat", "time": "1:00pm"}, {"days": "Sun", "time": "Closed"}], "id": "9470500003", "name": "USPS COLLECTION BOX - BLUE BOX", "address": {"city": "BERKELEY", "state": "CA", "street": "2959 COLLEGE AVE", "postcode": "94705"}}},
{"geometry": {"type": "Point", "coordinates": [-122.2501127434, 37.8521130279]}, "type": "Feature", "properties": {"collection_times": [{"days": "Mon-Fri", "time": "12:00pm"}, {"days": "Sat", "time": "11:00am"}, {"days": "Sun", "time": "Closed"}], "id": "9470500011", "name": "USPS COLLECTION BOX - BLUE BOX", "address": {"city": "BERKELEY", "state": "CA", "street": "3202 CLAREMONT AVE", "postcode": "94705"}}},
{"geometry": {"type": "Point", "coordinates": [-122.2480224549, 37.8546989762]}, "type": "Feature", "properties": {"collection_times": [{"days": "Mon-Fri", "time": "12:00pm"}, {"days": "Sat", "time": "1:00pm"}, {"days": "Sun", "time": "Closed"}], "id": "9470500012", "name": "USPS COLLECTION BOX - BLUE BOX", "address": {"city": "BERKELEY", "state": "CA", "street": "3068 CLAREMONT AVE", "postcode": "94705"}}},
{"geometry": {"type": "Point", "coordinates": [-122.2578097648, 37.8554080209]}, "type": "Feature", "properties": {"collection_times": [{"days": "Mon-Fri", "time": "12:00pm"}, {"days": "Sat", "time": "1:00pm"}, {"days": "Sun", "time": "Closed"}], "id": "9470500013", "name": "USPS COLLECTION BOX - BLUE BOX", "address": {"city": "BERKELEY", "state": "CA", "street": "3000 COLBY ST", "postcode": "94705"}}},
{"geometry": {"type": "Point", "coordinates": [-122.2531136414, 37.858444375]}, "type": "Feature", "properties": {"collection_times": [{"days": "Mon-Fri", "time": "12:00pm"}, {"days": "Sat", "time": "11:00am"}, {"days": "Sun", "time": "Closed"}], "id": "9470500015", "name": "USPS COLLECTION BOX - BLUE BOX", "address": {"city": "BERKELEY", "state": "CA", "street": "2901 COLLEGE AVE", "postcode": "94705"}}},
{"geometry": {"type": "Point", "coordinates": [-122.2667699886, 37.8573535361]}, "type": "Feature", "properties": {"collection_times": [{"days": "Mon-Fri", "time": "12:00pm"}, {"days": "Sat", "time": "11:00am"}, {"days": "Sun", "time": "Closed"}], "id": "9470500023", "name": "USPS COLLECTION BOX - BLUE BOX", "address": {"city": "BERKELEY", "state": "CA", "street": "2829 SHATTUCK AVE", "postcode": "94705"}}},
{"geometry": {"type": "Point", "coordinates": [-122.2599076915, 37.8536975572]}, "type": "Feature", "properties": {"collection_times": [{"days": "Mon-Fri", "time": "12:00pm"}, {"days": "Sat", "time": "11:00am"}, {"days": "Sun", "time": "Closed"}], "id": "9470500024", "name": "USPS COLLECTION BOX - BLUE BOX", "address": {"city": "BERKELEY", "state": "CA", "street": "3101 TELEGRAPH AVE", "postcode": "94705"}}},
{"geometry": {"type": "Point", "coordinates": [-122.2565394091, 37.8556678852]}, "type": "Feature", "properties": {"collection_times": [{"days": "Mon-Fri", "time": "12:00pm"}, {"days": "Sat", "time": "1:00pm"}, {"days": "Sun", "time": "Closed"}], "id": "9470500026", "name": "USPS COLLECTION BOX - BLUE BOX", "address": {"city": "BERKELEY", "state": "CA", "street": "2999 REGENT ST", "postcode": "94705"}}},
{"geometry": {"type": "Point", "coordinates": [-122.2593232619, 37.8584702494]}, "type": "Feature", "properties": {"collection_times": [{"days": "Mon-Fri", "time": "12:00pm"}, {"days": "Sat", "time": "1:00pm"}, {"days": "Sun", "time": "Closed"}], "id": "9470500036", "name": "USPS COLLECTION BOX - BLUE BOX", "address": {"city": "BERKELEY", "state": "CA", "street": "2855 TELEGRAPH AVE", "postcode": "94705"}}},
{"geometry": {"type": "Point", "coordinates": [-122.2597161414, 37.8550537561]}, "type": "Feature", "properties": {"collection_times": [{"days": "Mon-Fri", "time": "12:00pm"}, {"days": "Sat", "time": "1:00pm"}, {"days": "Sun", "time": "Closed"}], "id": "9470500037", "name": "USPS COLLECTION BOX - BLUE BOX", "address": {"city": "BERKELEY", "state": "CA", "street": "3031 TELEGRAPH AVE", "postcode": "94705"}}},
{"geometry": {"type": "Point", "coordinates": [-122.259494791, 37.8572340573]}, "type": "Feature", "properties": {"collection_times": [{"days": "Mon-Fri", "time": "12:00pm"}, {"days": "Sat", "time": "1:00pm"}, {"days": "Sun", "time": "Closed"}], "id": "9470500048", "name": "USPS COLLECTION BOX - BLUE BOX", "address": {"city": "BERKELEY", "state": "CA", "street": "2915 TELEGRAPH AVE", "postcode": "94705"}}},
{"geometry": {"type": "Point", "coordinates": [-122.2440218403, 37.8587907942]}, "type": "Feature", "properties": {"collection_times": [{"days": "Mon-Fri", "time": "5:00pm"}, {"days": "Sat", "time": "1:00pm"}, {"days": "Sun", "time": "Closed"}], "id": "9470500052", "name": "USPS COLLECTION BOX - BLUE BOX", "address": {"city": "BERKELEY", "state": "CA", "street": "2912 DOMINGO AVE", "postcode": "94705"}}},
{"geometry": {"type": "Point", "coordinates": [-122.2665523242, 37.8557210527]}, "type": "Feature", "properties": {"collection_times": [{"days": "Mon-Fri", "time": "12:00pm"}, {"days": "Sat", "time": "11:00am"}, {"days": "Sun", "time": "Closed"}], "id": "9470500056", "name": "USPS COLLECTION BOX - BLUE BOX", "address": {"city": "BERKELEY", "state": "CA", "street": "2925 SHATTUCK AVE", "postcode": "94705"}}},
{"geometry": {"type": "Point", "coordinates": [-122.2527702464, 37.8558526763]}, "type": "Feature", "properties": {"collection_times": [{"days": "Mon-Fri", "time": "5:00pm"}, {"days": "Sat", "time": "4:30pm"}, {"days": "Sun", "time": "Closed"}], "id": "9470500064", "name": "USPS COLLECTION BOX - BLUE BOX", "address": {"city": "BERKELEY", "state": "CA", "street": "2705 WEBSTER ST", "postcode": "94705"}}},
{"geometry": {"type": "Point", "coordinates": [-122.2902188336, 37.8908222862]}, "type": "Feature", "properties": {"collection_times": [{"days": "Mon-Fri", "time": "5:00pm"}, {"days": "Sat", "time": "1:00pm"}, {"days": "Sun", "time": "Closed"}], "id": "9470600003", "name": "USPS COLLECTION BOX - BLUE BOX", "address": {"city": "BERKELEY", "state": "CA", "street": "1395 SOLANO AVE", "postcode": "94706"}}},
{"geometry": {"type": "Point", "coordinates": [-122.2928228994, 37.8906820378]}, "type": "Feature", "properties": {"collection_times": [{"days": "Mon-Fri", "time": "5:00pm"}, {"days": "Sat", "time": "1:00pm"}, {"days": "Sun", "time": "Closed"}], "id": "9470600008", "name": "USPS COLLECTION BOX - BLUE BOX", "address": {"city": "BERKELEY", "state": "CA", "street": "1301 SOLANO AVE", "postcode": "94706"}}},
{"geometry": {"type": "Point", "coordinates": [-122.3070556562, 37.8935213235]}, "type": "Feature", "properties": {"collection_times": [{"days": "Mon-Sat", "time": "11:00am"}, {"days": "Sun", "time": "Closed"}], "id": "9470600015", "name": "USPS COLLECTION BOX - BLUE BOX", "address": {"city": "BERKELEY", "state": "CA", "street": "555 PIERCE ST", "postcode": "94706"}}},
{"geometry": {"type": "Point", "coordinates": [-122.3057407321, 37.8890164468]}, "type": "Feature", "properties": {"collection_times": [{"days": "Mon-Fri", "time": "12:00pm"}, {"days": "Sat", "time": "11:00am"}, {"days": "Sun", "time": "Closed"}], "id": "9470600016", "name": "USPS COLLECTION BOX - BLUE BOX", "address": {"city": "BERKELEY", "state": "CA", "street": "801 SOLANO AVE", "postcode": "94706"}}},
{"geometry": {"type": "Point", "coordinates": [-122.2990480565, 37.8908577876]}, "type": "Feature", "properties": {"collection_times": [{"days": "Mon-Fri", "time": "12:00pm"}, {"days": "Sat", "time": "11:00am"}, {"days": "Sun", "time": "Closed"}], "id": "9470600018", "name": "USPS COLLECTION BOX - BLUE BOX", "address": {"city": "BERKELEY", "state": "CA", "street": "865 SAN PABLO AVE", "postcode": "94706"}}},
{"geometry": {"type": "Point", "coordinates": [-122.2993741822, 37.891848326]}, "type": "Feature", "properties": {"collection_times": [{"days": "Mon-Fri", "time": "12:00pm"}, {"days": "Sat", "time": "11:00am"}, {"days": "Sun", "time": "Closed"}], "id": "9470600019", "name": "USPS COLLECTION BOX - BLUE BOX", "address": {"city": "BERKELEY", "state": "CA", "street": "801 SAN PABLO AVE", "postcode": "94706"}}},
{"geometry": {"type": "Point", "coordinates": [-122.287976894, 37.8908892398]}, "type": "Feature", "properties": {"collection_times": [{"days": "Mon-Fri", "time": "5:00pm"}, {"days": "Sat", "time": "1:00pm"}, {"days": "Sun", "time": "Closed"}], "id": "9470600021", "name": "USPS COLLECTION BOX - BLUE BOX", "address": {"city": "BERKELEY", "state": "CA", "street": "1485 SOLANO AVE", "postcode": "94706"}}},
{"geometry": {"type": "Point", "coordinates": [-122.2964018099, 37.8904737574]}, "type": "Feature", "properties": {"collection_times": [{"days": "Mon-Fri", "time": "5:00pm"}, {"days": "Sat", "time": "4:15pm"}, {"days": "Sun", "time": "Closed"}], "id": "9470600027", "name": "USPS COLLECTION BOX - BLUE BOX", "address": {"city": "BERKELEY", "state": "CA", "street": "1191 SOLANO AVE", "postcode": "94706"}}},
{"geometry": {"type": "Point", "coordinates": [-122.2964018099, 37.8904737574]}, "type": "Feature", "properties": {"collection_times": [{"days": "Mon-Fri", "time": "5:00pm"}, {"days": "Sat", "time": "4:15pm"}, {"days": "Sun", "time": "Closed"}], "id": "9470600028", "name": "USPS COLLECTION BOX - BLUE BOX", "address": {"city": "BERKELEY", "state": "CA", "street": "1191 SOLANO AVE", "postcode": "94706"}}},
{"geometry": {"type": "Point", "coordinates": [-122.2951419015, 37.8899699239]}, "type": "Feature", "properties": {"collection_times": [{"days": "Mon-Fri", "time": "12:00pm"}, {"days": "Sat", "time": "1:00pm"}, {"days": "Sun", "time": "Closed"}], "id": "9470600029", "name": "USPS COLLECTION BOX - BLUE BOX", "address": {"city": "BERKELEY", "state": "CA", "street": "1313 B GILMAN ST", "postcode": "94706"}}},
{"geometry": {"type": "Point", "coordinates": [-122.3081167703, 37.8960765149]}, "type": "Feature", "properties": {"collection_times": [{"days": "Mon-Sat", "time": "11:00am"}, {"days": "Sun", "time": "Closed"}], "id": "9470600030", "name": "USPS COLLECTION BOX - BLUE BOX", "address": {"city": "BERKELEY", "state": "CA", "street": "535 PIERCE ST", "postcode": "94706"}}},
{"geometry": {"type": "Point", "coordinates": [-122.281710174, 37.8972652256]}, "type": "Feature", "properties": {"collection_times": [{"days": "Mon-Fri", "time": "12:00pm"}, {"days": "Sat", "time": "11:00am"}, {"days": "Sun", "time": "Closed"}], "id": "9470700000", "name": "USPS COLLECTION BOX - BLUE BOX", "address": {"city": "KENSINGTON", "state": "CA", "street": "1790 THOUSAND OAKS BLVD", "postcode": "94707"}}},
{"geometry": {"type": "Point", "coordinates": [-122.2779491724, 37.9033929304]}, "type": "Feature", "properties": {"collection_times": [{"days": "Mon-Fri", "time": "5:00pm"}, {"days": "Sat", "time": "1:00pm"}, {"days": "Sun", "time": "Closed"}], "id": "9470700001", "name": "USPS COLLECTION BOX - BLUE BOX", "address": {"city": "KENSINGTON", "state": "CA", "street": "299 ARLINGTON AVE", "postcode": "94707"}}},
{"geometry": {"type": "Point", "coordinates": [-122.2771101755, 37.8914037564]}, "type": "Feature", "properties": {"collection_times": [{"days": "Mon-Fri", "time": "12:00pm"}, {"days": "Sat", "time": "11:00am"}, {"days": "Sun", "time": "Closed"}], "id": "9470700009", "name": "USPS COLLECTION BOX - BLUE BOX", "address": {"city": "KENSINGTON", "state": "CA", "street": "1898 SOLANO AVE", "postcode": "94707"}}},
{"geometry": {"type": "Point", "coordinates": [-122.2876070978, 37.899737457]}, "type": "Feature", "properties": {"collection_times": [{"days": "Mon-Fri", "time": "12:00pm"}, {"days": "Sat", "time": "11:00am"}, {"days": "Sun", "time": "Closed"}], "id": "9470700010", "name": "USPS COLLECTION BOX - BLUE BOX", "address": {"city": "KENSINGTON", "state": "CA", "street": "388 COLUSA AVE", "postcode": "94707"}}},
{"geometry": {"type": "Point", "coordinates": [-122.2798238265, 37.8914022648]}, "type": "Feature", "properties": {"collection_times": [{"days": "Mon-Fri", "time": "5:00pm"}, {"days": "Sat", "time": "1:00pm"}, {"days": "Sun", "time": "Closed"}], "id": "9470700014", "name": "USPS COLLECTION BOX - BLUE BOX", "address": {"city": "KENSINGTON", "state": "CA", "street": "1799 SOLANO AVE", "postcode": "94707"}}},
{"geometry": {"type": "Point", "coordinates": [-122.2720802914, 37.889155022]}, "type": "Feature", "properties": {"collection_times": [{"days": "Mon-Fri", "time": "12:00pm"}, {"days": "Sat", "time": "11:00am"}, {"days": "Sun", "time": "Closed"}], "id": "9470700016", "name": "USPS COLLECTION BOX - BLUE BOX", "address": {"city": "KENSINGTON", "state": "CA", "street": "1011 FOUNTAIN WALK AT M.C.", "postcode": "94707"}}},
{"geometry": {"type": "Point", "coordinates": [-122.2815697871, 37.8818032377]}, "type": "Feature", "properties": {"collection_times": [{"days": "Mon-Fri", "time": "5:00pm"}, {"days": "Sat", "time": "1:00pm"}, {"days": "Sun", "time": "Closed"}], "id": "9470700017", "name": "USPS COLLECTION BOX - BLUE BOX", "address": {"city": "KENSINGTON", "state": "CA", "street": "1578 HOPKINS ST", "postcode": "94707"}}},
{"geometry": {"type": "Point", "coordinates": [-122.2675498724, 37.8886362196]}, "type": "Feature", "properties": {"collection_times": [{"days": "Mon-Fri", "time": "12:00pm"}, {"days": "Sat", "time": "11:00am"}, {"days": "Sun", "time": "Closed"}], "id": "9470700019", "name": "USPS COLLECTION BOX - BLUE BOX", "address": {"city": "KENSINGTON", "state": "CA", "street": "2216 LOS ANGELES AVE", "postcode": "94707"}}},
{"geometry": {"type": "Point", "coordinates": [-122.2842601433, 37.8911531298]}, "type": "Feature", "properties": {"collection_times": [{"days": "Mon-Sat", "time": "1:00pm"}, {"days": "Sun", "time": "Closed"}], "id": "9470700022", "name": "USPS COLLECTION BOX - BLUE BOX", "address": {"city": "KENSINGTON", "state": "CA", "street": "1615 SOLANO AVE", "postcode": "94707"}}},
{"geometry": {"type": "Point", "coordinates": [-122.2790360901, 37.8913908144]}, "type": "Feature", "properties": {"collection_times": [{"days": "Mon-Fri", "time": "5:00pm"}, {"days": "Sat", "time": "4:00pm"}, {"days": "Sun", "time": "Closed"}], "id": "9470700027", "name": "USPS COLLECTION BOX - BLUE BOX", "address": {"city": "KENSINGTON", "state": "CA", "street": "1831 SOLANO AVE", "postcode": "94707"}}},
{"geometry": {"type": "Point", "coordinates": [-122.2779491724, 37.9033929304]}, "type": "Feature", "properties": {"collection_times": [{"days": "Mon-Fri", "time": "5:00pm"}, {"days": "Sat", "time": "1:00pm"}, {"days": "Sun", "time": "Closed"}], "id": "9470700028", "name": "USPS COLLECTION BOX - BLUE BOX", "address": {"city": "KENSINGTON", "state": "CA", "street": "299 ARLINGTON AVE", "postcode": "94707"}}},
{"geometry": {"type": "Point", "coordinates": [-122.2790360901, 37.8913908144]}, "type": "Feature", "properties": {"collection_times": [{"days": "Mon-Fri", "time": "5:00pm"}, {"days": "Sat", "time": "4:00pm"}, {"days": "Sun", "time": "Closed"}], "id": "9470700030", "name": "USPS COLLECTION BOX - BLUE BOX", "address": {"city": "KENSINGTON", "state": "CA", "street": "1831 SOLANO AVE", "postcode": "94707"}}},
{"geometry": {"type": "Point", "coordinates": [-122.2813244895, 37.8913244208]}, "type": "Feature", "properties": {"collection_times": [{"days": "Mon-Fri", "time": "5:00pm"}, {"days": "Sat", "time": "1:00pm"}, {"days": "Sun", "time": "Closed"}], "id": "9470700032", "name": "USPS COLLECTION BOX - BLUE BOX", "address": {"city": "KENSINGTON", "state": "CA", "street": "1741 SOLANO AVE", "postcode": "94707"}}},
{"geometry": {"type": "Point", "coordinates": [-122.2864863584, 37.8910295184]}, "type": "Feature", "properties": {"collection_times": [{"days": "Mon-Fri", "time": "5:00pm"}, {"days": "Sat", "time": "1:00pm"}, {"days": "Sun", "time": "Closed"}], "id": "9470700038", "name": "USPS COLLECTION BOX - BLUE BOX", "address": {"city": "KENSINGTON", "state": "CA", "street": "1533 SOLANO AVE", "postcode": "94707"}}},
{"geometry": {"type": "Point", "coordinates": [-122.2784741846, 37.9036450863]}, "type": "Feature", "properties": {"collection_times": [{"days": "Mon-Fri", "time": "12:00pm"}, {"days": "Sat", "time": "11:00am"}, {"days": "Sun", "time": "Closed"}], "id": "9470700039", "name": "USPS COLLECTION BOX - BLUE BOX", "address": {"city": "KENSINGTON", "state": "CA", "street": "845 COVENTRY RD", "postcode": "94707"}}},
{"geometry": {"type": "Point", "coordinates": [-122.2695772723, 37.9043302686]}, "type": "Feature", "properties": {"collection_times": [{"days": "Mon-Sat", "time": "11:00am"}, {"days": "Sun", "time": "Closed"}], "id": "9470800016", "name": "USPS COLLECTION BOX - BLUE BOX", "address": {"city": "BERKELEY", "state": "CA", "street": "400 GRIZZLY PEAK BLVD", "postcode": "94708"}}},
{"geometry": {"type": "Point", "coordinates": [-122.2534702526, 37.88839608]}, "type": "Feature", "properties": {"collection_times": [{"days": "Mon-Fri", "time": "12:00pm"}, {"days": "Sat", "time": "11:00am"}, {"days": "Sun", "time": "Closed"}], "id": "9470800022", "name": "USPS COLLECTION BOX - BLUE BOX", "address": {"city": "BERKELEY", "state": "CA", "street": "2931 SHASTA RD", "postcode": "94708"}}},
{"geometry": {"type": "Point", "coordinates": [-122.2597725631, 37.883607733]}, "type": "Feature", "properties": {"collection_times": [{"days": "Mon-Fri", "time": "12:00pm"}, {"days": "Sat", "time": "11:00am"}, {"days": "Sun", "time": "Closed"}], "id": "9470800023", "name": "USPS COLLECTION BOX - BLUE BOX", "address": {"city": "BERKELEY", "state": "CA", "street": "2601 SHASTA RD", "postcode": "94708"}}},
{"geometry": {"type": "Point", "coordinates": [-122.2640603433, 37.8747780318]}, "type": "Feature", "properties": {"collection_times": [{"days": "Mon-Fri", "time": "12:00pm"}, {"days": "Sat", "time": "11:00am"}, {"days": "Sun", "time": "Closed"}], "id": "9470900000", "name": "USPS COLLECTION BOX - BLUE BOX", "address": {"city": "BERKELEY", "state": "CA", "street": "1890 ARCH ST", "postcode": "94709"}}},
{"geometry": {"type": "Point", "coordinates": [-122.2644561209, 37.8776755882]}, "type": "Feature", "properties": {"collection_times": [{"days": "Mon-Fri", "time": "12:00pm"}, {"days": "Sat", "time": "11:00am"}, {"days": "Sun", "time": "Closed"}], "id": "9470900001", "name": "USPS COLLECTION BOX - BLUE BOX", "address": {"city": "BERKELEY", "state": "CA", "street": "2296 VIRGINIA ST", "postcode": "94709"}}},
{"geometry": {"type": "Point", "coordinates": [-122.269313976, 37.8792991155]}, "type": "Feature", "properties": {"collection_times": [{"days": "Mon-Fri", "time": "12:00pm"}, {"days": "Sat", "time": "1:00pm"}, {"days": "Sun", "time": "Closed"}], "id": "9470900003", "name": "USPS COLLECTION BOX - BLUE BOX", "address": {"city": "BERKELEY", "state": "CA", "street": "1550 SHATTUCK AVE", "postcode": "94709"}}},
{"geometry": {"type": "Point", "coordinates": [-122.2688241096, 37.8747834914]}, "type": "Feature", "properties": {"collection_times": [{"days": "Mon-Fri", "time": "12:00pm"}, {"days": "Sat", "time": "11:00am"}, {"days": "Sun", "time": "Closed"}], "id": "9470900004", "name": "USPS COLLECTION BOX - BLUE BOX", "address": {"city": "BERKELEY", "state": "CA", "street": "1798 SHATTUCK AVE", "postcode": "94709"}}},
{"geometry": {"type": "Point", "coordinates": [-122.260216, 37.87532]}, "type": "Feature", "properties": {"collection_times": [{"days": "Mon-Fri", "time": "5:00pm"}, {"days": "Sat", "time": "1:00pm"}, {"days": "Sun", "time": "Closed"}], "id": "9470900005", "name": "USPS COLLECTION BOX - BLUE BOX", "address": {"city": "BERKELEY", "state": "CA", "street": "1878 EUCLID AVE", "postcode": "94709"}}},
{"geometry": {"type": "Point", "coordinates": [-122.2608457301, 37.8784563411]}, "type": "Feature", "properties": {"collection_times": [{"days": "Mon-Fri", "time": "12:00pm"}, {"days": "Sat", "time": "11:00am"}, {"days": "Sun", "time": "Closed"}], "id": "9470900006", "name": "USPS COLLECTION BOX - BLUE BOX", "address": {"city": "BERKELEY", "state": "CA", "street": "1652 EUCLID AVE", "postcode": "94709"}}},
{"geometry": {"type": "Point", "coordinates": [-122.2706631066, 37.8736369663]}, "type": "Feature", "properties": {"collection_times": [{"days": "Mon-Fri", "time": "11:30am"}, {"days": "Sat", "time": "11:00am"}, {"days": "Sun", "time": "Closed"}], "id": "9470900009", "name": "USPS COLLECTION BOX - BLUE BOX", "address": {"city": "BERKELEY", "state": "CA", "street": "2005 HEARST AVE", "postcode": "94709"}}},
{"geometry": {"type": "Point", "coordinates": [-122.2588373923, 37.8779614335]}, "type": "Feature", "properties": {"collection_times": [{"days": "Mon-Sat", "time": "11:00am"}, {"days": "Sun", "time": "Closed"}], "id": "9470900013", "name": "USPS COLLECTION BOX - BLUE BOX", "address": {"city": "BERKELEY", "state": "CA", "street": "2600 VIRGINIA ST", "postcode": "94709"}}},
{"geometry": {"type": "Point", "coordinates": [-122.2732049474, 37.8733892205]}, "type": "Feature", "properties": {"collection_times": [{"days": "Mon-Sat", "time": "11:00am"}, {"days": "Sun", "time": "Closed"}], "id": "9470900014", "name": "USPS COLLECTION BOX - BLUE BOX", "address": {"city": "BERKELEY", "state": "CA", "street": "1901 HEARST AVE", "postcode": "94709"}}},
{"geometry": {"type": "Point", "coordinates": [-122.2740617477, 37.8813191018]}, "type": "Feature", "properties": {"collection_times": [{"days": "Mon-Sat", "time": "11:00am"}, {"days": "Sun", "time": "Closed"}], "id": "9470900015", "name": "USPS COLLECTION BOX - BLUE BOX", "address": {"city": "BERKELEY", "state": "CA", "street": "1401 MARTIN LUTHER KING JR WAY", "postcode": "94709"}}},
{"geometry": {"type": "Point", "coordinates": [-122.2717940023, 37.8817000012]}, "type": "Feature", "properties": {"collection_times": [{"days": "Mon-Fri", "time": "12:00pm"}, {"days": "Sat", "time": "11:00am"}, {"days": "Sun", "time": "Closed"}], "id": "9470900017", "name": "USPS COLLECTION BOX - BLUE BOX", "address": {"city": "BERKELEY", "state": "CA", "street": "2000 ROSE ST", "postcode": "94709"}}},
{"geometry": {"type": "Point", "coordinates": [-122.2667424774, 37.876972288]}, "type": "Feature", "properties": {"collection_times": [{"days": "Mon-Fri", "time": "12:00pm"}, {"days": "Sat", "time": "11:00am"}, {"days": "Sun", "time": "Closed"}], "id": "9470900018", "name": "USPS COLLECTION BOX - BLUE BOX", "address": {"city": "BERKELEY", "state": "CA", "street": "1694 OXFORD ST", "postcode": "94709"}}},
{"geometry": {"type": "Point", "coordinates": [-122.2692754957, 37.8805939479]}, "type": "Feature", "properties": {"collection_times": [{"days": "Mon-Sat", "time": "12:00pm"}, {"days": "Sun", "time": "Closed"}], "id": "9470900022", "name": "USPS COLLECTION BOX - BLUE BOX", "address": {"city": "BERKELEY", "state": "CA", "street": "1481 SHATTUCK AVE", "postcode": "94709"}}},
{"geometry": {"type": "Point", "coordinates": [-122.2691156535, 37.879842709]}, "type": "Feature", "properties": {"collection_times": [{"days": "Mon-Fri", "time": "5:00pm"}, {"days": "Sat", "time": "1:30pm"}, {"days": "Sun", "time": "Closed"}], "id": "9470900024", "name": "USPS COLLECTION BOX - BLUE BOX", "address": {"city": "BERKELEY", "state": "CA", "street": "1521 SHATTUCK AVE", "postcode": "94709"}}},
{"geometry": {"type": "Point", "coordinates": [-122.2691156535, 37.879842709]}, "type": "Feature", "properties": {"collection_times": [{"days": "Mon-Fri", "time": "5:00pm"}, {"days": "Sat", "time": "1:30pm"}, {"days": "Sun", "time": "Closed"}], "id": "9470900034", "name": "USPS COLLECTION BOX - BLUE BOX", "address": {"city": "BERKELEY", "state": "CA", "street": "1521 SHATTUCK AVE", "postcode": "94709"}}},
{"geometry": {"type": "Point", "coordinates": [-122.2993392148, 37.8662825104]}, "type": "Feature", "properties": {"collection_times": [{"days": "Mon-Fri", "time": "12:00pm"}, {"days": "Sat-Sun", "time": "Closed"}], "id": "9471000001", "name": "USPS COLLECTION BOX - BLUE BOX", "address": {"city": "BERKELEY", "state": "CA", "street": "726 ADDISON ST", "postcode": "94710"}}},
{"geometry": {"type": "Point", "coordinates": [-122.2987607479, 37.8630021652]}, "type": "Feature", "properties": {"collection_times": [{"days": "Mon-Sat", "time": "12:00pm"}, {"days": "Sun", "time": "Closed"}], "id": "9471000002", "name": "USPS COLLECTION BOX - BLUE BOX", "address": {"city": "BERKELEY", "state": "CA", "street": "747 BANCROFT WAY", "postcode": "94710"}}},
{"geometry": {"type": "Point", "coordinates": [-122.2959038607, 37.8635339883]}, "type": "Feature", "properties": {"collection_times": [{"days": "Mon-Fri", "time": "5:00pm"}, {"days": "Sat", "time": "1:00pm"}, {"days": "Sun", "time": "Closed"}], "id": "9471000003", "name": "USPS COLLECTION BOX - BLUE BOX", "address": {"city": "BERKELEY", "state": "CA", "street": "830 BANCROFT WAY", "postcode": "94710"}}},
{"geometry": {"type": "Point", "coordinates": [-122.2975211768, 37.8784103833]}, "type": "Feature", "properties": {"collection_times": [{"days": "Mon-Fri", "time": "12:00pm"}, {"days": "Sat", "time": "11:00am"}, {"days": "Sun", "time": "Closed"}], "id": "9471000007", "name": "USPS COLLECTION BOX - BLUE BOX", "address": {"city": "BERKELEY", "state": "CA", "street": "1395 9TH ST", "postcode": "94710"}}},
{"geometry": {"type": "Point", "coordinates": [-122.2926135498, 37.8604631704]}, "type": "Feature", "properties": {"collection_times": [{"days": "Mon-Sat", "time": "12:00pm"}, {"days": "Sun", "time": "Closed"}], "id": "9471000009", "name": "USPS COLLECTION BOX - BLUE BOX", "address": {"city": "BERKELEY", "state": "CA", "street": "930 DWIGHT WAY", "postcode": "94710"}}},
{"geometry": {"type": "Point", "coordinates": [-122.3037123662, 37.8789345458]}, "type": "Feature", "properties": {"collection_times": [{"days": "Mon-Fri", "time": "12:00pm"}, {"days": "Sat", "time": "1:00pm"}, {"days": "Sun", "time": "Closed"}], "id": "9471000013", "name": "USPS COLLECTION BOX - BLUE BOX", "address": {"city": "BERKELEY", "state": "CA", "street": "725 GILMAN ST", "postcode": "94710"}}},
{"geometry": {"type": "Point", "coordinates": [-122.2924563508, 37.8553548987]}, "type": "Feature", "properties": {"collection_times": [{"days": "Mon-Fri", "time": "12:00pm"}, {"days": "Sat", "time": "11:00am"}, {"days": "Sun", "time": "Closed"}], "id": "9471000017", "name": "USPS COLLECTION BOX - BLUE BOX", "address": {"city": "BERKELEY", "state": "CA", "street": "901 GRAYSON ST", "postcode": "94710"}}},
{"geometry": {"type": "Point", "coordinates": [-122.2916819214, 37.8528429136]}, "type": "Feature", "properties": {"collection_times": [{"days": "Mon-Fri", "time": "12:00pm"}, {"days": "Sat", "time": "1:00pm"}, {"days": "Sun", "time": "Closed"}], "id": "9471000025", "name": "USPS COLLECTION BOX - BLUE BOX", "address": {"city": "BERKELEY", "state": "CA", "street": "2910 7TH ST", "postcode": "94710"}}},
{"geometry": {"type": "Point", "coordinates": [-122.2959038607, 37.8635339883]}, "type": "Feature", "properties": {"collection_times": [{"days": "Mon-Fri", "time": "12:00pm"}, {"days": "Sat", "time": "1:00pm"}, {"days": "Sun", "time": "Closed"}], "id": "9471000032", "name": "USPS COLLECTION BOX - BLUE BOX", "address": {"city": "BERKELEY", "state": "CA", "street": "830 BANCROFT WAY", "postcode": "94710"}}},
{"geometry": {"type": "Point", "coordinates": [-122.2964291227, 37.8678215521]}, "type": "Feature", "properties": {"collection_times": [{"days": "Mon-Fri", "time": "5:00pm"}, {"days": "Sat", "time": "1:00pm"}, {"days": "Sun", "time": "Closed"}], "id": "9471000037", "name": "USPS COLLECTION BOX - BLUE BOX", "address": {"city": "BERKELEY", "state": "CA", "street": "2550 9TH ST", "postcode": "94710"}}},
{"geometry": {"type": "Point", "coordinates": [-122.2998135814, 37.8689713761]}, "type": "Feature", "properties": {"collection_times": [{"days": "Mon-Fri", "time": "12:00pm"}, {"days": "Sat", "time": "1:00pm"}, {"days": "Sun", "time": "Closed"}], "id": "9471000044", "name": "USPS COLLECTION BOX - BLUE BOX", "address": {"city": "BERKELEY", "state": "CA", "street": "750 HEARST AVE", "postcode": "94710"}}},
{"geometry": {"type": "Point", "coordinates": [-122.3005999789, 37.8696217984]}, "type": "Feature", "properties": {"collection_times": [{"days": "Mon-Fri", "time": "5:00pm"}, {"days": "Sat", "time": "1:00pm"}, {"days": "Sun", "time": "Closed"}], "id": "9471000045", "name": "USPS COLLECTION BOX - BLUE BOX", "address": {"city": "BERKELEY", "state": "CA", "street": "1774 4TH ST", "postcode": "94710"}}},
{"geometry": {"type": "Point", "coordinates": [-122.3034634394, 37.8706884504]}, "type": "Feature", "properties": {"collection_times": [{"days": "Mon-Sat", "time": "12:00pm"}, {"days": "Sun", "time": "Closed"}], "id": "9471000049", "name": "USPS COLLECTION BOX - BLUE BOX", "address": {"city": "BERKELEY", "state": "CA", "street": "1125 JACKSON ST", "postcode": "94710"}}},
{"geometry": {"type": "Point", "coordinates": [-122.2966838505, 37.8803645252]}, "type": "Feature", "properties": {"collection_times": [{"days": "Mon-Fri", "time": "12:00pm"}, {"days": "Sat", "time": "1:00pm"}, {"days": "Sun", "time": "Closed"}], "id": "9471000051", "name": "USPS COLLECTION BOX - BLUE BOX", "address": {"city": "BERKELEY", "state": "CA", "street": "1049 GILMAN ST", "postcode": "94710"}}},
{"geometry": {"type": "Point", "coordinates": [-122.2431511156, 37.8752221754]}, "type": "Feature", "properties": {"collection_times": [{"days": "Mon-Sat", "time": "12:00pm"}, {"days": "Sun", "time": "Closed"}], "id": "9472000000", "name": "USPS COLLECTION BOX - BLUE BOX", "address": {"city": "BERKELEY", "state": "CA", "street": "110 BARROWS LN", "postcode": "94720"}}},
{"geometry": {"type": "Point", "coordinates": [-122.2431511156, 37.8752221754]}, "type": "Feature", "properties": {"collection_times": [{"days": "Mon-Sat", "time": "12:00pm"}, {"days": "Sun", "time": "Closed"}], "id": "9472000006", "name": "USPS COLLECTION BOX - BLUE BOX", "address": {"city": "BERKELEY", "state": "CA", "street": "2500 E GATE CIR", "postcode": "94720"}}},
{"geometry": {"type": "Point", "coordinates": [-122.2431511156, 37.8752221754]}, "type": "Feature", "properties": {"collection_times": [{"days": "Mon-Sat", "time": "12:00pm"}, {"days": "Sun", "time": "Closed"}], "id": "9472000009", "name": "USPS COLLECTION BOX - BLUE BOX", "address": {"city": "BERKELEY", "state": "CA", "street": "2200 W GATE CIR", "postcode": "94720"}}}
]}
