{"type": "FeatureCollection", "features": [
{"geometry": {"type": "Point", "coordinates": [-122.3714020056, 37.9354243167]}, "type": "Feature", "properties": {"collection_times": [{"days": "Mon-Sat", "time": "10:00am"}, {"days": "Sun", "time": "Closed"}], "id": "9480100005", "name": "USPS COLLECTION BOX - BLUE BOX", "address": {"city": "RICHMOND", "state": "CA", "street": "281 CURRY ST", "postcode": "94801"}}},
{"geometry": {"type": "Point", "coordinates": [-122.3480854049, 37.9384157992]}, "type": "Feature", "properties": {"collection_times": [{"days": "Mon-Sat", "time": "10:00am"}, {"days": "Sun", "time": "Closed"}], "id": "9480100018", "name": "USPS COLLECTION BOX - BLUE BOX", "address": {"city": "RICHMOND", "state": "CA", "street": "2230 BARRETT AVE", "postcode": "94801"}}},
{"geometry": {"type": "Point", "coordinates": [-122.3861388289, 37.9294075667]}, "type": "Feature", "properties": {"collection_times": [{"days": "Mon-Fri", "time": "3:00pm"}, {"days": "Sat-Sun", "time": "Closed"}], "id": "9480100024", "name": "USPS COLLECTION BOX - BLUE BOX", "address": {"city": "RICHMOND", "state": "CA", "street": "100 CHEVRON WAY", "postcode": "94801"}}},
{"geometry": {"type": "Point", "coordinates": [-122.3849077648, 37.9270803644]}, "type": "Feature", "properties": {"collection_times": [{"days": "Mon-Fri", "time": "5:00pm"}, {"days": "Sat", "time": "3:00pm"}, {"days": "Sun", "time": "Closed"}], "id": "9480100026", "name": "USPS COLLECTION BOX - BLUE BOX", "address": {"city": "RICHMOND", "state": "CA", "street": "102 WASHINGTON AVE", "postcode": "94801"}}},
{"geometry": {"type": "Point", "coordinates": [-122.3597251625, 37.9368531894]}, "type": "Feature", "properties": {"collection_times": [{"days": "Mon-Fri", "time": "5:00pm"}, {"days": "Sat", "time": "1:15pm"}, {"days": "Sun", "time": "Closed"}], "id": "9480100028", "name": "USPS COLLECTION BOX - BLUE BOX", "address": {"city": "RICHMOND", "state": "CA", "street": "1025 NEVIN AVE", "postcode": "94801"}}},
{"geometry": {"type": "Point", "coordinates": [-122.3849077648, 37.9270803644]}, "type": "Feature", "properties": {"collection_times": [{"days": "Mon-Fri", "time": "5:00pm"}, {"days": "Sat", "time": "3:00pm"}, {"days": "Sun", "time": "Closed"}], "id": "9480100038", "name": "USPS COLLECTION BOX - BLUE BOX", "address": {"city": "RICHMOND", "state": "CA", "street": "102 WASHINGTON AVE", "postcode": "94801"}}},
{"geometry": {"type": "Point", "coordinates": [-122.3795933627, 37.9523168118]}, "type": "Feature", "properties": {"collection_times": [{"days": "Mon-Sat", "time": "10:00am"}, {"days": "Sun", "time": "Closed"}], "id": "9480100042", "name": "USPS COLLECTION BOX - BLUE BOX", "address": {"city": "RICHMOND", "state": "CA", "street": "1553 FRED JACKSON WAY", "postcode": "94801"}}},
{"geometry": {"type": "Point", "coordinates": [-122.3261017927, 37.9622468448]}, "type": "Feature", "properties": {"collection_times": [{"days": "Mon-Sat", "time": "10:00am"}, {"days": "Sun", "time": "Closed"}], "id": "9480300000", "name": "USPS COLLECTION BOX - BLUE BOX", "address": {"city": "SAN PABLO", "state": "CA", "street": "3360 SAN PABLO DAM RD", "postcode": "94803"}}},
{"geometry": {"type": "Point", "coordinates": [-122.3165489019, 37.9644976784]}, "type": "Feature", "properties": {"collection_times": [{"days": "Mon-Sat", "time": "10:00am"}, {"days": "Sun", "time": "Closed"}], "id": "9480300001", "name": "USPS COLLECTION BOX - BLUE BOX", "address": {"city": "SAN PABLO", "state": "CA", "street": "3716 SAN PABLO DAM RD", "postcode": "94803"}}},
{"geometry": {"type": "Point", "coordinates": [-122.3075856943, 37.9695001292]}, "type": "Feature", "properties": {"collection_times": [{"days": "Mon-Sat", "time": "10:00am"}, {"days": "Sun", "time": "Closed"}], "id": "9480300007", "name": "USPS COLLECTION BOX - BLUE BOX", "address": {"city": "SAN PABLO", "state": "CA", "street": "4352 APPIAN WAY", "postcode": "94803"}}},
{"geometry": {"type": "Point", "coordinates": [-122.3130789216, 37.9763781316]}, "type": "Feature", "properties": {"collection_times": [{"days": "Mon-Sat", "time": "10:00am"}, {"days": "Sun", "time": "Closed"}], "id": "9480300008", "name": "USPS COLLECTION BOX - BLUE BOX", "address": {"city": "SAN PABLO", "state": "CA", "street": "4251 HILLTOP DR", "postcode": "94803"}}},
{"geometry": {"type": "Point", "coordinates": [-122.3198332111, 37.965759048]}, "type": "Feature", "properties": {"collection_times": [{"days": "Mon-Sat", "time": "10:00am"}, {"days": "Sun", "time": "Closed"}], "id": "9480300009", "name": "USPS COLLECTION BOX - BLUE BOX", "address": {"city": "SAN PABLO", "state": "CA", "street": "3535 EL PORTAL DR", "postcode": "94803"}}},
{"geometry": {"type": "Point", "coordinates": [-122.2578705883, 37.9665146235]}, "type": "Feature", "properties": {"collection_times": [{"days": "Mon-Sat", "time": "10:00am"}, {"days": "Sun", "time": "Closed"}], "id": "9480300011", "name": "USPS COLLECTION BOX - BLUE BOX", "address": {"city": "SAN PABLO", "state": "CA", "street": "5020 CARRIAGE DR", "postcode": "94803"}}},
{"geometry": {"type": "Point", "coordinates": [-122.2477444596, 37.9610162302]}, "type": "Feature", "properties": {"collection_times": [{"days": "Mon-Sat", "time": "10:00am"}, {"days": "Sun", "time": "Closed"}], "id": "9480300012", "name": "USPS COLLECTION BOX - BLUE BOX", "address": {"city": "SAN PABLO", "state": "CA", "street": "5444 COUNTRY VIEW DR", "postcode": "94803"}}},
{"geometry": {"type": "Point", "coordinates": [-122.2556809313, 37.9638671613]}, "type": "Feature", "properties": {"collection_times": [{"days": "Mon-Sat", "time": "10:00am"}, {"days": "Sun", "time": "Closed"}], "id": "9480300013", "name": "USPS COLLECTION BOX - BLUE BOX", "address": {"city": "SAN PABLO", "state": "CA", "street": "5524 CONESTOGA WAY", "postcode": "94803"}}},
{"geometry": {"type": "Point", "coordinates": [-122.2966462501, 37.9798334367]}, "type": "Feature", "properties": {"collection_times": [{"days": "Mon-Sat", "time": "5:00pm"}, {"days": "Sun", "time": "Closed"}], "id": "9480300016", "name": "USPS COLLECTION BOX - BLUE BOX", "address": {"city": "SAN PABLO", "state": "CA", "street": "535 APPIAN WAY", "postcode": "94803"}}},
{"geometry": {"type": "Point", "coordinates": [-122.281404495, 37.961188341]}, "type": "Feature", "properties": {"collection_times": [{"days": "Mon-Sat", "time": "10:00am"}, {"days": "Sun", "time": "Closed"}], "id": "9480300021", "name": "USPS COLLECTION BOX - BLUE BOX", "address": {"city": "SAN PABLO", "state": "CA", "street": "5325 VALLEY VIEW RD", "postcode": "94803"}}},
{"geometry": {"type": "Point", "coordinates": [-122.2968502164, 37.9801579139]}, "type": "Feature", "properties": {"collection_times": [{"days": "Mon-Sat", "time": "5:00pm"}, {"days": "Sun", "time": "Closed"}], "id": "9480300023", "name": "USPS COLLECTION BOX - BLUE BOX", "address": {"city": "SAN PABLO", "state": "CA", "street": "535 APPIAN WAY", "postcode": "94803"}}},
{"geometry": {"type": "Point", "coordinates": [-122.3343808253, 37.9498692079]}, "type": "Feature", "properties": {"collection_times": [{"days": "Mon-Sat", "time": "10:00am"}, {"days": "Sun", "time": "Closed"}], "id": "9480400007", "name": "USPS COLLECTION BOX - BLUE BOX", "address": {"city": "RICHMOND", "state": "CA", "street": "3401 RHEEM AVE", "postcode": "94804"}}},
{"geometry": {"type": "Point", "coordinates": [-122.3474939254, 37.9420746913]}, "type": "Feature", "properties": {"collection_times": [{"days": "Mon-Fri", "time": "3:00pm"}, {"days": "Sat", "time": "10:00am"}, {"days": "Sun", "time": "Closed"}], "id": "9480400018", "name": "USPS COLLECTION BOX - BLUE BOX", "address": {"city": "RICHMOND", "state": "CA", "street": "662 23RD ST", "postcode": "94804"}}},
{"geometry": {"type": "Point", "coordinates": [-122.3551665973, 37.9251962328]}, "type": "Feature", "properties": {"collection_times": [{"days": "Mon-Sat", "time": "10:00am"}, {"days": "Sun", "time": "Closed"}], "id": "9480400021", "name": "USPS COLLECTION BOX - BLUE BOX", "address": {"city": "RICHMOND", "state": "CA", "street": "1430 CUTTING BLVD", "postcode": "94804"}}},
{"geometry": {"type": "Point", "coordinates": [-122.3478050436, 37.915357563]}, "type": "Feature", "properties": {"collection_times": [{"days": "Mon-Sat", "time": "11:00am"}, {"days": "Sun", "time": "Closed"}], "id": "9480400022", "name": "USPS COLLECTION BOX - BLUE BOX", "address": {"city": "RICHMOND", "state": "CA", "street": "1201 MELVILLE SQ", "postcode": "94804"}}},
{"geometry": {"type": "Point", "coordinates": [-122.3188343786, 37.9117317938]}, "type": "Feature", "properties": {"collection_times": [{"days": "Mon-Sat", "time": "10:00am"}, {"days": "Sun", "time": "Closed"}], "id": "9480400034", "name": "USPS COLLECTION BOX - BLUE BOX", "address": {"city": "RICHMOND", "state": "CA", "street": "1481 CARLSON BLVD", "postcode": "94804"}}},
{"geometry": {"type": "Point", "coordinates": [-122.3273075948, 37.9119842962]}, "type": "Feature", "properties": {"collection_times": [{"days": "Mon-Fri", "time": "3:00pm"}, {"days": "Sat-Sun", "time": "Closed"}], "id": "9480400041", "name": "USPS COLLECTION BOX - BLUE BOX", "address": {"city": "RICHMOND", "state": "CA", "street": "5000 SEAPORT AVE", "postcode": "94804"}}},
{"geometry": {"type": "Point", "coordinates": [-122.3178170339, 37.901087529]}, "type": "Feature", "properties": {"collection_times": [{"days": "Mon-Fri", "time": "5:00pm"}, {"days": "Sat-Sun", "time": "Closed"}], "id": "9480400046", "name": "USPS COLLECTION BOX - BLUE BOX", "address": {"city": "RICHMOND", "state": "CA", "street": "2501 RYDIN RD", "postcode": "94804"}}},
{"geometry": {"type": "Point", "coordinates": [-122.34290301, 37.9351260125]}, "type": "Feature", "properties": {"collection_times": [{"days": "Mon-Sat", "time": "3:00pm"}, {"days": "Sun", "time": "Closed"}], "id": "9480400047", "name": "USPS COLLECTION BOX - BLUE BOX", "address": {"city": "RICHMOND", "state": "CA", "street": "2701 MACDONALD AVE", "postcode": "94804"}}},
{"geometry": {"type": "Point", "coordinates": [-122.320781529, 37.89751381]}, "type": "Feature", "properties": {"collection_times": [{"days": "Mon-Sat", "time": "3:00pm"}, {"days": "Sun", "time": "Closed"}], "id": "9480400049", "name": "USPS COLLECTION BOX - BLUE BOX", "address": {"city": "RICHMOND", "state": "CA", "street": "4801 CENTRAL AVE", "postcode": "94804"}}},
{"geometry": {"type": "Point", "coordinates": [-122.3373069344, 37.9251843147]}, "type": "Feature", "properties": {"collection_times": [{"days": "Mon-Sat", "time": "5:00pm"}, {"days": "Sun", "time": "Closed"}], "id": "9480400054", "name": "USPS COLLECTION BOX - EXPRESS", "address": {"city": "RICHMOND", "state": "CA", "street": "2100 CHANSLOR AVE", "postcode": "94804"}}},
{"geometry": {"type": "Point", "coordinates": [-122.3439697003, 37.9172710686]}, "type": "Feature", "properties": {"collection_times": [{"days": "Mon-Fri", "time": "3:00pm"}, {"days": "Sat-Sun", "time": "Closed"}], "id": "9480400056", "name": "USPS COLLECTION BOX - BLUE BOX", "address": {"city": "RICHMOND", "state": "CA", "street": "1100 S 27TH ST", "postcode": "94804"}}},
{"geometry": {"type": "Point", "coordinates": [-122.3601340381, 37.9209163727]}, "type": "Feature", "properties": {"collection_times": [{"days": "Mon-Fri", "time": "3:00pm"}, {"days": "Sat-Sun", "time": "Closed"}], "id": "9480400058", "name": "USPS COLLECTION BOX - BLUE BOX", "address": {"city": "RICHMOND", "state": "CA", "street": "815 HARBOUR WAY S", "postcode": "94804"}}},
{"geometry": {"type": "Point", "coordinates": [-122.3236289113, 37.9152948662]}, "type": "Feature", "properties": {"collection_times": [{"days": "Mon-Sat", "time": "10:00am"}, {"days": "Sun", "time": "Closed"}], "id": "9480400060", "name": "USPS COLLECTION BOX - BLUE BOX", "address": {"city": "RICHMOND", "state": "CA", "street": "5100 HARTNETT AVE", "postcode": "94804"}}},
{"geometry": {"type": "Point", "coordinates": [-122.3211884669, 37.9225901742]}, "type": "Feature", "properties": {"collection_times": [{"days": "Mon-Sat", "time": "10:00am"}, {"days": "Sun", "time": "Closed"}], "id": "9480400062", "name": "USPS COLLECTION BOX - BLUE BOX", "address": {"city": "RICHMOND", "state": "CA", "street": "662 S 52ND ST", "postcode": "94804"}}},
{"geometry": {"type": "Point", "coordinates": [-122.344275055, 37.9363108478]}, "type": "Feature", "properties": {"collection_times": [{"days": "Mon-Fri", "time": "4:00pm"}, {"days": "Sat-Sun", "time": "Closed"}], "id": "9480400063", "name": "USPS COLLECTION BOX - BLUE BOX", "address": {"city": "RICHMOND", "state": "CA", "street": "440 CIVIC CENTER PLAZA", "postcode": "94804"}}},
{"geometry": {"type": "Point", "coordinates": [-122.3864762443, 37.9285581586]}, "type": "Feature", "properties": {"collection_times": [{"days": "Mon-Fri", "time": "4:45pm"}, {"days": "Sat", "time": "1:00pm"}, {"days": "Sun", "time": "Closed"}], "id": "9480400067", "name": "USPS COLLECTION BOX - BLUE BOX", "address": {"city": "RICHMOND", "state": "CA", "street": "249A TEWKSBURY AVE", "postcode": "94804"}}},
{"geometry": {"type": "Point", "coordinates": [-122.3207957245, 37.9404493056]}, "type": "Feature", "properties": {"collection_times": [{"days": "Mon-Sat", "time": "10:00am"}, {"days": "Sun", "time": "Closed"}], "id": "9480500004", "name": "USPS COLLECTION BOX - BLUE BOX", "address": {"city": "RICHMOND", "state": "CA", "street": "5435 SIERRA AVE", "postcode": "94805"}}},
{"geometry": {"type": "Point", "coordinates": [-122.3242606113, 37.9324063676]}, "type": "Feature", "properties": {"collection_times": [{"days": "Mon-Sat", "time": "3:00pm"}, {"days": "Sun", "time": "Closed"}], "id": "9480500015", "name": "USPS COLLECTION BOX - BLUE BOX", "address": {"city": "RICHMOND", "state": "CA", "street": "4800 MACDONALD AVE", "postcode": "94805"}}},
{"geometry": {"type": "Point", "coordinates": [-122.324664244, 37.9490310087]}, "type": "Feature", "properties": {"collection_times": [{"days": "Mon-Sat", "time": "10:00am"}, {"days": "Sun", "time": "Closed"}], "id": "9480500016", "name": "USPS COLLECTION BOX - BLUE BOX", "address": {"city": "RICHMOND", "state": "CA", "street": "5500 MCBRYDE AVE", "postcode": "94805"}}},
{"geometry": {"type": "Point", "coordinates": [-122.3338636471, 37.9365534661]}, "type": "Feature", "properties": {"collection_times": [{"days": "Mon-Fri", "time": "3:00pm"}, {"days": "Sat", "time": "10:00am"}, {"days": "Sun", "time": "Closed"}], "id": "9480500018", "name": "USPS COLLECTION BOX - BLUE BOX", "address": {"city": "RICHMOND", "state": "CA", "street": "3630 BARRETT AVE", "postcode": "94805"}}},
{"geometry": {"type": "Point", "coordinates": [-122.3288800661, 37.9433475551]}, "type": "Feature", "properties": {"collection_times": [{"days": "Mon-Fri", "time": "5:00pm"}, {"days": "Sat", "time": "1:00pm"}, {"days": "Sun", "time": "Closed"}], "id": "9480500023", "name": "USPS COLLECTION BOX - BLUE BOX", "address": {"city": "RICHMOND", "state": "CA", "street": "12651 SAN PABLO AVE", "postcode": "94805"}}},
{"geometry": {"type": "Point", "coordinates": [-122.3330595099, 37.9337268903]}, "type": "Feature", "properties": {"collection_times": [{"days": "Mon-Sat", "time": "3:00pm"}, {"days": "Sun", "time": "Closed"}], "id": "9480500028", "name": "USPS COLLECTION BOX - BLUE BOX", "address": {"city": "RICHMOND", "state": "CA", "street": "3823 MACDONALD AVE", "postcode": "94805"}}},
{"geometry": {"type": "Point", "coordinates": [-122.3237897937, 37.9356748833]}, "type": "Feature", "properties": {"collection_times": [{"days": "Mon-Sat", "time": "3:00pm"}, {"days": "Sun", "time": "Closed"}], "id": "9480500029", "name": "USPS COLLECTION BOX - BLUE BOX", "address": {"city": "RICHMOND", "state": "CA", "street": "5009 BARRETT AVE", "postcode": "94805"}}},
{"geometry": {"type": "Point", "coordinates": [-122.34079698, 37.958149064]}, "type": "Feature", "properties": {"collection_times": [{"days": "Mon-Sat", "time": "3:00pm"}, {"days": "Sun", "time": "Closed"}], "id": "9480600000", "name": "USPS COLLECTION BOX - BLUE BOX", "address": {"city": "RICHMOND", "state": "CA", "street": "1 ALVARADO SQ", "postcode": "94806"}}},
{"geometry": {"type": "Point", "coordinates": [-122.3566858682, 37.9602167177]}, "type": "Feature", "properties": {"collection_times": [{"days": "Mon-Sat", "time": "10:00am"}, {"days": "Sun", "time": "Closed"}], "id": "9480600003", "name": "USPS COLLECTION BOX - BLUE BOX", "address": {"city": "RICHMOND", "state": "CA", "street": "1847 RUMRILL BLVD", "postcode": "94806"}}},
{"geometry": {"type": "Point", "coordinates": [-122.3284009677, 37.967882124]}, "type": "Feature", "properties": {"collection_times": [{"days": "Mon-Sat", "time": "10:00am"}, {"days": "Sun", "time": "Closed"}], "id": "9480600005", "name": "USPS COLLECTION BOX - BLUE BOX", "address": {"city": "RICHMOND", "state": "CA", "street": "2607 MOYERS RD", "postcode": "94806"}}},
{"geometry": {"type": "Point", "coordinates": [-122.332890297, 37.951567937]}, "type": "Feature", "properties": {"collection_times": [{"days": "Mon-Sat", "time": "10:00am"}, {"days": "Sun", "time": "Closed"}], "id": "9480600012", "name": "USPS COLLECTION BOX - BLUE BOX", "address": {"city": "RICHMOND", "state": "CA", "street": "13201 SAN PABLO AVE", "postcode": "94806"}}},
{"geometry": {"type": "Point", "coordinates": [-122.3364441219, 37.9782262473]}, "type": "Feature", "properties": {"collection_times": [{"days": "Mon-Sat", "time": "10:00am"}, {"days": "Sun", "time": "Closed"}], "id": "9480600014", "name": "USPS COLLECTION BOX - BLUE BOX", "address": {"city": "RICHMOND", "state": "CA", "street": "300 TOWN CTR", "postcode": "94806"}}},
{"geometry": {"type": "Point", "coordinates": [-122.3423627117, 37.9685126233]}, "type": "Feature", "properties": {"collection_times": [{"days": "Mon-Sat", "time": "10:00am"}, {"days": "Sun", "time": "Closed"}], "id": "9480600016", "name": "USPS COLLECTION BOX - BLUE BOX", "address": {"city": "RICHMOND", "state": "CA", "street": "2600 MISSION BELL DR", "postcode": "94806"}}},
{"geometry": {"type": "Point", "coordinates": [-122.3446477261, 37.965835605]}, "type": "Feature", "properties": {"collection_times": [{"days": "Mon-Sat", "time": "3:00pm"}, {"days": "Sun", "time": "Closed"}], "id": "9480600017", "name": "USPS COLLECTION BOX - BLUE BOX", "address": {"city": "RICHMOND", "state": "CA", "street": "14400 SAN PABLO AVE", "postcode": "94806"}}},
{"geometry": {"type": "Point", "coordinates": [-122.3389589897, 37.9744462339]}, "type": "Feature", "properties": {"collection_times": [{"days": "Mon-Sat", "time": "10:00am"}, {"days": "Sun", "time": "Closed"}], "id": "9480600020", "name": "USPS COLLECTION BOX - BLUE BOX", "address": {"city": "RICHMOND", "state": "CA", "street": "2500 LANCASTER DR", "postcode": "94806"}}},
{"geometry": {"type": "Point", "coordinates": [-122.329786656, 37.988613302]}, "type": "Feature", "properties": {"collection_times": [{"days": "Mon-Sat", "time": "5:00pm"}, {"days": "Sun", "time": "Closed"}], "id": "9480600021", "name": "USPS COLLECTION BOX - BLUE BOX", "address": {"city": "RICHMOND", "state": "CA", "street": "4180 LAKESIDE DR", "postcode": "94806"}}},
{"geometry": {"type": "Point", "coordinates": [-122.3291538531, 37.983289208]}, "type": "Feature", "properties": {"collection_times": [{"days": "Mon-Sat", "time": "3:00pm"}, {"days": "Sun", "time": "Closed"}], "id": "9480600022", "name": "USPS COLLECTION BOX - BLUE BOX", "address": {"city": "RICHMOND", "state": "CA", "street": "2123 HILLTOP MALL RD", "postcode": "94806"}}},
{"geometry": {"type": "Point", "coordinates": [-122.3225015514, 37.9826951362]}, "type": "Feature", "properties": {"collection_times": [{"days": "Mon-Fri", "time": "5:00pm"}, {"days": "Sat", "time": "1:00pm"}, {"days": "Sun", "time": "Closed"}], "id": "9480600033", "name": "USPS COLLECTION BOX - BLUE BOX", "address": {"city": "RICHMOND", "state": "CA", "street": "3220 BLUME DR", "postcode": "94806"}}},
{"geometry": {"type": "Point", "coordinates": [-122.3461074975, 37.9609227765]}, "type": "Feature", "properties": {"collection_times": [{"days": "Mon-Fri", "time": "5:00pm"}, {"days": "Sat", "time": "1:30pm"}, {"days": "Sun", "time": "Closed"}], "id": "9480600041", "name": "USPS COLLECTION BOX - BLUE BOX", "address": {"city": "RICHMOND", "state": "CA", "street": "2080 23RD ST", "postcode": "94806"}}},
{"geometry": {"type": "Point", "coordinates": [-122.3461074975, 37.9609227765]}, "type": "Feature", "properties": {"collection_times": [{"days": "Mon-Fri", "time": "5:00pm"}, {"days": "Sat", "time": "1:30pm"}, {"days": "Sun", "time": "Closed"}], "id": "9480600045", "name": "USPS COLLECTION BOX - BLUE BOX", "address": {"city": "RICHMOND", "state": "CA", "street": "2080 23RD ST", "postcode": "94806"}}},
{"geometry": {"type": "Point", "coordinates": [-122.3249266172, 37.9792539086]}, "type": "Feature", "properties": {"collection_times": [{"days": "Mon-Fri", "time": "5:00pm"}, {"days": "Sat", "time": "1:00pm"}, {"days": "Sun", "time": "Closed"}], "id": "9480600047", "name": "USPS COLLECTION BOX - BLUE BOX", "address": {"city": "RICHMOND", "state": "CA", "street": "3100 HILLTOP MALL RD", "postcode": "94806"}}},
{"geometry": {"type": "Point", "coordinates": [-122.320839494, 37.9840306969]}, "type": "Feature", "properties": {"collection_times": [{"days": "Mon-Fri", "time": "5:00pm"}, {"days": "Sat", "time": "1:00pm"}, {"days": "Sun", "time": "Closed"}], "id": "9480600054", "name": "USPS COLLECTION BOX - BLUE BOX", "address": {"city": "RICHMOND", "state": "CA", "street": "3260 BLUME DR", "postcode": "94806"}}},
{"geometry": {"type": "Point", "coordinates": [-122.3280208283, 37.9833170123]}, "type": "Feature", "properties": {"collection_times": [{"days": "Mon-Fri", "time": "5:00pm"}, {"days": "Sat", "time": "1:00pm"}, {"days": "Sun", "time": "Closed"}], "id": "9480600055", "name": "USPS COLLECTION BOX - BLUE BOX", "address": {"city": "RICHMOND", "state": "CA", "street": "2453 HILLTOP MALL RD", "postcode": "94806"}}},
{"geometry": {"type": "Point", "coordinates": [-122.3298832153, 37.9886785426]}, "type": "Feature", "properties": {"collection_times": [{"days": "Mon-Sat", "time": "5:00pm"}, {"days": "Sun", "time": "Closed"}], "id": "9480600056", "name": "USPS COLLECTION BOX - BLUE BOX", "address": {"city": "RICHMOND", "state": "CA", "street": "4180 LAKESIDE DR", "postcode": "94806"}}}
]}
