{"type": "FeatureCollection", "features": [
{"geometry": {"type": "Point", "coordinates": [-122.5186361478, 37.97215024]}, "type": "Feature", "properties": {"collection_times": [{"days": "Mon-Fri", "time": "12:00pm"}, {"days": "Sat", "time": "1:00pm"}, {"days": "Sun", "time": "Closed"}], "id": "9490100003", "name": "USPS COLLECTION BOX - BLUE BOX", "address": {"city": "SAN RAFAEL", "state": "CA", "street": "1001 GRAND AVE", "postcode": "94901"}}},
{"geometry": {"type": "Point", "coordinates": [-122.5174052282, 37.9717405428]}, "type": "Feature", "properties": {"collection_times": [{"days": "Mon-Fri", "time": "12:00pm"}, {"days": "Sat", "time": "1:00pm"}, {"days": "Sun", "time": "Closed"}], "id": "9490100004", "name": "USPS COLLECTION BOX - BLUE BOX", "address": {"city": "SAN RAFAEL", "state": "CA", "street": "33 MARY ST", "postcode": "94901"}}},
{"geometry": {"type": "Point", "coordinates": [-122.5302035366, 37.9683296769]}, "type": "Feature", "properties": {"collection_times": [{"days": "Mon-Fri", "time": "2:15pm"}, {"days": "Sat", "time": "1:00pm"}, {"days": "Sun", "time": "Closed"}], "id": "9490100011", "name": "USPS COLLECTION BOX - BLUE BOX", "address": {"city": "SAN RAFAEL", "state": "CA", "street": "500 B ST", "postcode": "94901"}}},
{"geometry": {"type": "Point", "coordinates": [-122.5206653232, 37.9620994316]}, "type": "Feature", "properties": {"collection_times": [{"days": "Mon-Fri", "time": "2:30pm"}, {"days": "Sat", "time": "1:00pm"}, {"days": "Sun", "time": "Closed"}], "id": "9490100016", "name": "USPS COLLECTION BOX - BLUE BOX", "address": {"city": "SAN RAFAEL", "state": "CA", "street": "395 IRWIN ST", "postcode": "94901"}}},
{"geometry": {"type": "Point", "coordinates": [-122.5185529657, 37.9751253678]}, "type": "Feature", "properties": {"collection_times": [{"days": "Mon-Fri", "time": "12:00pm"}, {"days": "Sat", "time": "1:00pm"}, {"days": "Sun", "time": "Closed"}], "id": "9490100018", "name": "USPS COLLECTION BOX - BLUE BOX", "address": {"city": "SAN RAFAEL", "state": "CA", "street": "1301 GRAND AVE", "postcode": "94901"}}},
{"geometry": {"type": "Point", "coordinates": [-122.4964678211, 37.9645783668]}, "type": "Feature", "properties": {"collection_times": [{"days": "Mon-Fri", "time": "12:00pm"}, {"days": "Sat", "time": "1:00pm"}, {"days": "Sun", "time": "Closed"}], "id": "9490100022", "name": "USPS COLLECTION BOX - BLUE BOX", "address": {"city": "SAN RAFAEL", "state": "CA", "street": "231 CATALINA BLVD", "postcode": "94901"}}},
{"geometry": {"type": "Point", "coordinates": [-122.5046046115, 37.9664762806]}, "type": "Feature", "properties": {"collection_times": [{"days": "Mon-Fri", "time": "12:00pm"}, {"days": "Sat", "time": "1:00pm"}, {"days": "Sun", "time": "Closed"}], "id": "9490100029", "name": "USPS COLLECTION BOX - BLUE BOX", "address": {"city": "SAN RAFAEL", "state": "CA", "street": "260 CANAL ST", "postcode": "94901"}}},
{"geometry": {"type": "Point", "coordinates": [-122.5331534202, 37.9660686479]}, "type": "Feature", "properties": {"collection_times": [{"days": "Mon-Fri", "time": "2:15pm"}, {"days": "Sat", "time": "1:00pm"}, {"days": "Sun", "time": "Closed"}], "id": "9490100043", "name": "USPS COLLECTION BOX - BLUE BOX", "address": {"city": "SAN RAFAEL", "state": "CA", "street": "304 D ST", "postcode": "94901"}}},
{"geometry": {"type": "Point", "coordinates": [-122.4856765451, 37.9451290913]}, "type": "Feature", "properties": {"collection_times": [{"days": "Mon-Fri", "time": "5:00pm"}, {"days": "Sat", "time": "1:00pm"}, {"days": "Sun", "time": "Closed"}], "id": "9490100048", "name": "USPS COLLECTION BOX - BLUE BOX", "address": {"city": "SAN RAFAEL", "state": "CA", "street": "2165 FRANCISCO BLVD E", "postcode": "94901"}}},
{"geometry": {"type": "Point", "coordinates": [-122.4856765451, 37.9451290913]}, "type": "Feature", "properties": {"collection_times": [{"days": "Mon-Fri", "time": "5:00pm"}, {"days": "Sat", "time": "1:00pm"}, {"days": "Sun", "time": "Closed"}], "id": "9490100049", "name": "USPS COLLECTION BOX - BLUE BOX", "address": {"city": "SAN RAFAEL", "state": "CA", "street": "2165 FRANCISCO BLVD E", "postcode": "94901"}}},
{"geometry": {"type": "Point", "coordinates": [-122.4969766798, 37.9525089523]}, "type": "Feature", "properties": {"collection_times": [{"days": "Mon-Fri", "time": "5:00pm"}, {"days": "Sat-Sun", "time": "Closed"}], "id": "9490100052", "name": "USPS COLLECTION BOX - BLUE BOX", "address": {"city": "SAN RAFAEL", "state": "CA", "street": "1525 FRANCISCO BLVD E", "postcode": "94901"}}},
{"geometry": {"type": "Point", "coordinates": [-122.5304172361, 37.9734006276]}, "type": "Feature", "properties": {"collection_times": [{"days": "Mon-Fri", "time": "3:00pm"}, {"days": "Sat-Sun", "time": "Closed"}], "id": "9490100054", "name": "USPS COLLECTION BOX - BLUE BOX", "address": {"city": "SAN RAFAEL", "state": "CA", "street": "1299 4TH ST", "postcode": "94901"}}},
{"geometry": {"type": "Point", "coordinates": [-122.4997312805, 37.9572899095]}, "type": "Feature", "properties": {"collection_times": [{"days": "Mon-Fri", "time": "3:00pm"}, {"days": "Sat-Sun", "time": "Closed"}], "id": "9490100056", "name": "USPS COLLECTION BOX - BLUE BOX", "address": {"city": "SAN RAFAEL", "state": "CA", "street": "3100 KERNER BLVD", "postcode": "94901"}}},
{"geometry": {"type": "Point", "coordinates": [-122.4997312805, 37.9572899095]}, "type": "Feature", "properties": {"collection_times": [{"days": "Mon-Fri", "time": "3:00pm"}, {"days": "Sat-Sun", "time": "Closed"}], "id": "9490100057", "name": "USPS COLLECTION BOX - BLUE BOX", "address": {"city": "SAN RAFAEL", "state": "CA", "street": "3100 KERNER BLVD", "postcode": "94901"}}},
{"geometry": {"type": "Point", "coordinates": [-122.5067584053, 37.957758544]}, "type": "Feature", "properties": {"collection_times": [{"days": "Mon-Fri", "time": "3:00pm"}, {"days": "Sat", "time": "1:00pm"}, {"days": "Sun", "time": "Closed"}], "id": "9490100058", "name": "USPS COLLECTION BOX - BLUE BOX", "address": {"city": "SAN RAFAEL", "state": "CA", "street": "1 DODIE ST", "postcode": "94901"}}},
{"geometry": {"type": "Point", "coordinates": [-122.5321076845, 37.9728067822]}, "type": "Feature", "properties": {"collection_times": [{"days": "Mon-Fri", "time": "5:00pm"}, {"days": "Sat", "time": "1:00pm"}, {"days": "Sun", "time": "Closed"}], "id": "9490100059", "name": "USPS COLLECTION BOX - BLUE BOX", "address": {"city": "SAN RAFAEL", "state": "CA", "street": "910 D ST", "postcode": "94901"}}},
{"geometry": {"type": "Point", "coordinates": [-122.5324022412, 37.970853717]}, "type": "Feature", "properties": {"collection_times": [{"days": "Mon-Fri", "time": "5:00pm"}, {"days": "Sat", "time": "1:00pm"}, {"days": "Sun", "time": "Closed"}], "id": "9490100060", "name": "USPS COLLECTION BOX - BLUE BOX", "address": {"city": "SAN RAFAEL", "state": "CA", "street": "711 D ST", "postcode": "94901"}}},
{"geometry": {"type": "Point", "coordinates": [-122.5322117848, 37.9721088364]}, "type": "Feature", "properties": {"collection_times": [{"days": "Mon-Fri", "time": "5:00pm"}, {"days": "Sat", "time": "1:00pm"}, {"days": "Sun", "time": "Closed"}], "id": "9490100061", "name": "USPS COLLECTION BOX - BLUE BOX", "address": {"city": "SAN RAFAEL", "state": "CA", "street": "822 D ST", "postcode": "94901"}}},
{"geometry": {"type": "Point", "coordinates": [-122.5089597806, 37.9587346566]}, "type": "Feature", "properties": {"collection_times": [{"days": "Mon-Fri", "time": "3:00pm"}, {"days": "Sat-Sun", "time": "Closed"}], "id": "9490100063", "name": "USPS COLLECTION BOX - BLUE BOX", "address": {"city": "SAN RAFAEL", "state": "CA", "street": "1011 ANDERSEN DR", "postcode": "94901"}}},
{"geometry": {"type": "Point", "coordinates": [-122.4987278328, 37.95177765]}, "type": "Feature", "properties": {"collection_times": [{"days": "Mon-Fri", "time": "5:00pm"}, {"days": "Sat-Sun", "time": "Closed"}], "id": "9490100064", "name": "USPS COLLECTION BOX - BLUE BOX", "address": {"city": "SAN RAFAEL", "state": "CA", "street": "1221 ANDERSEN DR", "postcode": "94901"}}},
{"geometry": {"type": "Point", "coordinates": [-122.515906086, 37.9700842427]}, "type": "Feature", "properties": {"collection_times": [{"days": "Mon-Fri", "time": "12:00pm"}, {"days": "Sat", "time": "1:00pm"}, {"days": "Sun", "time": "Closed"}], "id": "9490100066", "name": "USPS COLLECTION BOX - BLUE BOX", "address": {"city": "SAN RAFAEL", "state": "CA", "street": "373 3RD ST", "postcode": "94901"}}},
{"geometry": {"type": "Point", "coordinates": [-122.5132064917, 37.9691233906]}, "type": "Feature", "properties": {"collection_times": [{"days": "Mon-Fri", "time": "3:00pm"}, {"days": "Sat", "time": "1:00pm"}, {"days": "Sun", "time": "Closed"}], "id": "9490100068", "name": "USPS COLLECTION BOX - BLUE BOX", "address": {"city": "SAN RAFAEL", "state": "CA", "street": "185 3RD ST", "postcode": "94901"}}},
{"geometry": {"type": "Point", "coordinates": [-122.5085421383, 37.9679958353]}, "type": "Feature", "properties": {"collection_times": [{"days": "Mon-Fri", "time": "12:00pm"}, {"days": "Sat", "time": "1:00pm"}, {"days": "Sun", "time": "Closed"}], "id": "9490100069", "name": "USPS COLLECTION BOX - BLUE BOX", "address": {"city": "SAN RAFAEL", "state": "CA", "street": "40 POINT SAN PEDRO RD", "postcode": "94901"}}},
{"geometry": {"type": "Point", "coordinates": [-122.5295380408, 37.9733173013]}, "type": "Feature", "properties": {"collection_times": [{"days": "Mon-Fri", "time": "5:00pm"}, {"days": "Sat", "time": "1:00pm"}, {"days": "Sun", "time": "Closed"}], "id": "9490100070", "name": "USPS COLLECTION BOX - BLUE BOX", "address": {"city": "SAN RAFAEL", "state": "CA", "street": "1011 B ST", "postcode": "94901"}}},
{"geometry": {"type": "Point", "coordinates": [-122.5070620772, 37.9589342224]}, "type": "Feature", "properties": {"collection_times": [{"days": "Mon-Fri", "time": "5:00pm"}, {"days": "Sat", "time": "1:00pm"}, {"days": "Sun", "time": "Closed"}], "id": "9490100077", "name": "USPS COLLECTION BOX - BLUE BOX", "address": {"city": "SAN RAFAEL", "state": "CA", "street": "55 BELLAM BLVD", "postcode": "94901"}}},
{"geometry": {"type": "Point", "coordinates": [-122.5070620772, 37.9589342224]}, "type": "Feature", "properties": {"collection_times": [{"days": "Mon-Fri", "time": "5:00pm"}, {"days": "Sat", "time": "1:00pm"}, {"days": "Sun", "time": "Closed"}], "id": "9490100078", "name": "USPS COLLECTION BOX - BLUE BOX", "address": {"city": "SAN RAFAEL", "state": "CA", "street": "55 BELLAM BLVD", "postcode": "94901"}}},
{"geometry": {"type": "Point", "coordinates": [-122.5255162371, 37.9737034651]}, "type": "Feature", "properties": {"collection_times": [{"days": "Mon-Fri", "time": "12:00pm"}, {"days": "Sat", "time": "1:00pm"}, {"days": "Sun", "time": "Closed"}], "id": "9490100082", "name": "USPS COLLECTION BOX - BLUE BOX", "address": {"city": "SAN RAFAEL", "state": "CA", "street": "900 5TH AVE", "postcode": "94901"}}},
{"geometry": {"type": "Point", "coordinates": [-122.5227658575, 37.9733521263]}, "type": "Feature", "properties": {"collection_times": [{"days": "Mon-Fri", "time": "12:00pm"}, {"days": "Sat", "time": "1:00pm"}, {"days": "Sun", "time": "Closed"}], "id": "9490100083", "name": "USPS COLLECTION BOX - BLUE BOX", "address": {"city": "SAN RAFAEL", "state": "CA", "street": "700 5TH AVE", "postcode": "94901"}}},
{"geometry": {"type": "Point", "coordinates": [-122.5217555777, 37.9668340731]}, "type": "Feature", "properties": {"collection_times": [{"days": "Mon-Fri", "time": "5:00pm"}, {"days": "Sat-Sun", "time": "Closed"}], "id": "9490100084", "name": "USPS COLLECTION BOX - BLUE BOX", "address": {"city": "SAN RAFAEL", "state": "CA", "street": "700 IRWIN ST", "postcode": "94901"}}},
{"geometry": {"type": "Point", "coordinates": [-122.5321076845, 37.9728067822]}, "type": "Feature", "properties": {"collection_times": [{"days": "Mon-Fri", "time": "5:00pm"}, {"days": "Sat", "time": "1:00pm"}, {"days": "Sun", "time": "Closed"}], "id": "9490100085", "name": "USPS COLLECTION BOX - PO LOBBY", "address": {"city": "SAN RAFAEL", "state": "CA", "street": "910 D ST", "postcode": "94901"}}},
{"geometry": {"type": "Point", "coordinates": [-122.5304172361, 37.9734006276]}, "type": "Feature", "properties": {"collection_times": [{"days": "Mon-Fri", "time": "3:00pm"}, {"days": "Sat-Sun", "time": "Closed"}], "id": "9490100088", "name": "USPS COLLECTION BOX - BLUE BOX", "address": {"city": "SAN RAFAEL", "state": "CA", "street": "1299 4TH ST", "postcode": "94901"}}},
{"geometry": {"type": "Point", "coordinates": [-122.5281356429, 37.9731677177]}, "type": "Feature", "properties": {"collection_times": [{"days": "Mon-Fri", "time": "5:00pm"}, {"days": "Sat", "time": "1:00pm"}, {"days": "Sun", "time": "Closed"}], "id": "9490100092", "name": "USPS COLLECTION BOX - BLUE BOX", "address": {"city": "SAN RAFAEL", "state": "CA", "street": "1000 A ST", "postcode": "94901"}}},
{"geometry": {"type": "Point", "coordinates": [-122.5281356429, 37.9731677177]}, "type": "Feature", "properties": {"collection_times": [{"days": "Mon-Fri", "time": "5:00pm"}, {"days": "Sat", "time": "1:00pm"}, {"days": "Sun", "time": "Closed"}], "id": "9490100093", "name": "USPS COLLECTION BOX - BLUE BOX", "address": {"city": "SAN RAFAEL", "state": "CA", "street": "1000 A ST", "postcode": "94901"}}},
{"geometry": {"type": "Point", "coordinates": [-122.5055597194, 37.9633596719]}, "type": "Feature", "properties": {"collection_times": [{"days": "Mon-Fri", "time": "3:00pm"}, {"days": "Sat-Sun", "time": "Closed"}], "id": "9490100097", "name": "USPS COLLECTION BOX - BLUE BOX", "address": {"city": "SAN RAFAEL", "state": "CA", "street": "90 BELVEDERE ST", "postcode": "94901"}}},
{"geometry": {"type": "Point", "coordinates": [-122.5322117848, 37.9721088364]}, "type": "Feature", "properties": {"collection_times": [{"days": "Mon-Fri", "time": "5:00pm"}, {"days": "Sat", "time": "1:00pm"}, {"days": "Sun", "time": "Closed"}], "id": "9490100098", "name": "USPS COLLECTION BOX - BLUE BOX", "address": {"city": "SAN RAFAEL", "state": "CA", "street": "822 D ST", "postcode": "94901"}}},
{"geometry": {"type": "Point", "coordinates": [-122.5208471271, 37.9664448378]}, "type": "Feature", "properties": {"collection_times": [{"days": "Mon-Fri", "time": "3:00pm"}, {"days": "Sat", "time": "1:00pm"}, {"days": "Sun", "time": "Closed"}], "id": "9490100099", "name": "USPS COLLECTION BOX - BLUE BOX", "address": {"city": "SAN RAFAEL", "state": "CA", "street": "701 DU BOIS ST", "postcode": "94901"}}},
{"geometry": {"type": "Point", "coordinates": [-122.5251054355, 37.9745891499]}, "type": "Feature", "properties": {"collection_times": [{"days": "Mon-Fri", "time": "5:00pm"}, {"days": "Sat-Sun", "time": "Closed"}], "id": "9490100106", "name": "USPS COLLECTION BOX - BLUE BOX", "address": {"city": "SAN RAFAEL", "state": "CA", "street": "901 MISSION AVE", "postcode": "94901"}}},
{"geometry": {"type": "Point", "coordinates": [-122.5251054355, 37.9745891499]}, "type": "Feature", "properties": {"collection_times": [{"days": "Mon-Fri", "time": "5:00pm"}, {"days": "Sat-Sun", "time": "Closed"}], "id": "9490100107", "name": "USPS COLLECTION BOX - BLUE BOX", "address": {"city": "SAN RAFAEL", "state": "CA", "street": "901 MISSION AVE", "postcode": "94901"}}},
{"geometry": {"type": "Point", "coordinates": [-122.5251054355, 37.9745891499]}, "type": "Feature", "properties": {"collection_times": [{"days": "Mon-Fri", "time": "5:00pm"}, {"days": "Sat-Sun", "time": "Closed"}], "id": "9490100108", "name": "USPS COLLECTION BOX - BLUE BOX", "address": {"city": "SAN RAFAEL", "state": "CA", "street": "901 MISSION AVE", "postcode": "94901"}}},
{"geometry": {"type": "Point", "coordinates": [-122.5321076845, 37.9728067822]}, "type": "Feature", "properties": {"collection_times": [{"days": "Mon-Fri", "time": "5:00pm"}, {"days": "Sat", "time": "1:00pm"}, {"days": "Sun", "time": "Closed"}], "id": "9490100112", "name": "USPS COLLECTION BOX - BLUE BOX", "address": {"city": "SAN RAFAEL", "state": "CA", "street": "910 D ST", "postcode": "94901"}}},
{"geometry": {"type": "Point", "coordinates": [-122.5210623966, 37.9708478022]}, "type": "Feature", "properties": {"collection_times": [{"days": "Mon-Fri", "time": "5:00pm"}, {"days": "Sat", "time": "1:00pm"}, {"days": "Sun", "time": "Closed"}], "id": "9490100114", "name": "USPS COLLECTION BOX - BLUE BOX", "address": {"city": "SAN RAFAEL", "state": "CA", "street": "851 IRWIN ST", "postcode": "94901"}}},
{"geometry": {"type": "Point", "coordinates": [-122.5190963188, 37.9697204423]}, "type": "Feature", "properties": {"collection_times": [{"days": "Mon-Fri", "time": "12:00pm"}, {"days": "Sat", "time": "1:00pm"}, {"days": "Sun", "time": "Closed"}], "id": "9490100118", "name": "USPS COLLECTION BOX - BLUE BOX", "address": {"city": "SAN RAFAEL", "state": "CA", "street": "777 GRAND AVE", "postcode": "94901"}}},
{"geometry": {"type": "Point", "coordinates": [-122.507277605, 37.958724268]}, "type": "Feature", "properties": {"collection_times": [{"days": "Mon-Sat", "time": "6:00pm"}, {"days": "Sun", "time": "Closed"}], "id": "9490100119", "name": "USPS COLLECTION BOX - BLUE BOX", "address": {"city": "SAN RAFAEL", "state": "CA", "street": "40 BELLAM BLVD", "postcode": "94901"}}},
{"geometry": {"type": "Point", "coordinates": [-122.507277605, 37.958724268]}, "type": "Feature", "properties": {"collection_times": [{"days": "Mon-Fri", "time": "6:00pm"}, {"days": "Sat", "time": "5:00pm"}, {"days": "Sun", "time": "Closed"}], "id": "9490100121", "name": "USPS COLLECTION BOX - PO LOBBY", "address": {"city": "SAN RAFAEL", "state": "CA", "street": "40 BELLAM BLVD", "postcode": "94901"}}},
{"geometry": {"type": "Point", "coordinates": [-122.5321076845, 37.9728067822]}, "type": "Feature", "properties": {"collection_times": [{"days": "Mon-Fri", "time": "5:00pm"}, {"days": "Sat", "time": "1:00pm"}, {"days": "Sun", "time": "Closed"}], "id": "9490100128", "name": "USPS COLLECTION BOX - APC", "address": {"city": "SAN RAFAEL", "state": "CA", "street": "910 D ST", "postcode": "94901"}}},
{"geometry": {"type": "Point", "coordinates": [-122.507277605, 37.958724268]}, "type": "Feature", "properties": {"collection_times": [{"days": "Mon-Fri", "time": "6:00pm"}, {"days": "Sat", "time": "5:00pm"}, {"days": "Sun", "time": "Closed"}], "id": "9490100129", "name": "USPS COLLECTION BOX - APC", "address": {"city": "SAN RAFAEL", "state": "CA", "street": "40 BELLAM BLVD", "postcode": "94901"}}},
{"geometry": {"type": "Point", "coordinates": [-122.5318938535, 37.9746337683]}, "type": "Feature", "properties": {"collection_times": [{"days": "Mon-Fri", "time": "12:00pm"}, {"days": "Sat", "time": "1:00pm"}, {"days": "Sun", "time": "Closed"}], "id": "9490100132", "name": "USPS COLLECTION BOX - BLUE BOX", "address": {"city": "SAN RAFAEL", "state": "CA", "street": "1400 5TH AVE", "postcode": "94901"}}},
{"geometry": {"type": "Point", "coordinates": [-122.5231050283, 37.9742682709]}, "type": "Feature", "properties": {"collection_times": [{"days": "Mon-Fri", "time": "5:00pm"}, {"days": "Sat", "time": "1:00pm"}, {"days": "Sun", "time": "Closed"}], "id": "9490100133", "name": "USPS COLLECTION BOX - BLUE BOX", "address": {"city": "SAN RAFAEL", "state": "CA", "street": "790 MISSION AVE", "postcode": "94901"}}},
{"geometry": {"type": "Point", "coordinates": [-122.5054195042, 37.9772260146]}, "type": "Feature", "properties": {"collection_times": [{"days": "Mon-Fri", "time": "12:00pm"}, {"days": "Sat-Sun", "time": "Closed"}], "id": "9490100134", "name": "USPS COLLECTION BOX - BLUE BOX", "address": {"city": "SAN RAFAEL", "state": "CA", "street": "631 SAN PEDRO AVE", "postcode": "94901"}}},
{"geometry": {"type": "Point", "coordinates": [-122.5351810119, 37.9926051629]}, "type": "Feature", "properties": {"collection_times": [{"days": "Mon-Fri", "time": "12:15pm"}, {"days": "Sat", "time": "1:00pm"}, {"days": "Sun", "time": "Closed"}], "id": "9490300000", "name": "USPS COLLECTION BOX - BLUE BOX", "address": {"city": "SAN RAFAEL", "state": "CA", "street": "10 N SAN PEDRO RD", "postcode": "94903"}}},
{"geometry": {"type": "Point", "coordinates": [-122.534110434, 38.019628298]}, "type": "Feature", "properties": {"collection_times": [{"days": "Mon-Fri", "time": "5:00pm"}, {"days": "Sat-Sun", "time": "Closed"}], "id": "9490300001", "name": "USPS COLLECTION BOX - BLUE BOX", "address": {"city": "SAN RAFAEL", "state": "CA", "street": "100 SMITH RANCH RD", "postcode": "94903"}}},
{"geometry": {"type": "Point", "coordinates": [-122.534110434, 38.019628298]}, "type": "Feature", "properties": {"collection_times": [{"days": "Mon-Fri", "time": "5:00pm"}, {"days": "Sat-Sun", "time": "Closed"}], "id": "9490300002", "name": "USPS COLLECTION BOX - BLUE BOX", "address": {"city": "SAN RAFAEL", "state": "CA", "street": "100 SMITH RANCH RD", "postcode": "94903"}}},
{"geometry": {"type": "Point", "coordinates": [-122.5417745258, 38.004660292]}, "type": "Feature", "properties": {"collection_times": [{"days": "Mon-Fri", "time": "5:00pm"}, {"days": "Sat-Sun", "time": "Closed"}], "id": "9490300005", "name": "USPS COLLECTION BOX - BLUE BOX", "address": {"city": "SAN RAFAEL", "state": "CA", "street": "454 LAS GALLINAS AVE", "postcode": "94903"}}},
{"geometry": {"type": "Point", "coordinates": [-122.5368821068, 38.0233735461]}, "type": "Feature", "properties": {"collection_times": [{"days": "Mon-Fri", "time": "5:00pm"}, {"days": "Sat-Sun", "time": "Closed"}], "id": "9490300007", "name": "USPS COLLECTION BOX - BLUE BOX", "address": {"city": "SAN RAFAEL", "state": "CA", "street": "155 N REDWOOD DR", "postcode": "94903"}}},
{"geometry": {"type": "Point", "coordinates": [-122.5531132355, 38.0013038408]}, "type": "Feature", "properties": {"collection_times": [{"days": "Mon-Sat", "time": "1:00pm"}, {"days": "Sun", "time": "Closed"}], "id": "9490300010", "name": "USPS COLLECTION BOX - BLUE BOX", "address": {"city": "SAN RAFAEL", "state": "CA", "street": "235 NOVA ALBION WAY", "postcode": "94903"}}},
{"geometry": {"type": "Point", "coordinates": [-122.5672883973, 38.016224285]}, "type": "Feature", "properties": {"collection_times": [{"days": "Mon-Sat", "time": "1:00pm"}, {"days": "Sun", "time": "Closed"}], "id": "9490300012", "name": "USPS COLLECTION BOX - BLUE BOX", "address": {"city": "SAN RAFAEL", "state": "CA", "street": "799 DEL GANADO RD", "postcode": "94903"}}},
{"geometry": {"type": "Point", "coordinates": [-122.5362348212, 37.9970104093]}, "type": "Feature", "properties": {"collection_times": [{"days": "Mon-Fri", "time": "2:45pm"}, {"days": "Sat", "time": "1:00pm"}, {"days": "Sun", "time": "Closed"}], "id": "9490300013", "name": "USPS COLLECTION BOX - BLUE BOX", "address": {"city": "SAN RAFAEL", "state": "CA", "street": "215 MERRYDALE RD", "postcode": "94903"}}},
{"geometry": {"type": "Point", "coordinates": [-122.5639831395, 38.0101467834]}, "type": "Feature", "properties": {"collection_times": [{"days": "Mon-Sat", "time": "1:00pm"}, {"days": "Sun", "time": "Closed"}], "id": "9490300015", "name": "USPS COLLECTION BOX - BLUE BOX", "address": {"city": "SAN RAFAEL", "state": "CA", "street": "901 LEA DR", "postcode": "94903"}}},
{"geometry": {"type": "Point", "coordinates": [-122.5552368981, 38.0154370744]}, "type": "Feature", "properties": {"collection_times": [{"days": "Mon-Sat", "time": "1:00pm"}, {"days": "Sun", "time": "Closed"}], "id": "9490300016", "name": "USPS COLLECTION BOX - BLUE BOX", "address": {"city": "SAN RAFAEL", "state": "CA", "street": "575 LAS COLINDAS RD", "postcode": "94903"}}},
{"geometry": {"type": "Point", "coordinates": [-122.5439092862, 38.0242366645]}, "type": "Feature", "properties": {"collection_times": [{"days": "Mon-Fri", "time": "5:00pm"}, {"days": "Sat-Sun", "time": "Closed"}], "id": "9490300017", "name": "USPS COLLECTION BOX - BLUE BOX", "address": {"city": "SAN RAFAEL", "state": "CA", "street": "199 LUCAS VALLEY RD", "postcode": "94903"}}},
{"geometry": {"type": "Point", "coordinates": [-122.5439092862, 38.0242366645]}, "type": "Feature", "properties": {"collection_times": [{"days": "Mon-Fri", "time": "5:00pm"}, {"days": "Sat-Sun", "time": "Closed"}], "id": "9490300018", "name": "USPS COLLECTION BOX - BLUE BOX", "address": {"city": "SAN RAFAEL", "state": "CA", "street": "199 LUCAS VALLEY RD", "postcode": "94903"}}},
{"geometry": {"type": "Point", "coordinates": [-122.5439092862, 38.0242366645]}, "type": "Feature", "properties": {"collection_times": [{"days": "Mon-Fri", "time": "5:00pm"}, {"days": "Sat-Sun", "time": "Closed"}], "id": "9490300019", "name": "USPS COLLECTION BOX - BLUE BOX", "address": {"city": "SAN RAFAEL", "state": "CA", "street": "199 LUCAS VALLEY RD", "postcode": "94903"}}},
{"geometry": {"type": "Point", "coordinates": [-122.5283488323, 37.9968396826]}, "type": "Feature", "properties": {"collection_times": [{"days": "Mon-Fri", "time": "5:00pm"}, {"days": "Sat", "time": "1:00pm"}, {"days": "Sun", "time": "Closed"}], "id": "9490300021", "name": "USPS COLLECTION BOX - BLUE BOX", "address": {"city": "SAN RAFAEL", "state": "CA", "street": "2 CIVIC CENTER DR", "postcode": "94903"}}},
{"geometry": {"type": "Point", "coordinates": [-122.5283488323, 37.9968396826]}, "type": "Feature", "properties": {"collection_times": [{"days": "Mon-Fri", "time": "5:00pm"}, {"days": "Sat", "time": "1:00pm"}, {"days": "Sun", "time": "Closed"}], "id": "9490300022", "name": "USPS COLLECTION BOX - BLUE BOX", "address": {"city": "SAN RAFAEL", "state": "CA", "street": "2 CIVIC CENTER DR", "postcode": "94903"}}},
{"geometry": {"type": "Point", "coordinates": [-122.5283488323, 37.9968396826]}, "type": "Feature", "properties": {"collection_times": [{"days": "Mon-Fri", "time": "5:00pm"}, {"days": "Sat", "time": "1:00pm"}, {"days": "Sun", "time": "Closed"}], "id": "9490300023", "name": "USPS COLLECTION BOX - BLUE BOX", "address": {"city": "SAN RAFAEL", "state": "CA", "street": "2 CIVIC CENTER DR", "postcode": "94903"}}},
{"geometry": {"type": "Point", "coordinates": [-122.5400227232, 38.0153797753]}, "type": "Feature", "properties": {"collection_times": [{"days": "Mon-Fri", "time": "5:00pm"}, {"days": "Sat", "time": "1:00pm"}, {"days": "Sun", "time": "Closed"}], "id": "9490300024", "name": "USPS COLLECTION BOX - PO LOBBY", "address": {"city": "SAN RAFAEL", "state": "CA", "street": "603 DEL GRANADO RD", "postcode": "94903"}}},
{"geometry": {"type": "Point", "coordinates": [-122.5421612627, 38.0222029726]}, "type": "Feature", "properties": {"collection_times": [{"days": "Mon-Fri", "time": "3:00pm"}, {"days": "Sat", "time": "10:30am"}, {"days": "Sun", "time": "Closed"}], "id": "9490300026", "name": "USPS COLLECTION BOX - BLUE BOX", "address": {"city": "SAN RAFAEL", "state": "CA", "street": "1650 LOS GAMOS DR", "postcode": "94903"}}},
{"geometry": {"type": "Point", "coordinates": [-122.5421612627, 38.0222029726]}, "type": "Feature", "properties": {"collection_times": [{"days": "Mon-Fri", "time": "3:00pm"}, {"days": "Sat-Sun", "time": "Closed"}], "id": "9490300027", "name": "USPS COLLECTION BOX - BLUE BOX", "address": {"city": "SAN RAFAEL", "state": "CA", "street": "1650 LOS GAMOS DR", "postcode": "94903"}}},
{"geometry": {"type": "Point", "coordinates": [-122.5408202085, 38.0339737534]}, "type": "Feature", "properties": {"collection_times": [{"days": "Mon-Sat", "time": "1:00pm"}, {"days": "Sun", "time": "Closed"}], "id": "9490300028", "name": "USPS COLLECTION BOX - BLUE BOX", "address": {"city": "SAN RAFAEL", "state": "CA", "street": "94 BLACKSTONE DR", "postcode": "94903"}}},
{"geometry": {"type": "Point", "coordinates": [-122.5611979006, 38.0116447654]}, "type": "Feature", "properties": {"collection_times": [{"days": "Mon-Sat", "time": "1:00pm"}, {"days": "Sun", "time": "Closed"}], "id": "9490300030", "name": "USPS COLLECTION BOX - BLUE BOX", "address": {"city": "SAN RAFAEL", "state": "CA", "street": "699 MANUEL T FREITAS PKWY", "postcode": "94903"}}},
{"geometry": {"type": "Point", "coordinates": [-122.5192819002, 38.007309429]}, "type": "Feature", "properties": {"collection_times": [{"days": "Mon-Fri", "time": "12:15pm"}, {"days": "Sat", "time": "1:00pm"}, {"days": "Sun", "time": "Closed"}], "id": "9490300031", "name": "USPS COLLECTION BOX - BLUE BOX", "address": {"city": "SAN RAFAEL", "state": "CA", "street": "292 N SAN PEDRO RD", "postcode": "94903"}}},
{"geometry": {"type": "Point", "coordinates": [-122.5353597083, 38.0006905331]}, "type": "Feature", "properties": {"collection_times": [{"days": "Mon-Fri", "time": "3:00pm"}, {"days": "Sat-Sun", "time": "Closed"}], "id": "9490300033", "name": "USPS COLLECTION BOX - BLUE BOX", "address": {"city": "SAN RAFAEL", "state": "CA", "street": "3501 CIVIC CENTER DR", "postcode": "94903"}}},
{"geometry": {"type": "Point", "coordinates": [-122.5442543071, 38.0052659933]}, "type": "Feature", "properties": {"collection_times": [{"days": "Mon-Fri", "time": "5:00pm"}, {"days": "Sat", "time": "1:00pm"}, {"days": "Sun", "time": "Closed"}], "id": "9490300035", "name": "USPS COLLECTION BOX - BLUE BOX", "address": {"city": "SAN RAFAEL", "state": "CA", "street": "1000 NORTHGATE DR", "postcode": "94903"}}},
{"geometry": {"type": "Point", "coordinates": [-122.5511436713, 38.0053801439]}, "type": "Feature", "properties": {"collection_times": [{"days": "Mon-Sat", "time": "1:00pm"}, {"days": "Sun", "time": "Closed"}], "id": "9490300037", "name": "USPS COLLECTION BOX - BLUE BOX", "address": {"city": "SAN RAFAEL", "state": "CA", "street": "101 NOVA ALBION WY #11", "postcode": "94903"}}},
{"geometry": {"type": "Point", "coordinates": [-122.5564565288, 38.0092939685]}, "type": "Feature", "properties": {"collection_times": [{"days": "Mon-Sat", "time": "1:00pm"}, {"days": "Sun", "time": "Closed"}], "id": "9490300040", "name": "USPS COLLECTION BOX - BLUE BOX", "address": {"city": "SAN RAFAEL", "state": "CA", "street": "895 LAS PAVADAS AVE", "postcode": "94903"}}},
{"geometry": {"type": "Point", "coordinates": [-122.5452976769, 38.0381475206]}, "type": "Feature", "properties": {"collection_times": [{"days": "Mon-Sat", "time": "1:00pm"}, {"days": "Sun", "time": "Closed"}], "id": "9490300041", "name": "USPS COLLECTION BOX - BLUE BOX", "address": {"city": "SAN RAFAEL", "state": "CA", "street": "2667 LAS GALLINAS AVE", "postcode": "94903"}}},
{"geometry": {"type": "Point", "coordinates": [-122.5400227232, 38.0153797753]}, "type": "Feature", "properties": {"collection_times": [{"days": "Mon-Fri", "time": "5:00pm"}, {"days": "Sat-Sun", "time": "Closed"}], "id": "9490300042", "name": "USPS COLLECTION BOX - BLUE BOX", "address": {"city": "SAN RAFAEL", "state": "CA", "street": "260 NORTHGATE ONE", "postcode": "94903"}}},
{"geometry": {"type": "Point", "coordinates": [-122.5383952449, 38.0036438029]}, "type": "Feature", "properties": {"collection_times": [{"days": "Mon-Fri", "time": "3:00pm"}, {"days": "Sat-Sun", "time": "Closed"}], "id": "9490300043", "name": "USPS COLLECTION BOX - BLUE BOX", "address": {"city": "SAN RAFAEL", "state": "CA", "street": "4000 CIVIC CENTER DR", "postcode": "94903"}}},
{"geometry": {"type": "Point", "coordinates": [-122.5383952449, 38.0036438029]}, "type": "Feature", "properties": {"collection_times": [{"days": "Mon-Fri", "time": "3:00pm"}, {"days": "Sat-Sun", "time": "Closed"}], "id": "9490300044", "name": "USPS COLLECTION BOX - BLUE BOX", "address": {"city": "SAN RAFAEL", "state": "CA", "street": "4000 CIVIC CENTER DR", "postcode": "94903"}}},
{"geometry": {"type": "Point", "coordinates": [-122.5412383513, 38.0141941409]}, "type": "Feature", "properties": {"collection_times": [{"days": "Mon-Fri", "time": "5:00pm"}, {"days": "Sat-Sun", "time": "Closed"}], "id": "9490300045", "name": "USPS COLLECTION BOX - BLUE BOX", "address": {"city": "SAN RAFAEL", "state": "CA", "street": "4340 REDWOOD HWY", "postcode": "94903"}}},
{"geometry": {"type": "Point", "coordinates": [-122.5412383513, 38.0141941409]}, "type": "Feature", "properties": {"collection_times": [{"days": "Mon-Fri", "time": "5:00pm"}, {"days": "Sat-Sun", "time": "Closed"}], "id": "9490300046", "name": "USPS COLLECTION BOX - BLUE BOX", "address": {"city": "SAN RAFAEL", "state": "CA", "street": "4340 REDWOOD HWY", "postcode": "94903"}}},
{"geometry": {"type": "Point", "coordinates": [-122.5818848485, 38.0330405482]}, "type": "Feature", "properties": {"collection_times": [{"days": "Mon-Sat", "time": "1:00pm"}, {"days": "Sun", "time": "Closed"}], "id": "9490300047", "name": "USPS COLLECTION BOX - BLUE BOX", "address": {"city": "SAN RAFAEL", "state": "CA", "street": "28 MOUNT MCKINLEY RD", "postcode": "94903"}}},
{"geometry": {"type": "Point", "coordinates": [-122.5283488323, 37.9968396826]}, "type": "Feature", "properties": {"collection_times": [{"days": "Mon-Fri", "time": "5:00pm"}, {"days": "Sat", "time": "1:00pm"}, {"days": "Sun", "time": "Closed"}], "id": "9490300048", "name": "USPS COLLECTION BOX - PO LOBBY", "address": {"city": "SAN RAFAEL", "state": "CA", "street": "2 CIVIC CENTER DR", "postcode": "94903"}}},
{"geometry": {"type": "Point", "coordinates": [-122.5763519349, 38.0294876532]}, "type": "Feature", "properties": {"collection_times": [{"days": "Mon-Sat", "time": "1:00pm"}, {"days": "Sun", "time": "Closed"}], "id": "9490300052", "name": "USPS COLLECTION BOX - BLUE BOX", "address": {"city": "SAN RAFAEL", "state": "CA", "street": "199 MT SHASTA DR", "postcode": "94903"}}},
{"geometry": {"type": "Point", "coordinates": [-122.555830845, 38.0117088182]}, "type": "Feature", "properties": {"collection_times": [{"days": "Mon-Sat", "time": "1:00pm"}, {"days": "Sun", "time": "Closed"}], "id": "9490300055", "name": "USPS COLLECTION BOX - BLUE BOX", "address": {"city": "SAN RAFAEL", "state": "CA", "street": "500 MANUEL T FREITAS PKWY", "postcode": "94903"}}},
{"geometry": {"type": "Point", "coordinates": [-122.5476943518, 37.9977376424]}, "type": "Feature", "properties": {"collection_times": [{"days": "Mon-Sat", "time": "1:00pm"}, {"days": "Sun", "time": "Closed"}], "id": "9490300056", "name": "USPS COLLECTION BOX - BLUE BOX", "address": {"city": "SAN RAFAEL", "state": "CA", "street": "146 GOLDEN HINDE BLVD", "postcode": "94903"}}},
{"geometry": {"type": "Point", "coordinates": [-122.5417018067, 37.9984623436]}, "type": "Feature", "properties": {"collection_times": [{"days": "Mon-Sat", "time": "1:00pm"}, {"days": "Sun", "time": "Closed"}], "id": "9490300057", "name": "USPS COLLECTION BOX - BLUE BOX", "address": {"city": "SAN RAFAEL", "state": "CA", "street": "211 LOS RANCHITOS RD", "postcode": "94903"}}},
{"geometry": {"type": "Point", "coordinates": [-122.5416163086, 38.0098795332]}, "type": "Feature", "properties": {"collection_times": [{"days": "Mon-Fri", "time": "5:00pm"}, {"days": "Sat", "time": "1:00pm"}, {"days": "Sun", "time": "Closed"}], "id": "9490300058", "name": "USPS COLLECTION BOX - BLUE BOX", "address": {"city": "SAN RAFAEL", "state": "CA", "street": "4144 REDWOOD HWY", "postcode": "94903"}}},
{"geometry": {"type": "Point", "coordinates": [-122.568788876, 38.026002081]}, "type": "Feature", "properties": {"collection_times": [{"days": "Mon-Sat", "time": "1:00pm"}, {"days": "Sun", "time": "Closed"}], "id": "9490300060", "name": "USPS COLLECTION BOX - BLUE BOX", "address": {"city": "SAN RAFAEL", "state": "CA", "street": "7 MOUNT LASSEN DR", "postcode": "94903"}}},
{"geometry": {"type": "Point", "coordinates": [-122.546391914, 38.0067979251]}, "type": "Feature", "properties": {"collection_times": [{"days": "Mon-Fri", "time": "3:00pm"}, {"days": "Sat-Sun", "time": "Closed"}], "id": "9490300062", "name": "USPS COLLECTION BOX - BLUE BOX", "address": {"city": "SAN RAFAEL", "state": "CA", "street": "750 LAS GALLINAS AVE", "postcode": "94903"}}},
{"geometry": {"type": "Point", "coordinates": [-122.5351952252, 37.9925938117]}, "type": "Feature", "properties": {"collection_times": [{"days": "Mon-Fri", "time": "3:00pm"}, {"days": "Sat", "time": "1:00pm"}, {"days": "Sun", "time": "Closed"}], "id": "9490300063", "name": "USPS COLLECTION BOX - BLUE BOX", "address": {"city": "SAN RAFAEL", "state": "CA", "street": "8 N SAN PEDRO RD", "postcode": "94903"}}},
{"geometry": {"type": "Point", "coordinates": [-122.5453674715, 38.0077797811]}, "type": "Feature", "properties": {"collection_times": [{"days": "Mon-Fri", "time": "5:00pm"}, {"days": "Sat-Sun", "time": "Closed"}], "id": "9490300064", "name": "USPS COLLECTION BOX - BLUE BOX", "address": {"city": "SAN RAFAEL", "state": "CA", "street": "950 NORTHGATE DR", "postcode": "94903"}}},
{"geometry": {"type": "Point", "coordinates": [-122.5454479068, 38.0093964607]}, "type": "Feature", "properties": {"collection_times": [{"days": "Mon-Sat", "time": "1:00pm"}, {"days": "Sun", "time": "Closed"}], "id": "9490300065", "name": "USPS COLLECTION BOX - BLUE BOX", "address": {"city": "SAN RAFAEL", "state": "CA", "street": "1030 LOS GAMOS RD", "postcode": "94903"}}},
{"geometry": {"type": "Point", "coordinates": [-122.5528496162, 38.0285762246]}, "type": "Feature", "properties": {"collection_times": [{"days": "Mon-Sat", "time": "1:00pm"}, {"days": "Sun", "time": "Closed"}], "id": "9490300072", "name": "USPS COLLECTION BOX - BLUE BOX", "address": {"city": "SAN RAFAEL", "state": "CA", "street": "750 MILLER CREEK RD", "postcode": "94903"}}},
{"geometry": {"type": "Point", "coordinates": [-122.5441608533, 38.0008665689]}, "type": "Feature", "properties": {"collection_times": [{"days": "Mon-Fri", "time": "3:00pm"}, {"days": "Sat-Sun", "time": "Closed"}], "id": "9490300073", "name": "USPS COLLECTION BOX - BLUE BOX", "address": {"city": "SAN RAFAEL", "state": "CA", "street": "555 NORTHGATE DR", "postcode": "94903"}}},
{"geometry": {"type": "Point", "coordinates": [-122.5384613571, 38.0169512619]}, "type": "Feature", "properties": {"collection_times": [{"days": "Mon-Fri", "time": "5:00pm"}, {"days": "Sat-Sun", "time": "Closed"}], "id": "9490300078", "name": "USPS COLLECTION BOX - BLUE BOX", "address": {"city": "SAN RAFAEL", "state": "CA", "street": "55 MITCHELL BLVD", "postcode": "94903"}}},
{"geometry": {"type": "Point", "coordinates": [-122.5384613571, 38.0169512619]}, "type": "Feature", "properties": {"collection_times": [{"days": "Mon-Fri", "time": "5:00pm"}, {"days": "Sat-Sun", "time": "Closed"}], "id": "9490300080", "name": "USPS COLLECTION BOX - BLUE BOX", "address": {"city": "SAN RAFAEL", "state": "CA", "street": "55 MITCHELL BLVD", "postcode": "94903"}}},
{"geometry": {"type": "Point", "coordinates": [-122.5425733224, 38.0060195381]}, "type": "Feature", "properties": {"collection_times": [{"days": "Mon-Fri", "time": "5:00pm"}, {"days": "Sat-Sun", "time": "Closed"}], "id": "9490300083", "name": "USPS COLLECTION BOX - BLUE BOX", "address": {"city": "SAN RAFAEL", "state": "CA", "street": "600 LAS GALLINAS AVE", "postcode": "94903"}}},
{"geometry": {"type": "Point", "coordinates": [-122.5447712602, 38.0084860076]}, "type": "Feature", "properties": {"collection_times": [{"days": "Mon-Fri", "time": "5:00pm"}, {"days": "Sat-Sun", "time": "Closed"}], "id": "9490300096", "name": "USPS COLLECTION BOX - BLUE BOX", "address": {"city": "SAN RAFAEL", "state": "CA", "street": "1050 NORTHGATE DR", "postcode": "94903"}}},
{"geometry": {"type": "Point", "coordinates": [-122.5283488323, 37.9968396826]}, "type": "Feature", "properties": {"collection_times": [{"days": "Mon-Fri", "time": "5:00pm"}, {"days": "Sat", "time": "1:00pm"}, {"days": "Sun", "time": "Closed"}], "id": "9490300098", "name": "USPS COLLECTION BOX - BLUE BOX", "address": {"city": "SAN RAFAEL", "state": "CA", "street": "2 CIVIC CENTER DR", "postcode": "94903"}}},
{"geometry": {"type": "Point", "coordinates": [-122.5357180752, 38.0203309757]}, "type": "Feature", "properties": {"collection_times": [{"days": "Mon-Fri", "time": "5:00pm"}, {"days": "Sat-Sun", "time": "Closed"}], "id": "9490300099", "name": "USPS COLLECTION BOX - BLUE BOX", "address": {"city": "SAN RAFAEL", "state": "CA", "street": "120 N REDWOOD DR", "postcode": "94903"}}},
{"geometry": {"type": "Point", "coordinates": [-122.5353597083, 38.0006905331]}, "type": "Feature", "properties": {"collection_times": [{"days": "Mon-Fri", "time": "3:00pm"}, {"days": "Sat-Sun", "time": "Closed"}], "id": "9490300100", "name": "USPS COLLECTION BOX - BLUE BOX", "address": {"city": "SAN RAFAEL", "state": "CA", "street": "3501 CIVIC CENTER DR", "postcode": "94903"}}},
{"geometry": {"type": "Point", "coordinates": [-122.5384613571, 38.0169512619]}, "type": "Feature", "properties": {"collection_times": [{"days": "Mon-Fri", "time": "5:00pm"}, {"days": "Sat-Sun", "time": "Closed"}], "id": "9490300102", "name": "USPS COLLECTION BOX - BLUE BOX", "address": {"city": "SAN RAFAEL", "state": "CA", "street": "55 MITCHELL BLVD", "postcode": "94903"}}},
{"geometry": {"type": "Point", "coordinates": [-122.5297265076, 37.9471929397]}, "type": "Feature", "properties": {"collection_times": [{"days": "Mon-Fri", "time": "3:00pm"}, {"days": "Sat", "time": "1:00pm"}, {"days": "Sun", "time": "Closed"}], "id": "9490400002", "name": "USPS COLLECTION BOX - BLUE BOX", "address": {"city": "KENTFIELD", "state": "CA", "street": "389 VIA CASITAS", "postcode": "94904"}}},
{"geometry": {"type": "Point", "coordinates": [-122.533332047, 37.9497414483]}, "type": "Feature", "properties": {"collection_times": [{"days": "Mon-Fri", "time": "3:00pm"}, {"days": "Sat", "time": "1:00pm"}, {"days": "Sun", "time": "Closed"}], "id": "9490400004", "name": "USPS COLLECTION BOX - BLUE BOX", "address": {"city": "KENTFIELD", "state": "CA", "street": "599 VIA HIDALGO", "postcode": "94904"}}},
{"geometry": {"type": "Point", "coordinates": [-122.536682759, 37.9444704457]}, "type": "Feature", "properties": {"collection_times": [{"days": "Mon-Fri", "time": "3:00pm"}, {"days": "Sat", "time": "1:00pm"}, {"days": "Sun", "time": "Closed"}], "id": "9490400006", "name": "USPS COLLECTION BOX - BLUE BOX", "address": {"city": "KENTFIELD", "state": "CA", "street": "1321 S ELISEO DR", "postcode": "94904"}}},
{"geometry": {"type": "Point", "coordinates": [-122.536682759, 37.9444704457]}, "type": "Feature", "properties": {"collection_times": [{"days": "Mon-Fri", "time": "3:00pm"}, {"days": "Sat", "time": "1:00pm"}, {"days": "Sun", "time": "Closed"}], "id": "9490400007", "name": "USPS COLLECTION BOX - BLUE BOX", "address": {"city": "KENTFIELD", "state": "CA", "street": "1321 S ELISEO DR", "postcode": "94904"}}},
{"geometry": {"type": "Point", "coordinates": [-122.5450616253, 37.9538933985]}, "type": "Feature", "properties": {"collection_times": [{"days": "Mon-Fri", "time": "3:00pm"}, {"days": "Sat", "time": "1:00pm"}, {"days": "Sun", "time": "Closed"}], "id": "9490400008", "name": "USPS COLLECTION BOX - BLUE BOX", "address": {"city": "KENTFIELD", "state": "CA", "street": "900 SIR FRANCIS DRAKE BLVD", "postcode": "94904"}}},
{"geometry": {"type": "Point", "coordinates": [-122.5201144603, 37.9459236831]}, "type": "Feature", "properties": {"collection_times": [{"days": "Mon-Fri", "time": "3:00pm"}, {"days": "Sat", "time": "1:00pm"}, {"days": "Sun", "time": "Closed"}], "id": "9490400009", "name": "USPS COLLECTION BOX - BLUE BOX", "address": {"city": "KENTFIELD", "state": "CA", "street": "1 ELISEO DR", "postcode": "94904"}}},
{"geometry": {"type": "Point", "coordinates": [-122.5188074105, 37.9448078183]}, "type": "Feature", "properties": {"collection_times": [{"days": "Mon-Fri", "time": "3:00pm"}, {"days": "Sat-Sun", "time": "Closed"}], "id": "9490400012", "name": "USPS COLLECTION BOX - BLUE BOX", "address": {"city": "KENTFIELD", "state": "CA", "street": "100 DRAKES LANDING RD", "postcode": "94904"}}},
{"geometry": {"type": "Point", "coordinates": [-122.5188074105, 37.9448078183]}, "type": "Feature", "properties": {"collection_times": [{"days": "Mon-Fri", "time": "3:00pm"}, {"days": "Sat-Sun", "time": "Closed"}], "id": "9490400013", "name": "USPS COLLECTION BOX - BLUE BOX", "address": {"city": "KENTFIELD", "state": "CA", "street": "100 DRAKES LANDING RD", "postcode": "94904"}}},
{"geometry": {"type": "Point", "coordinates": [-122.5497088145, 37.9517584839]}, "type": "Feature", "properties": {"collection_times": [{"days": "Mon-Fri", "time": "3:00pm"}, {"days": "Sat", "time": "1:00pm"}, {"days": "Sun", "time": "Closed"}], "id": "9490400014", "name": "USPS COLLECTION BOX - BLUE BOX", "address": {"city": "KENTFIELD", "state": "CA", "street": "725 COLLEGE AVE", "postcode": "94904"}}},
{"geometry": {"type": "Point", "coordinates": [-122.5189766465, 37.9446048661]}, "type": "Feature", "properties": {"collection_times": [{"days": "Mon-Fri", "time": "3:00pm"}, {"days": "Sat-Sun", "time": "Closed"}], "id": "9490400019", "name": "USPS COLLECTION BOX - BLUE BOX", "address": {"city": "KENTFIELD", "state": "CA", "street": "300 DRAKES LANDING RD", "postcode": "94904"}}},
{"geometry": {"type": "Point", "coordinates": [-122.5355894843, 37.9488900853]}, "type": "Feature", "properties": {"collection_times": [{"days": "Mon-Fri", "time": "3:00pm"}, {"days": "Sat", "time": "1:00pm"}, {"days": "Sun", "time": "Closed"}], "id": "9490400020", "name": "USPS COLLECTION BOX - BLUE BOX", "address": {"city": "KENTFIELD", "state": "CA", "street": "332 BON AIR CNT", "postcode": "94904"}}},
{"geometry": {"type": "Point", "coordinates": [-122.5252156246, 37.9474283424]}, "type": "Feature", "properties": {"collection_times": [{"days": "Mon-Fri", "time": "3:00pm"}, {"days": "Sat", "time": "1:00pm"}, {"days": "Sun", "time": "Closed"}], "id": "9490400023", "name": "USPS COLLECTION BOX - BLUE BOX", "address": {"city": "KENTFIELD", "state": "CA", "street": "499 SIR FRANCIS DRAKE BLVD", "postcode": "94904"}}},
{"geometry": {"type": "Point", "coordinates": [-122.5484339696, 37.9543319441]}, "type": "Feature", "properties": {"collection_times": [{"days": "Mon-Fri", "time": "5:00pm"}, {"days": "Sat", "time": "1:00pm"}, {"days": "Sun", "time": "Closed"}], "id": "9490400025", "name": "USPS COLLECTION BOX - BLUE BOX", "address": {"city": "KENTFIELD", "state": "CA", "street": "822 COLLEGE AVE", "postcode": "94904"}}},
{"geometry": {"type": "Point", "coordinates": [-122.5484339696, 37.9543319441]}, "type": "Feature", "properties": {"collection_times": [{"days": "Mon-Fri", "time": "5:00pm"}, {"days": "Sat", "time": "1:00pm"}, {"days": "Sun", "time": "Closed"}], "id": "9490400026", "name": "USPS COLLECTION BOX - BLUE BOX", "address": {"city": "KENTFIELD", "state": "CA", "street": "822 COLLEGE AVE", "postcode": "94904"}}},
{"geometry": {"type": "Point", "coordinates": [-122.5484339696, 37.9543319441]}, "type": "Feature", "properties": {"collection_times": [{"days": "Mon-Fri", "time": "5:00pm"}, {"days": "Sat", "time": "1:00pm"}, {"days": "Sun", "time": "Closed"}], "id": "9490400027", "name": "USPS COLLECTION BOX - PO LOBBY", "address": {"city": "KENTFIELD", "state": "CA", "street": "822 COLLEGE AVE", "postcode": "94904"}}},
{"geometry": {"type": "Point", "coordinates": [-122.5378580848, 37.9448668049]}, "type": "Feature", "properties": {"collection_times": [{"days": "Mon-Fri", "time": "3:00pm"}, {"days": "Sat", "time": "1:00pm"}, {"days": "Sun", "time": "Closed"}], "id": "9490400028", "name": "USPS COLLECTION BOX - BLUE BOX", "address": {"city": "KENTFIELD", "state": "CA", "street": "150 BON AIR CNT", "postcode": "94904"}}},
{"geometry": {"type": "Point", "coordinates": [-122.4779908607, 37.8893454784]}, "type": "Feature", "properties": {"collection_times": [{"days": "Mon-Sat", "time": "1:00pm"}, {"days": "Sun", "time": "Closed"}], "id": "9492000002", "name": "USPS COLLECTION BOX - BLUE BOX", "address": {"city": "BELVEDERE", "state": "CA", "street": "700 TIBURON BLVD", "postcode": "94920"}}},
{"geometry": {"type": "Point", "coordinates": [-122.4608249431, 37.8763092706]}, "type": "Feature", "properties": {"collection_times": [{"days": "Mon-Fri", "time": "2:00pm"}, {"days": "Sat", "time": "1:00pm"}, {"days": "Sun", "time": "Closed"}], "id": "9492000003", "name": "USPS COLLECTION BOX - BLUE BOX", "address": {"city": "BELVEDERE", "state": "CA", "street": "1530 TIBURON BLVD", "postcode": "94920"}}},
{"geometry": {"type": "Point", "coordinates": [-122.4578048489, 37.8746176392]}, "type": "Feature", "properties": {"collection_times": [{"days": "Mon-Fri", "time": "2:00pm"}, {"days": "Sat", "time": "1:00pm"}, {"days": "Sun", "time": "Closed"}], "id": "9492000004", "name": "USPS COLLECTION BOX - BLUE BOX", "address": {"city": "BELVEDERE", "state": "CA", "street": "1650 TIBURON BLVD", "postcode": "94920"}}},
{"geometry": {"type": "Point", "coordinates": [-122.4615844028, 37.8774650215]}, "type": "Feature", "properties": {"collection_times": [{"days": "Mon-Fri", "time": "3:00pm"}, {"days": "Sat", "time": "1:00pm"}, {"days": "Sun", "time": "Closed"}], "id": "9492000005", "name": "USPS COLLECTION BOX - BLUE BOX", "address": {"city": "BELVEDERE", "state": "CA", "street": "1120 MAR WEST ST", "postcode": "94920"}}},
{"geometry": {"type": "Point", "coordinates": [-122.4563202354, 37.8738794728]}, "type": "Feature", "properties": {"collection_times": [{"days": "Mon-Fri", "time": "2:00pm"}, {"days": "Sat", "time": "1:00pm"}, {"days": "Sun", "time": "Closed"}], "id": "9492000006", "name": "USPS COLLECTION BOX - BLUE BOX", "address": {"city": "BELVEDERE", "state": "CA", "street": "1701 TIBURON BLVD", "postcode": "94920"}}},
{"geometry": {"type": "Point", "coordinates": [-122.480865451, 37.8931380448]}, "type": "Feature", "properties": {"collection_times": [{"days": "Mon-Sat", "time": "1:00pm"}, {"days": "Sun", "time": "Closed"}], "id": "9492000007", "name": "USPS COLLECTION BOX - BLUE BOX", "address": {"city": "BELVEDERE", "state": "CA", "street": "105 AVENIDA MIRA FLORES", "postcode": "94920"}}},
{"geometry": {"type": "Point", "coordinates": [-122.5010088762, 37.8992066243]}, "type": "Feature", "properties": {"collection_times": [{"days": "Mon-Fri", "time": "2:00pm"}, {"days": "Sat", "time": "1:00pm"}, {"days": "Sun", "time": "Closed"}], "id": "9492000008", "name": "USPS COLLECTION BOX - BLUE BOX", "address": {"city": "BELVEDERE", "state": "CA", "street": "1 BLACKFIELD DR", "postcode": "94920"}}},
{"geometry": {"type": "Point", "coordinates": [-122.4669041693, 37.881890471]}, "type": "Feature", "properties": {"collection_times": [{"days": "Mon-Sat", "time": "12:00pm"}, {"days": "Sun", "time": "Closed"}], "id": "9492000009", "name": "USPS COLLECTION BOX - BLUE BOX", "address": {"city": "BELVEDERE", "state": "CA", "street": "100 NEDS WAY", "postcode": "94920"}}},
{"geometry": {"type": "Point", "coordinates": [-122.4985731637, 37.8953679224]}, "type": "Feature", "properties": {"collection_times": [{"days": "Mon-Sat", "time": "1:00pm"}, {"days": "Sun", "time": "Closed"}], "id": "9492000010", "name": "USPS COLLECTION BOX - BLUE BOX", "address": {"city": "BELVEDERE", "state": "CA", "street": "126 BARBAREE WAY", "postcode": "94920"}}},
{"geometry": {"type": "Point", "coordinates": [-122.4631601041, 37.8730478527]}, "type": "Feature", "properties": {"collection_times": [{"days": "Mon-Fri", "time": "2:00pm"}, {"days": "Sat", "time": "1:00pm"}, {"days": "Sun", "time": "Closed"}], "id": "9492000011", "name": "USPS COLLECTION BOX - BLUE BOX", "address": {"city": "BELVEDERE", "state": "CA", "street": "81 BEACH RD", "postcode": "94920"}}},
{"geometry": {"type": "Point", "coordinates": [-122.4942648079, 37.8997514113]}, "type": "Feature", "properties": {"collection_times": [{"days": "Mon-Sat", "time": "1:00pm"}, {"days": "Sun", "time": "Closed"}], "id": "9492000013", "name": "USPS COLLECTION BOX - BLUE BOX", "address": {"city": "BELVEDERE", "state": "CA", "street": "34 CECILIA CT", "postcode": "94920"}}},
{"geometry": {"type": "Point", "coordinates": [-122.4596975832, 37.8745987119]}, "type": "Feature", "properties": {"collection_times": [{"days": "Mon-Fri", "time": "5:00pm"}, {"days": "Sat", "time": "4:15pm"}, {"days": "Sun", "time": "Closed"}], "id": "9492000014", "name": "USPS COLLECTION BOX - BLUE BOX", "address": {"city": "BELVEDERE", "state": "CA", "street": "6 BEACH RD", "postcode": "94920"}}},
{"geometry": {"type": "Point", "coordinates": [-122.4596975832, 37.8745987119]}, "type": "Feature", "properties": {"collection_times": [{"days": "Mon-Fri", "time": "5:00pm"}, {"days": "Sat", "time": "4:15pm"}, {"days": "Sun", "time": "Closed"}], "id": "9492000015", "name": "USPS COLLECTION BOX - PO LOBBY", "address": {"city": "BELVEDERE", "state": "CA", "street": "6 BEACH RD", "postcode": "94920"}}},
{"geometry": {"type": "Point", "coordinates": [-122.4748418239, 37.9133063122]}, "type": "Feature", "properties": {"collection_times": [{"days": "Mon-Sat", "time": "1:00pm"}, {"days": "Sun", "time": "Closed"}], "id": "9492000017", "name": "USPS COLLECTION BOX - BLUE BOX", "address": {"city": "BELVEDERE", "state": "CA", "street": "225 MARTINIQUE AVE", "postcode": "94920"}}},
{"geometry": {"type": "Point", "coordinates": [-122.975700581, 38.3398190164]}, "type": "Feature", "properties": {"collection_times": [{"days": "Mon-Fri", "time": "2:00pm"}, {"days": "Sat-Sun", "time": "Closed"}], "id": "9492200002", "name": "USPS COLLECTION BOX - PO LOBBY", "address": {"city": "BODEGA", "state": "CA", "street": "17160 BODEGA HWY", "postcode": "94922"}}},
{"geometry": {"type": "Point", "coordinates": [-123.0479178705, 38.3347653336]}, "type": "Feature", "properties": {"collection_times": [{"days": "Mon-Fri", "time": "11:30am"}, {"days": "Sat", "time": "10:30am"}, {"days": "Sun", "time": "Closed"}], "id": "9492300005", "name": "USPS COLLECTION BOX - BLUE BOX", "address": {"city": "BODEGA BAY", "state": "CA", "street": "1370 BODEGA AVE", "postcode": "94923"}}},
{"geometry": {"type": "Point", "coordinates": [-123.0385032576, 38.3234852508]}, "type": "Feature", "properties": {"collection_times": [{"days": "Mon-Fri", "time": "2:00pm"}, {"days": "Sat", "time": "10:45am"}, {"days": "Sun", "time": "Closed"}], "id": "9492300006", "name": "USPS COLLECTION BOX - PO LOBBY", "address": {"city": "BODEGA BAY", "state": "CA", "street": "537 SMITH BROTHERS RD", "postcode": "94923"}}},
{"geometry": {"type": "Point", "coordinates": [-123.0385032576, 38.3234852508]}, "type": "Feature", "properties": {"collection_times": [{"days": "Mon-Fri", "time": "1:45pm"}, {"days": "Sat", "time": "10:45am"}, {"days": "Sun", "time": "Closed"}], "id": "9492300007", "name": "USPS COLLECTION BOX - BLUE BOX", "address": {"city": "BODEGA BAY", "state": "CA", "street": "537 SMITH BROTHERS RD", "postcode": "94923"}}},
{"geometry": {"type": "Point", "coordinates": [-122.6857203636, 37.9051741018]}, "type": "Feature", "properties": {"collection_times": [{"days": "Mon-Fri", "time": "4:00pm"}, {"days": "Sat", "time": "11:00am"}, {"days": "Sun", "time": "Closed"}], "id": "9492400003", "name": "USPS COLLECTION BOX - BLUE BOX", "address": {"city": "BOLINAS", "state": "CA", "street": "20 BRIGHTON AVE", "postcode": "94924"}}},
{"geometry": {"type": "Point", "coordinates": [-122.6857203636, 37.9051741018]}, "type": "Feature", "properties": {"collection_times": [{"days": "Mon-Fri", "time": "4:00pm"}, {"days": "Sat", "time": "11:00am"}, {"days": "Sun", "time": "Closed"}], "id": "9492400004", "name": "USPS COLLECTION BOX - PO LOBBY", "address": {"city": "BOLINAS", "state": "CA", "street": "20 BRIGHTON AVE", "postcode": "94924"}}},
{"geometry": {"type": "Point", "coordinates": [-122.5264519576, 37.9262762743]}, "type": "Feature", "properties": {"collection_times": [{"days": "Mon-Fri", "time": "5:00pm"}, {"days": "Sat", "time": "4:30pm"}, {"days": "Sun", "time": "Closed"}], "id": "9492500000", "name": "USPS COLLECTION BOX - BLUE BOX", "address": {"city": "CORTE MADERA", "state": "CA", "street": "7 PIXLEY AVE", "postcode": "94925"}}},
{"geometry": {"type": "Point", "coordinates": [-122.5197552269, 37.925160744]}, "type": "Feature", "properties": {"collection_times": [{"days": "Mon-Fri", "time": "3:00pm"}, {"days": "Sat", "time": "1:00pm"}, {"days": "Sun", "time": "Closed"}], "id": "9492500001", "name": "USPS COLLECTION BOX - BLUE BOX", "address": {"city": "CORTE MADERA", "state": "CA", "street": "645 TAMALPAIS DR", "postcode": "94925"}}},
{"geometry": {"type": "Point", "coordinates": [-122.5108534607, 37.9246236806]}, "type": "Feature", "properties": {"collection_times": [{"days": "Mon-Fri", "time": "3:00pm"}, {"days": "Sat", "time": "1:00pm"}, {"days": "Sun", "time": "Closed"}], "id": "9492500003", "name": "USPS COLLECTION BOX - BLUE BOX", "address": {"city": "CORTE MADERA", "state": "CA", "street": "53 SAN CLEMENTE DR", "postcode": "94925"}}},
{"geometry": {"type": "Point", "coordinates": [-122.508711122, 37.9169687531]}, "type": "Feature", "properties": {"collection_times": [{"days": "Mon-Fri", "time": "3:00pm"}, {"days": "Sat", "time": "11:00am"}, {"days": "Sun", "time": "Closed"}], "id": "9492500005", "name": "USPS COLLECTION BOX - BLUE BOX", "address": {"city": "CORTE MADERA", "state": "CA", "street": "100 MEADOWCREEK DR", "postcode": "94925"}}},
{"geometry": {"type": "Point", "coordinates": [-122.5108037765, 37.9208831644]}, "type": "Feature", "properties": {"collection_times": [{"days": "Mon-Fri", "time": "3:00pm"}, {"days": "Sat", "time": "1:00pm"}, {"days": "Sun", "time": "Closed"}], "id": "9492500006", "name": "USPS COLLECTION BOX - BLUE BOX", "address": {"city": "CORTE MADERA", "state": "CA", "street": "5710 PARADISE DR", "postcode": "94925"}}},
{"geometry": {"type": "Point", "coordinates": [-122.5057300655, 37.918499502]}, "type": "Feature", "properties": {"collection_times": [{"days": "Mon-Fri", "time": "1:30pm"}, {"days": "Sat", "time": "1:00pm"}, {"days": "Sun", "time": "Closed"}], "id": "9492500008", "name": "USPS COLLECTION BOX - BLUE BOX", "address": {"city": "CORTE MADERA", "state": "CA", "street": "2 EL CAMINO DR", "postcode": "94925"}}},
{"geometry": {"type": "Point", "coordinates": [-122.5077848652, 37.9196718144]}, "type": "Feature", "properties": {"collection_times": [{"days": "Mon-Fri", "time": "3:00pm"}, {"days": "Sat", "time": "1:00pm"}, {"days": "Sun", "time": "Closed"}], "id": "9492500010", "name": "USPS COLLECTION BOX - BLUE BOX", "address": {"city": "CORTE MADERA", "state": "CA", "street": "5633 PARADISE DR", "postcode": "94925"}}},
{"geometry": {"type": "Point", "coordinates": [-122.5028216793, 37.9192592288]}, "type": "Feature", "properties": {"collection_times": [{"days": "Mon-Fri", "time": "3:00pm"}, {"days": "Sat", "time": "1:00pm"}, {"days": "Sun", "time": "Closed"}], "id": "9492500011", "name": "USPS COLLECTION BOX - BLUE BOX", "address": {"city": "CORTE MADERA", "state": "CA", "street": "2 PRINCE ROYAL PSGE", "postcode": "94925"}}},
{"geometry": {"type": "Point", "coordinates": [-122.512114677, 37.9291944166]}, "type": "Feature", "properties": {"collection_times": [{"days": "Mon-Fri", "time": "3:00pm"}, {"days": "Sat", "time": "1:00pm"}, {"days": "Sun", "time": "Closed"}], "id": "9492500013", "name": "USPS COLLECTION BOX - BLUE BOX", "address": {"city": "CORTE MADERA", "state": "CA", "street": "1544 REDWOOD HWY", "postcode": "94925"}}},
{"geometry": {"type": "Point", "coordinates": [-122.512114677, 37.9291944166]}, "type": "Feature", "properties": {"collection_times": [{"days": "Mon-Fri", "time": "3:00pm"}, {"days": "Sat", "time": "1:00pm"}, {"days": "Sun", "time": "Closed"}], "id": "9492500014", "name": "USPS COLLECTION BOX - BLUE BOX", "address": {"city": "CORTE MADERA", "state": "CA", "street": "1544 REDWOOD HWY", "postcode": "94925"}}},
{"geometry": {"type": "Point", "coordinates": [-122.5164855284, 37.9252778569]}, "type": "Feature", "properties": {"collection_times": [{"days": "Mon-Fri", "time": "3:00pm"}, {"days": "Sat", "time": "1:00pm"}, {"days": "Sun", "time": "Closed"}], "id": "9492500016", "name": "USPS COLLECTION BOX - BLUE BOX", "address": {"city": "CORTE MADERA", "state": "CA", "street": "770 TAMALPAIS DR", "postcode": "94925"}}},
{"geometry": {"type": "Point", "coordinates": [-122.5264519576, 37.9262762743]}, "type": "Feature", "properties": {"collection_times": [{"days": "Mon-Fri", "time": "5:00pm"}, {"days": "Sat", "time": "4:30pm"}, {"days": "Sun", "time": "Closed"}], "id": "9492500018", "name": "USPS COLLECTION BOX - BLUE BOX", "address": {"city": "CORTE MADERA", "state": "CA", "street": "7 PIXLEY AVE", "postcode": "94925"}}},
{"geometry": {"type": "Point", "coordinates": [-122.5167165565, 37.9241719284]}, "type": "Feature", "properties": {"collection_times": [{"days": "Mon-Fri", "time": "3:00pm"}, {"days": "Sat-Sun", "time": "Closed"}], "id": "9492500019", "name": "USPS COLLECTION BOX - EXPRESS", "address": {"city": "CORTE MADERA", "state": "CA", "street": "7 PIXLEY AVE", "postcode": "94925"}}},
{"geometry": {"type": "Point", "coordinates": [-122.5278268832, 37.9263385631]}, "type": "Feature", "properties": {"collection_times": [{"days": "Mon-Fri", "time": "4:45pm"}, {"days": "Sat", "time": "1:00pm"}, {"days": "Sun", "time": "Closed"}], "id": "9492500022", "name": "USPS COLLECTION BOX - BLUE BOX", "address": {"city": "CORTE MADERA", "state": "CA", "street": "154 WILLOW AVE", "postcode": "94925"}}},
{"geometry": {"type": "Point", "coordinates": [-122.5187852006, 37.9359079262]}, "type": "Feature", "properties": {"collection_times": [{"days": "Mon-Fri", "time": "3:00pm"}, {"days": "Sat", "time": "10:30am"}, {"days": "Sun", "time": "Closed"}], "id": "9492500025", "name": "USPS COLLECTION BOX - BLUE BOX", "address": {"city": "CORTE MADERA", "state": "CA", "street": "200 TAMAL VISTA BLVD", "postcode": "94925"}}},
{"geometry": {"type": "Point", "coordinates": [-122.5187852006, 37.9359079262]}, "type": "Feature", "properties": {"collection_times": [{"days": "Mon-Fri", "time": "3:00pm"}, {"days": "Sat", "time": "10:30am"}, {"days": "Sun", "time": "Closed"}], "id": "9492500026", "name": "USPS COLLECTION BOX - BLUE BOX", "address": {"city": "CORTE MADERA", "state": "CA", "street": "200 TAMAL VISTA BLVD", "postcode": "94925"}}},
{"geometry": {"type": "Point", "coordinates": [-122.5179311042, 37.9317545573]}, "type": "Feature", "properties": {"collection_times": [{"days": "Mon-Fri", "time": "3:00pm"}, {"days": "Sat", "time": "1:00pm"}, {"days": "Sun", "time": "Closed"}], "id": "9492500028", "name": "USPS COLLECTION BOX - BLUE BOX", "address": {"city": "CORTE MADERA", "state": "CA", "street": "21 TAMAL VISTA BLVD", "postcode": "94925"}}},
{"geometry": {"type": "Point", "coordinates": [-122.5162410456, 37.9261335409]}, "type": "Feature", "properties": {"collection_times": [{"days": "Mon-Fri", "time": "3:00pm"}, {"days": "Sat", "time": "1:00pm"}, {"days": "Sun", "time": "Closed"}], "id": "9492500030", "name": "USPS COLLECTION BOX - BLUE BOX", "address": {"city": "CORTE MADERA", "state": "CA", "street": "147 CORTE MADERA TOWN CTR", "postcode": "94925"}}},
{"geometry": {"type": "Point", "coordinates": [-122.5235809162, 37.9254529348]}, "type": "Feature", "properties": {"collection_times": [{"days": "Mon-Fri", "time": "3:00pm"}, {"days": "Sat", "time": "1:00pm"}, {"days": "Sun", "time": "Closed"}], "id": "9492500031", "name": "USPS COLLECTION BOX - BLUE BOX", "address": {"city": "CORTE MADERA", "state": "CA", "street": "506 TAMALPAIS DR", "postcode": "94925"}}},
{"geometry": {"type": "Point", "coordinates": [-122.5264519576, 37.9262762743]}, "type": "Feature", "properties": {"collection_times": [{"days": "Mon-Fri", "time": "5:00pm"}, {"days": "Sat", "time": "4:30pm"}, {"days": "Sun", "time": "Closed"}], "id": "9492500034", "name": "USPS COLLECTION BOX - PO LOBBY", "address": {"city": "CORTE MADERA", "state": "CA", "street": "7 PIXLEY AVE", "postcode": "94925"}}},
{"geometry": {"type": "Point", "coordinates": [-122.7065298572, 38.3466711769]}, "type": "Feature", "properties": {"collection_times": [{"days": "Mon-Fri", "time": "5:00pm"}, {"days": "Sat", "time": "3:30pm"}, {"days": "Sun", "time": "Closed"}], "id": "9492800000", "name": "USPS COLLECTION BOX - BLUE BOX", "address": {"city": "ROHNERT PARK", "state": "CA", "street": "150 RALEY'S TOWNE CNT", "postcode": "94928"}}},
{"geometry": {"type": "Point", "coordinates": [-122.7098660302, 38.3538699649]}, "type": "Feature", "properties": {"collection_times": [{"days": "Mon-Fri", "time": "3:00pm"}, {"days": "Sat", "time": "1:00pm"}, {"days": "Sun", "time": "Closed"}], "id": "9492800003", "name": "USPS COLLECTION BOX - BLUE BOX", "address": {"city": "ROHNERT PARK", "state": "CA", "street": "100 PROFESSIONAL CENTER DR", "postcode": "94928"}}},
{"geometry": {"type": "Point", "coordinates": [-122.7114352768, 38.3574968921]}, "type": "Feature", "properties": {"collection_times": [{"days": "Mon-Fri", "time": "3:00pm"}, {"days": "Sat", "time": "1:00pm"}, {"days": "Sun", "time": "Closed"}], "id": "9492800004", "name": "USPS COLLECTION BOX - BLUE BOX", "address": {"city": "ROHNERT PARK", "state": "CA", "street": "5460 STATE FARM DR", "postcode": "94928"}}},
{"geometry": {"type": "Point", "coordinates": [-122.7215641434, 38.3519415029]}, "type": "Feature", "properties": {"collection_times": [{"days": "Mon-Fri", "time": "3:00pm"}, {"days": "Sat", "time": "1:00pm"}, {"days": "Sun", "time": "Closed"}], "id": "9492800008", "name": "USPS COLLECTION BOX - BLUE BOX", "address": {"city": "ROHNERT PARK", "state": "CA", "street": "5967 LABATH AVE", "postcode": "94928"}}},
{"geometry": {"type": "Point", "coordinates": [-122.6921965514, 38.3631599166]}, "type": "Feature", "properties": {"collection_times": [{"days": "Mon-Fri", "time": "3:00pm"}, {"days": "Sat", "time": "1:00pm"}, {"days": "Sun", "time": "Closed"}], "id": "9492800009", "name": "USPS COLLECTION BOX - BLUE BOX", "address": {"city": "ROHNERT PARK", "state": "CA", "street": "901 GOLF COURSE DR", "postcode": "94928"}}},
{"geometry": {"type": "Point", "coordinates": [-122.720576086, 38.3488567284]}, "type": "Feature", "properties": {"collection_times": [{"days": "Mon-Fri", "time": "3:00pm"}, {"days": "Sat", "time": "1:00pm"}, {"days": "Sun", "time": "Closed"}], "id": "9492800013", "name": "USPS COLLECTION BOX - BLUE BOX", "address": {"city": "ROHNERT PARK", "state": "CA", "street": "475 ROHNERT PARK EXPY W", "postcode": "94928"}}},
{"geometry": {"type": "Point", "coordinates": [-122.7156791656, 38.3457182489]}, "type": "Feature", "properties": {"collection_times": [{"days": "Mon-Fri", "time": "3:00pm"}, {"days": "Sat", "time": "1:00pm"}, {"days": "Sun", "time": "Closed"}], "id": "9492800015", "name": "USPS COLLECTION BOX - BLUE BOX", "address": {"city": "ROHNERT PARK", "state": "CA", "street": "6480 REDWOOD DR", "postcode": "94928"}}},
{"geometry": {"type": "Point", "coordinates": [-122.7096056553, 38.3477920751]}, "type": "Feature", "properties": {"collection_times": [{"days": "Mon-Fri", "time": "3:00pm"}, {"days": "Sat", "time": "1:00pm"}, {"days": "Sun", "time": "Closed"}], "id": "9492800022", "name": "USPS COLLECTION BOX - BLUE BOX", "address": {"city": "ROHNERT PARK", "state": "CA", "street": "6355 COMMERCE BLVD", "postcode": "94928"}}},
{"geometry": {"type": "Point", "coordinates": [-122.7094667326, 38.3478357711]}, "type": "Feature", "properties": {"collection_times": [{"days": "Mon-Fri", "time": "3:00pm"}, {"days": "Sat", "time": "1:00pm"}, {"days": "Sun", "time": "Closed"}], "id": "9492800023", "name": "USPS COLLECTION BOX - BLUE BOX", "address": {"city": "ROHNERT PARK", "state": "CA", "street": "6350 COMMERCE BLVD", "postcode": "94928"}}},
{"geometry": {"type": "Point", "coordinates": [-122.6855962551, 38.3475076253]}, "type": "Feature", "properties": {"collection_times": [{"days": "Mon-Sat", "time": "11:00am"}, {"days": "Sun", "time": "Closed"}], "id": "9492800024", "name": "USPS COLLECTION BOX - BLUE BOX", "address": {"city": "ROHNERT PARK", "state": "CA", "street": "5200 SNYDER LN", "postcode": "94928"}}},
{"geometry": {"type": "Point", "coordinates": [-122.7105618148, 38.3634355432]}, "type": "Feature", "properties": {"collection_times": [{"days": "Mon-Fri", "time": "3:00pm"}, {"days": "Sat", "time": "1:00pm"}, {"days": "Sun", "time": "Closed"}], "id": "9492800025", "name": "USPS COLLECTION BOX - BLUE BOX", "address": {"city": "ROHNERT PARK", "state": "CA", "street": "101 GOLF COURSE DR", "postcode": "94928"}}},
{"geometry": {"type": "Point", "coordinates": [-122.6958118968, 38.349816734]}, "type": "Feature", "properties": {"collection_times": [{"days": "Mon-Sat", "time": "1:00pm"}, {"days": "Sun", "time": "Closed"}], "id": "9492800027", "name": "USPS COLLECTION BOX - BLUE BOX", "address": {"city": "ROHNERT PARK", "state": "CA", "street": "6141 COUNTRY CLUB DR", "postcode": "94928"}}},
{"geometry": {"type": "Point", "coordinates": [-122.685698512, 38.3506089133]}, "type": "Feature", "properties": {"collection_times": [{"days": "Mon-Sat", "time": "11:30am"}, {"days": "Sun", "time": "Closed"}], "id": "9492800028", "name": "USPS COLLECTION BOX - BLUE BOX", "address": {"city": "ROHNERT PARK", "state": "CA", "street": "5099 SNYDER LN", "postcode": "94928"}}},
{"geometry": {"type": "Point", "coordinates": [-122.7094694829, 38.3498210838]}, "type": "Feature", "properties": {"collection_times": [{"days": "Mon-Fri", "time": "3:00pm"}, {"days": "Sat", "time": "1:00pm"}, {"days": "Sun", "time": "Closed"}], "id": "9492800030", "name": "USPS COLLECTION BOX - BLUE BOX", "address": {"city": "ROHNERT PARK", "state": "CA", "street": "2 PADRE PKWY", "postcode": "94928"}}},
{"geometry": {"type": "Point", "coordinates": [-122.6982074363, 38.3463630779]}, "type": "Feature", "properties": {"collection_times": [{"days": "Mon-Fri", "time": "3:00pm"}, {"days": "Sat", "time": "1:00pm"}, {"days": "Sun", "time": "Closed"}], "id": "9492800031", "name": "USPS COLLECTION BOX - EXPRESS", "address": {"city": "ROHNERT PARK", "state": "CA", "street": "2 PADRE PKWY", "postcode": "94928"}}},
{"geometry": {"type": "Point", "coordinates": [-122.7105618148, 38.3634355432]}, "type": "Feature", "properties": {"collection_times": [{"days": "Mon-Fri", "time": "3:00pm"}, {"days": "Sat", "time": "1:00pm"}, {"days": "Sun", "time": "Closed"}], "id": "9492800032", "name": "USPS COLLECTION BOX - BLUE BOX", "address": {"city": "ROHNERT PARK", "state": "CA", "street": "101 GOLF COURSE DR", "postcode": "94928"}}},
{"geometry": {"type": "Point", "coordinates": [-122.6982074363, 38.3463630779]}, "type": "Feature", "properties": {"collection_times": [{"days": "Mon-Sat", "time": "1:00pm"}, {"days": "Sun", "time": "Closed"}], "id": "9492800033", "name": "USPS COLLECTION BOX - BLUE BOX", "address": {"city": "ROHNERT PARK", "state": "CA", "street": "4331 GOODSON WAY", "postcode": "94928"}}},
{"geometry": {"type": "Point", "coordinates": [-122.7065298572, 38.3466711769]}, "type": "Feature", "properties": {"collection_times": [{"days": "Mon-Fri", "time": "5:30pm"}, {"days": "Sat", "time": "3:30pm"}, {"days": "Sun", "time": "Closed"}], "id": "9492800035", "name": "USPS COLLECTION BOX - PO LOBBY", "address": {"city": "ROHNERT PARK", "state": "CA", "street": "150 RALEY'S TOWNE CNT", "postcode": "94928"}}},
{"geometry": {"type": "Point", "coordinates": [-122.7215641434, 38.3519415029]}, "type": "Feature", "properties": {"collection_times": [{"days": "Mon-Fri", "time": "3:00pm"}, {"days": "Sat", "time": "1:00pm"}, {"days": "Sun", "time": "Closed"}], "id": "9492800050", "name": "USPS COLLECTION BOX - BLUE BOX", "address": {"city": "ROHNERT PARK", "state": "CA", "street": "5967 LABATH AVE", "postcode": "94928"}}},
{"geometry": {"type": "Point", "coordinates": [-122.7065298572, 38.3466711769]}, "type": "Feature", "properties": {"collection_times": [{"days": "Mon-Fri", "time": "5:30pm"}, {"days": "Sat", "time": "3:30pm"}, {"days": "Sun", "time": "Closed"}], "id": "9492800051", "name": "USPS COLLECTION BOX - APC", "address": {"city": "ROHNERT PARK", "state": "CA", "street": "150 RALEYS TOWNE CTR", "postcode": "94928"}}},
{"geometry": {"type": "Point", "coordinates": [-122.6982074363, 38.3463630779]}, "type": "Feature", "properties": {"collection_times": [{"days": "Mon-Sat", "time": "1:00pm"}, {"days": "Sun", "time": "Closed"}], "id": "9492800055", "name": "USPS COLLECTION BOX - BLUE BOX", "address": {"city": "ROHNERT PARK", "state": "CA", "street": "5665 REDWOOD DR", "postcode": "94928"}}},
{"geometry": {"type": "Point", "coordinates": [-122.9647181439, 38.2500012758]}, "type": "Feature", "properties": {"collection_times": [{"days": "Mon-Fri", "time": "1:30pm"}, {"days": "Sat-Sun", "time": "Closed"}], "id": "9492900003", "name": "USPS COLLECTION BOX - PO LOBBY", "address": {"city": "DILLON BEACH", "state": "CA", "street": "52 CYPRESS AVE", "postcode": "94929"}}},
{"geometry": {"type": "Point", "coordinates": [-122.9647181439, 38.2500012758]}, "type": "Feature", "properties": {"collection_times": [{"days": "Mon-Fri", "time": "2:00pm"}, {"days": "Sat-Sun", "time": "Closed"}], "id": "9492900004", "name": "USPS COLLECTION BOX - BLUE BOX", "address": {"city": "DILLON BEACH", "state": "CA", "street": "52 CYPRESS AVE", "postcode": "94929"}}},
{"geometry": {"type": "Point", "coordinates": [-122.5837379285, 37.9861127047]}, "type": "Feature", "properties": {"collection_times": [{"days": "Mon-Sat", "time": "1:00pm"}, {"days": "Sun", "time": "Closed"}], "id": "9493000000", "name": "USPS COLLECTION BOX - BLUE BOX", "address": {"city": "FAIRFAX", "state": "CA", "street": "713 CENTER BLVD", "postcode": "94930"}}},
{"geometry": {"type": "Point", "coordinates": [-122.5910060284, 37.9908859441]}, "type": "Feature", "properties": {"collection_times": [{"days": "Mon-Sat", "time": "1:00pm"}, {"days": "Sun", "time": "Closed"}], "id": "9493000001", "name": "USPS COLLECTION BOX - BLUE BOX", "address": {"city": "FAIRFAX", "state": "CA", "street": "100 MARINDA DR", "postcode": "94930"}}},
{"geometry": {"type": "Point", "coordinates": [-122.5909811862, 37.9848788785]}, "type": "Feature", "properties": {"collection_times": [{"days": "Mon-Fri", "time": "5:00pm"}, {"days": "Sat", "time": "1:00pm"}, {"days": "Sun", "time": "Closed"}], "id": "9493000003", "name": "USPS COLLECTION BOX - BLUE BOX", "address": {"city": "FAIRFAX", "state": "CA", "street": "150 BOLINAS RD", "postcode": "94930"}}},
{"geometry": {"type": "Point", "coordinates": [-122.5911065799, 37.9887589839]}, "type": "Feature", "properties": {"collection_times": [{"days": "Mon-Sat", "time": "1:00pm"}, {"days": "Sun", "time": "Closed"}], "id": "9493000005", "name": "USPS COLLECTION BOX - BLUE BOX", "address": {"city": "FAIRFAX", "state": "CA", "street": "2040 SIR FRANCIS DRAKE BLVD", "postcode": "94930"}}},
{"geometry": {"type": "Point", "coordinates": [-122.5851113438, 37.9865456676]}, "type": "Feature", "properties": {"collection_times": [{"days": "Mon-Fri", "time": "5:00pm"}, {"days": "Sat", "time": "3:00pm"}, {"days": "Sun", "time": "Closed"}], "id": "9493000008", "name": "USPS COLLECTION BOX - BLUE BOX", "address": {"city": "FAIRFAX", "state": "CA", "street": "773 CENTER BLVD", "postcode": "94930"}}},
{"geometry": {"type": "Point", "coordinates": [-122.5852702727, 37.9862678758]}, "type": "Feature", "properties": {"collection_times": [{"days": "Mon-Fri", "time": "5:00pm"}, {"days": "Sat", "time": "3:00pm"}, {"days": "Sun", "time": "Closed"}], "id": "9493000009", "name": "USPS COLLECTION BOX - BLUE BOX", "address": {"city": "FAIRFAX", "state": "CA", "street": "773 CENTER BLVD", "postcode": "94930"}}},
{"geometry": {"type": "Point", "coordinates": [-122.5942271096, 37.9880217843]}, "type": "Feature", "properties": {"collection_times": [{"days": "Mon-Sat", "time": "3:00pm"}, {"days": "Sun", "time": "Closed"}], "id": "9493000010", "name": "USPS COLLECTION BOX - EXPRESS", "address": {"city": "FAIRFAX", "state": "CA", "street": "773 CENTER BLVD", "postcode": "94930"}}},
{"geometry": {"type": "Point", "coordinates": [-122.5902169947, 37.9872944807]}, "type": "Feature", "properties": {"collection_times": [{"days": "Mon-Fri", "time": "3:00pm"}, {"days": "Sat", "time": "1:00pm"}, {"days": "Sun", "time": "Closed"}], "id": "9493000011", "name": "USPS COLLECTION BOX - BLUE BOX", "address": {"city": "FAIRFAX", "state": "CA", "street": "89 BROADWAY BLVD", "postcode": "94930"}}},
{"geometry": {"type": "Point", "coordinates": [-122.5960872934, 37.9953678763]}, "type": "Feature", "properties": {"collection_times": [{"days": "Mon-Sat", "time": "1:00pm"}, {"days": "Sun", "time": "Closed"}], "id": "9493000014", "name": "USPS COLLECTION BOX - BLUE BOX", "address": {"city": "FAIRFAX", "state": "CA", "street": "101 OAK MANOR DR", "postcode": "94930"}}},
{"geometry": {"type": "Point", "coordinates": [-122.5851113438, 37.9865456676]}, "type": "Feature", "properties": {"collection_times": [{"days": "Mon-Fri", "time": "5:00pm"}, {"days": "Sat", "time": "11:00am"}, {"days": "Sun", "time": "Closed"}], "id": "9493000017", "name": "USPS COLLECTION BOX - PO LOBBY", "address": {"city": "FAIRFAX", "state": "CA", "street": "773 CENTER BLVD", "postcode": "94930"}}},
{"geometry": {"type": "Point", "coordinates": [-122.6995754446, 38.3284334274]}, "type": "Feature", "properties": {"collection_times": [{"days": "Mon-Fri", "time": "5:00pm"}, {"days": "Sat", "time": "3:30pm"}, {"days": "Sun", "time": "Closed"}], "id": "9493100000", "name": "USPS COLLECTION BOX - BLUE BOX", "address": {"city": "COTATI", "state": "CA", "street": "502 E COTATI AVE", "postcode": "94931"}}},
{"geometry": {"type": "Point", "coordinates": [-122.7050479205, 38.3252622966]}, "type": "Feature", "properties": {"collection_times": [{"days": "Mon-Fri", "time": "3:00pm"}, {"days": "Sat", "time": "1:00pm"}, {"days": "Sun", "time": "Closed"}], "id": "9493100002", "name": "USPS COLLECTION BOX - BLUE BOX", "address": {"city": "COTATI", "state": "CA", "street": "8252 OLD REDWOOD HWY", "postcode": "94931"}}},
{"geometry": {"type": "Point", "coordinates": [-122.6973230803, 38.3214415028]}, "type": "Feature", "properties": {"collection_times": [{"days": "Mon-Sat", "time": "10:00am"}, {"days": "Sun", "time": "Closed"}], "id": "9493100003", "name": "USPS COLLECTION BOX - BLUE BOX", "address": {"city": "COTATI", "state": "CA", "street": "102 VERONDA AVE", "postcode": "94931"}}},
{"geometry": {"type": "Point", "coordinates": [-122.7079674627, 38.3236886208]}, "type": "Feature", "properties": {"collection_times": [{"days": "Mon-Fri", "time": "3:00pm"}, {"days": "Sat", "time": "1:00pm"}, {"days": "Sun", "time": "Closed"}], "id": "9493100004", "name": "USPS COLLECTION BOX - BLUE BOX", "address": {"city": "COTATI", "state": "CA", "street": "201 W SIERRA AVE", "postcode": "94931"}}},
{"geometry": {"type": "Point", "coordinates": [-122.7080825933, 38.3284149013]}, "type": "Feature", "properties": {"collection_times": [{"days": "Mon-Fri", "time": "3:00pm"}, {"days": "Sat", "time": "1:00pm"}, {"days": "Sun", "time": "Closed"}], "id": "9493100006", "name": "USPS COLLECTION BOX - BLUE BOX", "address": {"city": "COTATI", "state": "CA", "street": "7991 OLD REDWOOD HWY", "postcode": "94931"}}},
{"geometry": {"type": "Point", "coordinates": [-122.6995754446, 38.3284334274]}, "type": "Feature", "properties": {"collection_times": [{"days": "Mon-Fri", "time": "5:00pm"}, {"days": "Sat-Sun", "time": "Closed"}], "id": "9493100007", "name": "USPS COLLECTION BOX - PO LOBBY", "address": {"city": "COTATI", "state": "CA", "street": "502 E COTATI AVE", "postcode": "94931"}}},
{"geometry": {"type": "Point", "coordinates": [-122.6957507171, 38.0144012348]}, "type": "Feature", "properties": {"collection_times": [{"days": "Mon-Fri", "time": "3:30pm"}, {"days": "Sat-Sun", "time": "Closed"}], "id": "9493300002", "name": "USPS COLLECTION BOX - BLUE BOX", "address": {"city": "FOREST KNOLLS", "state": "CA", "street": "6 CASTRO ST", "postcode": "94933"}}},
{"geometry": {"type": "Point", "coordinates": [-122.6957507171, 38.0144012348]}, "type": "Feature", "properties": {"collection_times": [{"days": "Mon-Fri", "time": "3:45pm"}, {"days": "Sat-Sun", "time": "Closed"}], "id": "9493300003", "name": "USPS COLLECTION BOX - PO LOBBY", "address": {"city": "FOREST KNOLLS", "state": "CA", "street": "6 CASTRO ST", "postcode": "94933"}}},
{"geometry": {"type": "Point", "coordinates": [-122.8496204202, 38.0945906136]}, "type": "Feature", "properties": {"collection_times": [{"days": "Mon-Fri", "time": "3:30pm"}, {"days": "Sat", "time": "12:00pm"}, {"days": "Sun", "time": "Closed"}], "id": "9493700001", "name": "USPS COLLECTION BOX - PO LOBBY", "address": {"city": "INVERNESS", "state": "CA", "street": "12781 SIR FRANCIS DRAKE BLVD", "postcode": "94937"}}},
{"geometry": {"type": "Point", "coordinates": [-122.6973938153, 38.0139688958]}, "type": "Feature", "properties": {"collection_times": [{"days": "Mon-Fri", "time": "3:30pm"}, {"days": "Sat-Sun", "time": "Closed"}], "id": "9493800003", "name": "USPS COLLECTION BOX - BLUE BOX", "address": {"city": "LAGUNITAS", "state": "CA", "street": "7120 SIR FRANCIS DRAKE BLVD", "postcode": "94938"}}},
{"geometry": {"type": "Point", "coordinates": [-122.6973938153, 38.0139688958]}, "type": "Feature", "properties": {"collection_times": [{"days": "Mon-Fri", "time": "3:30pm"}, {"days": "Sat-Sun", "time": "Closed"}], "id": "9493800004", "name": "USPS COLLECTION BOX - PO LOBBY", "address": {"city": "LAGUNITAS", "state": "CA", "street": "7120 SIR FRANCIS DRAKE BLVD", "postcode": "94938"}}},
{"geometry": {"type": "Point", "coordinates": [-122.5362620032, 37.9363322642]}, "type": "Feature", "properties": {"collection_times": [{"days": "Mon-Fri", "time": "5:00pm"}, {"days": "Sat", "time": "4:00pm"}, {"days": "Sun", "time": "Closed"}], "id": "9493900000", "name": "USPS COLLECTION BOX - BLUE BOX", "address": {"city": "LARKSPUR", "state": "CA", "street": "120 WARD ST", "postcode": "94939"}}},
{"geometry": {"type": "Point", "coordinates": [-122.5356731228, 37.9343168464]}, "type": "Feature", "properties": {"collection_times": [{"days": "Mon-Sat", "time": "1:00pm"}, {"days": "Sun", "time": "Closed"}], "id": "9493900001", "name": "USPS COLLECTION BOX - BLUE BOX", "address": {"city": "LARKSPUR", "state": "CA", "street": "400 MAGNOLIA AVE", "postcode": "94939"}}},
{"geometry": {"type": "Point", "coordinates": [-122.5347172919, 37.937354685]}, "type": "Feature", "properties": {"collection_times": [{"days": "Mon-Fri", "time": "3:00pm"}, {"days": "Sat", "time": "1:00pm"}, {"days": "Sun", "time": "Closed"}], "id": "9493900003", "name": "USPS COLLECTION BOX - BLUE BOX", "address": {"city": "LARKSPUR", "state": "CA", "street": "570 MAGNOLIA AVE", "postcode": "94939"}}},
{"geometry": {"type": "Point", "coordinates": [-122.5224275312, 37.9385057041]}, "type": "Feature", "properties": {"collection_times": [{"days": "Mon-Sat", "time": "10:00am"}, {"days": "Sun", "time": "Closed"}], "id": "9493900007", "name": "USPS COLLECTION BOX - BLUE BOX", "address": {"city": "LARKSPUR", "state": "CA", "street": "71 RIVIERA CIR", "postcode": "94939"}}},
{"geometry": {"type": "Point", "coordinates": [-122.5414305841, 37.9314245117]}, "type": "Feature", "properties": {"collection_times": [{"days": "Mon-Sat", "time": "12:00pm"}, {"days": "Sun", "time": "Closed"}], "id": "9493900010", "name": "USPS COLLECTION BOX - BLUE BOX", "address": {"city": "LARKSPUR", "state": "CA", "street": "136 MADRONE AVE", "postcode": "94939"}}},
{"geometry": {"type": "Point", "coordinates": [-122.5331782621, 37.9330456908]}, "type": "Feature", "properties": {"collection_times": [{"days": "Mon-Sat", "time": "10:00am"}, {"days": "Sun", "time": "Closed"}], "id": "9493900011", "name": "USPS COLLECTION BOX - BLUE BOX", "address": {"city": "LARKSPUR", "state": "CA", "street": "6 WILLIAM AVE", "postcode": "94939"}}},
{"geometry": {"type": "Point", "coordinates": [-122.5307581825, 37.9315373731]}, "type": "Feature", "properties": {"collection_times": [{"days": "Mon-Sat", "time": "1:00pm"}, {"days": "Sun", "time": "Closed"}], "id": "9493900014", "name": "USPS COLLECTION BOX - BLUE BOX", "address": {"city": "LARKSPUR", "state": "CA", "street": "35 ELM AVE", "postcode": "94939"}}},
{"geometry": {"type": "Point", "coordinates": [-122.5314157101, 37.9417300957]}, "type": "Feature", "properties": {"collection_times": [{"days": "Mon-Sat", "time": "12:00pm"}, {"days": "Sun", "time": "Closed"}], "id": "9493900015", "name": "USPS COLLECTION BOX - EXPRESS", "address": {"city": "LARKSPUR", "state": "CA", "street": "700 LARKSPUR LANDING CIR", "postcode": "94939"}}},
{"geometry": {"type": "Point", "coordinates": [-122.5117110931, 37.946177305]}, "type": "Feature", "properties": {"collection_times": [{"days": "Mon-Fri", "time": "3:00pm"}, {"days": "Sat", "time": "12:00pm"}, {"days": "Sun", "time": "Closed"}], "id": "9493900016", "name": "USPS COLLECTION BOX - BLUE BOX", "address": {"city": "LARKSPUR", "state": "CA", "street": "700 LARKSPUR LANDING CIR", "postcode": "94939"}}},
{"geometry": {"type": "Point", "coordinates": [-122.5066506494, 37.9460210452]}, "type": "Feature", "properties": {"collection_times": [{"days": "Mon-Fri", "time": "3:00pm"}, {"days": "Sat", "time": "10:00am"}, {"days": "Sun", "time": "Closed"}], "id": "9493900018", "name": "USPS COLLECTION BOX - BLUE BOX", "address": {"city": "LARKSPUR", "state": "CA", "street": "2801 LARKSPUR LANDING CIR", "postcode": "94939"}}},
{"geometry": {"type": "Point", "coordinates": [-122.5117110931, 37.946177305]}, "type": "Feature", "properties": {"collection_times": [{"days": "Mon-Fri", "time": "3:00pm"}, {"days": "Sat", "time": "12:00pm"}, {"days": "Sun", "time": "Closed"}], "id": "9493900020", "name": "USPS COLLECTION BOX - BLUE BOX", "address": {"city": "LARKSPUR", "state": "CA", "street": "700 LARKSPUR LANDING CIR", "postcode": "94939"}}},
{"geometry": {"type": "Point", "coordinates": [-122.5117712436, 37.9462740387]}, "type": "Feature", "properties": {"collection_times": [{"days": "Mon-Fri", "time": "3:00pm"}, {"days": "Sat", "time": "10:00am"}, {"days": "Sun", "time": "Closed"}], "id": "9493900021", "name": "USPS COLLECTION BOX - BLUE BOX", "address": {"city": "LARKSPUR", "state": "CA", "street": "900 LARKSPUR LANDING CIR", "postcode": "94939"}}},
{"geometry": {"type": "Point", "coordinates": [-122.5117110931, 37.946177305]}, "type": "Feature", "properties": {"collection_times": [{"days": "Mon-Fri", "time": "3:00pm"}, {"days": "Sat", "time": "12:00pm"}, {"days": "Sun", "time": "Closed"}], "id": "9493900023", "name": "USPS COLLECTION BOX - BLUE BOX", "address": {"city": "LARKSPUR", "state": "CA", "street": "700 LARKSPUR LANDING CIR", "postcode": "94939"}}},
{"geometry": {"type": "Point", "coordinates": [-122.5329472138, 37.9381274319]}, "type": "Feature", "properties": {"collection_times": [{"days": "Mon-Fri", "time": "3:00pm"}, {"days": "Sat-Sun", "time": "Closed"}], "id": "9493900025", "name": "USPS COLLECTION BOX - BLUE BOX", "address": {"city": "LARKSPUR", "state": "CA", "street": "60 WOOD IS", "postcode": "94939"}}},
{"geometry": {"type": "Point", "coordinates": [-122.5329472138, 37.9381274319]}, "type": "Feature", "properties": {"collection_times": [{"days": "Mon-Fri", "time": "3:00pm"}, {"days": "Sat-Sun", "time": "Closed"}], "id": "9493900026", "name": "USPS COLLECTION BOX - BLUE BOX", "address": {"city": "LARKSPUR", "state": "CA", "street": "60 WOOD IS", "postcode": "94939"}}},
{"geometry": {"type": "Point", "coordinates": [-122.5329472138, 37.9381274319]}, "type": "Feature", "properties": {"collection_times": [{"days": "Mon-Fri", "time": "3:00pm"}, {"days": "Sat-Sun", "time": "Closed"}], "id": "9493900027", "name": "USPS COLLECTION BOX - BLUE BOX", "address": {"city": "LARKSPUR", "state": "CA", "street": "60 WOOD IS", "postcode": "94939"}}},
{"geometry": {"type": "Point", "coordinates": [-122.5056377947, 37.9443447895]}, "type": "Feature", "properties": {"collection_times": [{"days": "Mon-Fri", "time": "3:00pm"}, {"days": "Sat", "time": "10:00am"}, {"days": "Sun", "time": "Closed"}], "id": "9493900029", "name": "USPS COLLECTION BOX - BLUE BOX", "address": {"city": "LARKSPUR", "state": "CA", "street": "125 E SIR FRANCIS DRAKE BLVD", "postcode": "94939"}}},
{"geometry": {"type": "Point", "coordinates": [-122.5399121051, 37.94326083]}, "type": "Feature", "properties": {"collection_times": [{"days": "Mon-Fri", "time": "3:00pm"}, {"days": "Sat", "time": "9:45am"}, {"days": "Sun", "time": "Closed"}], "id": "9493900030", "name": "USPS COLLECTION BOX - BLUE BOX", "address": {"city": "LARKSPUR", "state": "CA", "street": "2 BON AIR RD", "postcode": "94939"}}},
{"geometry": {"type": "Point", "coordinates": [-122.5056377947, 37.9443447895]}, "type": "Feature", "properties": {"collection_times": [{"days": "Mon-Fri", "time": "3:00pm"}, {"days": "Sat", "time": "10:00am"}, {"days": "Sun", "time": "Closed"}], "id": "9493900032", "name": "USPS COLLECTION BOX - BLUE BOX", "address": {"city": "LARKSPUR", "state": "CA", "street": "125 E SIR FRANCIS DRAKE BLVD", "postcode": "94939"}}},
{"geometry": {"type": "Point", "coordinates": [-122.5126184355, 37.945252119]}, "type": "Feature", "properties": {"collection_times": [{"days": "Mon-Fri", "time": "3:00pm"}, {"days": "Sat", "time": "10:00am"}, {"days": "Sun", "time": "Closed"}], "id": "9493900034", "name": "USPS COLLECTION BOX - BLUE BOX", "address": {"city": "LARKSPUR", "state": "CA", "street": "17 E SIR FRANCIS DRAKE BLVD", "postcode": "94939"}}},
{"geometry": {"type": "Point", "coordinates": [-122.5126184355, 37.945252119]}, "type": "Feature", "properties": {"collection_times": [{"days": "Mon-Fri", "time": "3:00pm"}, {"days": "Sat", "time": "10:00am"}, {"days": "Sun", "time": "Closed"}], "id": "9493900035", "name": "USPS COLLECTION BOX - BLUE BOX", "address": {"city": "LARKSPUR", "state": "CA", "street": "17 E SIR FRANCIS DRAKE BLVD", "postcode": "94939"}}},
{"geometry": {"type": "Point", "coordinates": [-122.5362620032, 37.9363322642]}, "type": "Feature", "properties": {"collection_times": [{"days": "Mon-Fri", "time": "5:00pm"}, {"days": "Sat", "time": "11:00am"}, {"days": "Sun", "time": "Closed"}], "id": "9493900036", "name": "USPS COLLECTION BOX - PO LOBBY", "address": {"city": "LARKSPUR", "state": "CA", "street": "120 WARD ST", "postcode": "94939"}}},
{"geometry": {"type": "Point", "coordinates": [-122.9010462444, 38.1763086752]}, "type": "Feature", "properties": {"collection_times": [{"days": "Mon-Fri", "time": "1:00pm"}, {"days": "Sat-Sun", "time": "Closed"}], "id": "9494000002", "name": "USPS COLLECTION BOX - PO LOBBY", "address": {"city": "MARSHALL", "state": "CA", "street": "19200 HIGHWAY 1", "postcode": "94940"}}},
{"geometry": {"type": "Point", "coordinates": [-122.5046358841, 37.8984495868]}, "type": "Feature", "properties": {"collection_times": [{"days": "Mon-Sat", "time": "1:00pm"}, {"days": "Sun", "time": "Closed"}], "id": "9494100001", "name": "USPS COLLECTION BOX - BLUE BOX", "address": {"city": "MILL VALLEY", "state": "CA", "street": "117 E STRAWBERRY DR", "postcode": "94941"}}},
{"geometry": {"type": "Point", "coordinates": [-122.5315324883, 37.8937933962]}, "type": "Feature", "properties": {"collection_times": [{"days": "Mon-Fri", "time": "3:00pm"}, {"days": "Sat", "time": "1:00pm"}, {"days": "Sun", "time": "Closed"}], "id": "9494100009", "name": "USPS COLLECTION BOX - BLUE BOX", "address": {"city": "MILL VALLEY", "state": "CA", "street": "553 MILLER AVE", "postcode": "94941"}}},
{"geometry": {"type": "Point", "coordinates": [-122.545712895, 37.9062511722]}, "type": "Feature", "properties": {"collection_times": [{"days": "Mon-Fri", "time": "2:00pm"}, {"days": "Sat", "time": "1:00pm"}, {"days": "Sun", "time": "Closed"}], "id": "9494100010", "name": "USPS COLLECTION BOX - BLUE BOX", "address": {"city": "MILL VALLEY", "state": "CA", "street": "46 E BLITHEDALE AVE", "postcode": "94941"}}},
{"geometry": {"type": "Point", "coordinates": [-122.5477499508, 37.9065622631]}, "type": "Feature", "properties": {"collection_times": [{"days": "Mon-Fri", "time": "3:00pm"}, {"days": "Sat", "time": "1:00pm"}, {"days": "Sun", "time": "Closed"}], "id": "9494100011", "name": "USPS COLLECTION BOX - BLUE BOX", "address": {"city": "MILL VALLEY", "state": "CA", "street": "60 THROCKMORTON AVE", "postcode": "94941"}}},
{"geometry": {"type": "Point", "coordinates": [-122.5260876063, 37.9038509212]}, "type": "Feature", "properties": {"collection_times": [{"days": "Mon-Sat", "time": "3:00pm"}, {"days": "Sun", "time": "Closed"}], "id": "9494100013", "name": "USPS COLLECTION BOX - BLUE BOX", "address": {"city": "MILL VALLEY", "state": "CA", "street": "147 LOMITA DR", "postcode": "94941"}}},
{"geometry": {"type": "Point", "coordinates": [-122.5262811273, 37.8809571573]}, "type": "Feature", "properties": {"collection_times": [{"days": "Mon-Fri", "time": "3:00pm"}, {"days": "Sat", "time": "1:00pm"}, {"days": "Sun", "time": "Closed"}], "id": "9494100016", "name": "USPS COLLECTION BOX - BLUE BOX", "address": {"city": "MILL VALLEY", "state": "CA", "street": "205 FLAMINGO RD", "postcode": "94941"}}},
{"geometry": {"type": "Point", "coordinates": [-122.5652203454, 37.8932959816]}, "type": "Feature", "properties": {"collection_times": [{"days": "Mon-Sat", "time": "1:00pm"}, {"days": "Sun", "time": "Closed"}], "id": "9494100017", "name": "USPS COLLECTION BOX - BLUE BOX", "address": {"city": "MILL VALLEY", "state": "CA", "street": "2 GILBERT DR", "postcode": "94941"}}},
{"geometry": {"type": "Point", "coordinates": [-122.5260876063, 37.9038509212]}, "type": "Feature", "properties": {"collection_times": [{"days": "Mon-Sat", "time": "3:00pm"}, {"days": "Sun", "time": "Closed"}], "id": "9494100018", "name": "USPS COLLECTION BOX - BLUE BOX", "address": {"city": "MILL VALLEY", "state": "CA", "street": "147 LOMITA DR", "postcode": "94941"}}},
{"geometry": {"type": "Point", "coordinates": [-122.5378663287, 37.8983667234]}, "type": "Feature", "properties": {"collection_times": [{"days": "Mon-Sat", "time": "10:00am"}, {"days": "Sun", "time": "Closed"}], "id": "9494100019", "name": "USPS COLLECTION BOX - BLUE BOX", "address": {"city": "MILL VALLEY", "state": "CA", "street": "349 MILLER AVE", "postcode": "94941"}}},
{"geometry": {"type": "Point", "coordinates": [-122.5391782302, 37.8997164796]}, "type": "Feature", "properties": {"collection_times": [{"days": "Mon-Sat", "time": "1:00pm"}, {"days": "Sun", "time": "Closed"}], "id": "9494100020", "name": "USPS COLLECTION BOX - BLUE BOX", "address": {"city": "MILL VALLEY", "state": "CA", "street": "1 MILLER TER", "postcode": "94941"}}},
{"geometry": {"type": "Point", "coordinates": [-122.5475543481, 37.905226316]}, "type": "Feature", "properties": {"collection_times": [{"days": "Mon-Fri", "time": "3:00pm"}, {"days": "Sat", "time": "1:00pm"}, {"days": "Sun", "time": "Closed"}], "id": "9494100021", "name": "USPS COLLECTION BOX - BLUE BOX", "address": {"city": "MILL VALLEY", "state": "CA", "street": "40 MILLER AVE", "postcode": "94941"}}},
{"geometry": {"type": "Point", "coordinates": [-122.514744735, 37.9008776646]}, "type": "Feature", "properties": {"collection_times": [{"days": "Mon-Fri", "time": "2:00pm"}, {"days": "Sat", "time": "1:00pm"}, {"days": "Sun", "time": "Closed"}], "id": "9494100024", "name": "USPS COLLECTION BOX - BLUE BOX", "address": {"city": "MILL VALLEY", "state": "CA", "street": "25 REED BLVD", "postcode": "94941"}}},
{"geometry": {"type": "Point", "coordinates": [-122.5088670446, 37.9010726875]}, "type": "Feature", "properties": {"collection_times": [{"days": "Mon-Fri", "time": "2:00pm"}, {"days": "Sat", "time": "1:00pm"}, {"days": "Sun", "time": "Closed"}], "id": "9494100025", "name": "USPS COLLECTION BOX - BLUE BOX", "address": {"city": "MILL VALLEY", "state": "CA", "street": "100 TIBURON BLVD", "postcode": "94941"}}},
{"geometry": {"type": "Point", "coordinates": [-122.5652203454, 37.8932959816]}, "type": "Feature", "properties": {"collection_times": [{"days": "Mon-Sat", "time": "12:00pm"}, {"days": "Sun", "time": "Closed"}], "id": "9494100029", "name": "USPS COLLECTION BOX - BLUE BOX", "address": {"city": "MILL VALLEY", "state": "CA", "street": "1215 STRAWBERRY VLG", "postcode": "94941"}}},
{"geometry": {"type": "Point", "coordinates": [-122.5262811273, 37.8809571573]}, "type": "Feature", "properties": {"collection_times": [{"days": "Mon-Fri", "time": "3:00pm"}, {"days": "Sat", "time": "1:00pm"}, {"days": "Sun", "time": "Closed"}], "id": "9494100031", "name": "USPS COLLECTION BOX - BLUE BOX", "address": {"city": "MILL VALLEY", "state": "CA", "street": "205 FLAMINGO RD", "postcode": "94941"}}},
{"geometry": {"type": "Point", "coordinates": [-122.5477499508, 37.9065622631]}, "type": "Feature", "properties": {"collection_times": [{"days": "Mon-Fri", "time": "3:00pm"}, {"days": "Sat", "time": "1:00pm"}, {"days": "Sun", "time": "Closed"}], "id": "9494100032", "name": "USPS COLLECTION BOX - BLUE BOX", "address": {"city": "MILL VALLEY", "state": "CA", "street": "60 THROCKMORTON AVE", "postcode": "94941"}}},
{"geometry": {"type": "Point", "coordinates": [-122.5454689912, 37.9061684651]}, "type": "Feature", "properties": {"collection_times": [{"days": "Mon-Fri", "time": "2:00pm"}, {"days": "Sat", "time": "1:00pm"}, {"days": "Sun", "time": "Closed"}], "id": "9494100033", "name": "USPS COLLECTION BOX - BLUE BOX", "address": {"city": "MILL VALLEY", "state": "CA", "street": "55 SUNNYSIDE AVE", "postcode": "94941"}}},
{"geometry": {"type": "Point", "coordinates": [-122.5363009831, 37.896696348]}, "type": "Feature", "properties": {"collection_times": [{"days": "Mon-Fri", "time": "3:00pm"}, {"days": "Sat", "time": "1:00pm"}, {"days": "Sun", "time": "Closed"}], "id": "9494100034", "name": "USPS COLLECTION BOX - BLUE BOX", "address": {"city": "MILL VALLEY", "state": "CA", "street": "410 MILLER AVE", "postcode": "94941"}}},
{"geometry": {"type": "Point", "coordinates": [-122.5363009831, 37.896696348]}, "type": "Feature", "properties": {"collection_times": [{"days": "Mon-Fri", "time": "3:00pm"}, {"days": "Sat", "time": "1:00pm"}, {"days": "Sun", "time": "Closed"}], "id": "9494100035", "name": "USPS COLLECTION BOX - BLUE BOX", "address": {"city": "MILL VALLEY", "state": "CA", "street": "410 MILLER AVE", "postcode": "94941"}}},
{"geometry": {"type": "Point", "coordinates": [-122.5331059175, 37.8968505795]}, "type": "Feature", "properties": {"collection_times": [{"days": "Mon-Fri", "time": "3:00pm"}, {"days": "Sat", "time": "1:00pm"}, {"days": "Sun", "time": "Closed"}], "id": "9494100037", "name": "USPS COLLECTION BOX - BLUE BOX", "address": {"city": "MILL VALLEY", "state": "CA", "street": "553 MILLER AVE", "postcode": "94941"}}},
{"geometry": {"type": "Point", "coordinates": [-122.5652203454, 37.8932959816]}, "type": "Feature", "properties": {"collection_times": [{"days": "Mon-Fri", "time": "3:30pm"}, {"days": "Sat", "time": "1:00pm"}, {"days": "Sun", "time": "Closed"}], "id": "9494100041", "name": "USPS COLLECTION BOX - BLUE BOX", "address": {"city": "MILL VALLEY", "state": "CA", "street": "591 REDWOOD HWY FRONTAGE RD", "postcode": "94941"}}},
{"geometry": {"type": "Point", "coordinates": [-122.5652203454, 37.8932959816]}, "type": "Feature", "properties": {"collection_times": [{"days": "Mon-Fri", "time": "3:30pm"}, {"days": "Sat", "time": "1:00pm"}, {"days": "Sun", "time": "Closed"}], "id": "9494100043", "name": "USPS COLLECTION BOX - BLUE BOX", "address": {"city": "MILL VALLEY", "state": "CA", "street": "591 REDWOOD HWY FRONTAGE RD", "postcode": "94941"}}},
{"geometry": {"type": "Point", "coordinates": [-122.5652203454, 37.8932959816]}, "type": "Feature", "properties": {"collection_times": [{"days": "Mon-Fri", "time": "3:30pm"}, {"days": "Sat", "time": "1:00pm"}, {"days": "Sun", "time": "Closed"}], "id": "9494100044", "name": "USPS COLLECTION BOX - BLUE BOX", "address": {"city": "MILL VALLEY", "state": "CA", "street": "655 REDWOOD HWY FRONTAGE RD", "postcode": "94941"}}},
{"geometry": {"type": "Point", "coordinates": [-122.515400755, 37.8797197413]}, "type": "Feature", "properties": {"collection_times": [{"days": "Mon-Fri", "time": "3:00pm"}, {"days": "Sat", "time": "1:00pm"}, {"days": "Sun", "time": "Closed"}], "id": "9494100045", "name": "USPS COLLECTION BOX - BLUE BOX", "address": {"city": "MILL VALLEY", "state": "CA", "street": "100 SHORELINE HWY", "postcode": "94941"}}},
{"geometry": {"type": "Point", "coordinates": [-122.5331189523, 37.8968635689]}, "type": "Feature", "properties": {"collection_times": [{"days": "Mon-Fri", "time": "1:00pm"}, {"days": "Sat", "time": "12:00pm"}, {"days": "Sun", "time": "Closed"}], "id": "9494100049", "name": "USPS COLLECTION BOX - EXPRESS", "address": {"city": "MILL VALLEY", "state": "CA", "street": "751 E BLITHEDALE AVE", "postcode": "94941"}}},
{"geometry": {"type": "Point", "coordinates": [-122.5258533399, 37.9012370907]}, "type": "Feature", "properties": {"collection_times": [{"days": "Mon-Fri", "time": "6:00pm"}, {"days": "Sat", "time": "3:00pm"}, {"days": "Sun", "time": "Closed"}], "id": "9494100050", "name": "USPS COLLECTION BOX - BLUE BOX", "address": {"city": "MILL VALLEY", "state": "CA", "street": "751 E BLITHEDALE AVE", "postcode": "94941"}}},
{"geometry": {"type": "Point", "coordinates": [-122.518035415, 37.8805426364]}, "type": "Feature", "properties": {"collection_times": [{"days": "Mon-Fri", "time": "3:00pm"}, {"days": "Sat", "time": "1:00pm"}, {"days": "Sun", "time": "Closed"}], "id": "9494100054", "name": "USPS COLLECTION BOX - BLUE BOX", "address": {"city": "MILL VALLEY", "state": "CA", "street": "150 SHORELINE HWY", "postcode": "94941"}}},
{"geometry": {"type": "Point", "coordinates": [-122.5378663287, 37.8983667234]}, "type": "Feature", "properties": {"collection_times": [{"days": "Mon-Sat", "time": "10:00am"}, {"days": "Sun", "time": "Closed"}], "id": "9494100057", "name": "USPS COLLECTION BOX - BLUE BOX", "address": {"city": "MILL VALLEY", "state": "CA", "street": "349 MILLER AVE", "postcode": "94941"}}},
{"geometry": {"type": "Point", "coordinates": [-122.5652203454, 37.8932959816]}, "type": "Feature", "properties": {"collection_times": [{"days": "Mon-Fri", "time": "3:30pm"}, {"days": "Sat", "time": "1:00pm"}, {"days": "Sun", "time": "Closed"}], "id": "9494100058", "name": "USPS COLLECTION BOX - BLUE BOX", "address": {"city": "MILL VALLEY", "state": "CA", "street": "655 REDWOOD HWY FRONTAGE RD", "postcode": "94941"}}},
{"geometry": {"type": "Point", "coordinates": [-122.5652203454, 37.8932959816]}, "type": "Feature", "properties": {"collection_times": [{"days": "Mon-Fri", "time": "3:30pm"}, {"days": "Sat", "time": "1:00pm"}, {"days": "Sun", "time": "Closed"}], "id": "9494100059", "name": "USPS COLLECTION BOX - BLUE BOX", "address": {"city": "MILL VALLEY", "state": "CA", "street": "655 REDWOOD HWY FRONTAGE RD", "postcode": "94941"}}},
{"geometry": {"type": "Point", "coordinates": [-122.515400755, 37.8797197413]}, "type": "Feature", "properties": {"collection_times": [{"days": "Mon-Fri", "time": "3:00pm"}, {"days": "Sat", "time": "1:00pm"}, {"days": "Sun", "time": "Closed"}], "id": "9494100060", "name": "USPS COLLECTION BOX - BLUE BOX", "address": {"city": "MILL VALLEY", "state": "CA", "street": "100 SHORELINE HWY", "postcode": "94941"}}},
{"geometry": {"type": "Point", "coordinates": [-122.515400755, 37.8797197413]}, "type": "Feature", "properties": {"collection_times": [{"days": "Mon-Fri", "time": "3:00pm"}, {"days": "Sat", "time": "1:00pm"}, {"days": "Sun", "time": "Closed"}], "id": "9494100061", "name": "USPS COLLECTION BOX - BLUE BOX", "address": {"city": "MILL VALLEY", "state": "CA", "street": "100 SHORELINE HWY", "postcode": "94941"}}},
{"geometry": {"type": "Point", "coordinates": [-122.5258533399, 37.9012370907]}, "type": "Feature", "properties": {"collection_times": [{"days": "Mon-Fri", "time": "6:00pm"}, {"days": "Sat", "time": "4:00pm"}, {"days": "Sun", "time": "Closed"}], "id": "9494100062", "name": "USPS COLLECTION BOX - PO LOBBY", "address": {"city": "MILL VALLEY", "state": "CA", "street": "751 E BLITHEDALE AVE", "postcode": "94941"}}},
{"geometry": {"type": "Point", "coordinates": [-122.5652203454, 37.8932959816]}, "type": "Feature", "properties": {"collection_times": [{"days": "Mon-Fri", "time": "3:30pm"}, {"days": "Sat", "time": "1:00pm"}, {"days": "Sun", "time": "Closed"}], "id": "9494100063", "name": "USPS COLLECTION BOX - BLUE BOX", "address": {"city": "MILL VALLEY", "state": "CA", "street": "591 REDWOOD HWY FRONTAGE RD", "postcode": "94941"}}},
{"geometry": {"type": "Point", "coordinates": [-122.5652203454, 37.8932959816]}, "type": "Feature", "properties": {"collection_times": [{"days": "Mon-Sat", "time": "1:00pm"}, {"days": "Sun", "time": "Closed"}], "id": "9494100064", "name": "USPS COLLECTION BOX - BLUE BOX", "address": {"city": "MILL VALLEY", "state": "CA", "street": "1000 SHELTER BAY AVE", "postcode": "94941"}}},
{"geometry": {"type": "Point", "coordinates": [-122.5142958713, 37.8952153207]}, "type": "Feature", "properties": {"collection_times": [{"days": "Mon-Fri", "time": "3:00pm"}, {"days": "Sat", "time": "1:00pm"}, {"days": "Sun", "time": "Closed"}], "id": "9494100065", "name": "USPS COLLECTION BOX - BLUE BOX", "address": {"city": "MILL VALLEY", "state": "CA", "street": "2 BELVEDERE PL", "postcode": "94941"}}},
{"geometry": {"type": "Point", "coordinates": [-122.5258533399, 37.9012370907]}, "type": "Feature", "properties": {"collection_times": [{"days": "Mon-Fri", "time": "5:00pm"}, {"days": "Sat", "time": "4:00pm"}, {"days": "Sun", "time": "Closed"}], "id": "9494100066", "name": "USPS COLLECTION BOX - APC", "address": {"city": "MILL VALLEY", "state": "CA", "street": "751 E BLITHEDALE AVE", "postcode": "94941"}}},
{"geometry": {"type": "Point", "coordinates": [-122.5652203454, 37.8932959816]}, "type": "Feature", "properties": {"collection_times": [{"days": "Mon-Sat", "time": "12:00pm"}, {"days": "Sun", "time": "Closed"}], "id": "9494100067", "name": "USPS COLLECTION BOX - BLUE BOX", "address": {"city": "MILL VALLEY", "state": "CA", "street": "800 REDWOOD HWY FRONTAGE RD", "postcode": "94941"}}},
{"geometry": {"type": "Point", "coordinates": [-122.5415630755, 37.904059122]}, "type": "Feature", "properties": {"collection_times": [{"days": "Mon-Fri", "time": "1:30pm"}, {"days": "Sat", "time": "1:00pm"}, {"days": "Sun", "time": "Closed"}], "id": "9494100069", "name": "USPS COLLECTION BOX - BLUE BOX", "address": {"city": "MILL VALLEY", "state": "CA", "street": "246 E BLITHEDALE AVE", "postcode": "94941"}}},
{"geometry": {"type": "Point", "coordinates": [-122.5622833691, 38.1099061977]}, "type": "Feature", "properties": {"collection_times": [{"days": "Mon-Sat", "time": "1:00pm"}, {"days": "Sun", "time": "Closed"}], "id": "9494500002", "name": "USPS COLLECTION BOX - BLUE BOX", "address": {"city": "NOVATO", "state": "CA", "street": "700 OLIVE AVE", "postcode": "94945"}}},
{"geometry": {"type": "Point", "coordinates": [-122.5781165075, 38.109660939]}, "type": "Feature", "properties": {"collection_times": [{"days": "Mon-Fri", "time": "3:00pm"}, {"days": "Sat", "time": "1:00pm"}, {"days": "Sun", "time": "Closed"}], "id": "9494500004", "name": "USPS COLLECTION BOX - BLUE BOX", "address": {"city": "NOVATO", "state": "CA", "street": "1015 7TH ST", "postcode": "94945"}}},
{"geometry": {"type": "Point", "coordinates": [-122.5286083845, 38.1238019703]}, "type": "Feature", "properties": {"collection_times": [{"days": "Mon-Sat", "time": "10:00am"}, {"days": "Sun", "time": "Closed"}], "id": "9494500011", "name": "USPS COLLECTION BOX - BLUE BOX", "address": {"city": "NOVATO", "state": "CA", "street": "2500 TOPAZ DR", "postcode": "94945"}}},
{"geometry": {"type": "Point", "coordinates": [-122.587236569, 38.1150043255]}, "type": "Feature", "properties": {"collection_times": [{"days": "Mon-Sat", "time": "1:00pm"}, {"days": "Sun", "time": "Closed"}], "id": "9494500012", "name": "USPS COLLECTION BOX - BLUE BOX", "address": {"city": "NOVATO", "state": "CA", "street": "1091 SIMMONS LN", "postcode": "94945"}}},
{"geometry": {"type": "Point", "coordinates": [-122.5788924623, 38.1091711526]}, "type": "Feature", "properties": {"collection_times": [{"days": "Mon-Fri", "time": "3:00pm"}, {"days": "Sat", "time": "1:00pm"}, {"days": "Sun", "time": "Closed"}], "id": "9494500013", "name": "USPS COLLECTION BOX - BLUE BOX", "address": {"city": "NOVATO", "state": "CA", "street": "1711 GRANT AVE", "postcode": "94945"}}},
{"geometry": {"type": "Point", "coordinates": [-122.5793373211, 38.1111266251]}, "type": "Feature", "properties": {"collection_times": [{"days": "Mon-Sat", "time": "10:00am"}, {"days": "Sun", "time": "Closed"}], "id": "9494500014", "name": "USPS COLLECTION BOX - BLUE BOX", "address": {"city": "NOVATO", "state": "CA", "street": "1725 MARION AVE", "postcode": "94945"}}},
{"geometry": {"type": "Point", "coordinates": [-122.5071614458, 38.1084377594]}, "type": "Feature", "properties": {"collection_times": [{"days": "Mon-Sat", "time": "12:00pm"}, {"days": "Sun", "time": "Closed"}], "id": "9494500020", "name": "USPS COLLECTION BOX - BLUE BOX", "address": {"city": "NOVATO", "state": "CA", "street": "7 HARBOR DR", "postcode": "94945"}}},
{"geometry": {"type": "Point", "coordinates": [-122.6030740611, 38.1219984418]}, "type": "Feature", "properties": {"collection_times": [{"days": "Mon-Fri", "time": "3:00pm"}, {"days": "Sat", "time": "10:00am"}, {"days": "Sun", "time": "Closed"}], "id": "9494500024", "name": "USPS COLLECTION BOX - BLUE BOX", "address": {"city": "NOVATO", "state": "CA", "street": "151 SAN MARIN DR", "postcode": "94945"}}},
{"geometry": {"type": "Point", "coordinates": [-122.5848416292, 38.1214384784]}, "type": "Feature", "properties": {"collection_times": [{"days": "Mon-Fri", "time": "3:00pm"}, {"days": "Sat", "time": "10:00am"}, {"days": "Sun", "time": "Closed"}], "id": "9494500025", "name": "USPS COLLECTION BOX - BLUE BOX", "address": {"city": "NOVATO", "state": "CA", "street": "1200 SIMMONS LN", "postcode": "94945"}}},
{"geometry": {"type": "Point", "coordinates": [-122.591449638, 38.1239936698]}, "type": "Feature", "properties": {"collection_times": [{"days": "Mon-Fri", "time": "3:00pm"}, {"days": "Sat", "time": "10:00am"}, {"days": "Sun", "time": "Closed"}], "id": "9494500026", "name": "USPS COLLECTION BOX - BLUE BOX", "address": {"city": "NOVATO", "state": "CA", "street": "402 SAN MARIN DR", "postcode": "94945"}}},
{"geometry": {"type": "Point", "coordinates": [-122.5678164838, 38.1005344105]}, "type": "Feature", "properties": {"collection_times": [{"days": "Mon-Fri", "time": "3:00pm"}, {"days": "Sat", "time": "1:00pm"}, {"days": "Sun", "time": "Closed"}], "id": "9494500027", "name": "USPS COLLECTION BOX - BLUE BOX", "address": {"city": "NOVATO", "state": "CA", "street": "7100 REDWOOD BLVD", "postcode": "94945"}}},
{"geometry": {"type": "Point", "coordinates": [-122.5674130948, 38.1156206862]}, "type": "Feature", "properties": {"collection_times": [{"days": "Mon-Fri", "time": "3:00pm"}, {"days": "Sat", "time": "9:00am"}, {"days": "Sun", "time": "Closed"}], "id": "9494500029", "name": "USPS COLLECTION BOX - BLUE BOX", "address": {"city": "NOVATO", "state": "CA", "street": "7595 REDWOOD BLVD", "postcode": "94945"}}},
{"geometry": {"type": "Point", "coordinates": [-122.5681874917, 38.1123106666]}, "type": "Feature", "properties": {"collection_times": [{"days": "Mon-Fri", "time": "3:00pm"}, {"days": "Sat-Sun", "time": "Closed"}], "id": "9494500031", "name": "USPS COLLECTION BOX - EXPRESS", "address": {"city": "NOVATO", "state": "CA", "street": "1200 SIMMONS LN", "postcode": "94945"}}},
{"geometry": {"type": "Point", "coordinates": [-122.5674130948, 38.1156206862]}, "type": "Feature", "properties": {"collection_times": [{"days": "Mon-Fri", "time": "3:00pm"}, {"days": "Sat", "time": "9:00am"}, {"days": "Sun", "time": "Closed"}], "id": "9494500032", "name": "USPS COLLECTION BOX - BLUE BOX", "address": {"city": "NOVATO", "state": "CA", "street": "7595 REDWOOD BLVD", "postcode": "94945"}}},
{"geometry": {"type": "Point", "coordinates": [-122.5560922466, 38.0921648851]}, "type": "Feature", "properties": {"collection_times": [{"days": "Mon-Fri", "time": "3:00pm"}, {"days": "Sat", "time": "10:00am"}, {"days": "Sun", "time": "Closed"}], "id": "9494500034", "name": "USPS COLLECTION BOX - BLUE BOX", "address": {"city": "NOVATO", "state": "CA", "street": "140 VINTAGE WAY", "postcode": "94945"}}},
{"geometry": {"type": "Point", "coordinates": [-122.5589797803, 38.0974031182]}, "type": "Feature", "properties": {"collection_times": [{"days": "Mon-Fri", "time": "3:00pm"}, {"days": "Sat", "time": "11:00am"}, {"days": "Sun", "time": "Closed"}], "id": "9494500035", "name": "USPS COLLECTION BOX - BLUE BOX", "address": {"city": "NOVATO", "state": "CA", "street": "101 ROWLAND WAY", "postcode": "94945"}}},
{"geometry": {"type": "Point", "coordinates": [-122.5681874917, 38.1123106666]}, "type": "Feature", "properties": {"collection_times": [{"days": "Mon-Fri", "time": "3:00pm"}, {"days": "Sat", "time": "11:00am"}, {"days": "Sun", "time": "Closed"}], "id": "9494500036", "name": "USPS COLLECTION BOX - EXPRESS", "address": {"city": "NOVATO", "state": "CA", "street": "101 ROWLAND WAY", "postcode": "94945"}}},
{"geometry": {"type": "Point", "coordinates": [-122.5626219995, 38.140978555]}, "type": "Feature", "properties": {"collection_times": [{"days": "Mon-Sat", "time": "11:00am"}, {"days": "Sun", "time": "Closed"}], "id": "9494500043", "name": "USPS COLLECTION BOX - BLUE BOX", "address": {"city": "NOVATO", "state": "CA", "street": "351 AIRPORT RD", "postcode": "94945"}}},
{"geometry": {"type": "Point", "coordinates": [-122.5646524379, 38.1293391939]}, "type": "Feature", "properties": {"collection_times": [{"days": "Mon-Fri", "time": "3:00pm"}, {"days": "Sat", "time": "1:00pm"}, {"days": "Sun", "time": "Closed"}], "id": "9494500045", "name": "USPS COLLECTION BOX - BLUE BOX", "address": {"city": "NOVATO", "state": "CA", "street": "7900 REDWOOD BLVD", "postcode": "94945"}}},
{"geometry": {"type": "Point", "coordinates": [-122.5665814746, 38.1069413163]}, "type": "Feature", "properties": {"collection_times": [{"days": "Mon-Fri", "time": "3:00pm"}, {"days": "Sat", "time": "1:00pm"}, {"days": "Sun", "time": "Closed"}], "id": "9494500046", "name": "USPS COLLECTION BOX - BLUE BOX", "address": {"city": "NOVATO", "state": "CA", "street": "801 GRANT AVE", "postcode": "94945"}}},
{"geometry": {"type": "Point", "coordinates": [-122.5687119837, 38.1073163143]}, "type": "Feature", "properties": {"collection_times": [{"days": "Mon-Fri", "time": "3:00pm"}, {"days": "Sat", "time": "10:00am"}, {"days": "Sun", "time": "Closed"}], "id": "9494500047", "name": "USPS COLLECTION BOX - BLUE BOX", "address": {"city": "NOVATO", "state": "CA", "street": "881 GRANT AVE", "postcode": "94945"}}},
{"geometry": {"type": "Point", "coordinates": [-122.5744221266, 38.1084070025]}, "type": "Feature", "properties": {"collection_times": [{"days": "Mon-Fri", "time": "3:00pm"}, {"days": "Sat", "time": "11:00am"}, {"days": "Sun", "time": "Closed"}], "id": "9494500048", "name": "USPS COLLECTION BOX - BLUE BOX", "address": {"city": "NOVATO", "state": "CA", "street": "1320 GRANT AVE", "postcode": "94945"}}},
{"geometry": {"type": "Point", "coordinates": [-122.5727458738, 38.1080651273]}, "type": "Feature", "properties": {"collection_times": [{"days": "Mon-Fri", "time": "3:00pm"}, {"days": "Sat", "time": "10:00am"}, {"days": "Sun", "time": "Closed"}], "id": "9494500049", "name": "USPS COLLECTION BOX - BLUE BOX", "address": {"city": "NOVATO", "state": "CA", "street": "1200 GRANT AVE", "postcode": "94945"}}},
{"geometry": {"type": "Point", "coordinates": [-122.5761054772, 38.1087583413]}, "type": "Feature", "properties": {"collection_times": [{"days": "Mon-Fri", "time": "3:00pm"}, {"days": "Sat", "time": "11:00am"}, {"days": "Sun", "time": "Closed"}], "id": "9494500050", "name": "USPS COLLECTION BOX - BLUE BOX", "address": {"city": "NOVATO", "state": "CA", "street": "1500 GRANT AVE", "postcode": "94945"}}},
{"geometry": {"type": "Point", "coordinates": [-122.5770186461, 38.1090061]}, "type": "Feature", "properties": {"collection_times": [{"days": "Mon-Fri", "time": "3:00pm"}, {"days": "Sat", "time": "11:00am"}, {"days": "Sun", "time": "Closed"}], "id": "9494500051", "name": "USPS COLLECTION BOX - BLUE BOX", "address": {"city": "NOVATO", "state": "CA", "street": "1598 GRANT AVE", "postcode": "94945"}}},
{"geometry": {"type": "Point", "coordinates": [-122.5702196912, 38.1034101968]}, "type": "Feature", "properties": {"collection_times": [{"days": "Mon-Fri", "time": "3:00pm"}, {"days": "Sat", "time": "9:45am"}, {"days": "Sun", "time": "Closed"}], "id": "9494500052", "name": "USPS COLLECTION BOX - BLUE BOX", "address": {"city": "NOVATO", "state": "CA", "street": "7250 REDWOOD BLVD", "postcode": "94945"}}},
{"geometry": {"type": "Point", "coordinates": [-122.570030983, 38.108592727]}, "type": "Feature", "properties": {"collection_times": [{"days": "Mon-Fri", "time": "3:00pm"}, {"days": "Sat-Sun", "time": "Closed"}], "id": "9494500053", "name": "USPS COLLECTION BOX - BLUE BOX", "address": {"city": "NOVATO", "state": "CA", "street": "7395 REDWOOD BLVD", "postcode": "94945"}}},
{"geometry": {"type": "Point", "coordinates": [-122.6030740611, 38.1219984418]}, "type": "Feature", "properties": {"collection_times": [{"days": "Mon-Fri", "time": "3:00pm"}, {"days": "Sat", "time": "10:00am"}, {"days": "Sun", "time": "Closed"}], "id": "9494500054", "name": "USPS COLLECTION BOX - BLUE BOX", "address": {"city": "NOVATO", "state": "CA", "street": "151 SAN MARIN DR", "postcode": "94945"}}},
{"geometry": {"type": "Point", "coordinates": [-122.5590720511, 38.0954311256]}, "type": "Feature", "properties": {"collection_times": [{"days": "Mon-Fri", "time": "3:00pm"}, {"days": "Sat", "time": "11:00am"}, {"days": "Sun", "time": "Closed"}], "id": "9494500055", "name": "USPS COLLECTION BOX - BLUE BOX", "address": {"city": "NOVATO", "state": "CA", "street": "95 ROWLAND WAY", "postcode": "94945"}}},
{"geometry": {"type": "Point", "coordinates": [-122.5681266619, 38.1124540981]}, "type": "Feature", "properties": {"collection_times": [{"days": "Mon-Fri", "time": "3:00pm"}, {"days": "Sat", "time": "9:45am"}, {"days": "Sun", "time": "Closed"}], "id": "9494500056", "name": "USPS COLLECTION BOX - BLUE BOX", "address": {"city": "NOVATO", "state": "CA", "street": "7250 REDWOOD BLVD", "postcode": "94945"}}},
{"geometry": {"type": "Point", "coordinates": [-122.5579872777, 38.0945651996]}, "type": "Feature", "properties": {"collection_times": [{"days": "Mon-Fri", "time": "3:00pm"}, {"days": "Sat", "time": "11:00am"}, {"days": "Sun", "time": "Closed"}], "id": "9494500057", "name": "USPS COLLECTION BOX - BLUE BOX", "address": {"city": "NOVATO", "state": "CA", "street": "88 ROWLAND WAY", "postcode": "94945"}}},
{"geometry": {"type": "Point", "coordinates": [-122.6991389679, 38.0618022135]}, "type": "Feature", "properties": {"collection_times": [{"days": "Mon-Fri", "time": "3:30pm"}, {"days": "Sat-Sun", "time": "Closed"}], "id": "9494600002", "name": "USPS COLLECTION BOX - BLUE BOX", "address": {"city": "NICASIO", "state": "CA", "street": "1 OLD RANCHERIA RD", "postcode": "94946"}}},
{"geometry": {"type": "Point", "coordinates": [-122.5804008012, 38.1068904491]}, "type": "Feature", "properties": {"collection_times": [{"days": "Mon-Fri", "time": "3:00pm"}, {"days": "Sat", "time": "11:00am"}, {"days": "Sun", "time": "Closed"}], "id": "9494700007", "name": "USPS COLLECTION BOX - BLUE BOX", "address": {"city": "NOVATO", "state": "CA", "street": "1720 NOVATO BLVD", "postcode": "94947"}}},
{"geometry": {"type": "Point", "coordinates": [-122.5791038307, 38.1062349012]}, "type": "Feature", "properties": {"collection_times": [{"days": "Mon-Fri", "time": "3:00pm"}, {"days": "Sat", "time": "1:00pm"}, {"days": "Sun", "time": "Closed"}], "id": "9494700008", "name": "USPS COLLECTION BOX - BLUE BOX", "address": {"city": "NOVATO", "state": "CA", "street": "891 TAMALPAIS AVE", "postcode": "94947"}}},
{"geometry": {"type": "Point", "coordinates": [-122.6070540497, 38.104154265]}, "type": "Feature", "properties": {"collection_times": [{"days": "Mon-Sat", "time": "1:00pm"}, {"days": "Sun", "time": "Closed"}], "id": "9494700012", "name": "USPS COLLECTION BOX - BLUE BOX", "address": {"city": "NOVATO", "state": "CA", "street": "2165 MILL RD", "postcode": "94947"}}},
{"geometry": {"type": "Point", "coordinates": [-122.5655780766, 38.080840731]}, "type": "Feature", "properties": {"collection_times": [{"days": "Mon-Sat", "time": "1:00pm"}, {"days": "Sun", "time": "Closed"}], "id": "9494700017", "name": "USPS COLLECTION BOX - BLUE BOX", "address": {"city": "NOVATO", "state": "CA", "street": "665 SUNSET PKWY", "postcode": "94947"}}},
{"geometry": {"type": "Point", "coordinates": [-122.5665111463, 38.0871646055]}, "type": "Feature", "properties": {"collection_times": [{"days": "Mon-Fri", "time": "12:00pm"}, {"days": "Sat", "time": "1:00pm"}, {"days": "Sun", "time": "Closed"}], "id": "9494700019", "name": "USPS COLLECTION BOX - BLUE BOX", "address": {"city": "NOVATO", "state": "CA", "street": "500 ROWLAND BLVD", "postcode": "94947"}}},
{"geometry": {"type": "Point", "coordinates": [-122.5559018728, 38.0883370284]}, "type": "Feature", "properties": {"collection_times": [{"days": "Mon-Sat", "time": "12:00pm"}, {"days": "Sun", "time": "Closed"}], "id": "9494700020", "name": "USPS COLLECTION BOX - BLUE BOX", "address": {"city": "NOVATO", "state": "CA", "street": "1291 REDWOOD BLVD", "postcode": "94947"}}},
{"geometry": {"type": "Point", "coordinates": [-122.5723114116, 38.1037386577]}, "type": "Feature", "properties": {"collection_times": [{"days": "Mon-Fri", "time": "3:00pm"}, {"days": "Sat", "time": "10:00am"}, {"days": "Sun", "time": "Closed"}], "id": "9494700025", "name": "USPS COLLECTION BOX - BLUE BOX", "address": {"city": "NOVATO", "state": "CA", "street": "926 DIABLO AVE", "postcode": "94947"}}},
{"geometry": {"type": "Point", "coordinates": [-122.5925651683, 38.1120623457]}, "type": "Feature", "properties": {"collection_times": [{"days": "Mon-Fri", "time": "3:00pm"}, {"days": "Sat", "time": "1:00pm"}, {"days": "Sun", "time": "Closed"}], "id": "9494700028", "name": "USPS COLLECTION BOX - BLUE BOX", "address": {"city": "NOVATO", "state": "CA", "street": "2045 NOVATO BLVD", "postcode": "94947"}}},
{"geometry": {"type": "Point", "coordinates": [-122.5699848476, 38.0976929431]}, "type": "Feature", "properties": {"collection_times": [{"days": "Mon-Fri", "time": "5:45pm"}, {"days": "Sat", "time": "3:30pm"}, {"days": "Sun", "time": "Closed"}], "id": "9494700035", "name": "USPS COLLECTION BOX - BLUE BOX", "address": {"city": "NOVATO", "state": "CA", "street": "1537 S NOVATO BLVD", "postcode": "94947"}}},
{"geometry": {"type": "Point", "coordinates": [-122.5699848476, 38.0976929431]}, "type": "Feature", "properties": {"collection_times": [{"days": "Mon-Sat", "time": "5:45pm"}, {"days": "Sun", "time": "Closed"}], "id": "9494700036", "name": "USPS COLLECTION BOX - PO LOBBY", "address": {"city": "NOVATO", "state": "CA", "street": "1537 S NOVATO BLVD", "postcode": "94947"}}},
{"geometry": {"type": "Point", "coordinates": [-122.5808097326, 38.0982936789]}, "type": "Feature", "properties": {"collection_times": [{"days": "Mon-Fri", "time": "4:00pm"}, {"days": "Sat", "time": "3:30pm"}, {"days": "Sun", "time": "Closed"}], "id": "9494700038", "name": "USPS COLLECTION BOX - EXPRESS", "address": {"city": "NOVATO", "state": "CA", "street": "1537 S NOVATO BLVD", "postcode": "94947"}}},
{"geometry": {"type": "Point", "coordinates": [-122.5519796326, 38.0775860778]}, "type": "Feature", "properties": {"collection_times": [{"days": "Mon-Fri", "time": "3:00pm"}, {"days": "Sat", "time": "1:00pm"}, {"days": "Sun", "time": "Closed"}], "id": "9494700039", "name": "USPS COLLECTION BOX - BLUE BOX", "address": {"city": "NOVATO", "state": "CA", "street": "998 S NOVATO BLVD", "postcode": "94947"}}},
{"geometry": {"type": "Point", "coordinates": [-122.5699848476, 38.0976929431]}, "type": "Feature", "properties": {"collection_times": [{"days": "Mon-Sat", "time": "5:45pm"}, {"days": "Sun", "time": "Closed"}], "id": "9494700040", "name": "USPS COLLECTION BOX - APC", "address": {"city": "NOVATO", "state": "CA", "street": "1537 S NOVATO BLVD", "postcode": "94947"}}},
{"geometry": {"type": "Point", "coordinates": [-122.6113718499, 38.1123356092]}, "type": "Feature", "properties": {"collection_times": [{"days": "Mon-Fri", "time": "3:00pm"}, {"days": "Sat", "time": "1:00pm"}, {"days": "Sun", "time": "Closed"}], "id": "9494700041", "name": "USPS COLLECTION BOX - BLUE BOX", "address": {"city": "NOVATO", "state": "CA", "street": "802 SUTRO AVE", "postcode": "94947"}}},
{"geometry": {"type": "Point", "coordinates": [-122.5377882534, 38.0753870689]}, "type": "Feature", "properties": {"collection_times": [{"days": "Mon-Fri", "time": "5:00pm"}, {"days": "Sat", "time": "4:15pm"}, {"days": "Sun", "time": "Closed"}], "id": "9494800000", "name": "USPS COLLECTION BOX - PO LOBBY", "address": {"city": "NOVATO", "state": "CA", "street": "390 BEL MARIN KEYS BLVD", "postcode": "94948"}}},
{"geometry": {"type": "Point", "coordinates": [-122.5702079192, 38.0980329785]}, "type": "Feature", "properties": {"collection_times": [{"days": "Mon-Sat", "time": "4:00pm"}, {"days": "Sun", "time": "Closed"}], "id": "9494800001", "name": "USPS COLLECTION BOX - EXPRESS", "address": {"city": "NOVATO", "state": "CA", "street": "390 BEL MARIN KEYS BLVD", "postcode": "94948"}}},
{"geometry": {"type": "Point", "coordinates": [-122.554529766, 38.0672388908]}, "type": "Feature", "properties": {"collection_times": [{"days": "Mon-Fri", "time": "3:00pm"}, {"days": "Sat", "time": "1:00pm"}, {"days": "Sun", "time": "Closed"}], "id": "9494900001", "name": "USPS COLLECTION BOX - BLUE BOX", "address": {"city": "NOVATO", "state": "CA", "street": "101 FAIRWAY DR", "postcode": "94949"}}},
{"geometry": {"type": "Point", "coordinates": [-122.5375078921, 38.0737179138]}, "type": "Feature", "properties": {"collection_times": [{"days": "Mon-Fri", "time": "3:00pm"}, {"days": "Sat", "time": "1:00pm"}, {"days": "Sun", "time": "Closed"}], "id": "9494900002", "name": "USPS COLLECTION BOX - BLUE BOX", "address": {"city": "NOVATO", "state": "CA", "street": "371 BEL MARIN KEYS BLVD", "postcode": "94949"}}},
{"geometry": {"type": "Point", "coordinates": [-122.5245533085, 38.0812545453]}, "type": "Feature", "properties": {"collection_times": [{"days": "Mon-Sat", "time": "1:00pm"}, {"days": "Sun", "time": "Closed"}], "id": "9494900003", "name": "USPS COLLECTION BOX - BLUE BOX", "address": {"city": "NOVATO", "state": "CA", "street": "901 BEL MARIN KEYS BLVD", "postcode": "94949"}}},
{"geometry": {"type": "Point", "coordinates": [-122.5402008491, 38.0660847691]}, "type": "Feature", "properties": {"collection_times": [{"days": "Mon-Fri", "time": "3:00pm"}, {"days": "Sat", "time": "1:00pm"}, {"days": "Sun", "time": "Closed"}], "id": "9494900006", "name": "USPS COLLECTION BOX - BLUE BOX", "address": {"city": "NOVATO", "state": "CA", "street": "368 IGNACIO BLVD", "postcode": "94949"}}},
{"geometry": {"type": "Point", "coordinates": [-122.5412365788, 38.0691694365]}, "type": "Feature", "properties": {"collection_times": [{"days": "Mon-Sat", "time": "1:00pm"}, {"days": "Sun", "time": "Closed"}], "id": "9494900007", "name": "USPS COLLECTION BOX - BLUE BOX", "address": {"city": "NOVATO", "state": "CA", "street": "455 ENTRADA DR", "postcode": "94949"}}},
{"geometry": {"type": "Point", "coordinates": [-122.5362082512, 38.0624126234]}, "type": "Feature", "properties": {"collection_times": [{"days": "Mon-Fri", "time": "3:00pm"}, {"days": "Sat", "time": "1:00pm"}, {"days": "Sun", "time": "Closed"}], "id": "9494900009", "name": "USPS COLLECTION BOX - EXPRESS", "address": {"city": "NOVATO", "state": "CA", "street": "11 DIGITAL DR", "postcode": "94949"}}},
{"geometry": {"type": "Point", "coordinates": [-122.5310927057, 38.070884727]}, "type": "Feature", "properties": {"collection_times": [{"days": "Mon-Fri", "time": "3:00pm"}, {"days": "Sat", "time": "1:00pm"}, {"days": "Sun", "time": "Closed"}], "id": "9494900010", "name": "USPS COLLECTION BOX - BLUE BOX", "address": {"city": "NOVATO", "state": "CA", "street": "51 DIGITAL DR", "postcode": "94949"}}},
{"geometry": {"type": "Point", "coordinates": [-122.5362326624, 38.0454369138]}, "type": "Feature", "properties": {"collection_times": [{"days": "Mon-Sat", "time": "1:00pm"}, {"days": "Sun", "time": "Closed"}], "id": "9494900011", "name": "USPS COLLECTION BOX - BLUE BOX", "address": {"city": "NOVATO", "state": "CA", "street": "150 ALAMEDA DEL PRADO", "postcode": "94949"}}},
{"geometry": {"type": "Point", "coordinates": [-122.5345055423, 38.0658263945]}, "type": "Feature", "properties": {"collection_times": [{"days": "Mon-Sat", "time": "1:00pm"}, {"days": "Sun", "time": "Closed"}], "id": "9494900015", "name": "USPS COLLECTION BOX - BLUE BOX", "address": {"city": "NOVATO", "state": "CA", "street": "100 ROBLAR DR", "postcode": "94949"}}},
{"geometry": {"type": "Point", "coordinates": [-122.5309341892, 38.0684478316]}, "type": "Feature", "properties": {"collection_times": [{"days": "Mon-Fri", "time": "3:00pm"}, {"days": "Sat", "time": "1:00pm"}, {"days": "Sun", "time": "Closed"}], "id": "9494900018", "name": "USPS COLLECTION BOX - BLUE BOX", "address": {"city": "NOVATO", "state": "CA", "street": "25 COMMERCIAL BLVD", "postcode": "94949"}}},
{"geometry": {"type": "Point", "coordinates": [-122.5328079962, 38.0686193606]}, "type": "Feature", "properties": {"collection_times": [{"days": "Mon-Fri", "time": "3:00pm"}, {"days": "Sat", "time": "1:00pm"}, {"days": "Sun", "time": "Closed"}], "id": "9494900019", "name": "USPS COLLECTION BOX - BLUE BOX", "address": {"city": "NOVATO", "state": "CA", "street": "9 COMMERCIAL BLVD", "postcode": "94949"}}},
{"geometry": {"type": "Point", "coordinates": [-122.5330895404, 38.0491762471]}, "type": "Feature", "properties": {"collection_times": [{"days": "Mon-Sat", "time": "1:00pm"}, {"days": "Sun", "time": "Closed"}], "id": "9494900021", "name": "USPS COLLECTION BOX - BLUE BOX", "address": {"city": "NOVATO", "state": "CA", "street": "201 ALAMEDA DEL PRADO", "postcode": "94949"}}},
{"geometry": {"type": "Point", "coordinates": [-122.5375078921, 38.0737179138]}, "type": "Feature", "properties": {"collection_times": [{"days": "Mon-Fri", "time": "3:00pm"}, {"days": "Sat", "time": "1:00pm"}, {"days": "Sun", "time": "Closed"}], "id": "9494900022", "name": "USPS COLLECTION BOX - BLUE BOX", "address": {"city": "NOVATO", "state": "CA", "street": "371 BEL MARIN KEYS BLVD", "postcode": "94949"}}},
{"geometry": {"type": "Point", "coordinates": [-122.5375078921, 38.0737179138]}, "type": "Feature", "properties": {"collection_times": [{"days": "Mon-Fri", "time": "3:00pm"}, {"days": "Sat", "time": "1:00pm"}, {"days": "Sun", "time": "Closed"}], "id": "9494900023", "name": "USPS COLLECTION BOX - BLUE BOX", "address": {"city": "NOVATO", "state": "CA", "street": "371 BEL MARIN KEYS BLVD", "postcode": "94949"}}},
{"geometry": {"type": "Point", "coordinates": [-122.5375078921, 38.0737179138]}, "type": "Feature", "properties": {"collection_times": [{"days": "Mon-Fri", "time": "3:00pm"}, {"days": "Sat", "time": "1:00pm"}, {"days": "Sun", "time": "Closed"}], "id": "9494900024", "name": "USPS COLLECTION BOX - BLUE BOX", "address": {"city": "NOVATO", "state": "CA", "street": "371 BEL MARIN KEYS BLVD", "postcode": "94949"}}},
{"geometry": {"type": "Point", "coordinates": [-122.5337378019, 38.0703074431]}, "type": "Feature", "properties": {"collection_times": [{"days": "Mon-Fri", "time": "3:00pm"}, {"days": "Sat", "time": "1:00pm"}, {"days": "Sun", "time": "Closed"}], "id": "9494900025", "name": "USPS COLLECTION BOX - BLUE BOX", "address": {"city": "NOVATO", "state": "CA", "street": "11 DIGITAL DR", "postcode": "94949"}}},
{"geometry": {"type": "Point", "coordinates": [-122.5337378019, 38.0703074431]}, "type": "Feature", "properties": {"collection_times": [{"days": "Mon-Fri", "time": "3:00pm"}, {"days": "Sat", "time": "1:00pm"}, {"days": "Sun", "time": "Closed"}], "id": "9494900026", "name": "USPS COLLECTION BOX - BLUE BOX", "address": {"city": "NOVATO", "state": "CA", "street": "11 DIGITAL DR", "postcode": "94949"}}},
{"geometry": {"type": "Point", "coordinates": [-122.5337757265, 38.0606642557]}, "type": "Feature", "properties": {"collection_times": [{"days": "Mon-Sat", "time": "12:00pm"}, {"days": "Sun", "time": "Closed"}], "id": "9494900028", "name": "USPS COLLECTION BOX - BLUE BOX", "address": {"city": "NOVATO", "state": "CA", "street": "99 POSADA DEL SOL", "postcode": "94949"}}},
{"geometry": {"type": "Point", "coordinates": [-122.5233798132, 38.0435749364]}, "type": "Feature", "properties": {"collection_times": [{"days": "Mon-Sat", "time": "11:00am"}, {"days": "Sun", "time": "Closed"}], "id": "9494900029", "name": "USPS COLLECTION BOX - BLUE BOX", "address": {"city": "NOVATO", "state": "CA", "street": "100 MARIN VALLEY DR", "postcode": "94949"}}},
{"geometry": {"type": "Point", "coordinates": [-122.5362082512, 38.0624126234]}, "type": "Feature", "properties": {"collection_times": [{"days": "Mon-Fri", "time": "3:00pm"}, {"days": "Sat", "time": "1:00pm"}, {"days": "Sun", "time": "Closed"}], "id": "9494900030", "name": "USPS COLLECTION BOX - EXPRESS", "address": {"city": "NOVATO", "state": "CA", "street": "9 COMMERCIAL BLVD", "postcode": "94949"}}},
{"geometry": {"type": "Point", "coordinates": [-122.5309341892, 38.0684478316]}, "type": "Feature", "properties": {"collection_times": [{"days": "Mon-Fri", "time": "3:00pm"}, {"days": "Sat", "time": "1:00pm"}, {"days": "Sun", "time": "Closed"}], "id": "9494900035", "name": "USPS COLLECTION BOX - BLUE BOX", "address": {"city": "NOVATO", "state": "CA", "street": "25 COMMERCIAL BLVD", "postcode": "94949"}}},
{"geometry": {"type": "Point", "coordinates": [-122.5111909877, 38.0516266192]}, "type": "Feature", "properties": {"collection_times": [{"days": "Mon-Fri", "time": "2:00pm"}, {"days": "Sat", "time": "1:00pm"}, {"days": "Sun", "time": "Closed"}], "id": "9494900036", "name": "USPS COLLECTION BOX - BLUE BOX", "address": {"city": "NOVATO", "state": "CA", "street": "1 HANGAR AVE", "postcode": "94949"}}},
{"geometry": {"type": "Point", "coordinates": [-122.5300860076, 38.0500185139]}, "type": "Feature", "properties": {"collection_times": [{"days": "Mon-Sat", "time": "1:00pm"}, {"days": "Sun", "time": "Closed"}], "id": "9494900037", "name": "USPS COLLECTION BOX - BLUE BOX", "address": {"city": "NOVATO", "state": "CA", "street": "275 MARIN VALLEY DR", "postcode": "94949"}}},
{"geometry": {"type": "Point", "coordinates": [-122.7889209408, 38.0432674838]}, "type": "Feature", "properties": {"collection_times": [{"days": "Mon-Fri", "time": "3:15pm"}, {"days": "Sat-Sun", "time": "Closed"}], "id": "9495000001", "name": "USPS COLLECTION BOX - PO LOBBY", "address": {"city": "OLEMA", "state": "CA", "street": "10155 STATE ROUTE 1", "postcode": "94950"}}},
{"geometry": {"type": "Point", "coordinates": [-122.6668147919, 38.2955358488]}, "type": "Feature", "properties": {"collection_times": [{"days": "Mon-Fri", "time": "4:30pm"}, {"days": "Sat", "time": "10:30am"}, {"days": "Sun", "time": "Closed"}], "id": "9495100003", "name": "USPS COLLECTION BOX - BLUE BOX", "address": {"city": "PENNGROVE", "state": "CA", "street": "11041 MAIN ST", "postcode": "94951"}}},
{"geometry": {"type": "Point", "coordinates": [-122.6668147919, 38.2955358488]}, "type": "Feature", "properties": {"collection_times": [{"days": "Mon-Fri", "time": "4:30pm"}, {"days": "Sat", "time": "10:30am"}, {"days": "Sun", "time": "Closed"}], "id": "9495100004", "name": "USPS COLLECTION BOX - PO LOBBY", "address": {"city": "PENNGROVE", "state": "CA", "street": "11041 MAIN ST", "postcode": "94951"}}},
{"geometry": {"type": "Point", "coordinates": [-122.6310747438, 38.231132805]}, "type": "Feature", "properties": {"collection_times": [{"days": "Mon-Fri", "time": "3:00pm"}, {"days": "Sat-Sun", "time": "Closed"}], "id": "9495200006", "name": "USPS COLLECTION BOX - BLUE BOX", "address": {"city": "PETALUMA", "state": "CA", "street": "625 2ND ST", "postcode": "94952"}}},
{"geometry": {"type": "Point", "coordinates": [-122.6431760993, 38.2321436427]}, "type": "Feature", "properties": {"collection_times": [{"days": "Mon-Fri", "time": "3:00pm"}, {"days": "Sat-Sun", "time": "Closed"}], "id": "9495200014", "name": "USPS COLLECTION BOX - BLUE BOX", "address": {"city": "PETALUMA", "state": "CA", "street": "22 BASSETT ST", "postcode": "94952"}}},
{"geometry": {"type": "Point", "coordinates": [-122.6392615637, 38.2333096437]}, "type": "Feature", "properties": {"collection_times": [{"days": "Mon-Fri", "time": "3:00pm"}, {"days": "Sat", "time": "1:00pm"}, {"days": "Sun", "time": "Closed"}], "id": "9495200018", "name": "USPS COLLECTION BOX - BLUE BOX", "address": {"city": "PETALUMA", "state": "CA", "street": "308 B ST", "postcode": "94952"}}},
{"geometry": {"type": "Point", "coordinates": [-122.6382203533, 38.2321080795]}, "type": "Feature", "properties": {"collection_times": [{"days": "Mon-Fri", "time": "5:00pm"}, {"days": "Sat", "time": "4:00pm"}, {"days": "Sun", "time": "Closed"}], "id": "9495200019", "name": "USPS COLLECTION BOX - BLUE BOX", "address": {"city": "PETALUMA", "state": "CA", "street": "120 4TH ST", "postcode": "94952"}}},
{"geometry": {"type": "Point", "coordinates": [-122.6382203533, 38.2321080795]}, "type": "Feature", "properties": {"collection_times": [{"days": "Mon-Fri", "time": "5:00pm"}, {"days": "Sat", "time": "4:00pm"}, {"days": "Sun", "time": "Closed"}], "id": "9495200020", "name": "USPS COLLECTION BOX - BLUE BOX", "address": {"city": "PETALUMA", "state": "CA", "street": "120 4TH ST", "postcode": "94952"}}},
{"geometry": {"type": "Point", "coordinates": [-122.6382203533, 38.2321080795]}, "type": "Feature", "properties": {"collection_times": [{"days": "Mon-Fri", "time": "5:00pm"}, {"days": "Sat", "time": "4:00pm"}, {"days": "Sun", "time": "Closed"}], "id": "9495200021", "name": "USPS COLLECTION BOX - BLUE BOX", "address": {"city": "PETALUMA", "state": "CA", "street": "120 4TH ST", "postcode": "94952"}}},
{"geometry": {"type": "Point", "coordinates": [-122.6382203533, 38.2321080795]}, "type": "Feature", "properties": {"collection_times": [{"days": "Mon-Fri", "time": "5:00pm"}, {"days": "Sat", "time": "4:00pm"}, {"days": "Sun", "time": "Closed"}], "id": "9495200022", "name": "USPS COLLECTION BOX - BLUE BOX", "address": {"city": "PETALUMA", "state": "CA", "street": "120 4TH ST", "postcode": "94952"}}},
{"geometry": {"type": "Point", "coordinates": [-122.6382203533, 38.2321080795]}, "type": "Feature", "properties": {"collection_times": [{"days": "Mon-Fri", "time": "5:00pm"}, {"days": "Sat", "time": "4:00pm"}, {"days": "Sun", "time": "Closed"}], "id": "9495200023", "name": "USPS COLLECTION BOX - BLUE BOX", "address": {"city": "PETALUMA", "state": "CA", "street": "120 4TH ST", "postcode": "94952"}}},
{"geometry": {"type": "Point", "coordinates": [-122.6382203533, 38.2321080795]}, "type": "Feature", "properties": {"collection_times": [{"days": "Mon-Fri", "time": "5:00pm"}, {"days": "Sat", "time": "4:00pm"}, {"days": "Sun", "time": "Closed"}], "id": "9495200024", "name": "USPS COLLECTION BOX - BLUE BOX", "address": {"city": "PETALUMA", "state": "CA", "street": "120 4TH ST", "postcode": "94952"}}},
{"geometry": {"type": "Point", "coordinates": [-122.6701864958, 38.2420829459]}, "type": "Feature", "properties": {"collection_times": [{"days": "Mon-Sat", "time": "4:00pm"}, {"days": "Sun", "time": "Closed"}], "id": "9495200025", "name": "USPS COLLECTION BOX - EXPRESS", "address": {"city": "PETALUMA", "state": "CA", "street": "120 4TH ST", "postcode": "94952"}}},
{"geometry": {"type": "Point", "coordinates": [-122.6243596924, 38.2354855993]}, "type": "Feature", "properties": {"collection_times": [{"days": "Mon-Fri", "time": "3:00pm"}, {"days": "Sat", "time": "1:00pm"}, {"days": "Sun", "time": "Closed"}], "id": "9495200029", "name": "USPS COLLECTION BOX - BLUE BOX", "address": {"city": "PETALUMA", "state": "CA", "street": "939 LAKEVILLE ST", "postcode": "94952"}}},
{"geometry": {"type": "Point", "coordinates": [-122.6308986142, 38.2438508292]}, "type": "Feature", "properties": {"collection_times": [{"days": "Mon-Fri", "time": "3:00pm"}, {"days": "Sat", "time": "1:00pm"}, {"days": "Sun", "time": "Closed"}], "id": "9495200034", "name": "USPS COLLECTION BOX - BLUE BOX", "address": {"city": "PETALUMA", "state": "CA", "street": "905 E WASHINGTON ST", "postcode": "94952"}}},
{"geometry": {"type": "Point", "coordinates": [-122.6401850906, 38.235963413]}, "type": "Feature", "properties": {"collection_times": [{"days": "Mon-Fri", "time": "3:00pm"}, {"days": "Sat", "time": "1:00pm"}, {"days": "Sun", "time": "Closed"}], "id": "9495200035", "name": "USPS COLLECTION BOX - BLUE BOX", "address": {"city": "PETALUMA", "state": "CA", "street": "2 E WASHINGTON ST", "postcode": "94952"}}},
{"geometry": {"type": "Point", "coordinates": [-122.643895696, 38.234794319]}, "type": "Feature", "properties": {"collection_times": [{"days": "Mon-Fri", "time": "3:00pm"}, {"days": "Sat-Sun", "time": "Closed"}], "id": "9495200039", "name": "USPS COLLECTION BOX - BLUE BOX", "address": {"city": "PETALUMA", "state": "CA", "street": "199 LIBERTY ST", "postcode": "94952"}}},
{"geometry": {"type": "Point", "coordinates": [-122.644620327, 38.2396611169]}, "type": "Feature", "properties": {"collection_times": [{"days": "Mon-Fri", "time": "3:00pm"}, {"days": "Sat", "time": "1:00pm"}, {"days": "Sun", "time": "Closed"}], "id": "9495200040", "name": "USPS COLLECTION BOX - BLUE BOX", "address": {"city": "PETALUMA", "state": "CA", "street": "108 KENTUCKY ST", "postcode": "94952"}}},
{"geometry": {"type": "Point", "coordinates": [-122.6449194213, 38.2457981282]}, "type": "Feature", "properties": {"collection_times": [{"days": "Mon-Fri", "time": "3:00pm"}, {"days": "Sat", "time": "1:00pm"}, {"days": "Sun", "time": "Closed"}], "id": "9495200046", "name": "USPS COLLECTION BOX - BLUE BOX", "address": {"city": "PETALUMA", "state": "CA", "street": "1000 PETALUMA BLVD N", "postcode": "94952"}}},
{"geometry": {"type": "Point", "coordinates": [-122.6674714822, 38.2672670416]}, "type": "Feature", "properties": {"collection_times": [{"days": "Mon-Fri", "time": "3:00pm"}, {"days": "Sat-Sun", "time": "Closed"}], "id": "9495200047", "name": "USPS COLLECTION BOX - BLUE BOX", "address": {"city": "PETALUMA", "state": "CA", "street": "1320 INDUSTRIAL AVE", "postcode": "94952"}}},
{"geometry": {"type": "Point", "coordinates": [-122.6382203533, 38.2321080795]}, "type": "Feature", "properties": {"collection_times": [{"days": "Mon-Fri", "time": "5:00pm"}, {"days": "Sat", "time": "4:00pm"}, {"days": "Sun", "time": "Closed"}], "id": "9495200056", "name": "USPS COLLECTION BOX - PO LOBBY", "address": {"city": "PETALUMA", "state": "CA", "street": "120 4TH ST", "postcode": "94952"}}},
{"geometry": {"type": "Point", "coordinates": [-122.6701864958, 38.2420829459]}, "type": "Feature", "properties": {"collection_times": [{"days": "Mon-Fri", "time": "3:00pm"}, {"days": "Sat", "time": "1:00pm"}, {"days": "Sun", "time": "Closed"}], "id": "9495200058", "name": "USPS COLLECTION BOX - EXPRESS", "address": {"city": "PETALUMA", "state": "CA", "street": "308 B ST", "postcode": "94952"}}},
{"geometry": {"type": "Point", "coordinates": [-122.6382203533, 38.2321080795]}, "type": "Feature", "properties": {"collection_times": [{"days": "Mon-Fri", "time": "5:00pm"}, {"days": "Sat", "time": "4:00pm"}, {"days": "Sun", "time": "Closed"}], "id": "9495200059", "name": "USPS COLLECTION BOX - APC", "address": {"city": "PETALUMA", "state": "CA", "street": "120 4TH ST", "postcode": "94952"}}},
{"geometry": {"type": "Point", "coordinates": [-122.6657667807, 38.2759951136]}, "type": "Feature", "properties": {"collection_times": [{"days": "Mon-Fri", "time": "3:00pm"}, {"days": "Sat-Sun", "time": "Closed"}], "id": "9495400005", "name": "USPS COLLECTION BOX - BLUE BOX", "address": {"city": "PETALUMA", "state": "CA", "street": "1301 REDWOOD WAY", "postcode": "94954"}}},
{"geometry": {"type": "Point", "coordinates": [-122.6203362477, 38.2523023988]}, "type": "Feature", "properties": {"collection_times": [{"days": "Mon-Fri", "time": "3:00pm"}, {"days": "Sat-Sun", "time": "Closed"}], "id": "9495400006", "name": "USPS COLLECTION BOX - EXPRESS", "address": {"city": "PETALUMA", "state": "CA", "street": "1301 REDWOOD WAY", "postcode": "94954"}}},
{"geometry": {"type": "Point", "coordinates": [-122.6599575588, 38.2688252541]}, "type": "Feature", "properties": {"collection_times": [{"days": "Mon-Fri", "time": "3:00pm"}, {"days": "Sat-Sun", "time": "Closed"}], "id": "9495400008", "name": "USPS COLLECTION BOX - BLUE BOX", "address": {"city": "PETALUMA", "state": "CA", "street": "1179 N MCDOWELL BLVD", "postcode": "94954"}}},
{"geometry": {"type": "Point", "coordinates": [-122.6203362477, 38.2523023988]}, "type": "Feature", "properties": {"collection_times": [{"days": "Mon-Fri", "time": "3:00pm"}, {"days": "Sat-Sun", "time": "Closed"}], "id": "9495400009", "name": "USPS COLLECTION BOX - EXPRESS", "address": {"city": "PETALUMA", "state": "CA", "street": "1179 N MCDOWELL BLVD", "postcode": "94954"}}},
{"geometry": {"type": "Point", "coordinates": [-122.6328918132, 38.2530494342]}, "type": "Feature", "properties": {"collection_times": [{"days": "Mon-Fri", "time": "3:00pm"}, {"days": "Sat-Sun", "time": "Closed"}], "id": "9495400015", "name": "USPS COLLECTION BOX - BLUE BOX", "address": {"city": "PETALUMA", "state": "CA", "street": "100 LYNCH CREEK WAY", "postcode": "94954"}}},
{"geometry": {"type": "Point", "coordinates": [-122.6305672745, 38.2517671323]}, "type": "Feature", "properties": {"collection_times": [{"days": "Mon-Fri", "time": "3:00pm"}, {"days": "Sat", "time": "1:00pm"}, {"days": "Sun", "time": "Closed"}], "id": "9495400018", "name": "USPS COLLECTION BOX - BLUE BOX", "address": {"city": "PETALUMA", "state": "CA", "street": "259 N MCDOWELL BLVD", "postcode": "94954"}}},
{"geometry": {"type": "Point", "coordinates": [-122.6203362477, 38.2523023988]}, "type": "Feature", "properties": {"collection_times": [{"days": "Mon-Fri", "time": "3:00pm"}, {"days": "Sat", "time": "1:00pm"}, {"days": "Sun", "time": "Closed"}], "id": "9495400020", "name": "USPS COLLECTION BOX - BLUE BOX", "address": {"city": "PETALUMA", "state": "CA", "street": "373 S MCDOWELL BLVD", "postcode": "94954"}}},
{"geometry": {"type": "Point", "coordinates": [-122.6227926135, 38.2475232618]}, "type": "Feature", "properties": {"collection_times": [{"days": "Mon-Fri", "time": "3:00pm"}, {"days": "Sat", "time": "1:00pm"}, {"days": "Sun", "time": "Closed"}], "id": "9495400021", "name": "USPS COLLECTION BOX - BLUE BOX", "address": {"city": "PETALUMA", "state": "CA", "street": "373 S MCDOWELL BLVD", "postcode": "94954"}}},
{"geometry": {"type": "Point", "coordinates": [-122.558561126, 38.2262569492]}, "type": "Feature", "properties": {"collection_times": [{"days": "Mon-Sat", "time": "1:00pm"}, {"days": "Sun", "time": "Closed"}], "id": "9495400023", "name": "USPS COLLECTION BOX - BLUE BOX", "address": {"city": "PETALUMA", "state": "CA", "street": "50 GREENBRIAR CIR", "postcode": "94954"}}},
{"geometry": {"type": "Point", "coordinates": [-122.6048389852, 38.2486450466]}, "type": "Feature", "properties": {"collection_times": [{"days": "Mon-Sat", "time": "1:00pm"}, {"days": "Sun", "time": "Closed"}], "id": "9495400024", "name": "USPS COLLECTION BOX - BLUE BOX", "address": {"city": "PETALUMA", "state": "CA", "street": "833 ELY BLVD S", "postcode": "94954"}}},
{"geometry": {"type": "Point", "coordinates": [-122.5992904608, 38.2317354628]}, "type": "Feature", "properties": {"collection_times": [{"days": "Mon-Fri", "time": "5:00pm"}, {"days": "Sat", "time": "4:00pm"}, {"days": "Sun", "time": "Closed"}], "id": "9495400032", "name": "USPS COLLECTION BOX - BLUE BOX", "address": {"city": "PETALUMA", "state": "CA", "street": "1601 CORPORATE CIR", "postcode": "94954"}}},
{"geometry": {"type": "Point", "coordinates": [-122.5992904608, 38.2317354628]}, "type": "Feature", "properties": {"collection_times": [{"days": "Mon-Fri", "time": "5:00pm"}, {"days": "Sat", "time": "4:00pm"}, {"days": "Sun", "time": "Closed"}], "id": "9495400033", "name": "USPS COLLECTION BOX - BLUE BOX", "address": {"city": "PETALUMA", "state": "CA", "street": "1601 CORPORATE CIR", "postcode": "94954"}}},
{"geometry": {"type": "Point", "coordinates": [-122.6688012456, 38.2753010453]}, "type": "Feature", "properties": {"collection_times": [{"days": "Mon-Fri", "time": "3:00pm"}, {"days": "Sat-Sun", "time": "Closed"}], "id": "9495400046", "name": "USPS COLLECTION BOX - BLUE BOX", "address": {"city": "PETALUMA", "state": "CA", "street": "1425 N MCDOWELL BLVD", "postcode": "94954"}}},
{"geometry": {"type": "Point", "coordinates": [-122.5992904608, 38.2317354628]}, "type": "Feature", "properties": {"collection_times": [{"days": "Mon-Fri", "time": "5:00pm"}, {"days": "Sat", "time": "4:00pm"}, {"days": "Sun", "time": "Closed"}], "id": "9495400050", "name": "USPS COLLECTION BOX - PO LOBBY", "address": {"city": "PETALUMA", "state": "CA", "street": "1601 CORPORATE CIR", "postcode": "94954"}}},
{"geometry": {"type": "Point", "coordinates": [-122.6203362477, 38.2523023988]}, "type": "Feature", "properties": {"collection_times": [{"days": "Mon-Sat", "time": "4:00pm"}, {"days": "Sun", "time": "Closed"}], "id": "9495400052", "name": "USPS COLLECTION BOX - EXPRESS", "address": {"city": "PETALUMA", "state": "CA", "street": "1601 CORPORATE CIR", "postcode": "94954"}}},
{"geometry": {"type": "Point", "coordinates": [-122.6141943567, 38.2323967406]}, "type": "Feature", "properties": {"collection_times": [{"days": "Mon-Fri", "time": "3:00pm"}, {"days": "Sat-Sun", "time": "Closed"}], "id": "9495400053", "name": "USPS COLLECTION BOX - BLUE BOX", "address": {"city": "PETALUMA", "state": "CA", "street": "775 BAYWOOD DR", "postcode": "94954"}}},
{"geometry": {"type": "Point", "coordinates": [-122.6203362477, 38.2523023988]}, "type": "Feature", "properties": {"collection_times": [{"days": "Mon-Fri", "time": "3:00pm"}, {"days": "Sat-Sun", "time": "Closed"}], "id": "9495400054", "name": "USPS COLLECTION BOX - EXPRESS", "address": {"city": "PETALUMA", "state": "CA", "street": "775 BAYWOOD DR", "postcode": "94954"}}},
{"geometry": {"type": "Point", "coordinates": [-122.6430486649, 38.2688148251]}, "type": "Feature", "properties": {"collection_times": [{"days": "Mon-Fri", "time": "3:00pm"}, {"days": "Sat", "time": "1:00pm"}, {"days": "Sun", "time": "Closed"}], "id": "9495400055", "name": "USPS COLLECTION BOX - BLUE BOX", "address": {"city": "PETALUMA", "state": "CA", "street": "701 SONOMA MOUNTAIN PKWY", "postcode": "94954"}}},
{"geometry": {"type": "Point", "coordinates": [-122.6141943567, 38.2323967406]}, "type": "Feature", "properties": {"collection_times": [{"days": "Mon-Fri", "time": "3:00pm"}, {"days": "Sat-Sun", "time": "Closed"}], "id": "9495400057", "name": "USPS COLLECTION BOX - BLUE BOX", "address": {"city": "PETALUMA", "state": "CA", "street": "775 BAYWOOD DR", "postcode": "94954"}}},
{"geometry": {"type": "Point", "coordinates": [-122.6657667807, 38.2759951136]}, "type": "Feature", "properties": {"collection_times": [{"days": "Mon-Fri", "time": "3:00pm"}, {"days": "Sat-Sun", "time": "Closed"}], "id": "9495400058", "name": "USPS COLLECTION BOX - BLUE BOX", "address": {"city": "PETALUMA", "state": "CA", "street": "1301 REDWOOD WAY", "postcode": "94954"}}},
{"geometry": {"type": "Point", "coordinates": [-122.5992904608, 38.2317354628]}, "type": "Feature", "properties": {"collection_times": [{"days": "Mon-Fri", "time": "5:00pm"}, {"days": "Sat", "time": "4:00pm"}, {"days": "Sun", "time": "Closed"}], "id": "9495400059", "name": "USPS COLLECTION BOX - BLUE BOX", "address": {"city": "PETALUMA", "state": "CA", "street": "1601 CORPORATE CIR", "postcode": "94954"}}},
{"geometry": {"type": "Point", "coordinates": [-122.6203362477, 38.2523023988]}, "type": "Feature", "properties": {"collection_times": [{"days": "Mon-Fri", "time": "3:00pm"}, {"days": "Sat", "time": "1:00pm"}, {"days": "Sun", "time": "Closed"}], "id": "9495400060", "name": "USPS COLLECTION BOX - BLUE BOX", "address": {"city": "PETALUMA", "state": "CA", "street": "383 S MCDOWELL BLVD", "postcode": "94954"}}},
{"geometry": {"type": "Point", "coordinates": [-122.8057767981, 38.0680003728]}, "type": "Feature", "properties": {"collection_times": [{"days": "Mon-Fri", "time": "3:00pm"}, {"days": "Sat", "time": "11:30am"}, {"days": "Sun", "time": "Closed"}], "id": "9495600003", "name": "USPS COLLECTION BOX - BLUE BOX", "address": {"city": "PT REYES STA", "state": "CA", "street": "11260 HIGHWAY 1", "postcode": "94956"}}},
{"geometry": {"type": "Point", "coordinates": [-122.8057767981, 38.0680003728]}, "type": "Feature", "properties": {"collection_times": [{"days": "Mon-Fri", "time": "3:00pm"}, {"days": "Sat", "time": "11:30am"}, {"days": "Sun", "time": "Closed"}], "id": "9495600004", "name": "USPS COLLECTION BOX - BLUE BOX", "address": {"city": "PT REYES STA", "state": "CA", "street": "11260 HIGHWAY 1", "postcode": "94956"}}},
{"geometry": {"type": "Point", "coordinates": [-122.5568144674, 37.9619690794]}, "type": "Feature", "properties": {"collection_times": [{"days": "Mon-Fri", "time": "5:00pm"}, {"days": "Sat", "time": "12:00pm"}, {"days": "Sun", "time": "Closed"}], "id": "9495700003", "name": "USPS COLLECTION BOX - BLUE BOX", "address": {"city": "ROSS", "state": "CA", "street": "1 ROSS CMN", "postcode": "94957"}}},
{"geometry": {"type": "Point", "coordinates": [-122.5568144674, 37.9619690794]}, "type": "Feature", "properties": {"collection_times": [{"days": "Mon-Fri", "time": "5:00pm"}, {"days": "Sat", "time": "12:00pm"}, {"days": "Sun", "time": "Closed"}], "id": "9495700004", "name": "USPS COLLECTION BOX - PO LOBBY", "address": {"city": "ROSS", "state": "CA", "street": "1 ROSS CMN", "postcode": "94957"}}},
{"geometry": {"type": "Point", "coordinates": [-122.5583173233, 37.9765532133]}, "type": "Feature", "properties": {"collection_times": [{"days": "Mon-Sat", "time": "1:00pm"}, {"days": "Sun", "time": "Closed"}], "id": "9496000001", "name": "USPS COLLECTION BOX - BLUE BOX", "address": {"city": "SAN ANSELMO", "state": "CA", "street": "400 RED HILL AVE", "postcode": "94960"}}},
{"geometry": {"type": "Point", "coordinates": [-122.5752927844, 37.9781856966]}, "type": "Feature", "properties": {"collection_times": [{"days": "Mon-Sat", "time": "1:00pm"}, {"days": "Sun", "time": "Closed"}], "id": "9496000004", "name": "USPS COLLECTION BOX - BLUE BOX", "address": {"city": "SAN ANSELMO", "state": "CA", "street": "57 SCENIC AVE", "postcode": "94960"}}},
{"geometry": {"type": "Point", "coordinates": [-122.5553504622, 37.9762231677]}, "type": "Feature", "properties": {"collection_times": [{"days": "Mon-Sat", "time": "1:00pm"}, {"days": "Sun", "time": "Closed"}], "id": "9496000005", "name": "USPS COLLECTION BOX - BLUE BOX", "address": {"city": "SAN ANSELMO", "state": "CA", "street": "224 GREENFIELD AVE", "postcode": "94960"}}},
{"geometry": {"type": "Point", "coordinates": [-122.5535263395, 37.9767188275]}, "type": "Feature", "properties": {"collection_times": [{"days": "Mon-Sat", "time": "1:00pm"}, {"days": "Sun", "time": "Closed"}], "id": "9496000006", "name": "USPS COLLECTION BOX - BLUE BOX", "address": {"city": "SAN ANSELMO", "state": "CA", "street": "100 RED HILL AVE", "postcode": "94960"}}},
{"geometry": {"type": "Point", "coordinates": [-122.5764248762, 37.9918748978]}, "type": "Feature", "properties": {"collection_times": [{"days": "Mon-Sat", "time": "1:00pm"}, {"days": "Sun", "time": "Closed"}], "id": "9496000008", "name": "USPS COLLECTION BOX - BLUE BOX", "address": {"city": "SAN ANSELMO", "state": "CA", "street": "150 BUTTERFIELD RD", "postcode": "94960"}}},
{"geometry": {"type": "Point", "coordinates": [-122.576874974, 37.982003399]}, "type": "Feature", "properties": {"collection_times": [{"days": "Mon-Sat", "time": "1:00pm"}, {"days": "Sun", "time": "Closed"}], "id": "9496000010", "name": "USPS COLLECTION BOX - BLUE BOX", "address": {"city": "SAN ANSELMO", "state": "CA", "street": "499 CENTER BLVD", "postcode": "94960"}}},
{"geometry": {"type": "Point", "coordinates": [-122.5743961015, 37.9872459793]}, "type": "Feature", "properties": {"collection_times": [{"days": "Mon-Sat", "time": "1:00pm"}, {"days": "Sun", "time": "Closed"}], "id": "9496000013", "name": "USPS COLLECTION BOX - BLUE BOX", "address": {"city": "SAN ANSELMO", "state": "CA", "street": "35 BROADMOOR AVE", "postcode": "94960"}}},
{"geometry": {"type": "Point", "coordinates": [-122.5780308293, 37.9883684052]}, "type": "Feature", "properties": {"collection_times": [{"days": "Mon-Fri", "time": "3:00pm"}, {"days": "Sat", "time": "1:00pm"}, {"days": "Sun", "time": "Closed"}], "id": "9496000014", "name": "USPS COLLECTION BOX - BLUE BOX", "address": {"city": "SAN ANSELMO", "state": "CA", "street": "37 BUTTERFIELD RD", "postcode": "94960"}}},
{"geometry": {"type": "Point", "coordinates": [-122.5633094101, 37.9762681201]}, "type": "Feature", "properties": {"collection_times": [{"days": "Mon-Fri", "time": "3:00pm"}, {"days": "Sat", "time": "1:00pm"}, {"days": "Sun", "time": "Closed"}], "id": "9496000015", "name": "USPS COLLECTION BOX - BLUE BOX", "address": {"city": "SAN ANSELMO", "state": "CA", "street": "701 SAN ANSELMO AVE", "postcode": "94960"}}},
{"geometry": {"type": "Point", "coordinates": [-122.5616541339, 37.9753190651]}, "type": "Feature", "properties": {"collection_times": [{"days": "Mon-Sat", "time": "1:00pm"}, {"days": "Sun", "time": "Closed"}], "id": "9496000016", "name": "USPS COLLECTION BOX - BLUE BOX", "address": {"city": "SAN ANSELMO", "state": "CA", "street": "2 BANK ST", "postcode": "94960"}}},
{"geometry": {"type": "Point", "coordinates": [-122.5623231907, 37.9738134684]}, "type": "Feature", "properties": {"collection_times": [{"days": "Mon-Fri", "time": "3:00pm"}, {"days": "Sat", "time": "1:00pm"}, {"days": "Sun", "time": "Closed"}], "id": "9496000017", "name": "USPS COLLECTION BOX - BLUE BOX", "address": {"city": "SAN ANSELMO", "state": "CA", "street": "101 PINE ST", "postcode": "94960"}}},
{"geometry": {"type": "Point", "coordinates": [-122.5614249565, 37.9710063187]}, "type": "Feature", "properties": {"collection_times": [{"days": "Mon-Fri", "time": "5:00pm"}, {"days": "Sat", "time": "3:00pm"}, {"days": "Sun", "time": "Closed"}], "id": "9496000018", "name": "USPS COLLECTION BOX - BLUE BOX", "address": {"city": "SAN ANSELMO", "state": "CA", "street": "121 SAN ANSELMO AVE", "postcode": "94960"}}},
{"geometry": {"type": "Point", "coordinates": [-122.5696387235, 37.9842025244]}, "type": "Feature", "properties": {"collection_times": [{"days": "Mon-Sat", "time": "3:00pm"}, {"days": "Sun", "time": "Closed"}], "id": "9496000019", "name": "USPS COLLECTION BOX - EXPRESS", "address": {"city": "SAN ANSELMO", "state": "CA", "street": "121 SAN ANSELMO AVE", "postcode": "94960"}}},
{"geometry": {"type": "Point", "coordinates": [-122.5607889051, 37.9698061248]}, "type": "Feature", "properties": {"collection_times": [{"days": "Mon-Fri", "time": "3:00pm"}, {"days": "Sat", "time": "1:00pm"}, {"days": "Sun", "time": "Closed"}], "id": "9496000020", "name": "USPS COLLECTION BOX - BLUE BOX", "address": {"city": "SAN ANSELMO", "state": "CA", "street": "35 SIR FRANCIS DRAKE BLVD", "postcode": "94960"}}},
{"geometry": {"type": "Point", "coordinates": [-122.5624586686, 37.9745469396]}, "type": "Feature", "properties": {"collection_times": [{"days": "Mon-Fri", "time": "3:00pm"}, {"days": "Sat", "time": "1:00pm"}, {"days": "Sun", "time": "Closed"}], "id": "9496000021", "name": "USPS COLLECTION BOX - BLUE BOX", "address": {"city": "SAN ANSELMO", "state": "CA", "street": "100 TUNSTEAD AVE", "postcode": "94960"}}},
{"geometry": {"type": "Point", "coordinates": [-122.5624586686, 37.9745469396]}, "type": "Feature", "properties": {"collection_times": [{"days": "Mon-Fri", "time": "3:00pm"}, {"days": "Sat", "time": "1:00pm"}, {"days": "Sun", "time": "Closed"}], "id": "9496000022", "name": "USPS COLLECTION BOX - BLUE BOX", "address": {"city": "SAN ANSELMO", "state": "CA", "street": "100 TUNSTEAD AVE", "postcode": "94960"}}},
{"geometry": {"type": "Point", "coordinates": [-122.5649786082, 37.9799965316]}, "type": "Feature", "properties": {"collection_times": [{"days": "Mon-Fri", "time": "5:00pm"}, {"days": "Sat", "time": "1:00pm"}, {"days": "Sun", "time": "Closed"}], "id": "9496000023", "name": "USPS COLLECTION BOX - BLUE BOX", "address": {"city": "SAN ANSELMO", "state": "CA", "street": "868 SIR FRANCIS DRAKE BLVD", "postcode": "94960"}}},
{"geometry": {"type": "Point", "coordinates": [-122.5655706021, 37.9803618369]}, "type": "Feature", "properties": {"collection_times": [{"days": "Mon-Fri", "time": "3:00pm"}, {"days": "Sat", "time": "1:00pm"}, {"days": "Sun", "time": "Closed"}], "id": "9496000025", "name": "USPS COLLECTION BOX - BLUE BOX", "address": {"city": "SAN ANSELMO", "state": "CA", "street": "898 SIR FRANCIS DRAKE BLVD", "postcode": "94960"}}},
{"geometry": {"type": "Point", "coordinates": [-122.5657735136, 37.9855886538]}, "type": "Feature", "properties": {"collection_times": [{"days": "Mon-Sat", "time": "1:00pm"}, {"days": "Sun", "time": "Closed"}], "id": "9496000026", "name": "USPS COLLECTION BOX - BLUE BOX", "address": {"city": "SAN ANSELMO", "state": "CA", "street": "199 SAN FRANCISCO BLVD", "postcode": "94960"}}},
{"geometry": {"type": "Point", "coordinates": [-122.5614249565, 37.9710063187]}, "type": "Feature", "properties": {"collection_times": [{"days": "Mon-Fri", "time": "5:00pm"}, {"days": "Sat", "time": "4:00pm"}, {"days": "Sun", "time": "Closed"}], "id": "9496000027", "name": "USPS COLLECTION BOX - PO LOBBY", "address": {"city": "SAN ANSELMO", "state": "CA", "street": "121 SAN ANSELMO AVE", "postcode": "94960"}}},
{"geometry": {"type": "Point", "coordinates": [-122.6668514424, 38.0139536439]}, "type": "Feature", "properties": {"collection_times": [{"days": "Mon-Fri", "time": "3:30pm"}, {"days": "Sat-Sun", "time": "Closed"}], "id": "9496300003", "name": "USPS COLLECTION BOX - BLUE BOX", "address": {"city": "SAN GERONIMO", "state": "CA", "street": "580 SAN GERONIMO VALLEY DR", "postcode": "94963"}}},
{"geometry": {"type": "Point", "coordinates": [-122.6668514424, 38.0139536439]}, "type": "Feature", "properties": {"collection_times": [{"days": "Mon-Fri", "time": "4:00pm"}, {"days": "Sat-Sun", "time": "Closed"}], "id": "9496300004", "name": "USPS COLLECTION BOX - PO LOBBY", "address": {"city": "SAN GERONIMO", "state": "CA", "street": "580 SAN GERONIMO VALLEY DR", "postcode": "94963"}}},
{"geometry": {"type": "Point", "coordinates": [-122.4805158431, 37.9431631608]}, "type": "Feature", "properties": {"collection_times": [{"days": "Mon-Fri", "time": "4:15pm"}, {"days": "Sat-Sun", "time": "Closed"}], "id": "9496400003", "name": "USPS COLLECTION BOX - BLUE BOX", "address": {"city": "SAN QUENTIN", "state": "CA", "street": "1 MAIN ST", "postcode": "94964"}}},
{"geometry": {"type": "Point", "coordinates": [-122.4805158431, 37.9431631608]}, "type": "Feature", "properties": {"collection_times": [{"days": "Mon-Fri", "time": "4:15pm"}, {"days": "Sat-Sun", "time": "Closed"}], "id": "9496400004", "name": "USPS COLLECTION BOX - PO LOBBY", "address": {"city": "SAN QUENTIN", "state": "CA", "street": "1 MAIN ST", "postcode": "94964"}}},
{"geometry": {"type": "Point", "coordinates": [-122.4836726126, 37.8586512421]}, "type": "Feature", "properties": {"collection_times": [{"days": "Mon-Fri", "time": "3:00pm"}, {"days": "Sat", "time": "1:00pm"}, {"days": "Sun", "time": "Closed"}], "id": "9496500001", "name": "USPS COLLECTION BOX - BLUE BOX", "address": {"city": "MUIR BEACH", "state": "CA", "street": "1050 BRIDGEWAY", "postcode": "94965"}}},
{"geometry": {"type": "Point", "coordinates": [-122.4793571783, 37.8469884497]}, "type": "Feature", "properties": {"collection_times": [{"days": "Mon-Sat", "time": "1:00pm"}, {"days": "Sun", "time": "Closed"}], "id": "9496500004", "name": "USPS COLLECTION BOX - BLUE BOX", "address": {"city": "MUIR BEACH", "state": "CA", "street": "100 SOUTH ST", "postcode": "94965"}}},
{"geometry": {"type": "Point", "coordinates": [-122.4803861876, 37.8489596493]}, "type": "Feature", "properties": {"collection_times": [{"days": "Mon-Fri", "time": "3:00pm"}, {"days": "Sat", "time": "1:00pm"}, {"days": "Sun", "time": "Closed"}], "id": "9496500006", "name": "USPS COLLECTION BOX - BLUE BOX", "address": {"city": "MUIR BEACH", "state": "CA", "street": "200 MAIN ST", "postcode": "94965"}}},
{"geometry": {"type": "Point", "coordinates": [-122.4788264659, 37.8542708963]}, "type": "Feature", "properties": {"collection_times": [{"days": "Mon-Fri", "time": "3:00pm"}, {"days": "Sat", "time": "1:00pm"}, {"days": "Sun", "time": "Closed"}], "id": "9496500007", "name": "USPS COLLECTION BOX - BLUE BOX", "address": {"city": "MUIR BEACH", "state": "CA", "street": "600 BRIDGEWAY", "postcode": "94965"}}},
{"geometry": {"type": "Point", "coordinates": [-122.4885911934, 37.8528040653]}, "type": "Feature", "properties": {"collection_times": [{"days": "Mon-Sat", "time": "10:45am"}, {"days": "Sun", "time": "Closed"}], "id": "9496500010", "name": "USPS COLLECTION BOX - BLUE BOX", "address": {"city": "MUIR BEACH", "state": "CA", "street": "260 SPENCER AVE", "postcode": "94965"}}},
{"geometry": {"type": "Point", "coordinates": [-122.5034587842, 37.8701673476]}, "type": "Feature", "properties": {"collection_times": [{"days": "Mon-Fri", "time": "3:00pm"}, {"days": "Sat", "time": "1:00pm"}, {"days": "Sun", "time": "Closed"}], "id": "9496500018", "name": "USPS COLLECTION BOX - BLUE BOX", "address": {"city": "MUIR BEACH", "state": "CA", "street": "3030 BRIDGEWAY", "postcode": "94965"}}},
{"geometry": {"type": "Point", "coordinates": [-122.4998436616, 37.867676036]}, "type": "Feature", "properties": {"collection_times": [{"days": "Mon-Fri", "time": "5:30pm"}, {"days": "Sat", "time": "3:15pm"}, {"days": "Sun", "time": "Closed"}], "id": "9496500020", "name": "USPS COLLECTION BOX - BLUE BOX", "address": {"city": "MUIR BEACH", "state": "CA", "street": "150 HARBOR DR", "postcode": "94965"}}},
{"geometry": {"type": "Point", "coordinates": [-122.4998436616, 37.867676036]}, "type": "Feature", "properties": {"collection_times": [{"days": "Mon-Fri", "time": "5:30pm"}, {"days": "Sat", "time": "3:15pm"}, {"days": "Sun", "time": "Closed"}], "id": "9496500021", "name": "USPS COLLECTION BOX - BLUE BOX", "address": {"city": "MUIR BEACH", "state": "CA", "street": "150 HARBOR DR", "postcode": "94965"}}},
{"geometry": {"type": "Point", "coordinates": [-122.4806560672, 37.8570708089]}, "type": "Feature", "properties": {"collection_times": [{"days": "Mon-Fri", "time": "3:00pm"}, {"days": "Sat", "time": "1:00pm"}, {"days": "Sun", "time": "Closed"}], "id": "9496500022", "name": "USPS COLLECTION BOX - BLUE BOX", "address": {"city": "MUIR BEACH", "state": "CA", "street": "777 BRIDGEWAY", "postcode": "94965"}}},
{"geometry": {"type": "Point", "coordinates": [-122.4842771046, 37.8588866509]}, "type": "Feature", "properties": {"collection_times": [{"days": "Mon-Fri", "time": "3:00pm"}, {"days": "Sat", "time": "1:00pm"}, {"days": "Sun", "time": "Closed"}], "id": "9496500024", "name": "USPS COLLECTION BOX - BLUE BOX", "address": {"city": "MUIR BEACH", "state": "CA", "street": "1103 BRIDGEWAY", "postcode": "94965"}}},
{"geometry": {"type": "Point", "coordinates": [-122.4877183323, 37.8598803365]}, "type": "Feature", "properties": {"collection_times": [{"days": "Mon-Fri", "time": "3:00pm"}, {"days": "Sat", "time": "1:00pm"}, {"days": "Sun", "time": "Closed"}], "id": "9496500025", "name": "USPS COLLECTION BOX - BLUE BOX", "address": {"city": "MUIR BEACH", "state": "CA", "street": "339 CALEDONIA ST", "postcode": "94965"}}},
{"geometry": {"type": "Point", "coordinates": [-122.4790112231, 37.837742507]}, "type": "Feature", "properties": {"collection_times": [{"days": "Mon-Sat", "time": "11:00am"}, {"days": "Sun", "time": "Closed"}], "id": "9496500030", "name": "USPS COLLECTION BOX - BLUE BOX", "address": {"city": "MUIR BEACH", "state": "CA", "street": "557 MCREYNOLDS RD", "postcode": "94965"}}},
{"geometry": {"type": "Point", "coordinates": [-122.4938543404, 37.862834185]}, "type": "Feature", "properties": {"collection_times": [{"days": "Mon-Fri", "time": "3:00pm"}, {"days": "Sat", "time": "1:00pm"}, {"days": "Sun", "time": "Closed"}], "id": "9496500031", "name": "USPS COLLECTION BOX - BLUE BOX", "address": {"city": "MUIR BEACH", "state": "CA", "street": "10 LIBERTY SHIP WAY", "postcode": "94965"}}},
{"geometry": {"type": "Point", "coordinates": [-122.4998436616, 37.867676036]}, "type": "Feature", "properties": {"collection_times": [{"days": "Mon-Fri", "time": "5:30pm"}, {"days": "Sat", "time": "3:15pm"}, {"days": "Sun", "time": "Closed"}], "id": "9496500033", "name": "USPS COLLECTION BOX - PO LOBBY", "address": {"city": "MUIR BEACH", "state": "CA", "street": "150 HARBOR DR", "postcode": "94965"}}},
{"geometry": {"type": "Point", "coordinates": [-122.5745972046, 37.8648215561]}, "type": "Feature", "properties": {"collection_times": [{"days": "Mon-Sat", "time": "9:30am"}, {"days": "Sun", "time": "Closed"}], "id": "9496500034", "name": "USPS COLLECTION BOX - BLUE BOX", "address": {"city": "MUIR BEACH", "state": "CA", "street": "1760 SHORELINE HWY", "postcode": "94965"}}},
{"geometry": {"type": "Point", "coordinates": [-122.4981808168, 37.8648284791]}, "type": "Feature", "properties": {"collection_times": [{"days": "Mon-Fri", "time": "3:00pm"}, {"days": "Sat", "time": "1:00pm"}, {"days": "Sun", "time": "Closed"}], "id": "9496500035", "name": "USPS COLLECTION BOX - BLUE BOX", "address": {"city": "MUIR BEACH", "state": "CA", "street": "2330 MARINSHIP WAY", "postcode": "94965"}}},
{"geometry": {"type": "Point", "coordinates": [-122.4981808168, 37.8648284791]}, "type": "Feature", "properties": {"collection_times": [{"days": "Mon-Fri", "time": "3:00pm"}, {"days": "Sat", "time": "1:00pm"}, {"days": "Sun", "time": "Closed"}], "id": "9496500036", "name": "USPS COLLECTION BOX - BLUE BOX", "address": {"city": "MUIR BEACH", "state": "CA", "street": "2330 MARINSHIP WAY", "postcode": "94965"}}},
{"geometry": {"type": "Point", "coordinates": [-122.5115705735, 37.8742482026]}, "type": "Feature", "properties": {"collection_times": [{"days": "Mon-Fri", "time": "3:00pm"}, {"days": "Sat", "time": "1:00pm"}, {"days": "Sun", "time": "Closed"}], "id": "9496500037", "name": "USPS COLLECTION BOX - BLUE BOX", "address": {"city": "MUIR BEACH", "state": "CA", "street": "160 DONAHUE ST STE C", "postcode": "94965"}}},
{"geometry": {"type": "Point", "coordinates": [-122.5090382164, 37.8707756653]}, "type": "Feature", "properties": {"collection_times": [{"days": "Mon-Fri", "time": "1:30pm"}, {"days": "Sat", "time": "1:00pm"}, {"days": "Sun", "time": "Closed"}], "id": "9496500038", "name": "USPS COLLECTION BOX - BLUE BOX", "address": {"city": "MUIR BEACH", "state": "CA", "street": "100 DRAKE AVE", "postcode": "94965"}}},
{"geometry": {"type": "Point", "coordinates": [-122.63999004, 37.8978476143]}, "type": "Feature", "properties": {"collection_times": [{"days": "Mon-Fri", "time": "3:45pm"}, {"days": "Sat", "time": "11:00am"}, {"days": "Sun", "time": "Closed"}], "id": "9497000003", "name": "USPS COLLECTION BOX - BLUE BOX", "address": {"city": "STINSON BEACH", "state": "CA", "street": "15 CALLE DEL MAR", "postcode": "94970"}}},
{"geometry": {"type": "Point", "coordinates": [-122.63999004, 37.8978476143]}, "type": "Feature", "properties": {"collection_times": [{"days": "Mon-Fri", "time": "4:30pm"}, {"days": "Sat-Sun", "time": "Closed"}], "id": "9497000004", "name": "USPS COLLECTION BOX - PO LOBBY", "address": {"city": "STINSON BEACH", "state": "CA", "street": "15 CALLE DEL MAR", "postcode": "94970"}}},
{"geometry": {"type": "Point", "coordinates": [-122.9041204931, 38.2550101529]}, "type": "Feature", "properties": {"collection_times": [{"days": "Mon-Fri", "time": "2:45pm"}, {"days": "Sat-Sun", "time": "Closed"}], "id": "9497100003", "name": "USPS COLLECTION BOX - BLUE BOX", "address": {"city": "TOMALES", "state": "CA", "street": "27005 SHORELINE HWY", "postcode": "94971"}}},
{"geometry": {"type": "Point", "coordinates": [-122.9041204931, 38.2550101529]}, "type": "Feature", "properties": {"collection_times": [{"days": "Mon-Fri", "time": "2:45pm"}, {"days": "Sat-Sun", "time": "Closed"}], "id": "9497100004", "name": "USPS COLLECTION BOX - PO LOBBY", "address": {"city": "TOMALES", "state": "CA", "street": "27005 SHORELINE HWY", "postcode": "94971"}}},
{"geometry": {"type": "Point", "coordinates": [-122.9266794188, 38.3155504457]}, "type": "Feature", "properties": {"collection_times": [{"days": "Mon-Fri", "time": "2:15pm"}, {"days": "Sat-Sun", "time": "Closed"}], "id": "9497200003", "name": "USPS COLLECTION BOX - BLUE BOX", "address": {"city": "VALLEY FORD", "state": "CA", "street": "14449 HIGHWAY 1", "postcode": "94972"}}},
{"geometry": {"type": "Point", "coordinates": [-122.9266794188, 38.3155504457]}, "type": "Feature", "properties": {"collection_times": [{"days": "Mon-Fri", "time": "2:15pm"}, {"days": "Sat-Sun", "time": "Closed"}], "id": "9497200004", "name": "USPS COLLECTION BOX - PO LOBBY", "address": {"city": "VALLEY FORD", "state": "CA", "street": "14449 HIGHWAY 1", "postcode": "94972"}}},
{"geometry": {"type": "Point", "coordinates": [-122.6435581686, 38.0033187314]}, "type": "Feature", "properties": {"collection_times": [{"days": "Mon-Fri", "time": "4:00pm"}, {"days": "Sat", "time": "9:45am"}, {"days": "Sun", "time": "Closed"}], "id": "9497300002", "name": "USPS COLLECTION BOX - BLUE BOX", "address": {"city": "WOODACRE", "state": "CA", "street": "183 SAN GERONIMO VALLEY DR", "postcode": "94973"}}},
{"geometry": {"type": "Point", "coordinates": [-122.644607082, 38.0128736024]}, "type": "Feature", "properties": {"collection_times": [{"days": "Mon-Fri", "time": "4:00pm"}, {"days": "Sat", "time": "9:45am"}, {"days": "Sun", "time": "Closed"}], "id": "9497300003", "name": "USPS COLLECTION BOX - PO LOBBY", "address": {"city": "WOODACRE", "state": "CA", "street": "183 SAN GERONIMO VALLEY DR", "postcode": "94973"}}},
{"geometry": {"type": "Point", "coordinates": [-122.6591296777, 38.2682117964]}, "type": "Feature", "properties": {"collection_times": [{"days": "Mon-Fri", "time": "8:00pm"}, {"days": "Sat", "time": "7:00pm"}, {"days": "Sun", "time": "Closed"}], "id": "9499900001", "name": "USPS COLLECTION BOX - BLUE BOX", "address": {"city": "PETALUMA", "state": "CA", "street": "1150 N MCDOWELL BLVD", "postcode": "94999"}}},
{"geometry": {"type": "Point", "coordinates": [-122.6591296777, 38.2682117964]}, "type": "Feature", "properties": {"collection_times": [{"days": "Mon-Fri", "time": "8:00pm"}, {"days": "Sat", "time": "7:00pm"}, {"days": "Sun", "time": "Closed"}], "id": "9499900002", "name": "USPS COLLECTION BOX - BLUE BOX", "address": {"city": "PETALUMA", "state": "CA", "street": "1150 N MCDOWELL BLVD", "postcode": "94999"}}},
{"geometry": {"type": "Point", "coordinates": [-122.6591296777, 38.2682117964]}, "type": "Feature", "properties": {"collection_times": [{"days": "Mon-Fri", "time": "8:00pm"}, {"days": "Sat", "time": "7:00pm"}, {"days": "Sun", "time": "Closed"}], "id": "9499900003", "name": "USPS COLLECTION BOX - BLUE BOX", "address": {"city": "PETALUMA", "state": "CA", "street": "1150 N MCDOWELL BLVD", "postcode": "94999"}}},
{"geometry": {"type": "Point", "coordinates": [-122.659267497, 38.2682138089]}, "type": "Feature", "properties": {"collection_times": [{"days": "Mon-Sat", "time": "4:00pm"}, {"days": "Sun", "time": "Closed"}], "id": "9499900004", "name": "USPS COLLECTION BOX - EXPRESS", "address": {"city": "PETALUMA", "state": "CA", "street": "1150 N MCDOWELL BLVD", "postcode": "94999"}}},
{"geometry": {"type": "Point", "coordinates": [-122.6591296777, 38.2682117964]}, "type": "Feature", "properties": {"collection_times": [{"days": "Mon-Fri", "time": "8:00pm"}, {"days": "Sat", "time": "7:00pm"}, {"days": "Sun", "time": "Closed"}], "id": "9499900005", "name": "USPS COLLECTION BOX - BLUE BOX", "address": {"city": "PETALUMA", "state": "CA", "street": "1150 N MCDOWELL BLVD", "postcode": "94999"}}},
{"geometry": {"type": "Point", "coordinates": [-122.6591296777, 38.2682117964]}, "type": "Feature", "properties": {"collection_times": [{"days": "Mon-Fri", "time": "8:00pm"}, {"days": "Sat", "time": "7:00pm"}, {"days": "Sun", "time": "Closed"}], "id": "9499900006", "name": "USPS COLLECTION BOX - PO LOBBY", "address": {"city": "PETALUMA", "state": "CA", "street": "1150 N MCDOWELL BLVD", "postcode": "94999"}}},
{"geometry": {"type": "Point", "coordinates": [-122.6591296777, 38.2682117964]}, "type": "Feature", "properties": {"collection_times": [{"days": "Mon-Fri", "time": "8:00pm"}, {"days": "Sat", "time": "7:00pm"}, {"days": "Sun", "time": "Closed"}], "id": "9499900007", "name": "USPS COLLECTION BOX - APC", "address": {"city": "PETALUMA", "state": "CA", "street": "1150 N MCDOWELL BLVD", "postcode": "94999"}}}
]}
