{"type": "FeatureCollection", "features": [
{"geometry": {"type": "Point", "coordinates": [-121.9761225804, 37.4258265821]}, "type": "Feature", "properties": {"collection_times": [{"days": "Mon-Fri", "time": "4:30pm"}, {"days": "Sat", "time": "12:45pm"}, {"days": "Sun", "time": "Closed"}], "id": "9500200002", "name": "USPS COLLECTION BOX - BLUE BOX", "address": {"city": "ALVISO", "state": "CA", "street": "1525 GOLD ST", "postcode": "95002"}}},
{"geometry": {"type": "Point", "coordinates": [-121.9019016743, 36.9771847478]}, "type": "Feature", "properties": {"collection_times": [{"days": "Mon-Sat", "time": "12:00pm"}, {"days": "Sun", "time": "Closed"}], "id": "9500300002", "name": "USPS COLLECTION BOX - BLUE BOX", "address": {"city": "APTOS", "state": "CA", "street": "8035 SOQUEL DR", "postcode": "95003"}}},
{"geometry": {"type": "Point", "coordinates": [-121.9106586896, 36.9820826086]}, "type": "Feature", "properties": {"collection_times": [{"days": "Mon-Sat", "time": "12:00pm"}, {"days": "Sun", "time": "Closed"}], "id": "9500300006", "name": "USPS COLLECTION BOX - BLUE BOX", "address": {"city": "APTOS", "state": "CA", "street": "7518 SOQUEL DR", "postcode": "95003"}}},
{"geometry": {"type": "Point", "coordinates": [-121.9119095072, 36.9743941476]}, "type": "Feature", "properties": {"collection_times": [{"days": "Mon-Fri", "time": "3:00pm"}, {"days": "Sat", "time": "1:00pm"}, {"days": "Sun", "time": "Closed"}], "id": "9500300007", "name": "USPS COLLECTION BOX - BLUE BOX", "address": {"city": "APTOS", "state": "CA", "street": "275 CENTER AVE", "postcode": "95003"}}},
{"geometry": {"type": "Point", "coordinates": [-121.9084912577, 36.9790739493]}, "type": "Feature", "properties": {"collection_times": [{"days": "Mon-Sat", "time": "12:00pm"}, {"days": "Sun", "time": "Closed"}], "id": "9500300009", "name": "USPS COLLECTION BOX - BLUE BOX", "address": {"city": "APTOS", "state": "CA", "street": "36 RANCHO DEL MAR", "postcode": "95003"}}},
{"geometry": {"type": "Point", "coordinates": [-121.9053298894, 36.9767683462]}, "type": "Feature", "properties": {"collection_times": [{"days": "Mon-Sat", "time": "12:00pm"}, {"days": "Sun", "time": "Closed"}], "id": "9500300010", "name": "USPS COLLECTION BOX - BLUE BOX", "address": {"city": "APTOS", "state": "CA", "street": "7960 SOQUEL DR", "postcode": "95003"}}},
{"geometry": {"type": "Point", "coordinates": [-121.8867510231, 36.9764590037]}, "type": "Feature", "properties": {"collection_times": [{"days": "Mon-Sat", "time": "12:00pm"}, {"days": "Sun", "time": "Closed"}], "id": "9500300013", "name": "USPS COLLECTION BOX - BLUE BOX", "address": {"city": "APTOS", "state": "CA", "street": "3060 VALENCIA AVE", "postcode": "95003"}}},
{"geometry": {"type": "Point", "coordinates": [-121.8942620837, 36.9756526875]}, "type": "Feature", "properties": {"collection_times": [{"days": "Mon-Sat", "time": "12:00pm"}, {"days": "Sun", "time": "Closed"}], "id": "9500300014", "name": "USPS COLLECTION BOX - BLUE BOX", "address": {"city": "APTOS", "state": "CA", "street": "9057A SOQUEL DR", "postcode": "95003"}}},
{"geometry": {"type": "Point", "coordinates": [-121.8712340098, 36.9724495823]}, "type": "Feature", "properties": {"collection_times": [{"days": "Mon-Sat", "time": "12:00pm"}, {"days": "Sun", "time": "Closed"}], "id": "9500300015", "name": "USPS COLLECTION BOX - BLUE BOX", "address": {"city": "APTOS", "state": "CA", "street": "7515 FREEDOM BLVD", "postcode": "95003"}}},
{"geometry": {"type": "Point", "coordinates": [-121.8690022443, 36.9515349108]}, "type": "Feature", "properties": {"collection_times": [{"days": "Mon-Sat", "time": "12:00pm"}, {"days": "Sun", "time": "Closed"}], "id": "9500300017", "name": "USPS COLLECTION BOX - BLUE BOX", "address": {"city": "APTOS", "state": "CA", "street": "1922 SEASCAPE BLVD", "postcode": "95003"}}},
{"geometry": {"type": "Point", "coordinates": [-121.8766970383, 36.9531228319]}, "type": "Feature", "properties": {"collection_times": [{"days": "Mon-Sat", "time": "12:00pm"}, {"days": "Sun", "time": "Closed"}], "id": "9500300018", "name": "USPS COLLECTION BOX - BLUE BOX", "address": {"city": "APTOS", "state": "CA", "street": "14 SEASCAPE VLG", "postcode": "95003"}}},
{"geometry": {"type": "Point", "coordinates": [-121.8990938846, 36.9787410767]}, "type": "Feature", "properties": {"collection_times": [{"days": "Mon-Fri", "time": "5:00pm"}, {"days": "Sat", "time": "4:00pm"}, {"days": "Sun", "time": "Closed"}], "id": "9500300020", "name": "USPS COLLECTION BOX - BLUE BOX", "address": {"city": "APTOS", "state": "CA", "street": "500 CATHEDRAL DR", "postcode": "95003"}}},
{"geometry": {"type": "Point", "coordinates": [-121.8886198043, 36.9736985109]}, "type": "Feature", "properties": {"collection_times": [{"days": "Mon-Fri", "time": "3:00pm"}, {"days": "Sat", "time": "1:00pm"}, {"days": "Sun", "time": "Closed"}], "id": "9500300021", "name": "USPS COLLECTION BOX - BLUE BOX", "address": {"city": "APTOS", "state": "CA", "street": "783 RIO DEL MAR BLVD", "postcode": "95003"}}},
{"geometry": {"type": "Point", "coordinates": [-121.8990938846, 36.9787410767]}, "type": "Feature", "properties": {"collection_times": [{"days": "Mon-Fri", "time": "5:00pm"}, {"days": "Sat", "time": "4:00pm"}, {"days": "Sun", "time": "Closed"}], "id": "9500300024", "name": "USPS COLLECTION BOX - BLUE BOX", "address": {"city": "APTOS", "state": "CA", "street": "500 CATHEDRAL DR", "postcode": "95003"}}},
{"geometry": {"type": "Point", "coordinates": [-121.8990938846, 36.9787410767]}, "type": "Feature", "properties": {"collection_times": [{"days": "Mon-Fri", "time": "5:00pm"}, {"days": "Sat", "time": "4:00pm"}, {"days": "Sun", "time": "Closed"}], "id": "9500300026", "name": "USPS COLLECTION BOX - APC", "address": {"city": "APTOS", "state": "CA", "street": "500 CATHEDRAL DR", "postcode": "95003"}}},
{"geometry": {"type": "Point", "coordinates": [-121.6446459541, 36.8884072263]}, "type": "Feature", "properties": {"collection_times": [{"days": "Mon-Fri", "time": "3:45pm"}, {"days": "Sat", "time": "11:00am"}, {"days": "Sun", "time": "Closed"}], "id": "9500400001", "name": "USPS COLLECTION BOX - BLUE BOX", "address": {"city": "AROMAS", "state": "CA", "street": "368 BLOHM AVE", "postcode": "95004"}}},
{"geometry": {"type": "Point", "coordinates": [-122.0896561894, 37.0915792456]}, "type": "Feature", "properties": {"collection_times": [{"days": "Mon-Fri", "time": "4:30pm"}, {"days": "Sat", "time": "12:00pm"}, {"days": "Sun", "time": "Closed"}], "id": "9500500001", "name": "USPS COLLECTION BOX - BLUE BOX", "address": {"city": "BEN LOMOND", "state": "CA", "street": "250 MAIN ST", "postcode": "95005"}}},
{"geometry": {"type": "Point", "coordinates": [-122.1225109796, 37.125805609]}, "type": "Feature", "properties": {"collection_times": [{"days": "Mon-Fri", "time": "4:30pm"}, {"days": "Sat", "time": "1:00pm"}, {"days": "Sun", "time": "Closed"}], "id": "9500600004", "name": "USPS COLLECTION BOX - BLUE BOX", "address": {"city": "BOULDER CREEK", "state": "CA", "street": "200 LORENZO ST", "postcode": "95006"}}},
{"geometry": {"type": "Point", "coordinates": [-122.1073183853, 37.1072111538]}, "type": "Feature", "properties": {"collection_times": [{"days": "Mon-Fri", "time": "1:00pm"}, {"days": "Sat", "time": "10:00am"}, {"days": "Sun", "time": "Closed"}], "id": "9500700001", "name": "USPS COLLECTION BOX - BLUE BOX", "address": {"city": "BROOKDALE", "state": "CA", "street": "105 PACIFIC AVE", "postcode": "95007"}}},
{"geometry": {"type": "Point", "coordinates": [-121.9447950055, 37.2880240718]}, "type": "Feature", "properties": {"collection_times": [{"days": "Mon-Fri", "time": "3:30pm"}, {"days": "Sat", "time": "11:30am"}, {"days": "Sun", "time": "Closed"}], "id": "9500800014", "name": "USPS COLLECTION BOX - BLUE BOX", "address": {"city": "CAMPBELL", "state": "CA", "street": "70 N 1ST ST", "postcode": "95008"}}},
{"geometry": {"type": "Point", "coordinates": [-121.9325367626, 37.2765124036]}, "type": "Feature", "properties": {"collection_times": [{"days": "Mon-Fri", "time": "12:00pm"}, {"days": "Sat", "time": "11:30am"}, {"days": "Sun", "time": "Closed"}], "id": "9500800024", "name": "USPS COLLECTION BOX - BLUE BOX", "address": {"city": "CAMPBELL", "state": "CA", "street": "2542 S BASCOM AVE", "postcode": "95008"}}},
{"geometry": {"type": "Point", "coordinates": [-121.9315150374, 37.2922009552]}, "type": "Feature", "properties": {"collection_times": [{"days": "Mon-Fri", "time": "12:00pm"}, {"days": "Sat", "time": "11:30am"}, {"days": "Sun", "time": "Closed"}], "id": "9500800028", "name": "USPS COLLECTION BOX - BLUE BOX", "address": {"city": "CAMPBELL", "state": "CA", "street": "1760 S BASCOM AVE", "postcode": "95008"}}},
{"geometry": {"type": "Point", "coordinates": [-121.9317713882, 37.2891949066]}, "type": "Feature", "properties": {"collection_times": [{"days": "Mon-Fri", "time": "4:30pm"}, {"days": "Sat", "time": "11:30am"}, {"days": "Sun", "time": "Closed"}], "id": "9500800029", "name": "USPS COLLECTION BOX - BLUE BOX", "address": {"city": "CAMPBELL", "state": "CA", "street": "1901 S BASCOM AVE", "postcode": "95008"}}},
{"geometry": {"type": "Point", "coordinates": [-121.9317666563, 37.2889441193]}, "type": "Feature", "properties": {"collection_times": [{"days": "Mon-Fri", "time": "4:30pm"}, {"days": "Sat", "time": "11:30am"}, {"days": "Sun", "time": "Closed"}], "id": "9500800030", "name": "USPS COLLECTION BOX - BLUE BOX", "address": {"city": "CAMPBELL", "state": "CA", "street": "1999 S BASCOM AVE", "postcode": "95008"}}},
{"geometry": {"type": "Point", "coordinates": [-121.9317642904, 37.2962820138]}, "type": "Feature", "properties": {"collection_times": [{"days": "Mon-Fri", "time": "3:00pm"}, {"days": "Sat", "time": "11:30am"}, {"days": "Sun", "time": "Closed"}], "id": "9500800031", "name": "USPS COLLECTION BOX - BLUE BOX", "address": {"city": "CAMPBELL", "state": "CA", "street": "1475 S BASCOM AVE", "postcode": "95008"}}},
{"geometry": {"type": "Point", "coordinates": [-121.9235533723, 37.2943029235]}, "type": "Feature", "properties": {"collection_times": [{"days": "Mon-Fri", "time": "3:00pm"}, {"days": "Sat", "time": "11:30am"}, {"days": "Sun", "time": "Closed"}], "id": "9500800035", "name": "USPS COLLECTION BOX - BLUE BOX", "address": {"city": "CAMPBELL", "state": "CA", "street": "1500 E HAMILTON AVE", "postcode": "95008"}}},
{"geometry": {"type": "Point", "coordinates": [-121.9404341967, 37.2942319459]}, "type": "Feature", "properties": {"collection_times": [{"days": "Mon-Fri", "time": "5:00pm"}, {"days": "Sat", "time": "4:00pm"}, {"days": "Sun", "time": "Closed"}], "id": "9500800045", "name": "USPS COLLECTION BOX - BLUE BOX", "address": {"city": "CAMPBELL", "state": "CA", "street": "500 W HAMILTON AVE", "postcode": "95008"}}},
{"geometry": {"type": "Point", "coordinates": [-121.9782473559, 37.2859417594]}, "type": "Feature", "properties": {"collection_times": [{"days": "Mon-Fri", "time": "2:00pm"}, {"days": "Sat", "time": "11:30am"}, {"days": "Sun", "time": "Closed"}], "id": "9500800047", "name": "USPS COLLECTION BOX - BLUE BOX", "address": {"city": "CAMPBELL", "state": "CA", "street": "1602 W CAMPBELL AVE", "postcode": "95008"}}},
{"geometry": {"type": "Point", "coordinates": [-121.943998452, 37.2862138501]}, "type": "Feature", "properties": {"collection_times": [{"days": "Mon-Fri", "time": "3:00pm"}, {"days": "Sat", "time": "11:30am"}, {"days": "Sun", "time": "Closed"}], "id": "9500800053", "name": "USPS COLLECTION BOX - BLUE BOX", "address": {"city": "CAMPBELL", "state": "CA", "street": "300 ORCHARD CITY DR", "postcode": "95008"}}},
{"geometry": {"type": "Point", "coordinates": [-121.9317713882, 37.2891949066]}, "type": "Feature", "properties": {"collection_times": [{"days": "Mon-Fri", "time": "4:30pm"}, {"days": "Sat", "time": "11:30am"}, {"days": "Sun", "time": "Closed"}], "id": "9500800057", "name": "USPS COLLECTION BOX - BLUE BOX", "address": {"city": "CAMPBELL", "state": "CA", "street": "1901 S BASCOM AVE", "postcode": "95008"}}},
{"geometry": {"type": "Point", "coordinates": [-121.9404341967, 37.2942319459]}, "type": "Feature", "properties": {"collection_times": [{"days": "Mon-Fri", "time": "5:00pm"}, {"days": "Sat", "time": "4:00pm"}, {"days": "Sun", "time": "Closed"}], "id": "9500800061", "name": "USPS COLLECTION BOX - BLUE BOX", "address": {"city": "CAMPBELL", "state": "CA", "street": "500 W HAMILTON AVE", "postcode": "95008"}}},
{"geometry": {"type": "Point", "coordinates": [-121.9317666563, 37.2889441193]}, "type": "Feature", "properties": {"collection_times": [{"days": "Mon-Fri", "time": "4:30pm"}, {"days": "Sat", "time": "11:30am"}, {"days": "Sun", "time": "Closed"}], "id": "9500800067", "name": "USPS COLLECTION BOX - BLUE BOX", "address": {"city": "CAMPBELL", "state": "CA", "street": "1999 S BASCOM AVE", "postcode": "95008"}}},
{"geometry": {"type": "Point", "coordinates": [-121.9404341967, 37.2942319459]}, "type": "Feature", "properties": {"collection_times": [{"days": "Mon-Fri", "time": "5:00pm"}, {"days": "Sat", "time": "4:00pm"}, {"days": "Sun", "time": "Closed"}], "id": "9500800070", "name": "USPS COLLECTION BOX - BLUE BOX", "address": {"city": "CAMPBELL", "state": "CA", "street": "500 W HAMILTON AVE", "postcode": "95008"}}},
{"geometry": {"type": "Point", "coordinates": [-121.9484558414, 37.2872371096]}, "type": "Feature", "properties": {"collection_times": [{"days": "Mon-Fri", "time": "5:00pm"}, {"days": "Sat", "time": "4:00pm"}, {"days": "Sun", "time": "Closed"}], "id": "9500800084", "name": "USPS COLLECTION BOX - BLUE BOX", "address": {"city": "CAMPBELL", "state": "CA", "street": "51 E CAMPBELL AVE", "postcode": "95008"}}},
{"geometry": {"type": "Point", "coordinates": [-121.9457219259, 37.294138973]}, "type": "Feature", "properties": {"collection_times": [{"days": "Mon-Fri", "time": "3:00pm"}, {"days": "Sat", "time": "11:30am"}, {"days": "Sun", "time": "Closed"}], "id": "9500800085", "name": "USPS COLLECTION BOX - BLUE BOX", "address": {"city": "CAMPBELL", "state": "CA", "street": "280 E HAMILTON AVE", "postcode": "95008"}}},
{"geometry": {"type": "Point", "coordinates": [-121.9498260671, 37.280759212]}, "type": "Feature", "properties": {"collection_times": [{"days": "Mon-Fri", "time": "2:00pm"}, {"days": "Sat", "time": "11:30am"}, {"days": "Sun", "time": "Closed"}], "id": "9500800090", "name": "USPS COLLECTION BOX - BLUE BOX", "address": {"city": "CAMPBELL", "state": "CA", "street": "2341 WINCHESTER BLVD", "postcode": "95008"}}},
{"geometry": {"type": "Point", "coordinates": [-121.931748912, 37.285148004]}, "type": "Feature", "properties": {"collection_times": [{"days": "Mon-Fri", "time": "3:00pm"}, {"days": "Sat", "time": "11:30am"}, {"days": "Sun", "time": "Closed"}], "id": "9500800091", "name": "USPS COLLECTION BOX - BLUE BOX", "address": {"city": "CAMPBELL", "state": "CA", "street": "2105 S BASCOM AVE", "postcode": "95008"}}},
{"geometry": {"type": "Point", "coordinates": [-121.9338959825, 37.2908770743]}, "type": "Feature", "properties": {"collection_times": [{"days": "Mon-Fri", "time": "3:00pm"}, {"days": "Sat", "time": "11:30am"}, {"days": "Sun", "time": "Closed"}], "id": "9500800095", "name": "USPS COLLECTION BOX - BLUE BOX", "address": {"city": "CAMPBELL", "state": "CA", "street": "901 CAMPISI WAY", "postcode": "95008"}}},
{"geometry": {"type": "Point", "coordinates": [-121.9570718774, 37.2633767303]}, "type": "Feature", "properties": {"collection_times": [{"days": "Mon-Fri", "time": "5:00pm"}, {"days": "Sat", "time": "2:30pm"}, {"days": "Sun", "time": "Closed"}], "id": "9500800096", "name": "USPS COLLECTION BOX - BLUE BOX", "address": {"city": "CAMPBELL", "state": "CA", "street": "1587 DELL AVE", "postcode": "95008"}}},
{"geometry": {"type": "Point", "coordinates": [-121.9570718774, 37.2633767303]}, "type": "Feature", "properties": {"collection_times": [{"days": "Mon-Fri", "time": "5:00pm"}, {"days": "Sat", "time": "2:30pm"}, {"days": "Sun", "time": "Closed"}], "id": "9500800097", "name": "USPS COLLECTION BOX - BLUE BOX", "address": {"city": "CAMPBELL", "state": "CA", "street": "1587 DELL AVE", "postcode": "95008"}}},
{"geometry": {"type": "Point", "coordinates": [-121.9585405412, 37.2941828354]}, "type": "Feature", "properties": {"collection_times": [{"days": "Mon-Fri", "time": "5:00pm"}, {"days": "Sat", "time": "4:00pm"}, {"days": "Sun", "time": "Closed"}], "id": "9500800100", "name": "USPS COLLECTION BOX - APC", "address": {"city": "CAMPBELL", "state": "CA", "street": "500 W HAMILTON AVE", "postcode": "95008"}}},
{"geometry": {"type": "Point", "coordinates": [-121.976662315, 37.2833747485]}, "type": "Feature", "properties": {"collection_times": [{"days": "Mon-Fri", "time": "2:00pm"}, {"days": "Sat", "time": "11:30am"}, {"days": "Sun", "time": "Closed"}], "id": "9500800101", "name": "USPS COLLECTION BOX - BLUE BOX", "address": {"city": "CAMPBELL", "state": "CA", "street": "100 N SAN TOMAS AQUINO RD", "postcode": "95008"}}},
{"geometry": {"type": "Point", "coordinates": [-121.9343620683, 37.2942449585]}, "type": "Feature", "properties": {"collection_times": [{"days": "Mon-Fri", "time": "3:00pm"}, {"days": "Sat", "time": "11:30am"}, {"days": "Sun", "time": "Closed"}], "id": "9500800102", "name": "USPS COLLECTION BOX - BLUE BOX", "address": {"city": "CAMPBELL", "state": "CA", "street": "900 E HAMILTON AVE", "postcode": "95008"}}},
{"geometry": {"type": "Point", "coordinates": [-121.9515883168, 36.9730065367]}, "type": "Feature", "properties": {"collection_times": [{"days": "Mon-Fri", "time": "10:00am"}, {"days": "Sat-Sun", "time": "Closed"}], "id": "9501000005", "name": "USPS COLLECTION BOX - BLUE BOX", "address": {"city": "CAPITOLA", "state": "CA", "street": "201 CAPITOLA AVE", "postcode": "95010"}}},
{"geometry": {"type": "Point", "coordinates": [-121.9564408144, 36.9735424171]}, "type": "Feature", "properties": {"collection_times": [{"days": "Mon-Sat", "time": "10:00am"}, {"days": "Sun", "time": "Closed"}], "id": "9501000009", "name": "USPS COLLECTION BOX - BLUE BOX", "address": {"city": "CAPITOLA", "state": "CA", "street": "1695 49TH AVE", "postcode": "95010"}}},
{"geometry": {"type": "Point", "coordinates": [-121.9591715205, 36.9775314646]}, "type": "Feature", "properties": {"collection_times": [{"days": "Mon-Fri", "time": "10:00am"}, {"days": "Sat", "time": "12:00pm"}, {"days": "Sun", "time": "Closed"}], "id": "9501000010", "name": "USPS COLLECTION BOX - BLUE BOX", "address": {"city": "CAPITOLA", "state": "CA", "street": "1925 46TH AVE", "postcode": "95010"}}},
{"geometry": {"type": "Point", "coordinates": [-121.9650355011, 36.9715847003]}, "type": "Feature", "properties": {"collection_times": [{"days": "Mon-Sat", "time": "1:30pm"}, {"days": "Sun", "time": "Closed"}], "id": "9501000011", "name": "USPS COLLECTION BOX - BLUE BOX", "address": {"city": "CAPITOLA", "state": "CA", "street": "1549 41ST AVE", "postcode": "95010"}}},
{"geometry": {"type": "Point", "coordinates": [-121.9686560194, 36.9783237313]}, "type": "Feature", "properties": {"collection_times": [{"days": "Mon-Sat", "time": "12:00pm"}, {"days": "Sun", "time": "Closed"}], "id": "9501000014", "name": "USPS COLLECTION BOX - BLUE BOX", "address": {"city": "CAPITOLA", "state": "CA", "street": "3555 CLARES ST", "postcode": "95010"}}},
{"geometry": {"type": "Point", "coordinates": [-121.9560222683, 36.9817302029]}, "type": "Feature", "properties": {"collection_times": [{"days": "Mon-Fri", "time": "5:00pm"}, {"days": "Sat", "time": "3:45pm"}, {"days": "Sun", "time": "Closed"}], "id": "9501000015", "name": "USPS COLLECTION BOX - BLUE BOX", "address": {"city": "CAPITOLA", "state": "CA", "street": "826 BAY AVE", "postcode": "95010"}}},
{"geometry": {"type": "Point", "coordinates": [-121.9560222683, 36.9817302029]}, "type": "Feature", "properties": {"collection_times": [{"days": "Mon-Fri", "time": "5:00pm"}, {"days": "Sat", "time": "3:45pm"}, {"days": "Sun", "time": "Closed"}], "id": "9501000016", "name": "USPS COLLECTION BOX - BLUE BOX", "address": {"city": "CAPITOLA", "state": "CA", "street": "826 BAY AVE", "postcode": "95010"}}},
{"geometry": {"type": "Point", "coordinates": [-121.9599210797, 36.970288097]}, "type": "Feature", "properties": {"collection_times": [{"days": "Mon-Sat", "time": "10:00am"}, {"days": "Sun", "time": "Closed"}], "id": "9501000017", "name": "USPS COLLECTION BOX - BLUE BOX", "address": {"city": "CAPITOLA", "state": "CA", "street": "4400 JADE ST", "postcode": "95010"}}},
{"geometry": {"type": "Point", "coordinates": [-121.9435994267, 36.9822712256]}, "type": "Feature", "properties": {"collection_times": [{"days": "Mon-Sat", "time": "10:00am"}, {"days": "Sun", "time": "Closed"}], "id": "9501000018", "name": "USPS COLLECTION BOX - BLUE BOX", "address": {"city": "CAPITOLA", "state": "CA", "street": "875 MONTEREY AVE", "postcode": "95010"}}},
{"geometry": {"type": "Point", "coordinates": [-121.9650717917, 36.9766610865]}, "type": "Feature", "properties": {"collection_times": [{"days": "Mon-Sat", "time": "12:30pm"}, {"days": "Sun", "time": "Closed"}], "id": "9501000019", "name": "USPS COLLECTION BOX - BLUE BOX", "address": {"city": "CAPITOLA", "state": "CA", "street": "1855 41ST AVE", "postcode": "95010"}}},
{"geometry": {"type": "Point", "coordinates": [-121.9549290704, 36.9764827788]}, "type": "Feature", "properties": {"collection_times": [{"days": "Mon-Fri", "time": "5:00pm"}, {"days": "Sat", "time": "3:45pm"}, {"days": "Sun", "time": "Closed"}], "id": "9501000021", "name": "USPS COLLECTION BOX - EXPRESS", "address": {"city": "CAPITOLA", "state": "CA", "street": "826 BAY AVE", "postcode": "95010"}}},
{"geometry": {"type": "Point", "coordinates": [-121.9560222683, 36.9817302029]}, "type": "Feature", "properties": {"collection_times": [{"days": "Mon-Fri", "time": "5:00pm"}, {"days": "Sat", "time": "3:45pm"}, {"days": "Sun", "time": "Closed"}], "id": "9501000023", "name": "USPS COLLECTION BOX - BLUE BOX", "address": {"city": "CAPITOLA", "state": "CA", "street": "826 BAY AVE", "postcode": "95010"}}},
{"geometry": {"type": "Point", "coordinates": [-121.9560222683, 36.9817302029]}, "type": "Feature", "properties": {"collection_times": [{"days": "Mon-Fri", "time": "5:00pm"}, {"days": "Sat", "time": "3:45pm"}, {"days": "Sun", "time": "Closed"}], "id": "9501000024", "name": "USPS COLLECTION BOX - APC", "address": {"city": "CAPITOLA", "state": "CA", "street": "826 BAY AVE", "postcode": "95010"}}},
{"geometry": {"type": "Point", "coordinates": [-121.753032936, 36.7619883891]}, "type": "Feature", "properties": {"collection_times": [{"days": "Mon-Sat", "time": "12:00pm"}, {"days": "Sun", "time": "Closed"}], "id": "9501200002", "name": "USPS COLLECTION BOX - BLUE BOX", "address": {"city": "CASTROVILLE", "state": "CA", "street": "11252 MERRITT ST", "postcode": "95012"}}},
{"geometry": {"type": "Point", "coordinates": [-121.7410744301, 36.7586293239]}, "type": "Feature", "properties": {"collection_times": [{"days": "Mon-Sat", "time": "12:00pm"}, {"days": "Sun", "time": "Closed"}], "id": "9501200003", "name": "USPS COLLECTION BOX - BLUE BOX", "address": {"city": "CASTROVILLE", "state": "CA", "street": "11025 COMMERCIAL PKWY", "postcode": "95012"}}},
{"geometry": {"type": "Point", "coordinates": [-121.7576114375, 36.7654149827]}, "type": "Feature", "properties": {"collection_times": [{"days": "Mon-Fri", "time": "5:00pm"}, {"days": "Sat", "time": "3:00pm"}, {"days": "Sun", "time": "Closed"}], "id": "9501200005", "name": "USPS COLLECTION BOX - BLUE BOX", "address": {"city": "CASTROVILLE", "state": "CA", "street": "10799 MERRITT ST", "postcode": "95012"}}},
{"geometry": {"type": "Point", "coordinates": [-121.7388272321, 37.216046639]}, "type": "Feature", "properties": {"collection_times": [{"days": "Mon-Fri", "time": "1:00pm"}, {"days": "Sat-Sun", "time": "Closed"}], "id": "9501300000", "name": "USPS COLLECTION BOX - BLUE BOX", "address": {"city": "COYOTE", "state": "CA", "street": "8220 MONTEREY RD", "postcode": "95013"}}},
{"geometry": {"type": "Point", "coordinates": [-122.0152611794, 37.3221043061]}, "type": "Feature", "properties": {"collection_times": [{"days": "Mon-Sat", "time": "12:30pm"}, {"days": "Sun", "time": "Closed"}], "id": "9501400002", "name": "USPS COLLECTION BOX - BLUE BOX", "address": {"city": "CUPERTINO", "state": "CA", "street": "10071 E ESTATES DR", "postcode": "95014"}}},
{"geometry": {"type": "Point", "coordinates": [-122.0141869563, 37.3250846987]}, "type": "Feature", "properties": {"collection_times": [{"days": "Mon-Fri", "time": "5:00pm"}, {"days": "Sat", "time": "1:00pm"}, {"days": "Sun", "time": "Closed"}], "id": "9501400003", "name": "USPS COLLECTION BOX - BLUE BOX", "address": {"city": "CUPERTINO", "state": "CA", "street": "10123 N WOLFE RD", "postcode": "95014"}}},
{"geometry": {"type": "Point", "coordinates": [-122.0324591386, 37.3192314242]}, "type": "Feature", "properties": {"collection_times": [{"days": "Mon-Sat", "time": "1:00pm"}, {"days": "Sun", "time": "Closed"}], "id": "9501400014", "name": "USPS COLLECTION BOX - BLUE BOX", "address": {"city": "CUPERTINO", "state": "CA", "street": "10255 S DE ANZA BLVD", "postcode": "95014"}}},
{"geometry": {"type": "Point", "coordinates": [-122.0379360555, 37.3212415852]}, "type": "Feature", "properties": {"collection_times": [{"days": "Mon-Sat", "time": "1:00pm"}, {"days": "Sun", "time": "Closed"}], "id": "9501400015", "name": "USPS COLLECTION BOX - BLUE BOX", "address": {"city": "CUPERTINO", "state": "CA", "street": "10457 S DE ANZA BLVD", "postcode": "95014"}}},
{"geometry": {"type": "Point", "coordinates": [-122.0321998725, 37.318559497]}, "type": "Feature", "properties": {"collection_times": [{"days": "Mon-Fri", "time": "5:00pm"}, {"days": "Sat", "time": "1:00pm"}, {"days": "Sun", "time": "Closed"}], "id": "9501400016", "name": "USPS COLLECTION BOX - BLUE BOX", "address": {"city": "CUPERTINO", "state": "CA", "street": "10300 S DE ANZA BLVD", "postcode": "95014"}}},
{"geometry": {"type": "Point", "coordinates": [-122.014137272, 37.3220101883]}, "type": "Feature", "properties": {"collection_times": [{"days": "Mon-Fri", "time": "3:00pm"}, {"days": "Sat", "time": "1:00pm"}, {"days": "Sun", "time": "Closed"}], "id": "9501400018", "name": "USPS COLLECTION BOX - BLUE BOX", "address": {"city": "CUPERTINO", "state": "CA", "street": "10062 MILLER AVE", "postcode": "95014"}}},
{"geometry": {"type": "Point", "coordinates": [-122.0347534987, 37.3322801264]}, "type": "Feature", "properties": {"collection_times": [{"days": "Mon-Sat", "time": "1:00pm"}, {"days": "Sun", "time": "Closed"}], "id": "9501400019", "name": "USPS COLLECTION BOX - BLUE BOX", "address": {"city": "CUPERTINO", "state": "CA", "street": "20700 VALLEY GREEN DR", "postcode": "95014"}}},
{"geometry": {"type": "Point", "coordinates": [-122.0303799387, 37.318194375]}, "type": "Feature", "properties": {"collection_times": [{"days": "Mon-Fri", "time": "5:00pm"}, {"days": "Sat", "time": "1:00pm"}, {"days": "Sun", "time": "Closed"}], "id": "9501400021", "name": "USPS COLLECTION BOX - BLUE BOX", "address": {"city": "CUPERTINO", "state": "CA", "street": "20380 TOWN CENTER LN", "postcode": "95014"}}},
{"geometry": {"type": "Point", "coordinates": [-122.0334391137, 37.3375226109]}, "type": "Feature", "properties": {"collection_times": [{"days": "Mon-Fri", "time": "3:00pm"}, {"days": "Sat", "time": "1:30pm"}, {"days": "Sun", "time": "Closed"}], "id": "9501400030", "name": "USPS COLLECTION BOX - BLUE BOX", "address": {"city": "CUPERTINO", "state": "CA", "street": "20580 HOMESTEAD RD", "postcode": "95014"}}},
{"geometry": {"type": "Point", "coordinates": [-122.0431603259, 37.3374707862]}, "type": "Feature", "properties": {"collection_times": [{"days": "Mon-Fri", "time": "3:00pm"}, {"days": "Sat", "time": "1:30pm"}, {"days": "Sun", "time": "Closed"}], "id": "9501400039", "name": "USPS COLLECTION BOX - BLUE BOX", "address": {"city": "CUPERTINO", "state": "CA", "street": "21040 HOMESTEAD RD", "postcode": "95014"}}},
{"geometry": {"type": "Point", "coordinates": [-122.0184515234, 37.3228654677]}, "type": "Feature", "properties": {"collection_times": [{"days": "Mon-Fri", "time": "1:30pm"}, {"days": "Sat", "time": "1:00pm"}, {"days": "Sun", "time": "Closed"}], "id": "9501400040", "name": "USPS COLLECTION BOX - BLUE BOX", "address": {"city": "CUPERTINO", "state": "CA", "street": "19750 STEVENS CREEK BLVD", "postcode": "95014"}}},
{"geometry": {"type": "Point", "coordinates": [-122.0216235017, 37.3230567421]}, "type": "Feature", "properties": {"collection_times": [{"days": "Mon-Fri", "time": "5:00pm"}, {"days": "Sat", "time": "1:00pm"}, {"days": "Sun", "time": "Closed"}], "id": "9501400042", "name": "USPS COLLECTION BOX - BLUE BOX", "address": {"city": "CUPERTINO", "state": "CA", "street": "19925 STEVENS CREEK BLVD", "postcode": "95014"}}},
{"geometry": {"type": "Point", "coordinates": [-122.0321998725, 37.318559497]}, "type": "Feature", "properties": {"collection_times": [{"days": "Mon-Fri", "time": "5:00pm"}, {"days": "Sat", "time": "1:00pm"}, {"days": "Sun", "time": "Closed"}], "id": "9501400044", "name": "USPS COLLECTION BOX - BLUE BOX", "address": {"city": "CUPERTINO", "state": "CA", "street": "10300 S DE ANZA BLVD", "postcode": "95014"}}},
{"geometry": {"type": "Point", "coordinates": [-122.0321738474, 37.3306777287]}, "type": "Feature", "properties": {"collection_times": [{"days": "Mon-Sat", "time": "1:00pm"}, {"days": "Sun", "time": "Closed"}], "id": "9501400047", "name": "USPS COLLECTION BOX - BLUE BOX", "address": {"city": "CUPERTINO", "state": "CA", "street": "10600 N DE ANZA BLVD", "postcode": "95014"}}},
{"geometry": {"type": "Point", "coordinates": [-122.0379360555, 37.3212415852]}, "type": "Feature", "properties": {"collection_times": [{"days": "Mon-Sat", "time": "5:00pm"}, {"days": "Sun", "time": "Closed"}], "id": "9501400050", "name": "USPS COLLECTION BOX - EXPRESS", "address": {"city": "CUPERTINO", "state": "CA", "street": "21701 STEVENS CREEK BLVD", "postcode": "95014"}}},
{"geometry": {"type": "Point", "coordinates": [-122.0539414319, 37.3229346828]}, "type": "Feature", "properties": {"collection_times": [{"days": "Mon-Sat", "time": "5:00pm"}, {"days": "Sun", "time": "Closed"}], "id": "9501400052", "name": "USPS COLLECTION BOX - BLUE BOX", "address": {"city": "CUPERTINO", "state": "CA", "street": "21701 STEVENS CREEK BLVD", "postcode": "95014"}}},
{"geometry": {"type": "Point", "coordinates": [-122.0463019263, 37.3237917245]}, "type": "Feature", "properties": {"collection_times": [{"days": "Mon-Sat", "time": "1:00pm"}, {"days": "Sun", "time": "Closed"}], "id": "9501400060", "name": "USPS COLLECTION BOX - BLUE BOX", "address": {"city": "CUPERTINO", "state": "CA", "street": "10100 MARY AVE", "postcode": "95014"}}},
{"geometry": {"type": "Point", "coordinates": [-122.0108427313, 37.3228914928]}, "type": "Feature", "properties": {"collection_times": [{"days": "Mon-Fri", "time": "3:00pm"}, {"days": "Sat", "time": "1:00pm"}, {"days": "Sun", "time": "Closed"}], "id": "9501400073", "name": "USPS COLLECTION BOX - BLUE BOX", "address": {"city": "CUPERTINO", "state": "CA", "street": "19300 STEVENS CREEK BLVD", "postcode": "95014"}}},
{"geometry": {"type": "Point", "coordinates": [-122.0257965156, 37.3229849465]}, "type": "Feature", "properties": {"collection_times": [{"days": "Mon-Fri", "time": "3:00pm"}, {"days": "Sat", "time": "1:00pm"}, {"days": "Sun", "time": "Closed"}], "id": "9501400075", "name": "USPS COLLECTION BOX - BLUE BOX", "address": {"city": "CUPERTINO", "state": "CA", "street": "20151 STEVENS CREEK BLVD", "postcode": "95014"}}},
{"geometry": {"type": "Point", "coordinates": [-122.0303799387, 37.318194375]}, "type": "Feature", "properties": {"collection_times": [{"days": "Mon-Fri", "time": "5:00pm"}, {"days": "Sat", "time": "1:00pm"}, {"days": "Sun", "time": "Closed"}], "id": "9501400076", "name": "USPS COLLECTION BOX - BLUE BOX", "address": {"city": "CUPERTINO", "state": "CA", "street": "20380 TOWN CENTER LN", "postcode": "95014"}}},
{"geometry": {"type": "Point", "coordinates": [-122.0539414319, 37.3229346828]}, "type": "Feature", "properties": {"collection_times": [{"days": "Mon-Sat", "time": "5:00pm"}, {"days": "Sun", "time": "Closed"}], "id": "9501400083", "name": "USPS COLLECTION BOX - BLUE BOX", "address": {"city": "CUPERTINO", "state": "CA", "street": "21701 STEVENS CREEK BLVD", "postcode": "95014"}}},
{"geometry": {"type": "Point", "coordinates": [-122.0539414319, 37.3229346828]}, "type": "Feature", "properties": {"collection_times": [{"days": "Mon-Sat", "time": "5:00pm"}, {"days": "Sun", "time": "Closed"}], "id": "9501400084", "name": "USPS COLLECTION BOX - BLUE BOX", "address": {"city": "CUPERTINO", "state": "CA", "street": "21701 STEVENS CREEK BLVD", "postcode": "95014"}}},
{"geometry": {"type": "Point", "coordinates": [-122.0539414319, 37.3229346828]}, "type": "Feature", "properties": {"collection_times": [{"days": "Mon-Sat", "time": "5:00pm"}, {"days": "Sun", "time": "Closed"}], "id": "9501400085", "name": "USPS COLLECTION BOX - BLUE BOX", "address": {"city": "CUPERTINO", "state": "CA", "street": "21701 STEVENS CREEK BLVD", "postcode": "95014"}}},
{"geometry": {"type": "Point", "coordinates": [-122.0323430105, 37.2953711354]}, "type": "Feature", "properties": {"collection_times": [{"days": "Mon-Fri", "time": "3:00pm"}, {"days": "Sat", "time": "1:00pm"}, {"days": "Sun", "time": "Closed"}], "id": "9501400086", "name": "USPS COLLECTION BOX - BLUE BOX", "address": {"city": "CUPERTINO", "state": "CA", "street": "1601 S DE ANZA BLVD", "postcode": "95014"}}},
{"geometry": {"type": "Point", "coordinates": [-122.0144302861, 37.3349264972]}, "type": "Feature", "properties": {"collection_times": [{"days": "Mon-Sat", "time": "1:00pm"}, {"days": "Sun", "time": "Closed"}], "id": "9501400100", "name": "USPS COLLECTION BOX - BLUE BOX", "address": {"city": "CUPERTINO", "state": "CA", "street": "10883 N WOLFE RD", "postcode": "95014"}}},
{"geometry": {"type": "Point", "coordinates": [-122.0280855412, 37.3228418085]}, "type": "Feature", "properties": {"collection_times": [{"days": "Mon-Fri", "time": "5:00pm"}, {"days": "Sat", "time": "1:00pm"}, {"days": "Sun", "time": "Closed"}], "id": "9501400106", "name": "USPS COLLECTION BOX - BLUE BOX", "address": {"city": "CUPERTINO", "state": "CA", "street": "20300 STEVENS CREEK BLVD", "postcode": "95014"}}},
{"geometry": {"type": "Point", "coordinates": [-122.0539414319, 37.3229346828]}, "type": "Feature", "properties": {"collection_times": [{"days": "Mon-Sat", "time": "5:00pm"}, {"days": "Sun", "time": "Closed"}], "id": "9501400112", "name": "USPS COLLECTION BOX - APC", "address": {"city": "CUPERTINO", "state": "CA", "street": "21701 STEVENS CREEK BLVD", "postcode": "95014"}}},
{"geometry": {"type": "Point", "coordinates": [-122.2138207992, 37.0267640315]}, "type": "Feature", "properties": {"collection_times": [{"days": "Mon-Fri", "time": "4:00pm"}, {"days": "Sat", "time": "10:30am"}, {"days": "Sun", "time": "Closed"}], "id": "9501700001", "name": "USPS COLLECTION BOX - BLUE BOX", "address": {"city": "DAVENPORT", "state": "CA", "street": "500 HIGHWAY 1", "postcode": "95017"}}},
{"geometry": {"type": "Point", "coordinates": [-122.0477936376, 37.0852480492]}, "type": "Feature", "properties": {"collection_times": [{"days": "Mon-Sat", "time": "11:00am"}, {"days": "Sun", "time": "Closed"}], "id": "9501800002", "name": "USPS COLLECTION BOX - BLUE BOX", "address": {"city": "FELTON", "state": "CA", "street": "9210 E ZAYANTE RD", "postcode": "95018"}}},
{"geometry": {"type": "Point", "coordinates": [-122.0741901839, 37.0496185082]}, "type": "Feature", "properties": {"collection_times": [{"days": "Mon-Fri", "time": "4:00pm"}, {"days": "Sat", "time": "2:00pm"}, {"days": "Sun", "time": "Closed"}], "id": "9501800006", "name": "USPS COLLECTION BOX - BLUE BOX", "address": {"city": "FELTON", "state": "CA", "street": "6101 GUSHEE ST", "postcode": "95018"}}},
{"geometry": {"type": "Point", "coordinates": [-121.7774242584, 36.9381547007]}, "type": "Feature", "properties": {"collection_times": [{"days": "Mon-Fri", "time": "5:00pm"}, {"days": "Sat", "time": "3:45pm"}, {"days": "Sun", "time": "Closed"}], "id": "9501900002", "name": "USPS COLLECTION BOX - BLUE BOX", "address": {"city": "FREEDOM", "state": "CA", "street": "2004 FREEDOM BLVD", "postcode": "95019"}}},
{"geometry": {"type": "Point", "coordinates": [-121.7774242584, 36.9381547007]}, "type": "Feature", "properties": {"collection_times": [{"days": "Mon-Fri", "time": "5:00pm"}, {"days": "Sat", "time": "3:45pm"}, {"days": "Sun", "time": "Closed"}], "id": "9501900003", "name": "USPS COLLECTION BOX - BLUE BOX", "address": {"city": "FREEDOM", "state": "CA", "street": "2004 FREEDOM BLVD", "postcode": "95019"}}},
{"geometry": {"type": "Point", "coordinates": [-121.7774242584, 36.9381547007]}, "type": "Feature", "properties": {"collection_times": [{"days": "Mon-Fri", "time": "5:00pm"}, {"days": "Sat", "time": "3:45pm"}, {"days": "Sun", "time": "Closed"}], "id": "9501900004", "name": "USPS COLLECTION BOX - BLUE BOX", "address": {"city": "FREEDOM", "state": "CA", "street": "2004 FREEDOM BLVD", "postcode": "95019"}}},
{"geometry": {"type": "Point", "coordinates": [-121.770337917, 36.9371111175]}, "type": "Feature", "properties": {"collection_times": [{"days": "Mon-Sat", "time": "10:30am"}, {"days": "Sun", "time": "Closed"}], "id": "9501900005", "name": "USPS COLLECTION BOX - BLUE BOX", "address": {"city": "FREEDOM", "state": "CA", "street": "149 CARNATION DR", "postcode": "95019"}}},
{"geometry": {"type": "Point", "coordinates": [-121.5712806487, 37.0095740957]}, "type": "Feature", "properties": {"collection_times": [{"days": "Mon-Fri", "time": "5:00pm"}, {"days": "Sat", "time": "1:00pm"}, {"days": "Sun", "time": "Closed"}], "id": "9502000008", "name": "USPS COLLECTION BOX - BLUE BOX", "address": {"city": "GILROY", "state": "CA", "street": "100 4TH ST", "postcode": "95020"}}},
{"geometry": {"type": "Point", "coordinates": [-121.5937490663, 37.0145157663]}, "type": "Feature", "properties": {"collection_times": [{"days": "Mon-Sat", "time": "1:00pm"}, {"days": "Sun", "time": "Closed"}], "id": "9502000009", "name": "USPS COLLECTION BOX - BLUE BOX", "address": {"city": "GILROY", "state": "CA", "street": "8110 WESTWOOD DR", "postcode": "95020"}}},
{"geometry": {"type": "Point", "coordinates": [-121.6005937452, 37.0269861373]}, "type": "Feature", "properties": {"collection_times": [{"days": "Mon-Sat", "time": "11:00am"}, {"days": "Sun", "time": "Closed"}], "id": "9502000018", "name": "USPS COLLECTION BOX - BLUE BOX", "address": {"city": "GILROY", "state": "CA", "street": "9234 ORINDA WAY", "postcode": "95020"}}},
{"geometry": {"type": "Point", "coordinates": [-121.5712806487, 37.0095740957]}, "type": "Feature", "properties": {"collection_times": [{"days": "Mon-Fri", "time": "5:00pm"}, {"days": "Sat", "time": "1:00pm"}, {"days": "Sun", "time": "Closed"}], "id": "9502000028", "name": "USPS COLLECTION BOX - BLUE BOX", "address": {"city": "GILROY", "state": "CA", "street": "100 4TH ST", "postcode": "95020"}}},
{"geometry": {"type": "Point", "coordinates": [-121.5812194923, 37.0166914597]}, "type": "Feature", "properties": {"collection_times": [{"days": "Mon-Fri", "time": "5:00pm"}, {"days": "Sat", "time": "1:00pm"}, {"days": "Sun", "time": "Closed"}], "id": "9502000030", "name": "USPS COLLECTION BOX - EXPRESS", "address": {"city": "GILROY", "state": "CA", "street": "100 4TH ST", "postcode": "95020"}}},
{"geometry": {"type": "Point", "coordinates": [-121.4005979708, 36.8728146442]}, "type": "Feature", "properties": {"collection_times": [{"days": "Mon-Fri", "time": "11:00am"}, {"days": "Sat-Sun", "time": "Closed"}], "id": "9502300000", "name": "USPS COLLECTION BOX - BLUE BOX", "address": {"city": "HOLLISTER", "state": "CA", "street": "1131 SAN FELIPE RD", "postcode": "95023"}}},
{"geometry": {"type": "Point", "coordinates": [-121.4039203094, 36.8521380223]}, "type": "Feature", "properties": {"collection_times": [{"days": "Mon-Fri", "time": "12:00pm"}, {"days": "Sat-Sun", "time": "Closed"}], "id": "9502300002", "name": "USPS COLLECTION BOX - BLUE BOX", "address": {"city": "HOLLISTER", "state": "CA", "street": "440 MONTEREY ST", "postcode": "95023"}}},
{"geometry": {"type": "Point", "coordinates": [-121.395862586, 36.8394989709]}, "type": "Feature", "properties": {"collection_times": [{"days": "Mon-Fri", "time": "11:30am"}, {"days": "Sat-Sun", "time": "Closed"}], "id": "9502300005", "name": "USPS COLLECTION BOX - BLUE BOX", "address": {"city": "HOLLISTER", "state": "CA", "street": "341 TRES PINOS RD", "postcode": "95023"}}},
{"geometry": {"type": "Point", "coordinates": [-121.3954578455, 36.8395184242]}, "type": "Feature", "properties": {"collection_times": [{"days": "Mon-Fri", "time": "11:00am"}, {"days": "Sat-Sun", "time": "Closed"}], "id": "9502300010", "name": "USPS COLLECTION BOX - BLUE BOX", "address": {"city": "HOLLISTER", "state": "CA", "street": "330 TRES PINOS RD", "postcode": "95023"}}},
{"geometry": {"type": "Point", "coordinates": [-121.3899939266, 36.8376866778]}, "type": "Feature", "properties": {"collection_times": [{"days": "Mon-Fri", "time": "12:30pm"}, {"days": "Sat-Sun", "time": "Closed"}], "id": "9502300011", "name": "USPS COLLECTION BOX - BLUE BOX", "address": {"city": "HOLLISTER", "state": "CA", "street": "1700 AIRLINE HWY", "postcode": "95023"}}},
{"geometry": {"type": "Point", "coordinates": [-121.3994150118, 36.8585363295]}, "type": "Feature", "properties": {"collection_times": [{"days": "Mon-Fri", "time": "5:00pm"}, {"days": "Sat", "time": "2:00pm"}, {"days": "Sun", "time": "Closed"}], "id": "9502300012", "name": "USPS COLLECTION BOX - BLUE BOX", "address": {"city": "HOLLISTER", "state": "CA", "street": "100 MAPLE ST", "postcode": "95023"}}},
{"geometry": {"type": "Point", "coordinates": [-121.3994150118, 36.8585363295]}, "type": "Feature", "properties": {"collection_times": [{"days": "Mon-Fri", "time": "5:00pm"}, {"days": "Sat", "time": "2:00pm"}, {"days": "Sun", "time": "Closed"}], "id": "9502300027", "name": "USPS COLLECTION BOX - BLUE BOX", "address": {"city": "HOLLISTER", "state": "CA", "street": "100 MAPLE ST", "postcode": "95023"}}},
{"geometry": {"type": "Point", "coordinates": [-121.4039203094, 36.8521380223]}, "type": "Feature", "properties": {"collection_times": [{"days": "Mon-Fri", "time": "12:00pm"}, {"days": "Sat-Sun", "time": "Closed"}], "id": "9502300028", "name": "USPS COLLECTION BOX - BLUE BOX", "address": {"city": "HOLLISTER", "state": "CA", "street": "440 MONTEREY ST", "postcode": "95023"}}},
{"geometry": {"type": "Point", "coordinates": [-121.4039203094, 36.8521380223]}, "type": "Feature", "properties": {"collection_times": [{"days": "Mon-Fri", "time": "12:00pm"}, {"days": "Sat-Sun", "time": "Closed"}], "id": "9502300031", "name": "USPS COLLECTION BOX - BLUE BOX", "address": {"city": "HOLLISTER", "state": "CA", "street": "440 MONTEREY ST", "postcode": "95023"}}},
{"geometry": {"type": "Point", "coordinates": [-121.3994150118, 36.8585363295]}, "type": "Feature", "properties": {"collection_times": [{"days": "Mon-Fri", "time": "5:00pm"}, {"days": "Sat", "time": "2:00pm"}, {"days": "Sun", "time": "Closed"}], "id": "9502300033", "name": "USPS COLLECTION BOX - BLUE BOX", "address": {"city": "HOLLISTER", "state": "CA", "street": "100 MAPLE ST", "postcode": "95023"}}},
{"geometry": {"type": "Point", "coordinates": [-121.3994150118, 36.8585363295]}, "type": "Feature", "properties": {"collection_times": [{"days": "Mon-Fri", "time": "5:00pm"}, {"days": "Sat", "time": "2:00pm"}, {"days": "Sun", "time": "Closed"}], "id": "9502300034", "name": "USPS COLLECTION BOX - APC", "address": {"city": "HOLLISTER", "state": "CA", "street": "100 MAPLE ST", "postcode": "95023"}}},
{"geometry": {"type": "Point", "coordinates": [-121.9833569113, 37.2221453479]}, "type": "Feature", "properties": {"collection_times": [{"days": "Mon-Sat", "time": "5:00pm"}, {"days": "Sun", "time": "Closed"}], "id": "9503000002", "name": "USPS COLLECTION BOX - BLUE BOX", "address": {"city": "MONTE SERENO", "state": "CA", "street": "15 MONTEBELLO WAY", "postcode": "95030"}}},
{"geometry": {"type": "Point", "coordinates": [-121.9863259068, 37.2323679239]}, "type": "Feature", "properties": {"collection_times": [{"days": "Mon-Fri", "time": "5:00pm"}, {"days": "Sat", "time": "1:00pm"}, {"days": "Sun", "time": "Closed"}], "id": "9503000005", "name": "USPS COLLECTION BOX - BLUE BOX", "address": {"city": "MONTE SERENO", "state": "CA", "street": "18041 SARATOGA LOS GATOS RD", "postcode": "95030"}}},
{"geometry": {"type": "Point", "coordinates": [-121.9836465047, 37.2300623369]}, "type": "Feature", "properties": {"collection_times": [{"days": "Mon-Sat", "time": "1:00pm"}, {"days": "Sun", "time": "Closed"}], "id": "9503000035", "name": "USPS COLLECTION BOX - BLUE BOX", "address": {"city": "MONTE SERENO", "state": "CA", "street": "349 MASSOL AVE", "postcode": "95030"}}},
{"geometry": {"type": "Point", "coordinates": [-121.982947376, 37.2245840539]}, "type": "Feature", "properties": {"collection_times": [{"days": "Mon-Fri", "time": "3:00pm"}, {"days": "Sat", "time": "1:00pm"}, {"days": "Sun", "time": "Closed"}], "id": "9503000036", "name": "USPS COLLECTION BOX - BLUE BOX", "address": {"city": "MONTE SERENO", "state": "CA", "street": "105 N SANTA CRUZ AVE", "postcode": "95030"}}},
{"geometry": {"type": "Point", "coordinates": [-121.9819040062, 37.226857701]}, "type": "Feature", "properties": {"collection_times": [{"days": "Mon-Fri", "time": "3:00pm"}, {"days": "Sat", "time": "1:00pm"}, {"days": "Sun", "time": "Closed"}], "id": "9503000038", "name": "USPS COLLECTION BOX - BLUE BOX", "address": {"city": "MONTE SERENO", "state": "CA", "street": "236 N SANTA CRUZ AVE", "postcode": "95030"}}},
{"geometry": {"type": "Point", "coordinates": [-121.9813882361, 37.2279980735]}, "type": "Feature", "properties": {"collection_times": [{"days": "Mon-Fri", "time": "3:00pm"}, {"days": "Sat", "time": "1:00pm"}, {"days": "Sun", "time": "Closed"}], "id": "9503000039", "name": "USPS COLLECTION BOX - BLUE BOX", "address": {"city": "MONTE SERENO", "state": "CA", "street": "333 N SANTA CRUZ AVE", "postcode": "95030"}}},
{"geometry": {"type": "Point", "coordinates": [-121.9802366077, 37.2302762095]}, "type": "Feature", "properties": {"collection_times": [{"days": "Mon-Fri", "time": "3:00pm"}, {"days": "Sat", "time": "2:30pm"}, {"days": "Sun", "time": "Closed"}], "id": "9503000040", "name": "USPS COLLECTION BOX - BLUE BOX", "address": {"city": "MONTE SERENO", "state": "CA", "street": "424 N SANTA CRUZ AVE", "postcode": "95030"}}},
{"geometry": {"type": "Point", "coordinates": [-121.9802494254, 37.2266175192]}, "type": "Feature", "properties": {"collection_times": [{"days": "Mon-Sat", "time": "1:00pm"}, {"days": "Sun", "time": "Closed"}], "id": "9503000052", "name": "USPS COLLECTION BOX - BLUE BOX", "address": {"city": "MONTE SERENO", "state": "CA", "street": "266 UNIVERSITY AVE", "postcode": "95030"}}},
{"geometry": {"type": "Point", "coordinates": [-121.9785826924, 37.2337010155]}, "type": "Feature", "properties": {"collection_times": [{"days": "Mon-Fri", "time": "5:00pm"}, {"days": "Sat", "time": "1:00pm"}, {"days": "Sun", "time": "Closed"}], "id": "9503000064", "name": "USPS COLLECTION BOX - BLUE BOX", "address": {"city": "MONTE SERENO", "state": "CA", "street": "600 N SANTA CRUZ AVE", "postcode": "95030"}}},
{"geometry": {"type": "Point", "coordinates": [-121.9813511888, 37.2294382896]}, "type": "Feature", "properties": {"collection_times": [{"days": "Mon-Fri", "time": "3:00pm"}, {"days": "Sat", "time": "1:00pm"}, {"days": "Sun", "time": "Closed"}], "id": "9503000065", "name": "USPS COLLECTION BOX - BLUE BOX", "address": {"city": "MONTE SERENO", "state": "CA", "street": "214 LOS GATOS SARATOGA RD", "postcode": "95030"}}},
{"geometry": {"type": "Point", "coordinates": [-121.9863259068, 37.2323679239]}, "type": "Feature", "properties": {"collection_times": [{"days": "Mon-Fri", "time": "5:00pm"}, {"days": "Sat", "time": "1:00pm"}, {"days": "Sun", "time": "Closed"}], "id": "9503000068", "name": "USPS COLLECTION BOX - BLUE BOX", "address": {"city": "MONTE SERENO", "state": "CA", "street": "18041 SARATOGA LOS GATOS RD", "postcode": "95030"}}},
{"geometry": {"type": "Point", "coordinates": [-121.9833569113, 37.2221453479]}, "type": "Feature", "properties": {"collection_times": [{"days": "Mon-Sat", "time": "5:00pm"}, {"days": "Sun", "time": "Closed"}], "id": "9503000076", "name": "USPS COLLECTION BOX - BLUE BOX", "address": {"city": "MONTE SERENO", "state": "CA", "street": "15 MONTEBELLO WAY", "postcode": "95030"}}},
{"geometry": {"type": "Point", "coordinates": [-121.9833569113, 37.2221453479]}, "type": "Feature", "properties": {"collection_times": [{"days": "Mon-Sat", "time": "5:00pm"}, {"days": "Sun", "time": "Closed"}], "id": "9503000077", "name": "USPS COLLECTION BOX - BLUE BOX", "address": {"city": "MONTE SERENO", "state": "CA", "street": "15 MONTEBELLO WAY", "postcode": "95030"}}},
{"geometry": {"type": "Point", "coordinates": [-121.9793810337, 37.2212634878]}, "type": "Feature", "properties": {"collection_times": [{"days": "Mon-Fri", "time": "3:00pm"}, {"days": "Sat", "time": "1:00pm"}, {"days": "Sun", "time": "Closed"}], "id": "9503000088", "name": "USPS COLLECTION BOX - BLUE BOX", "address": {"city": "MONTE SERENO", "state": "CA", "street": "110 E MAIN ST", "postcode": "95030"}}},
{"geometry": {"type": "Point", "coordinates": [-121.982947376, 37.2245840539]}, "type": "Feature", "properties": {"collection_times": [{"days": "Mon-Fri", "time": "3:00pm"}, {"days": "Sat", "time": "1:00pm"}, {"days": "Sun", "time": "Closed"}], "id": "9503000094", "name": "USPS COLLECTION BOX - BLUE BOX", "address": {"city": "MONTE SERENO", "state": "CA", "street": "105 N SANTA CRUZ AVE", "postcode": "95030"}}},
{"geometry": {"type": "Point", "coordinates": [-121.9846780449, 37.2212930621]}, "type": "Feature", "properties": {"collection_times": [{"days": "Mon-Sat", "time": "5:00pm"}, {"days": "Sun", "time": "Closed"}], "id": "9503000095", "name": "USPS COLLECTION BOX - BLUE BOX", "address": {"city": "MONTE SERENO", "state": "CA", "street": "101 S SANTA CRUZ AVE", "postcode": "95030"}}},
{"geometry": {"type": "Point", "coordinates": [-121.9846780449, 37.2212930621]}, "type": "Feature", "properties": {"collection_times": [{"days": "Mon-Fri", "time": "6:00pm"}, {"days": "Sat", "time": "5:00pm"}, {"days": "Sun", "time": "Closed"}], "id": "9503000096", "name": "USPS COLLECTION BOX - APC", "address": {"city": "MONTE SERENO", "state": "CA", "street": "101 S SANTA CRUZ AVE", "postcode": "95030"}}},
{"geometry": {"type": "Point", "coordinates": [-121.9846780449, 37.2212930621]}, "type": "Feature", "properties": {"collection_times": [{"days": "Mon-Fri", "time": "6:00pm"}, {"days": "Sat", "time": "5:00pm"}, {"days": "Sun", "time": "Closed"}], "id": "9503000097", "name": "USPS COLLECTION BOX - APC", "address": {"city": "MONTE SERENO", "state": "CA", "street": "101 S SANTA CRUZ AVE", "postcode": "95030"}}},
{"geometry": {"type": "Point", "coordinates": [-121.9578856416, 37.243370153]}, "type": "Feature", "properties": {"collection_times": [{"days": "Mon-Sat", "time": "1:00pm"}, {"days": "Sun", "time": "Closed"}], "id": "9503200005", "name": "USPS COLLECTION BOX - BLUE BOX", "address": {"city": "LOS GATOS", "state": "CA", "street": "149 CARLTON AVE", "postcode": "95032"}}},
{"geometry": {"type": "Point", "coordinates": [-121.9620067021, 37.2353832714]}, "type": "Feature", "properties": {"collection_times": [{"days": "Mon-Fri", "time": "3:00pm"}, {"days": "Sat", "time": "2:30pm"}, {"days": "Sun", "time": "Closed"}], "id": "9503200006", "name": "USPS COLLECTION BOX - BLUE BOX", "address": {"city": "LOS GATOS", "state": "CA", "street": "734 BLOSSOM HILL RD", "postcode": "95032"}}},
{"geometry": {"type": "Point", "coordinates": [-121.9601451791, 37.241417421]}, "type": "Feature", "properties": {"collection_times": [{"days": "Mon-Fri", "time": "3:00pm"}, {"days": "Sat", "time": "2:30pm"}, {"days": "Sun", "time": "Closed"}], "id": "9503200007", "name": "USPS COLLECTION BOX - BLUE BOX", "address": {"city": "LOS GATOS", "state": "CA", "street": "15690 LOS GATOS BLVD", "postcode": "95032"}}},
{"geometry": {"type": "Point", "coordinates": [-121.9601451791, 37.241417421]}, "type": "Feature", "properties": {"collection_times": [{"days": "Mon-Fri", "time": "3:00pm"}, {"days": "Sat", "time": "2:30pm"}, {"days": "Sun", "time": "Closed"}], "id": "9503200008", "name": "USPS COLLECTION BOX - BLUE BOX", "address": {"city": "LOS GATOS", "state": "CA", "street": "15690 LOS GATOS BLVD", "postcode": "95032"}}},
{"geometry": {"type": "Point", "coordinates": [-121.9487276966, 37.2578542964]}, "type": "Feature", "properties": {"collection_times": [{"days": "Mon-Fri", "time": "3:00pm"}, {"days": "Sat", "time": "1:00pm"}, {"days": "Sun", "time": "Closed"}], "id": "9503200011", "name": "USPS COLLECTION BOX - BLUE BOX", "address": {"city": "LOS GATOS", "state": "CA", "street": "14501 S BASCOM AVE", "postcode": "95032"}}},
{"geometry": {"type": "Point", "coordinates": [-121.9505407986, 37.255662759]}, "type": "Feature", "properties": {"collection_times": [{"days": "Mon-Fri", "time": "3:00pm"}, {"days": "Sat", "time": "1:00pm"}, {"days": "Sun", "time": "Closed"}], "id": "9503200012", "name": "USPS COLLECTION BOX - BLUE BOX", "address": {"city": "LOS GATOS", "state": "CA", "street": "14651 S BASCOM AVE", "postcode": "95032"}}},
{"geometry": {"type": "Point", "coordinates": [-121.9620067021, 37.2353832714]}, "type": "Feature", "properties": {"collection_times": [{"days": "Mon-Fri", "time": "3:00pm"}, {"days": "Sat", "time": "2:30pm"}, {"days": "Sun", "time": "Closed"}], "id": "9503200017", "name": "USPS COLLECTION BOX - BLUE BOX", "address": {"city": "LOS GATOS", "state": "CA", "street": "734 BLOSSOM HILL RD", "postcode": "95032"}}},
{"geometry": {"type": "Point", "coordinates": [-121.9622302037, 37.237745121]}, "type": "Feature", "properties": {"collection_times": [{"days": "Mon-Fri", "time": "3:00pm"}, {"days": "Sat", "time": "1:00pm"}, {"days": "Sun", "time": "Closed"}], "id": "9503200019", "name": "USPS COLLECTION BOX - BLUE BOX", "address": {"city": "LOS GATOS", "state": "CA", "street": "15879 LOS GATOS BLVD", "postcode": "95032"}}},
{"geometry": {"type": "Point", "coordinates": [-121.9723725399, 37.2260055663]}, "type": "Feature", "properties": {"collection_times": [{"days": "Mon-Fri", "time": "3:00pm"}, {"days": "Sat", "time": "1:00pm"}, {"days": "Sun", "time": "Closed"}], "id": "9503200021", "name": "USPS COLLECTION BOX - BLUE BOX", "address": {"city": "LOS GATOS", "state": "CA", "street": "401 ALBERTO WAY", "postcode": "95032"}}},
{"geometry": {"type": "Point", "coordinates": [-121.9134759047, 37.236204492]}, "type": "Feature", "properties": {"collection_times": [{"days": "Mon-Sat", "time": "1:00pm"}, {"days": "Sun", "time": "Closed"}], "id": "9503200023", "name": "USPS COLLECTION BOX - BLUE BOX", "address": {"city": "LOS GATOS", "state": "CA", "street": "14100 BLOSSOM HILL RD", "postcode": "95032"}}},
{"geometry": {"type": "Point", "coordinates": [-121.9503556735, 37.2476860595]}, "type": "Feature", "properties": {"collection_times": [{"days": "Mon-Fri", "time": "3:00pm"}, {"days": "Sat", "time": "1:00pm"}, {"days": "Sun", "time": "Closed"}], "id": "9503200024", "name": "USPS COLLECTION BOX - BLUE BOX", "address": {"city": "LOS GATOS", "state": "CA", "street": "15195 NATIONAL AVE", "postcode": "95032"}}},
{"geometry": {"type": "Point", "coordinates": [-121.9543055735, 37.2426005189]}, "type": "Feature", "properties": {"collection_times": [{"days": "Mon-Sat", "time": "1:00pm"}, {"days": "Sun", "time": "Closed"}], "id": "9503200025", "name": "USPS COLLECTION BOX - BLUE BOX", "address": {"city": "LOS GATOS", "state": "CA", "street": "102 HOLLYCREST DR", "postcode": "95032"}}},
{"geometry": {"type": "Point", "coordinates": [-121.9313099193, 37.2428115245]}, "type": "Feature", "properties": {"collection_times": [{"days": "Mon-Fri", "time": "1:00pm"}, {"days": "Sat", "time": "2:30pm"}, {"days": "Sun", "time": "Closed"}], "id": "9503200035", "name": "USPS COLLECTION BOX - BLUE BOX", "address": {"city": "LOS GATOS", "state": "CA", "street": "15549 UNION AVE", "postcode": "95032"}}},
{"geometry": {"type": "Point", "coordinates": [-121.9593556253, 37.2350662533]}, "type": "Feature", "properties": {"collection_times": [{"days": "Mon-Sat", "time": "1:00pm"}, {"days": "Sun", "time": "Closed"}], "id": "9503200037", "name": "USPS COLLECTION BOX - BLUE BOX", "address": {"city": "LOS GATOS", "state": "CA", "street": "800 BLOSSOM HILL RD", "postcode": "95032"}}},
{"geometry": {"type": "Point", "coordinates": [-121.9633315749, 37.2616066638]}, "type": "Feature", "properties": {"collection_times": [{"days": "Mon-Fri", "time": "3:00pm"}, {"days": "Sat", "time": "1:00pm"}, {"days": "Sun", "time": "Closed"}], "id": "9503200042", "name": "USPS COLLECTION BOX - BLUE BOX", "address": {"city": "LOS GATOS", "state": "CA", "street": "14205 CAPRI DR", "postcode": "95032"}}},
{"geometry": {"type": "Point", "coordinates": [-121.9647830411, 37.2543650458]}, "type": "Feature", "properties": {"collection_times": [{"days": "Mon-Sat", "time": "1:00pm"}, {"days": "Sun", "time": "Closed"}], "id": "9503200043", "name": "USPS COLLECTION BOX - BLUE BOX", "address": {"city": "LOS GATOS", "state": "CA", "street": "200 CHARTER OAKS CIR", "postcode": "95032"}}},
{"geometry": {"type": "Point", "coordinates": [-121.9703370334, 37.2622482844]}, "type": "Feature", "properties": {"collection_times": [{"days": "Mon-Fri", "time": "3:00pm"}, {"days": "Sat", "time": "1:00pm"}, {"days": "Sun", "time": "Closed"}], "id": "9503200052", "name": "USPS COLLECTION BOX - BLUE BOX", "address": {"city": "LOS GATOS", "state": "CA", "street": "815 POLLARD RD", "postcode": "95032"}}},
{"geometry": {"type": "Point", "coordinates": [-121.9578358791, 37.2427012658]}, "type": "Feature", "properties": {"collection_times": [{"days": "Mon-Sat", "time": "1:00pm"}, {"days": "Sun", "time": "Closed"}], "id": "9503200055", "name": "USPS COLLECTION BOX - BLUE BOX", "address": {"city": "LOS GATOS", "state": "CA", "street": "520 UNIVERSITY AVE", "postcode": "95032"}}},
{"geometry": {"type": "Point", "coordinates": [-121.9664297199, 37.2523315394]}, "type": "Feature", "properties": {"collection_times": [{"days": "Mon-Fri", "time": "3:00pm"}, {"days": "Sat", "time": "1:00pm"}, {"days": "Sun", "time": "Closed"}], "id": "9503200058", "name": "USPS COLLECTION BOX - BLUE BOX", "address": {"city": "LOS GATOS", "state": "CA", "street": "987 UNIVERSITY AVE", "postcode": "95032"}}},
{"geometry": {"type": "Point", "coordinates": [-121.9664297199, 37.2523315394]}, "type": "Feature", "properties": {"collection_times": [{"days": "Mon-Fri", "time": "3:00pm"}, {"days": "Sat", "time": "1:00pm"}, {"days": "Sun", "time": "Closed"}], "id": "9503200059", "name": "USPS COLLECTION BOX - BLUE BOX", "address": {"city": "LOS GATOS", "state": "CA", "street": "987 UNIVERSITY AVE", "postcode": "95032"}}},
{"geometry": {"type": "Point", "coordinates": [-121.9610753894, 37.262997293]}, "type": "Feature", "properties": {"collection_times": [{"days": "Mon-Fri", "time": "3:00pm"}, {"days": "Sat", "time": "1:00pm"}, {"days": "Sun", "time": "Closed"}], "id": "9503200061", "name": "USPS COLLECTION BOX - BLUE BOX", "address": {"city": "LOS GATOS", "state": "CA", "street": "14103 WINCHESTER BLVD", "postcode": "95032"}}},
{"geometry": {"type": "Point", "coordinates": [-121.9663016428, 37.255044098]}, "type": "Feature", "properties": {"collection_times": [{"days": "Mon-Sat", "time": "12:00pm"}, {"days": "Sun", "time": "Closed"}], "id": "9503200063", "name": "USPS COLLECTION BOX - BLUE BOX", "address": {"city": "LOS GATOS", "state": "CA", "street": "14700 WINCHESTER BLVD", "postcode": "95032"}}},
{"geometry": {"type": "Point", "coordinates": [-121.9283876654, 37.1201584753]}, "type": "Feature", "properties": {"collection_times": [{"days": "Mon-Sat", "time": "10:00am"}, {"days": "Sun", "time": "Closed"}], "id": "9503300000", "name": "USPS COLLECTION BOX - BLUE BOX", "address": {"city": "LOS GATOS", "state": "CA", "street": "24199 SUMMIT RD", "postcode": "95033"}}},
{"geometry": {"type": "Point", "coordinates": [-121.9866417568, 37.1582105923]}, "type": "Feature", "properties": {"collection_times": [{"days": "Mon-Fri", "time": "4:00pm"}, {"days": "Sat", "time": "9:00am"}, {"days": "Sun", "time": "Closed"}], "id": "9503300001", "name": "USPS COLLECTION BOX - BLUE BOX", "address": {"city": "LOS GATOS", "state": "CA", "street": "21432 BROADWAY RD", "postcode": "95033"}}},
{"geometry": {"type": "Point", "coordinates": [-121.8931356083, 37.4326077519]}, "type": "Feature", "properties": {"collection_times": [{"days": "Mon-Fri", "time": "4:15pm"}, {"days": "Sat", "time": "10:00am"}, {"days": "Sun", "time": "Closed"}], "id": "9503500001", "name": "USPS COLLECTION BOX - BLUE BOX", "address": {"city": "MILPITAS", "state": "CA", "street": "155 S HILLVIEW DR", "postcode": "95035"}}},
{"geometry": {"type": "Point", "coordinates": [-121.8753773684, 37.4173886208]}, "type": "Feature", "properties": {"collection_times": [{"days": "Mon-Sat", "time": "10:00am"}, {"days": "Sun", "time": "Closed"}], "id": "9503500004", "name": "USPS COLLECTION BOX - BLUE BOX", "address": {"city": "MILPITAS", "state": "CA", "street": "1350 S PARK VICTORIA DR", "postcode": "95035"}}},
{"geometry": {"type": "Point", "coordinates": [-121.9068145029, 37.4231342525]}, "type": "Feature", "properties": {"collection_times": [{"days": "Mon-Fri", "time": "5:00pm"}, {"days": "Sat", "time": "3:45pm"}, {"days": "Sun", "time": "Closed"}], "id": "9503500010", "name": "USPS COLLECTION BOX - BLUE BOX", "address": {"city": "MILPITAS", "state": "CA", "street": "450 S ABEL ST", "postcode": "95035"}}},
{"geometry": {"type": "Point", "coordinates": [-121.914883466, 37.4274579675]}, "type": "Feature", "properties": {"collection_times": [{"days": "Mon-Sat", "time": "10:00am"}, {"days": "Sun", "time": "Closed"}], "id": "9503500013", "name": "USPS COLLECTION BOX - BLUE BOX", "address": {"city": "MILPITAS", "state": "CA", "street": "400 VALLEY WAY", "postcode": "95035"}}},
{"geometry": {"type": "Point", "coordinates": [-121.9005625648, 37.4341144776]}, "type": "Feature", "properties": {"collection_times": [{"days": "Mon-Sat", "time": "10:00am"}, {"days": "Sun", "time": "Closed"}], "id": "9503500015", "name": "USPS COLLECTION BOX - BLUE BOX", "address": {"city": "MILPITAS", "state": "CA", "street": "45 N MILPITAS BLVD", "postcode": "95035"}}},
{"geometry": {"type": "Point", "coordinates": [-121.9035909397, 37.4464148849]}, "type": "Feature", "properties": {"collection_times": [{"days": "Mon-Sat", "time": "10:00am"}, {"days": "Sun", "time": "Closed"}], "id": "9503500020", "name": "USPS COLLECTION BOX - BLUE BOX", "address": {"city": "MILPITAS", "state": "CA", "street": "301 JACKLIN RD", "postcode": "95035"}}},
{"geometry": {"type": "Point", "coordinates": [-121.8850749825, 37.4355911104]}, "type": "Feature", "properties": {"collection_times": [{"days": "Mon-Sat", "time": "10:00am"}, {"days": "Sun", "time": "Closed"}], "id": "9503500025", "name": "USPS COLLECTION BOX - BLUE BOX", "address": {"city": "MILPITAS", "state": "CA", "street": "1251 E CALAVERAS BLVD", "postcode": "95035"}}},
{"geometry": {"type": "Point", "coordinates": [-121.887487894, 37.4478543073]}, "type": "Feature", "properties": {"collection_times": [{"days": "Mon-Sat", "time": "10:00am"}, {"days": "Sun", "time": "Closed"}], "id": "9503500028", "name": "USPS COLLECTION BOX - BLUE BOX", "address": {"city": "MILPITAS", "state": "CA", "street": "1253 JACKLIN RD", "postcode": "95035"}}},
{"geometry": {"type": "Point", "coordinates": [-121.9068145029, 37.4231342525]}, "type": "Feature", "properties": {"collection_times": [{"days": "Mon-Fri", "time": "5:00pm"}, {"days": "Sat", "time": "3:45pm"}, {"days": "Sun", "time": "Closed"}], "id": "9503500030", "name": "USPS COLLECTION BOX - BLUE BOX", "address": {"city": "MILPITAS", "state": "CA", "street": "450 S ABEL ST", "postcode": "95035"}}},
{"geometry": {"type": "Point", "coordinates": [-121.8925596175, 37.4451203102]}, "type": "Feature", "properties": {"collection_times": [{"days": "Mon-Fri", "time": "4:15pm"}, {"days": "Sat", "time": "10:00am"}, {"days": "Sun", "time": "Closed"}], "id": "9503500031", "name": "USPS COLLECTION BOX - BLUE BOX", "address": {"city": "MILPITAS", "state": "CA", "street": "830 N HILLVIEW DR", "postcode": "95035"}}},
{"geometry": {"type": "Point", "coordinates": [-121.9137528891, 37.4512287179]}, "type": "Feature", "properties": {"collection_times": [{"days": "Mon-Sat", "time": "10:00am"}, {"days": "Sun", "time": "Closed"}], "id": "9503500038", "name": "USPS COLLECTION BOX - BLUE BOX", "address": {"city": "MILPITAS", "state": "CA", "street": "1790 MILMONT DR", "postcode": "95035"}}},
{"geometry": {"type": "Point", "coordinates": [-121.9068145029, 37.4231342525]}, "type": "Feature", "properties": {"collection_times": [{"days": "Mon-Fri", "time": "5:00pm"}, {"days": "Sat", "time": "3:45pm"}, {"days": "Sun", "time": "Closed"}], "id": "9503500042", "name": "USPS COLLECTION BOX - BLUE BOX", "address": {"city": "MILPITAS", "state": "CA", "street": "450 S ABEL ST", "postcode": "95035"}}},
{"geometry": {"type": "Point", "coordinates": [-121.8931356083, 37.4326077519]}, "type": "Feature", "properties": {"collection_times": [{"days": "Mon-Fri", "time": "4:15pm"}, {"days": "Sat", "time": "10:00am"}, {"days": "Sun", "time": "Closed"}], "id": "9503500053", "name": "USPS COLLECTION BOX - BLUE BOX", "address": {"city": "MILPITAS", "state": "CA", "street": "155 S HILLVIEW DR", "postcode": "95035"}}},
{"geometry": {"type": "Point", "coordinates": [-121.9198861119, 37.4287374527]}, "type": "Feature", "properties": {"collection_times": [{"days": "Mon-Fri", "time": "10:00am"}, {"days": "Sat-Sun", "time": "Closed"}], "id": "9503500055", "name": "USPS COLLECTION BOX - BLUE BOX", "address": {"city": "MILPITAS", "state": "CA", "street": "175 RANCH DR", "postcode": "95035"}}},
{"geometry": {"type": "Point", "coordinates": [-121.9186128247, 37.4229841283]}, "type": "Feature", "properties": {"collection_times": [{"days": "Mon-Fri", "time": "10:00am"}, {"days": "Sat-Sun", "time": "Closed"}], "id": "9503500056", "name": "USPS COLLECTION BOX - BLUE BOX", "address": {"city": "MILPITAS", "state": "CA", "street": "316 BARBER CT", "postcode": "95035"}}},
{"geometry": {"type": "Point", "coordinates": [-121.8916075654, 37.4356866301]}, "type": "Feature", "properties": {"collection_times": [{"days": "Mon-Fri", "time": "4:15pm"}, {"days": "Sat-Sun", "time": "Closed"}], "id": "9503500057", "name": "USPS COLLECTION BOX - BLUE BOX", "address": {"city": "MILPITAS", "state": "CA", "street": "860 HILLVIEW CT", "postcode": "95035"}}},
{"geometry": {"type": "Point", "coordinates": [-121.8807095065, 37.427152373]}, "type": "Feature", "properties": {"collection_times": [{"days": "Mon-Sat", "time": "10:00am"}, {"days": "Sun", "time": "Closed"}], "id": "9503500059", "name": "USPS COLLECTION BOX - BLUE BOX", "address": {"city": "MILPITAS", "state": "CA", "street": "1263 YOSEMITE DR", "postcode": "95035"}}},
{"geometry": {"type": "Point", "coordinates": [-121.6454420385, 37.1207295186]}, "type": "Feature", "properties": {"collection_times": [{"days": "Mon-Fri", "time": "1:00pm"}, {"days": "Sat-Sun", "time": "Closed"}], "id": "9503700002", "name": "USPS COLLECTION BOX - BLUE BOX", "address": {"city": "MORGAN HILL", "state": "CA", "street": "16600 CHURCH ST", "postcode": "95037"}}},
{"geometry": {"type": "Point", "coordinates": [-121.6384590787, 37.1146859831]}, "type": "Feature", "properties": {"collection_times": [{"days": "Mon-Fri", "time": "12:00pm"}, {"days": "Sat-Sun", "time": "Closed"}], "id": "9503700005", "name": "USPS COLLECTION BOX - BLUE BOX", "address": {"city": "MORGAN HILL", "state": "CA", "street": "275 TENNANT AVE", "postcode": "95037"}}},
{"geometry": {"type": "Point", "coordinates": [-121.6576868937, 37.1285620917]}, "type": "Feature", "properties": {"collection_times": [{"days": "Mon-Fri", "time": "12:00pm"}, {"days": "Sat-Sun", "time": "Closed"}], "id": "9503700018", "name": "USPS COLLECTION BOX - BLUE BOX", "address": {"city": "MORGAN HILL", "state": "CA", "street": "174 W MAIN AVE", "postcode": "95037"}}},
{"geometry": {"type": "Point", "coordinates": [-121.6414271228, 37.1100203929]}, "type": "Feature", "properties": {"collection_times": [{"days": "Mon-Fri", "time": "12:00pm"}, {"days": "Sat-Sun", "time": "Closed"}], "id": "9503700026", "name": "USPS COLLECTION BOX - BLUE BOX", "address": {"city": "MORGAN HILL", "state": "CA", "street": "501 VINEYARD TOWN CTR", "postcode": "95037"}}},
{"geometry": {"type": "Point", "coordinates": [-121.647774675, 37.1215257783]}, "type": "Feature", "properties": {"collection_times": [{"days": "Mon-Fri", "time": "5:00pm"}, {"days": "Sat", "time": "1:00pm"}, {"days": "Sun", "time": "Closed"}], "id": "9503700029", "name": "USPS COLLECTION BOX - BLUE BOX", "address": {"city": "MORGAN HILL", "state": "CA", "street": "16600 MONTEREY ST", "postcode": "95037"}}},
{"geometry": {"type": "Point", "coordinates": [-121.6433274159, 37.127961437]}, "type": "Feature", "properties": {"collection_times": [{"days": "Mon-Fri", "time": "11:00am"}, {"days": "Sat-Sun", "time": "Closed"}], "id": "9503700031", "name": "USPS COLLECTION BOX - BLUE BOX", "address": {"city": "MORGAN HILL", "state": "CA", "street": "401 E DUNNE AVE", "postcode": "95037"}}},
{"geometry": {"type": "Point", "coordinates": [-121.647774675, 37.1215257783]}, "type": "Feature", "properties": {"collection_times": [{"days": "Mon-Fri", "time": "5:00pm"}, {"days": "Sat", "time": "1:00pm"}, {"days": "Sun", "time": "Closed"}], "id": "9503700036", "name": "USPS COLLECTION BOX - BLUE BOX", "address": {"city": "MORGAN HILL", "state": "CA", "street": "16600 MONTEREY ST", "postcode": "95037"}}},
{"geometry": {"type": "Point", "coordinates": [-121.647774675, 37.1215257783]}, "type": "Feature", "properties": {"collection_times": [{"days": "Mon-Fri", "time": "5:00pm"}, {"days": "Sat", "time": "1:00pm"}, {"days": "Sun", "time": "Closed"}], "id": "9503700037", "name": "USPS COLLECTION BOX - BLUE BOX", "address": {"city": "MORGAN HILL", "state": "CA", "street": "16600 MONTEREY ST", "postcode": "95037"}}},
{"geometry": {"type": "Point", "coordinates": [-121.647774675, 37.1215257783]}, "type": "Feature", "properties": {"collection_times": [{"days": "Mon-Fri", "time": "5:00pm"}, {"days": "Sat", "time": "1:00pm"}, {"days": "Sun", "time": "Closed"}], "id": "9503700038", "name": "USPS COLLECTION BOX - BLUE BOX", "address": {"city": "MORGAN HILL", "state": "CA", "street": "16600 MONTEREY ST", "postcode": "95037"}}},
{"geometry": {"type": "Point", "coordinates": [-121.6366834573, 37.1302939437]}, "type": "Feature", "properties": {"collection_times": [{"days": "Mon-Fri", "time": "1:00pm"}, {"days": "Sat-Sun", "time": "Closed"}], "id": "9503700039", "name": "USPS COLLECTION BOX - BLUE BOX", "address": {"city": "MORGAN HILL", "state": "CA", "street": "820 E DUNNE AVE", "postcode": "95037"}}},
{"geometry": {"type": "Point", "coordinates": [-121.6472375059, 37.1282407859]}, "type": "Feature", "properties": {"collection_times": [{"days": "Mon-Fri", "time": "1:30pm"}, {"days": "Sat", "time": "1:00pm"}, {"days": "Sun", "time": "Closed"}], "id": "9503700044", "name": "USPS COLLECTION BOX - EXPRESS", "address": {"city": "MORGAN HILL", "state": "CA", "street": "16600 MONTEREY ST", "postcode": "95037"}}},
{"geometry": {"type": "Point", "coordinates": [-121.647774675, 37.1215257783]}, "type": "Feature", "properties": {"collection_times": [{"days": "Mon-Fri", "time": "5:00pm"}, {"days": "Sat", "time": "1:00pm"}, {"days": "Sun", "time": "Closed"}], "id": "9503700046", "name": "USPS COLLECTION BOX - APC", "address": {"city": "MORGAN HILL", "state": "CA", "street": "16600 MONTEREY ST", "postcode": "95037"}}},
{"geometry": {"type": "Point", "coordinates": [-121.6218758334, 37.1361355069]}, "type": "Feature", "properties": {"collection_times": [{"days": "Mon-Fri", "time": "1:00pm"}, {"days": "Sat-Sun", "time": "Closed"}], "id": "9503700048", "name": "USPS COLLECTION BOX - BLUE BOX", "address": {"city": "MORGAN HILL", "state": "CA", "street": "1645 E DUNNE AVE", "postcode": "95037"}}},
{"geometry": {"type": "Point", "coordinates": [-121.6564682077, 37.1493206989]}, "type": "Feature", "properties": {"collection_times": [{"days": "Mon-Fri", "time": "11:00am"}, {"days": "Sat-Sun", "time": "Closed"}], "id": "9503700050", "name": "USPS COLLECTION BOX - BLUE BOX", "address": {"city": "MORGAN HILL", "state": "CA", "street": "18550 SUTTER BLVD", "postcode": "95037"}}},
{"geometry": {"type": "Point", "coordinates": [-121.7857142768, 36.7993337669]}, "type": "Feature", "properties": {"collection_times": [{"days": "Mon-Fri", "time": "4:30pm"}, {"days": "Sat", "time": "12:00pm"}, {"days": "Sun", "time": "Closed"}], "id": "9503900001", "name": "USPS COLLECTION BOX - BLUE BOX", "address": {"city": "MOSS LANDING", "state": "CA", "street": "8042 MOSS LANDING RD", "postcode": "95039"}}},
{"geometry": {"type": "Point", "coordinates": [-122.0584533263, 37.0512109125]}, "type": "Feature", "properties": {"collection_times": [{"days": "Mon-Fri", "time": "4:00pm"}, {"days": "Sat", "time": "8:30am"}, {"days": "Sun", "time": "Closed"}], "id": "9504100002", "name": "USPS COLLECTION BOX - BLUE BOX", "address": {"city": "MOUNT HERMON", "state": "CA", "street": "41 CONFERENCE DR", "postcode": "95041"}}},
{"geometry": {"type": "Point", "coordinates": [-121.2789436538, 36.7282440462]}, "type": "Feature", "properties": {"collection_times": [{"days": "Mon-Fri", "time": "3:30pm"}, {"days": "Sat", "time": "10:30am"}, {"days": "Sun", "time": "Closed"}], "id": "9504300001", "name": "USPS COLLECTION BOX - BLUE BOX", "address": {"city": "PAICINES", "state": "CA", "street": "12261 AIRLINE HWY", "postcode": "95043"}}},
{"geometry": {"type": "Point", "coordinates": [-121.5340452057, 36.8415502217]}, "type": "Feature", "properties": {"collection_times": [{"days": "Mon-Fri", "time": "4:15pm"}, {"days": "Sat", "time": "12:00pm"}, {"days": "Sun", "time": "Closed"}], "id": "9504500001", "name": "USPS COLLECTION BOX - BLUE BOX", "address": {"city": "SN JUN BATSTA", "state": "CA", "street": "301 THE ALAMEDA", "postcode": "95045"}}},
{"geometry": {"type": "Point", "coordinates": [-121.5362633023, 36.845189795]}, "type": "Feature", "properties": {"collection_times": [{"days": "Mon-Sat", "time": "12:00pm"}, {"days": "Sun", "time": "Closed"}], "id": "9504500004", "name": "USPS COLLECTION BOX - BLUE BOX", "address": {"city": "SN JUN BATSTA", "state": "CA", "street": "311 2ND ST", "postcode": "95045"}}},
{"geometry": {"type": "Point", "coordinates": [-121.5340452057, 36.8415502217]}, "type": "Feature", "properties": {"collection_times": [{"days": "Mon-Fri", "time": "4:15pm"}, {"days": "Sat", "time": "12:00pm"}, {"days": "Sun", "time": "Closed"}], "id": "9504500006", "name": "USPS COLLECTION BOX - PO LOBBY", "address": {"city": "SN JUN BATSTA", "state": "CA", "street": "301 THE ALAMEDA", "postcode": "95045"}}},
{"geometry": {"type": "Point", "coordinates": [-121.5340452057, 36.8415502217]}, "type": "Feature", "properties": {"collection_times": [{"days": "Mon-Fri", "time": "4:15pm"}, {"days": "Sat", "time": "12:00pm"}, {"days": "Sun", "time": "Closed"}], "id": "9504500007", "name": "USPS COLLECTION BOX - PO LOBBY", "address": {"city": "SN JUN BATSTA", "state": "CA", "street": "301 THE ALAMEDA", "postcode": "95045"}}},
{"geometry": {"type": "Point", "coordinates": [-121.6067273937, 37.0860314519]}, "type": "Feature", "properties": {"collection_times": [{"days": "Mon-Fri", "time": "5:00pm"}, {"days": "Sat", "time": "11:00am"}, {"days": "Sun", "time": "Closed"}], "id": "9504600003", "name": "USPS COLLECTION BOX - BLUE BOX", "address": {"city": "SAN MARTIN", "state": "CA", "street": "200 E SAN MARTIN AVE", "postcode": "95046"}}},
{"geometry": {"type": "Point", "coordinates": [-121.9475496949, 37.34923244]}, "type": "Feature", "properties": {"collection_times": [{"days": "Mon-Fri", "time": "5:00pm"}, {"days": "Sat", "time": "1:00pm"}, {"days": "Sun", "time": "Closed"}], "id": "9505000001", "name": "USPS COLLECTION BOX - BLUE BOX", "address": {"city": "SANTA CLARA", "state": "CA", "street": "1200 FRANKLIN MALL", "postcode": "95050"}}},
{"geometry": {"type": "Point", "coordinates": [-121.9475496949, 37.34923244]}, "type": "Feature", "properties": {"collection_times": [{"days": "Mon-Fri", "time": "5:00pm"}, {"days": "Sat", "time": "1:00pm"}, {"days": "Sun", "time": "Closed"}], "id": "9505000002", "name": "USPS COLLECTION BOX - BLUE BOX", "address": {"city": "SANTA CLARA", "state": "CA", "street": "1200 FRANKLIN MALL", "postcode": "95050"}}},
{"geometry": {"type": "Point", "coordinates": [-121.9475496949, 37.34923244]}, "type": "Feature", "properties": {"collection_times": [{"days": "Mon-Fri", "time": "5:00pm"}, {"days": "Sat", "time": "1:00pm"}, {"days": "Sun", "time": "Closed"}], "id": "9505000003", "name": "USPS COLLECTION BOX - BLUE BOX", "address": {"city": "SANTA CLARA", "state": "CA", "street": "1200 FRANKLIN MALL", "postcode": "95050"}}},
{"geometry": {"type": "Point", "coordinates": [-121.9373809104, 37.3455594515]}, "type": "Feature", "properties": {"collection_times": [{"days": "Mon-Fri", "time": "1:00pm"}, {"days": "Sat-Sun", "time": "Closed"}], "id": "9505000018", "name": "USPS COLLECTION BOX - BLUE BOX", "address": {"city": "SANTA CLARA", "state": "CA", "street": "2905 PARK AVE", "postcode": "95050"}}},
{"geometry": {"type": "Point", "coordinates": [-121.9657691335, 37.3283187457]}, "type": "Feature", "properties": {"collection_times": [{"days": "Mon-Fri", "time": "3:00pm"}, {"days": "Sat-Sun", "time": "Closed"}], "id": "9505000034", "name": "USPS COLLECTION BOX - BLUE BOX", "address": {"city": "SANTA CLARA", "state": "CA", "street": "222 SARATOGA AVE", "postcode": "95050"}}},
{"geometry": {"type": "Point", "coordinates": [-121.9461526203, 37.3234510324]}, "type": "Feature", "properties": {"collection_times": [{"days": "Mon-Fri", "time": "3:00pm"}, {"days": "Sat-Sun", "time": "Closed"}], "id": "9505000037", "name": "USPS COLLECTION BOX - BLUE BOX", "address": {"city": "SANTA CLARA", "state": "CA", "street": "2855 STEVENS CREEK BLVD", "postcode": "95050"}}},
{"geometry": {"type": "Point", "coordinates": [-121.9502845839, 37.3292050885]}, "type": "Feature", "properties": {"collection_times": [{"days": "Mon-Fri", "time": "3:00pm"}, {"days": "Sat-Sun", "time": "Closed"}], "id": "9505000038", "name": "USPS COLLECTION BOX - BLUE BOX", "address": {"city": "SANTA CLARA", "state": "CA", "street": "200 N WINCHESTER BLVD", "postcode": "95050"}}},
{"geometry": {"type": "Point", "coordinates": [-121.9461526203, 37.3234510324]}, "type": "Feature", "properties": {"collection_times": [{"days": "Mon-Fri", "time": "3:00pm"}, {"days": "Sat-Sun", "time": "Closed"}], "id": "9505000069", "name": "USPS COLLECTION BOX - BLUE BOX", "address": {"city": "SANTA CLARA", "state": "CA", "street": "2855 STEVENS CREEK BLVD", "postcode": "95050"}}},
{"geometry": {"type": "Point", "coordinates": [-121.9556624423, 37.3698656263]}, "type": "Feature", "properties": {"collection_times": [{"days": "Mon-Fri", "time": "5:00pm"}, {"days": "Sat", "time": "12:00pm"}, {"days": "Sun", "time": "Closed"}], "id": "9505000080", "name": "USPS COLLECTION BOX - BLUE BOX", "address": {"city": "SANTA CLARA", "state": "CA", "street": "1451 WALSH AVE", "postcode": "95050"}}},
{"geometry": {"type": "Point", "coordinates": [-121.962785188, 37.3694638101]}, "type": "Feature", "properties": {"collection_times": [{"days": "Mon-Fri", "time": "2:00pm"}, {"days": "Sat-Sun", "time": "Closed"}], "id": "9505000091", "name": "USPS COLLECTION BOX - BLUE BOX", "address": {"city": "SANTA CLARA", "state": "CA", "street": "2060 WALSH AVE", "postcode": "95050"}}},
{"geometry": {"type": "Point", "coordinates": [-121.9595508136, 37.3543582012]}, "type": "Feature", "properties": {"collection_times": [{"days": "Mon-Fri", "time": "12:00pm"}, {"days": "Sat-Sun", "time": "Closed"}], "id": "9505000095", "name": "USPS COLLECTION BOX - BLUE BOX", "address": {"city": "SANTA CLARA", "state": "CA", "street": "1659 SCOTT BLVD", "postcode": "95050"}}},
{"geometry": {"type": "Point", "coordinates": [-121.9360655292, 37.3570861046]}, "type": "Feature", "properties": {"collection_times": [{"days": "Mon-Fri", "time": "2:00pm"}, {"days": "Sat-Sun", "time": "Closed"}], "id": "9505000098", "name": "USPS COLLECTION BOX - BLUE BOX", "address": {"city": "SANTA CLARA", "state": "CA", "street": "1400 COLEMAN AVE", "postcode": "95050"}}},
{"geometry": {"type": "Point", "coordinates": [-121.9475496949, 37.34923244]}, "type": "Feature", "properties": {"collection_times": [{"days": "Mon-Fri", "time": "5:00pm"}, {"days": "Sat", "time": "1:00pm"}, {"days": "Sun", "time": "Closed"}], "id": "9505000100", "name": "USPS COLLECTION BOX - APC", "address": {"city": "SANTA CLARA", "state": "CA", "street": "1200 FRANKLIN MALL", "postcode": "95050"}}},
{"geometry": {"type": "Point", "coordinates": [-121.9842214228, 37.3231091572]}, "type": "Feature", "properties": {"collection_times": [{"days": "Mon-Fri", "time": "3:00pm"}, {"days": "Sat", "time": "12:00pm"}, {"days": "Sun", "time": "Closed"}], "id": "9505100029", "name": "USPS COLLECTION BOX - BLUE BOX", "address": {"city": "SANTA CLARA", "state": "CA", "street": "4675 STEVENS CREEK BLVD", "postcode": "95051"}}},
{"geometry": {"type": "Point", "coordinates": [-121.9750356561, 37.3522347453]}, "type": "Feature", "properties": {"collection_times": [{"days": "Mon-Fri", "time": "3:00pm"}, {"days": "Sat", "time": "12:00pm"}, {"days": "Sun", "time": "Closed"}], "id": "9505100034", "name": "USPS COLLECTION BOX - BLUE BOX", "address": {"city": "SANTA CLARA", "state": "CA", "street": "2690 EL CAMINO REAL", "postcode": "95051"}}},
{"geometry": {"type": "Point", "coordinates": [-121.9745557634, 37.3390076071]}, "type": "Feature", "properties": {"collection_times": [{"days": "Mon-Fri", "time": "3:00pm"}, {"days": "Sat", "time": "12:00pm"}, {"days": "Sun", "time": "Closed"}], "id": "9505100046", "name": "USPS COLLECTION BOX - BLUE BOX", "address": {"city": "SANTA CLARA", "state": "CA", "street": "2700 HOMESTEAD RD", "postcode": "95051"}}},
{"geometry": {"type": "Point", "coordinates": [-121.9943769795, 37.3378710106]}, "type": "Feature", "properties": {"collection_times": [{"days": "Mon-Fri", "time": "3:00pm"}, {"days": "Sat", "time": "12:00pm"}, {"days": "Sun", "time": "Closed"}], "id": "9505100057", "name": "USPS COLLECTION BOX - BLUE BOX", "address": {"city": "SANTA CLARA", "state": "CA", "street": "3577 HOMESTEAD RD", "postcode": "95051"}}},
{"geometry": {"type": "Point", "coordinates": [-121.9958357156, 37.335042755]}, "type": "Feature", "properties": {"collection_times": [{"days": "Mon-Fri", "time": "3:00pm"}, {"days": "Sat", "time": "12:00pm"}, {"days": "Sun", "time": "Closed"}], "id": "9505100058", "name": "USPS COLLECTION BOX - BLUE BOX", "address": {"city": "SANTA CLARA", "state": "CA", "street": "710 LAWRENCE EXPY", "postcode": "95051"}}},
{"geometry": {"type": "Point", "coordinates": [-121.9776406221, 37.345342871]}, "type": "Feature", "properties": {"collection_times": [{"days": "Mon-Fri", "time": "5:00pm"}, {"days": "Sat", "time": "4:00pm"}, {"days": "Sun", "time": "Closed"}], "id": "9505100065", "name": "USPS COLLECTION BOX - BLUE BOX", "address": {"city": "SANTA CLARA", "state": "CA", "street": "1050 KIELY BLVD", "postcode": "95051"}}},
{"geometry": {"type": "Point", "coordinates": [-121.9776406221, 37.345342871]}, "type": "Feature", "properties": {"collection_times": [{"days": "Mon-Fri", "time": "5:00pm"}, {"days": "Sat", "time": "4:00pm"}, {"days": "Sun", "time": "Closed"}], "id": "9505100066", "name": "USPS COLLECTION BOX - BLUE BOX", "address": {"city": "SANTA CLARA", "state": "CA", "street": "1050 KIELY BLVD", "postcode": "95051"}}},
{"geometry": {"type": "Point", "coordinates": [-121.9776406221, 37.345342871]}, "type": "Feature", "properties": {"collection_times": [{"days": "Mon-Fri", "time": "5:00pm"}, {"days": "Sat", "time": "4:00pm"}, {"days": "Sun", "time": "Closed"}], "id": "9505100082", "name": "USPS COLLECTION BOX - BLUE BOX", "address": {"city": "SANTA CLARA", "state": "CA", "street": "1050 KIELY BLVD", "postcode": "95051"}}},
{"geometry": {"type": "Point", "coordinates": [-121.9776406221, 37.345342871]}, "type": "Feature", "properties": {"collection_times": [{"days": "Mon-Fri", "time": "5:00pm"}, {"days": "Sat", "time": "4:00pm"}, {"days": "Sun", "time": "Closed"}], "id": "9505100091", "name": "USPS COLLECTION BOX - APC", "address": {"city": "SANTA CLARA", "state": "CA", "street": "1050 KIELY BLVD", "postcode": "95051"}}},
{"geometry": {"type": "Point", "coordinates": [-121.9426179389, 37.3811131841]}, "type": "Feature", "properties": {"collection_times": [{"days": "Mon-Fri", "time": "1:00pm"}, {"days": "Sat-Sun", "time": "Closed"}], "id": "9505400006", "name": "USPS COLLECTION BOX - BLUE BOX", "address": {"city": "SANTA CLARA", "state": "CA", "street": "3193 BELICK ST", "postcode": "95054"}}},
{"geometry": {"type": "Point", "coordinates": [-121.9597370612, 37.3755829565]}, "type": "Feature", "properties": {"collection_times": [{"days": "Mon-Fri", "time": "2:00pm"}, {"days": "Sat-Sun", "time": "Closed"}], "id": "9505400021", "name": "USPS COLLECTION BOX - BLUE BOX", "address": {"city": "SANTA CLARA", "state": "CA", "street": "3000 SCOTT BLVD", "postcode": "95054"}}},
{"geometry": {"type": "Point", "coordinates": [-121.9776548176, 37.4062108415]}, "type": "Feature", "properties": {"collection_times": [{"days": "Mon-Fri", "time": "1:00pm"}, {"days": "Sat-Sun", "time": "Closed"}], "id": "9505400030", "name": "USPS COLLECTION BOX - BLUE BOX", "address": {"city": "SANTA CLARA", "state": "CA", "street": "5201 GREAT AMERICA PKWY", "postcode": "95054"}}},
{"geometry": {"type": "Point", "coordinates": [-121.9644072818, 37.3841475352]}, "type": "Feature", "properties": {"collection_times": [{"days": "Mon-Fri", "time": "1:00pm"}, {"days": "Sat-Sun", "time": "Closed"}], "id": "9505400032", "name": "USPS COLLECTION BOX - BLUE BOX", "address": {"city": "SANTA CLARA", "state": "CA", "street": "3600 JULIETTE LN", "postcode": "95054"}}},
{"geometry": {"type": "Point", "coordinates": [-121.9716690452, 37.3858840576]}, "type": "Feature", "properties": {"collection_times": [{"days": "Mon-Fri", "time": "1:00pm"}, {"days": "Sat-Sun", "time": "Closed"}], "id": "9505400042", "name": "USPS COLLECTION BOX - BLUE BOX", "address": {"city": "SANTA CLARA", "state": "CA", "street": "3945 FREEDOM CIR", "postcode": "95054"}}},
{"geometry": {"type": "Point", "coordinates": [-121.9612673276, 37.3989780981]}, "type": "Feature", "properties": {"collection_times": [{"days": "Mon-Fri", "time": "5:00pm"}, {"days": "Sat", "time": "3:15pm"}, {"days": "Sun", "time": "Closed"}], "id": "9505400046", "name": "USPS COLLECTION BOX - BLUE BOX", "address": {"city": "SANTA CLARA", "state": "CA", "street": "4601 LAFAYETTE ST", "postcode": "95054"}}},
{"geometry": {"type": "Point", "coordinates": [-122.0266931985, 36.9765826217]}, "type": "Feature", "properties": {"collection_times": [{"days": "Mon-Sat", "time": "6:00pm"}, {"days": "Sun", "time": "Closed"}], "id": "9506000014", "name": "USPS COLLECTION BOX - BLUE BOX", "address": {"city": "SANTA CRUZ", "state": "CA", "street": "850 FRONT ST", "postcode": "95060"}}},
{"geometry": {"type": "Point", "coordinates": [-122.0266931985, 36.9765826217]}, "type": "Feature", "properties": {"collection_times": [{"days": "Mon-Sat", "time": "6:00pm"}, {"days": "Sun", "time": "Closed"}], "id": "9506000016", "name": "USPS COLLECTION BOX - BLUE BOX", "address": {"city": "SANTA CRUZ", "state": "CA", "street": "850 FRONT ST", "postcode": "95060"}}},
{"geometry": {"type": "Point", "coordinates": [-122.0260040179, 36.9759342424]}, "type": "Feature", "properties": {"collection_times": [{"days": "Mon-Sat", "time": "5:30pm"}, {"days": "Sun", "time": "Closed"}], "id": "9506000017", "name": "USPS COLLECTION BOX - BLUE BOX", "address": {"city": "SANTA CRUZ", "state": "CA", "street": "820 FRONT ST", "postcode": "95060"}}},
{"geometry": {"type": "Point", "coordinates": [-122.0260040179, 36.9759342424]}, "type": "Feature", "properties": {"collection_times": [{"days": "Mon-Sat", "time": "5:30pm"}, {"days": "Sun", "time": "Closed"}], "id": "9506000018", "name": "USPS COLLECTION BOX - BLUE BOX", "address": {"city": "SANTA CRUZ", "state": "CA", "street": "820 FRONT ST", "postcode": "95060"}}},
{"geometry": {"type": "Point", "coordinates": [-122.0200739468, 36.9641792543]}, "type": "Feature", "properties": {"collection_times": [{"days": "Mon-Fri", "time": "1:00pm"}, {"days": "Sat-Sun", "time": "Closed"}], "id": "9506000019", "name": "USPS COLLECTION BOX - BLUE BOX", "address": {"city": "SANTA CRUZ", "state": "CA", "street": "400 BEACH ST", "postcode": "95060"}}},
{"geometry": {"type": "Point", "coordinates": [-122.029596816, 36.973912449]}, "type": "Feature", "properties": {"collection_times": [{"days": "Mon-Fri", "time": "1:00pm"}, {"days": "Sat-Sun", "time": "Closed"}], "id": "9506000022", "name": "USPS COLLECTION BOX - BLUE BOX", "address": {"city": "SANTA CRUZ", "state": "CA", "street": "323 CHURCH ST", "postcode": "95060"}}},
{"geometry": {"type": "Point", "coordinates": [-122.0284853813, 36.9760597538]}, "type": "Feature", "properties": {"collection_times": [{"days": "Mon-Fri", "time": "12:00pm"}, {"days": "Sat-Sun", "time": "Closed"}], "id": "9506000023", "name": "USPS COLLECTION BOX - BLUE BOX", "address": {"city": "SANTA CRUZ", "state": "CA", "street": "1025 CENTER ST", "postcode": "95060"}}},
{"geometry": {"type": "Point", "coordinates": [-122.029596816, 36.973912449]}, "type": "Feature", "properties": {"collection_times": [{"days": "Mon-Fri", "time": "1:00pm"}, {"days": "Sat-Sun", "time": "Closed"}], "id": "9506000025", "name": "USPS COLLECTION BOX - BLUE BOX", "address": {"city": "SANTA CRUZ", "state": "CA", "street": "323 CHURCH ST", "postcode": "95060"}}},
{"geometry": {"type": "Point", "coordinates": [-122.0260334133, 36.9735659405]}, "type": "Feature", "properties": {"collection_times": [{"days": "Mon-Sat", "time": "1:00pm"}, {"days": "Sun", "time": "Closed"}], "id": "9506000027", "name": "USPS COLLECTION BOX - BLUE BOX", "address": {"city": "SANTA CRUZ", "state": "CA", "street": "100 WALNUT AVE", "postcode": "95060"}}},
{"geometry": {"type": "Point", "coordinates": [-122.0251636326, 36.9704951148]}, "type": "Feature", "properties": {"collection_times": [{"days": "Mon-Sat", "time": "1:00pm"}, {"days": "Sun", "time": "Closed"}], "id": "9506000031", "name": "USPS COLLECTION BOX - BLUE BOX", "address": {"city": "SANTA CRUZ", "state": "CA", "street": "903 PACIFIC AVE", "postcode": "95060"}}},
{"geometry": {"type": "Point", "coordinates": [-122.0487079526, 36.9567320532]}, "type": "Feature", "properties": {"collection_times": [{"days": "Mon-Sat", "time": "12:00pm"}, {"days": "Sun", "time": "Closed"}], "id": "9506000037", "name": "USPS COLLECTION BOX - BLUE BOX", "address": {"city": "SANTA CRUZ", "state": "CA", "street": "511A SWIFT ST", "postcode": "95060"}}},
{"geometry": {"type": "Point", "coordinates": [-122.0405691288, 36.9814100151]}, "type": "Feature", "properties": {"collection_times": [{"days": "Mon-Fri", "time": "12:00pm"}, {"days": "Sat-Sun", "time": "Closed"}], "id": "9506000038", "name": "USPS COLLECTION BOX - BLUE BOX", "address": {"city": "SANTA CRUZ", "state": "CA", "street": "345 ENCINAL ST", "postcode": "95060"}}},
{"geometry": {"type": "Point", "coordinates": [-122.0190094212, 36.98022616]}, "type": "Feature", "properties": {"collection_times": [{"days": "Mon-Sat", "time": "12:00pm"}, {"days": "Sun", "time": "Closed"}], "id": "9506000043", "name": "USPS COLLECTION BOX - BLUE BOX", "address": {"city": "SANTA CRUZ", "state": "CA", "street": "550 WATER ST", "postcode": "95060"}}},
{"geometry": {"type": "Point", "coordinates": [-122.0355417316, 36.9722731022]}, "type": "Feature", "properties": {"collection_times": [{"days": "Mon-Sat", "time": "12:00pm"}, {"days": "Sun", "time": "Closed"}], "id": "9506000048", "name": "USPS COLLECTION BOX - BLUE BOX", "address": {"city": "SANTA CRUZ", "state": "CA", "street": "903 MISSION ST", "postcode": "95060"}}},
{"geometry": {"type": "Point", "coordinates": [-122.0506699151, 36.9771936211]}, "type": "Feature", "properties": {"collection_times": [{"days": "Mon-Sat", "time": "12:00pm"}, {"days": "Sun", "time": "Closed"}], "id": "9506000053", "name": "USPS COLLECTION BOX - BLUE BOX", "address": {"city": "SANTA CRUZ", "state": "CA", "street": "1099 HIGH ST", "postcode": "95060"}}},
{"geometry": {"type": "Point", "coordinates": [-122.0478539685, 36.9611580197]}, "type": "Feature", "properties": {"collection_times": [{"days": "Mon-Sat", "time": "12:00pm"}, {"days": "Sun", "time": "Closed"}], "id": "9506000057", "name": "USPS COLLECTION BOX - BLUE BOX", "address": {"city": "SANTA CRUZ", "state": "CA", "street": "2404 MISSION ST", "postcode": "95060"}}},
{"geometry": {"type": "Point", "coordinates": [-122.0435831921, 36.9606217403]}, "type": "Feature", "properties": {"collection_times": [{"days": "Mon-Sat", "time": "12:00pm"}, {"days": "Sun", "time": "Closed"}], "id": "9506000062", "name": "USPS COLLECTION BOX - BLUE BOX", "address": {"city": "SANTA CRUZ", "state": "CA", "street": "849 ALMAR AVE", "postcode": "95060"}}},
{"geometry": {"type": "Point", "coordinates": [-122.0417617298, 36.9649446714]}, "type": "Feature", "properties": {"collection_times": [{"days": "Mon-Sat", "time": "1:00pm"}, {"days": "Sun", "time": "Closed"}], "id": "9506000071", "name": "USPS COLLECTION BOX - BLUE BOX", "address": {"city": "SANTA CRUZ", "state": "CA", "street": "1700 MISSION ST", "postcode": "95060"}}},
{"geometry": {"type": "Point", "coordinates": [-122.0269156108, 36.9666586447]}, "type": "Feature", "properties": {"collection_times": [{"days": "Mon-Sat", "time": "1:00pm"}, {"days": "Sun", "time": "Closed"}], "id": "9506000078", "name": "USPS COLLECTION BOX - BLUE BOX", "address": {"city": "SANTA CRUZ", "state": "CA", "street": "155 CENTER ST", "postcode": "95060"}}},
{"geometry": {"type": "Point", "coordinates": [-122.0260334133, 36.9735659405]}, "type": "Feature", "properties": {"collection_times": [{"days": "Mon-Sat", "time": "1:00pm"}, {"days": "Sun", "time": "Closed"}], "id": "9506000080", "name": "USPS COLLECTION BOX - BLUE BOX", "address": {"city": "SANTA CRUZ", "state": "CA", "street": "100 WALNUT AVE", "postcode": "95060"}}},
{"geometry": {"type": "Point", "coordinates": [-122.0260040179, 36.9759342424]}, "type": "Feature", "properties": {"collection_times": [{"days": "Mon-Sat", "time": "5:30pm"}, {"days": "Sun", "time": "Closed"}], "id": "9506000081", "name": "USPS COLLECTION BOX - BLUE BOX", "address": {"city": "SANTA CRUZ", "state": "CA", "street": "820 FRONT ST", "postcode": "95060"}}},
{"geometry": {"type": "Point", "coordinates": [-122.0218314169, 36.9985626177]}, "type": "Feature", "properties": {"collection_times": [{"days": "Mon-Fri", "time": "12:00pm"}, {"days": "Sat-Sun", "time": "Closed"}], "id": "9506000083", "name": "USPS COLLECTION BOX - BLUE BOX", "address": {"city": "SANTA CRUZ", "state": "CA", "street": "555 HIGHWAY 17", "postcode": "95060"}}},
{"geometry": {"type": "Point", "coordinates": [-122.0213371656, 36.9739238279]}, "type": "Feature", "properties": {"collection_times": [{"days": "Mon-Sat", "time": "12:00pm"}, {"days": "Sun", "time": "Closed"}], "id": "9506000084", "name": "USPS COLLECTION BOX - BLUE BOX", "address": {"city": "SANTA CRUZ", "state": "CA", "street": "100 DAKOTA AVE", "postcode": "95060"}}},
{"geometry": {"type": "Point", "coordinates": [-122.0266931985, 36.9765826217]}, "type": "Feature", "properties": {"collection_times": [{"days": "Mon-Sat", "time": "6:00pm"}, {"days": "Sun", "time": "Closed"}], "id": "9506000085", "name": "USPS COLLECTION BOX - APC", "address": {"city": "SANTA CRUZ", "state": "CA", "street": "850 FRONT ST", "postcode": "95060"}}},
{"geometry": {"type": "Point", "coordinates": [-122.0158856854, 36.97697773]}, "type": "Feature", "properties": {"collection_times": [{"days": "Mon-Fri", "time": "12:00pm"}, {"days": "Sat-Sun", "time": "Closed"}], "id": "9506200003", "name": "USPS COLLECTION BOX - BLUE BOX", "address": {"city": "SANTA CRUZ", "state": "CA", "street": "700 SOQUEL AVE", "postcode": "95062"}}},
{"geometry": {"type": "Point", "coordinates": [-122.0170426193, 36.9761094381]}, "type": "Feature", "properties": {"collection_times": [{"days": "Mon-Sat", "time": "12:00pm"}, {"days": "Sun", "time": "Closed"}], "id": "9506200004", "name": "USPS COLLECTION BOX - BLUE BOX", "address": {"city": "SANTA CRUZ", "state": "CA", "street": "555 SOQUEL AVE", "postcode": "95062"}}},
{"geometry": {"type": "Point", "coordinates": [-121.9908817641, 36.9635573914]}, "type": "Feature", "properties": {"collection_times": [{"days": "Mon-Sat", "time": "12:00pm"}, {"days": "Sun", "time": "Closed"}], "id": "9506200024", "name": "USPS COLLECTION BOX - BLUE BOX", "address": {"city": "SANTA CRUZ", "state": "CA", "street": "21509 E CLIFF DR", "postcode": "95062"}}},
{"geometry": {"type": "Point", "coordinates": [-121.9684195821, 36.9633786612]}, "type": "Feature", "properties": {"collection_times": [{"days": "Mon-Fri", "time": "3:00pm"}, {"days": "Sat", "time": "1:00pm"}, {"days": "Sun", "time": "Closed"}], "id": "9506200028", "name": "USPS COLLECTION BOX - BLUE BOX", "address": {"city": "SANTA CRUZ", "state": "CA", "street": "3702 PORTOLA DR", "postcode": "95062"}}},
{"geometry": {"type": "Point", "coordinates": [-121.9843681402, 36.9712300082]}, "type": "Feature", "properties": {"collection_times": [{"days": "Mon-Sat", "time": "12:00pm"}, {"days": "Sun", "time": "Closed"}], "id": "9506200039", "name": "USPS COLLECTION BOX - BLUE BOX", "address": {"city": "SANTA CRUZ", "state": "CA", "street": "1212 17TH AVE", "postcode": "95062"}}},
{"geometry": {"type": "Point", "coordinates": [-121.9662593738, 36.9819745486]}, "type": "Feature", "properties": {"collection_times": [{"days": "Mon-Fri", "time": "3:00pm"}, {"days": "Sat", "time": "1:00pm"}, {"days": "Sun", "time": "Closed"}], "id": "9506200045", "name": "USPS COLLECTION BOX - BLUE BOX", "address": {"city": "SANTA CRUZ", "state": "CA", "street": "9000 SOQUEL AVE", "postcode": "95062"}}},
{"geometry": {"type": "Point", "coordinates": [-122.0106161683, 36.9797649481]}, "type": "Feature", "properties": {"collection_times": [{"days": "Mon-Fri", "time": "5:00pm"}, {"days": "Sat", "time": "2:00pm"}, {"days": "Sun", "time": "Closed"}], "id": "9506200051", "name": "USPS COLLECTION BOX - APC", "address": {"city": "SANTA CRUZ", "state": "CA", "street": "1146 SOQUEL AVE", "postcode": "95062"}}},
{"geometry": {"type": "Point", "coordinates": [-122.0106161683, 36.9797649481]}, "type": "Feature", "properties": {"collection_times": [{"days": "Mon-Fri", "time": "5:00pm"}, {"days": "Sat", "time": "2:00pm"}, {"days": "Sun", "time": "Closed"}], "id": "9506200052", "name": "USPS COLLECTION BOX - BLUE BOX", "address": {"city": "SANTA CRUZ", "state": "CA", "street": "1146 SOQUEL AVE", "postcode": "95062"}}},
{"geometry": {"type": "Point", "coordinates": [-122.0106161683, 36.9797649481]}, "type": "Feature", "properties": {"collection_times": [{"days": "Mon-Fri", "time": "5:00pm"}, {"days": "Sat", "time": "2:00pm"}, {"days": "Sun", "time": "Closed"}], "id": "9506200053", "name": "USPS COLLECTION BOX - BLUE BOX", "address": {"city": "SANTA CRUZ", "state": "CA", "street": "1146 SOQUEL AVE", "postcode": "95062"}}},
{"geometry": {"type": "Point", "coordinates": [-122.0575581003, 36.9820313509]}, "type": "Feature", "properties": {"collection_times": [{"days": "Mon-Fri", "time": "10:30am"}, {"days": "Sat-Sun", "time": "Closed"}], "id": "9506400000", "name": "USPS COLLECTION BOX - BLUE BOX", "address": {"city": "SANTA CRUZ", "state": "CA", "street": "524 HAGAR CT", "postcode": "95064"}}},
{"geometry": {"type": "Point", "coordinates": [-122.0575581003, 36.9820313509]}, "type": "Feature", "properties": {"collection_times": [{"days": "Mon-Fri", "time": "12:00pm"}, {"days": "Sat-Sun", "time": "Closed"}], "id": "9506400006", "name": "USPS COLLECTION BOX - BLUE BOX", "address": {"city": "SANTA CRUZ", "state": "CA", "street": "401 HELLER DR", "postcode": "95064"}}},
{"geometry": {"type": "Point", "coordinates": [-121.9842604689, 36.9882475081]}, "type": "Feature", "properties": {"collection_times": [{"days": "Mon-Fri", "time": "3:00pm"}, {"days": "Sat", "time": "1:00pm"}, {"days": "Sun", "time": "Closed"}], "id": "9506500003", "name": "USPS COLLECTION BOX - BLUE BOX", "address": {"city": "SANTA CRUZ", "state": "CA", "street": "1555 SOQUEL DR", "postcode": "95065"}}},
{"geometry": {"type": "Point", "coordinates": [-121.9842604689, 36.9882475081]}, "type": "Feature", "properties": {"collection_times": [{"days": "Mon-Fri", "time": "3:00pm"}, {"days": "Sat", "time": "1:00pm"}, {"days": "Sun", "time": "Closed"}], "id": "9506500004", "name": "USPS COLLECTION BOX - BLUE BOX", "address": {"city": "SANTA CRUZ", "state": "CA", "street": "1555 SOQUEL DR", "postcode": "95065"}}},
{"geometry": {"type": "Point", "coordinates": [-121.9799119033, 36.9889279814]}, "type": "Feature", "properties": {"collection_times": [{"days": "Mon-Fri", "time": "3:00pm"}, {"days": "Sat-Sun", "time": "Closed"}], "id": "9506500006", "name": "USPS COLLECTION BOX - BLUE BOX", "address": {"city": "SANTA CRUZ", "state": "CA", "street": "1875 SOQUEL DR", "postcode": "95065"}}},
{"geometry": {"type": "Point", "coordinates": [-122.0282127818, 37.0488332265]}, "type": "Feature", "properties": {"collection_times": [{"days": "Mon-Sat", "time": "5:00pm"}, {"days": "Sun", "time": "Closed"}], "id": "9506600002", "name": "USPS COLLECTION BOX - BLUE BOX", "address": {"city": "SANTA CRUZ", "state": "CA", "street": "241 KINGS VILLAGE RD", "postcode": "95066"}}},
{"geometry": {"type": "Point", "coordinates": [-122.0282127818, 37.0488332265]}, "type": "Feature", "properties": {"collection_times": [{"days": "Mon-Sat", "time": "5:00pm"}, {"days": "Sun", "time": "Closed"}], "id": "9506600003", "name": "USPS COLLECTION BOX - BLUE BOX", "address": {"city": "SANTA CRUZ", "state": "CA", "street": "241 KINGS VILLAGE RD", "postcode": "95066"}}},
{"geometry": {"type": "Point", "coordinates": [-122.0282127818, 37.0488332265]}, "type": "Feature", "properties": {"collection_times": [{"days": "Mon-Sat", "time": "5:00pm"}, {"days": "Sun", "time": "Closed"}], "id": "9506600018", "name": "USPS COLLECTION BOX - BLUE BOX", "address": {"city": "SANTA CRUZ", "state": "CA", "street": "241 KINGS VILLAGE RD", "postcode": "95066"}}},
{"geometry": {"type": "Point", "coordinates": [-122.0282127818, 37.0488332265]}, "type": "Feature", "properties": {"collection_times": [{"days": "Mon-Sat", "time": "5:00pm"}, {"days": "Sun", "time": "Closed"}], "id": "9506600020", "name": "USPS COLLECTION BOX - BLUE BOX", "address": {"city": "SANTA CRUZ", "state": "CA", "street": "241 KINGS VILLAGE RD", "postcode": "95066"}}},
{"geometry": {"type": "Point", "coordinates": [-122.0282127818, 37.0488332265]}, "type": "Feature", "properties": {"collection_times": [{"days": "Mon-Sat", "time": "5:00pm"}, {"days": "Sun", "time": "Closed"}], "id": "9506600021", "name": "USPS COLLECTION BOX - APC", "address": {"city": "SANTA CRUZ", "state": "CA", "street": "241 KINGS VILLAGE RD", "postcode": "95066"}}},
{"geometry": {"type": "Point", "coordinates": [-122.0155886517, 37.2666562383]}, "type": "Feature", "properties": {"collection_times": [{"days": "Mon-Fri", "time": "5:15pm"}, {"days": "Sat", "time": "4:45pm"}, {"days": "Sun", "time": "Closed"}], "id": "9507000000", "name": "USPS COLLECTION BOX - BLUE BOX", "address": {"city": "SARATOGA", "state": "CA", "street": "19630 ALLENDALE AVE", "postcode": "95070"}}},
{"geometry": {"type": "Point", "coordinates": [-122.0212164743, 37.2703137758]}, "type": "Feature", "properties": {"collection_times": [{"days": "Mon-Fri", "time": "5:15pm"}, {"days": "Sat", "time": "4:45pm"}, {"days": "Sun", "time": "Closed"}], "id": "9507000001", "name": "USPS COLLECTION BOX - EXPRESS", "address": {"city": "SARATOGA", "state": "CA", "street": "19630 ALLENDALE AVE", "postcode": "95070"}}},
{"geometry": {"type": "Point", "coordinates": [-122.0002435812, 37.2804814286]}, "type": "Feature", "properties": {"collection_times": [{"days": "Mon-Fri", "time": "3:00pm"}, {"days": "Sat", "time": "11:00am"}, {"days": "Sun", "time": "Closed"}], "id": "9507000006", "name": "USPS COLLECTION BOX - BLUE BOX", "address": {"city": "SARATOGA", "state": "CA", "street": "18840 COX AVE", "postcode": "95070"}}},
{"geometry": {"type": "Point", "coordinates": [-122.0032207539, 37.2807286156]}, "type": "Feature", "properties": {"collection_times": [{"days": "Mon-Fri", "time": "3:00pm"}, {"days": "Sat", "time": "11:00am"}, {"days": "Sun", "time": "Closed"}], "id": "9507000011", "name": "USPS COLLECTION BOX - BLUE BOX", "address": {"city": "SARATOGA", "state": "CA", "street": "12930 SARATOGA AVE", "postcode": "95070"}}},
{"geometry": {"type": "Point", "coordinates": [-122.0037154036, 37.2805829654]}, "type": "Feature", "properties": {"collection_times": [{"days": "Mon-Fri", "time": "3:00pm"}, {"days": "Sat", "time": "11:00am"}, {"days": "Sun", "time": "Closed"}], "id": "9507000016", "name": "USPS COLLECTION BOX - BLUE BOX", "address": {"city": "SARATOGA", "state": "CA", "street": "12945 SARATOGA AVE", "postcode": "95070"}}},
{"geometry": {"type": "Point", "coordinates": [-121.9987659032, 37.280565221]}, "type": "Feature", "properties": {"collection_times": [{"days": "Mon-Fri", "time": "3:00pm"}, {"days": "Sat", "time": "11:00am"}, {"days": "Sun", "time": "Closed"}], "id": "9507000020", "name": "USPS COLLECTION BOX - BLUE BOX", "address": {"city": "SARATOGA", "state": "CA", "street": "18805 COX AVE", "postcode": "95070"}}},
{"geometry": {"type": "Point", "coordinates": [-121.9960285362, 37.2879196769]}, "type": "Feature", "properties": {"collection_times": [{"days": "Mon-Fri", "time": "3:00pm"}, {"days": "Sat", "time": "11:00am"}, {"days": "Sun", "time": "Closed"}], "id": "9507000021", "name": "USPS COLLECTION BOX - BLUE BOX", "address": {"city": "SARATOGA", "state": "CA", "street": "1888 SARATOGA AVE", "postcode": "95070"}}},
{"geometry": {"type": "Point", "coordinates": [-122.0177015274, 37.2936049777]}, "type": "Feature", "properties": {"collection_times": [{"days": "Mon-Sat", "time": "11:00am"}, {"days": "Sun", "time": "Closed"}], "id": "9507000022", "name": "USPS COLLECTION BOX - BLUE BOX", "address": {"city": "SARATOGA", "state": "CA", "street": "19700 PROSPECT RD", "postcode": "95070"}}},
{"geometry": {"type": "Point", "coordinates": [-122.0322105481, 37.2895652218]}, "type": "Feature", "properties": {"collection_times": [{"days": "Mon-Fri", "time": "1:00pm"}, {"days": "Sat", "time": "11:00am"}, {"days": "Sun", "time": "Closed"}], "id": "9507000024", "name": "USPS COLLECTION BOX - BLUE BOX", "address": {"city": "SARATOGA", "state": "CA", "street": "12304 SARATOGA SUNNYVALE RD", "postcode": "95070"}}},
{"geometry": {"type": "Point", "coordinates": [-122.0155886517, 37.2666562383]}, "type": "Feature", "properties": {"collection_times": [{"days": "Mon-Fri", "time": "5:15pm"}, {"days": "Sat", "time": "4:45pm"}, {"days": "Sun", "time": "Closed"}], "id": "9507000030", "name": "USPS COLLECTION BOX - BLUE BOX", "address": {"city": "SARATOGA", "state": "CA", "street": "19630 ALLENDALE AVE", "postcode": "95070"}}},
{"geometry": {"type": "Point", "coordinates": [-122.0155886517, 37.2666562383]}, "type": "Feature", "properties": {"collection_times": [{"days": "Mon-Fri", "time": "5:15pm"}, {"days": "Sat", "time": "4:45pm"}, {"days": "Sun", "time": "Closed"}], "id": "9507000031", "name": "USPS COLLECTION BOX - BLUE BOX", "address": {"city": "SARATOGA", "state": "CA", "street": "19630 ALLENDALE AVE", "postcode": "95070"}}},
{"geometry": {"type": "Point", "coordinates": [-122.033077628, 37.2581741737]}, "type": "Feature", "properties": {"collection_times": [{"days": "Mon-Fri", "time": "3:00pm"}, {"days": "Sat", "time": "11:00am"}, {"days": "Sun", "time": "Closed"}], "id": "9507000036", "name": "USPS COLLECTION BOX - BLUE BOX", "address": {"city": "SARATOGA", "state": "CA", "street": "14440 BIG BASIN WAY", "postcode": "95070"}}},
{"geometry": {"type": "Point", "coordinates": [-122.0322826796, 37.2810573319]}, "type": "Feature", "properties": {"collection_times": [{"days": "Mon-Fri", "time": "12:00pm"}, {"days": "Sat", "time": "11:00am"}, {"days": "Sun", "time": "Closed"}], "id": "9507000037", "name": "USPS COLLECTION BOX - BLUE BOX", "address": {"city": "SARATOGA", "state": "CA", "street": "12876 SARATOGA SUNNYVALE RD", "postcode": "95070"}}},
{"geometry": {"type": "Point", "coordinates": [-121.9362867426, 36.9871772022]}, "type": "Feature", "properties": {"collection_times": [{"days": "Mon-Sat", "time": "12:00pm"}, {"days": "Sun", "time": "Closed"}], "id": "9507300000", "name": "USPS COLLECTION BOX - BLUE BOX", "address": {"city": "SOQUEL", "state": "CA", "street": "2901 PARK AVE", "postcode": "95073"}}},
{"geometry": {"type": "Point", "coordinates": [-121.9440824421, 36.9878680502]}, "type": "Feature", "properties": {"collection_times": [{"days": "Mon-Fri", "time": "3:00pm"}, {"days": "Sat", "time": "2:00pm"}, {"days": "Sun", "time": "Closed"}], "id": "9507300001", "name": "USPS COLLECTION BOX - BLUE BOX", "address": {"city": "SOQUEL", "state": "CA", "street": "5505 SOQUEL DR", "postcode": "95073"}}},
{"geometry": {"type": "Point", "coordinates": [-121.9558163865, 36.9844257445]}, "type": "Feature", "properties": {"collection_times": [{"days": "Mon-Sat", "time": "12:00pm"}, {"days": "Sun", "time": "Closed"}], "id": "9507300003", "name": "USPS COLLECTION BOX - BLUE BOX", "address": {"city": "SOQUEL", "state": "CA", "street": "2571 S MAIN ST", "postcode": "95073"}}},
{"geometry": {"type": "Point", "coordinates": [-121.9696108979, 36.9864237385]}, "type": "Feature", "properties": {"collection_times": [{"days": "Mon-Sat", "time": "12:30pm"}, {"days": "Sun", "time": "Closed"}], "id": "9507300004", "name": "USPS COLLECTION BOX - BLUE BOX", "address": {"city": "SOQUEL", "state": "CA", "street": "2827 S RODEO GULCH RD", "postcode": "95073"}}},
{"geometry": {"type": "Point", "coordinates": [-121.9684537627, 36.986489903]}, "type": "Feature", "properties": {"collection_times": [{"days": "Mon-Sat", "time": "1:00pm"}, {"days": "Sun", "time": "Closed"}], "id": "9507300006", "name": "USPS COLLECTION BOX - BLUE BOX", "address": {"city": "SOQUEL", "state": "CA", "street": "2951 RESEARCH PARK DR", "postcode": "95073"}}},
{"geometry": {"type": "Point", "coordinates": [-121.9681574559, 36.984480343]}, "type": "Feature", "properties": {"collection_times": [{"days": "Mon-Sat", "time": "1:00pm"}, {"days": "Sun", "time": "Closed"}], "id": "9507300007", "name": "USPS COLLECTION BOX - BLUE BOX", "address": {"city": "SOQUEL", "state": "CA", "street": "2751 RESEARCH PARK DR", "postcode": "95073"}}},
{"geometry": {"type": "Point", "coordinates": [-121.9501495643, 37.0002108539]}, "type": "Feature", "properties": {"collection_times": [{"days": "Mon-Fri", "time": "5:00pm"}, {"days": "Sat", "time": "2:00pm"}, {"days": "Sun", "time": "Closed"}], "id": "9507300015", "name": "USPS COLLECTION BOX - BLUE BOX", "address": {"city": "SOQUEL", "state": "CA", "street": "4768 SOQUEL DR", "postcode": "95073"}}},
{"geometry": {"type": "Point", "coordinates": [-121.9501495643, 37.0002108539]}, "type": "Feature", "properties": {"collection_times": [{"days": "Mon-Fri", "time": "5:00pm"}, {"days": "Sat", "time": "2:00pm"}, {"days": "Sun", "time": "Closed"}], "id": "9507300017", "name": "USPS COLLECTION BOX - BLUE BOX", "address": {"city": "SOQUEL", "state": "CA", "street": "4768 SOQUEL DR", "postcode": "95073"}}},
{"geometry": {"type": "Point", "coordinates": [-121.3842723677, 36.8293524912]}, "type": "Feature", "properties": {"collection_times": [{"days": "Mon-Fri", "time": "3:45pm"}, {"days": "Sat", "time": "10:00am"}, {"days": "Sun", "time": "Closed"}], "id": "9507500001", "name": "USPS COLLECTION BOX - BLUE BOX", "address": {"city": "TRES PINOS", "state": "CA", "street": "21 E 4TH ST", "postcode": "95075"}}},
{"geometry": {"type": "Point", "coordinates": [-121.7462188179, 36.9243094521]}, "type": "Feature", "properties": {"collection_times": [{"days": "Mon-Sat", "time": "10:00am"}, {"days": "Sun", "time": "Closed"}], "id": "9507600002", "name": "USPS COLLECTION BOX - BLUE BOX", "address": {"city": "ROYAL OAKS", "state": "CA", "street": "990 E LAKE AVE", "postcode": "95076"}}},
{"geometry": {"type": "Point", "coordinates": [-121.7638418331, 36.9257159038]}, "type": "Feature", "properties": {"collection_times": [{"days": "Mon-Sat", "time": "10:15am"}, {"days": "Sun", "time": "Closed"}], "id": "9507600005", "name": "USPS COLLECTION BOX - BLUE BOX", "address": {"city": "ROYAL OAKS", "state": "CA", "street": "1418 FREEDOM BLVD", "postcode": "95076"}}},
{"geometry": {"type": "Point", "coordinates": [-121.7688045952, 36.9297693866]}, "type": "Feature", "properties": {"collection_times": [{"days": "Mon-Sat", "time": "11:30am"}, {"days": "Sun", "time": "Closed"}], "id": "9507600010", "name": "USPS COLLECTION BOX - BLUE BOX", "address": {"city": "ROYAL OAKS", "state": "CA", "street": "18 CLIFFORD AVE", "postcode": "95076"}}},
{"geometry": {"type": "Point", "coordinates": [-121.7543145309, 36.9145754616]}, "type": "Feature", "properties": {"collection_times": [{"days": "Mon-Sat", "time": "10:00am"}, {"days": "Sun", "time": "Closed"}], "id": "9507600014", "name": "USPS COLLECTION BOX - BLUE BOX", "address": {"city": "ROYAL OAKS", "state": "CA", "street": "251 E LAKE AVE", "postcode": "95076"}}},
{"geometry": {"type": "Point", "coordinates": [-121.7671413549, 36.9178321476]}, "type": "Feature", "properties": {"collection_times": [{"days": "Mon-Sat", "time": "11:30am"}, {"days": "Sun", "time": "Closed"}], "id": "9507600018", "name": "USPS COLLECTION BOX - BLUE BOX", "address": {"city": "ROYAL OAKS", "state": "CA", "street": "567 AUTO CENTER DR", "postcode": "95076"}}},
{"geometry": {"type": "Point", "coordinates": [-121.7897240416, 36.9327208692]}, "type": "Feature", "properties": {"collection_times": [{"days": "Mon-Fri", "time": "3:30pm"}, {"days": "Sat", "time": "1:00pm"}, {"days": "Sun", "time": "Closed"}], "id": "9507600022", "name": "USPS COLLECTION BOX - BLUE BOX", "address": {"city": "ROYAL OAKS", "state": "CA", "street": "135 AVIATION WAY", "postcode": "95076"}}},
{"geometry": {"type": "Point", "coordinates": [-121.778152337, 36.9295978575]}, "type": "Feature", "properties": {"collection_times": [{"days": "Mon-Sat", "time": "11:00am"}, {"days": "Sun", "time": "Closed"}], "id": "9507600023", "name": "USPS COLLECTION BOX - BLUE BOX", "address": {"city": "ROYAL OAKS", "state": "CA", "street": "25 PENNY LN", "postcode": "95076"}}},
{"geometry": {"type": "Point", "coordinates": [-121.806722089, 36.9865529554]}, "type": "Feature", "properties": {"collection_times": [{"days": "Mon-Sat", "time": "10:45am"}, {"days": "Sun", "time": "Closed"}], "id": "9507600039", "name": "USPS COLLECTION BOX - BLUE BOX", "address": {"city": "ROYAL OAKS", "state": "CA", "street": "531 CORRALITOS RD", "postcode": "95076"}}},
{"geometry": {"type": "Point", "coordinates": [-121.7406028535, 36.919550987]}, "type": "Feature", "properties": {"collection_times": [{"days": "Mon-Sat", "time": "10:00am"}, {"days": "Sun", "time": "Closed"}], "id": "9507600041", "name": "USPS COLLECTION BOX - BLUE BOX", "address": {"city": "ROYAL OAKS", "state": "CA", "street": "676 BRONTE AVE", "postcode": "95076"}}},
{"geometry": {"type": "Point", "coordinates": [-121.8627220734, 36.9370138273]}, "type": "Feature", "properties": {"collection_times": [{"days": "Mon-Sat", "time": "11:00am"}, {"days": "Sun", "time": "Closed"}], "id": "9507600049", "name": "USPS COLLECTION BOX - BLUE BOX", "address": {"city": "ROYAL OAKS", "state": "CA", "street": "312 PLAYA BLVD", "postcode": "95076"}}},
{"geometry": {"type": "Point", "coordinates": [-121.7541797424, 36.9077782511]}, "type": "Feature", "properties": {"collection_times": [{"days": "Mon-Fri", "time": "5:00pm"}, {"days": "Sat", "time": "4:30pm"}, {"days": "Sun", "time": "Closed"}], "id": "9507600050", "name": "USPS COLLECTION BOX - BLUE BOX", "address": {"city": "ROYAL OAKS", "state": "CA", "street": "225 MAIN ST", "postcode": "95076"}}},
{"geometry": {"type": "Point", "coordinates": [-121.7826465527, 36.9185527515]}, "type": "Feature", "properties": {"collection_times": [{"days": "Mon-Sat", "time": "11:45am"}, {"days": "Sun", "time": "Closed"}], "id": "9507600052", "name": "USPS COLLECTION BOX - BLUE BOX", "address": {"city": "ROYAL OAKS", "state": "CA", "street": "1962 MAIN ST", "postcode": "95076"}}},
{"geometry": {"type": "Point", "coordinates": [-121.7834995265, 36.9123935471]}, "type": "Feature", "properties": {"collection_times": [{"days": "Mon-Fri", "time": "3:30pm"}, {"days": "Sat", "time": "1:00pm"}, {"days": "Sun", "time": "Closed"}], "id": "9507600056", "name": "USPS COLLECTION BOX - BLUE BOX", "address": {"city": "ROYAL OAKS", "state": "CA", "street": "255 WESTRIDGE DR", "postcode": "95076"}}},
{"geometry": {"type": "Point", "coordinates": [-121.7834995265, 36.9123935471]}, "type": "Feature", "properties": {"collection_times": [{"days": "Mon-Fri", "time": "3:30pm"}, {"days": "Sat", "time": "1:30pm"}, {"days": "Sun", "time": "Closed"}], "id": "9507600057", "name": "USPS COLLECTION BOX - BLUE BOX", "address": {"city": "ROYAL OAKS", "state": "CA", "street": "255 WESTRIDGE DR", "postcode": "95076"}}},
{"geometry": {"type": "Point", "coordinates": [-120.8691763774, 37.51254316]}, "type": "Feature", "properties": {"collection_times": [{"days": "Mon-Fri", "time": "3:15pm"}, {"days": "Sat", "time": "1:00pm"}, {"days": "Sun", "time": "Closed"}], "id": "9507600060", "name": "USPS COLLECTION BOX - BLUE BOX", "address": {"city": "ROYAL OAKS", "state": "CA", "street": "41 HANGAR WAY", "postcode": "95076"}}},
{"geometry": {"type": "Point", "coordinates": [-121.7541797424, 36.9077782511]}, "type": "Feature", "properties": {"collection_times": [{"days": "Mon-Fri", "time": "5:00pm"}, {"days": "Sat", "time": "4:30pm"}, {"days": "Sun", "time": "Closed"}], "id": "9507600062", "name": "USPS COLLECTION BOX - BLUE BOX", "address": {"city": "ROYAL OAKS", "state": "CA", "street": "225 MAIN ST", "postcode": "95076"}}},
{"geometry": {"type": "Point", "coordinates": [-121.7541797424, 36.9077782511]}, "type": "Feature", "properties": {"collection_times": [{"days": "Mon-Fri", "time": "5:00pm"}, {"days": "Sat", "time": "4:30pm"}, {"days": "Sun", "time": "Closed"}], "id": "9507600063", "name": "USPS COLLECTION BOX - BLUE BOX", "address": {"city": "ROYAL OAKS", "state": "CA", "street": "225 MAIN ST", "postcode": "95076"}}},
{"geometry": {"type": "Point", "coordinates": [-121.7541797424, 36.9077782511]}, "type": "Feature", "properties": {"collection_times": [{"days": "Mon-Fri", "time": "5:00pm"}, {"days": "Sat", "time": "4:30pm"}, {"days": "Sun", "time": "Closed"}], "id": "9507600064", "name": "USPS COLLECTION BOX - BLUE BOX", "address": {"city": "ROYAL OAKS", "state": "CA", "street": "225 MAIN ST", "postcode": "95076"}}},
{"geometry": {"type": "Point", "coordinates": [-121.7541797424, 36.9077782511]}, "type": "Feature", "properties": {"collection_times": [{"days": "Mon-Fri", "time": "5:00pm"}, {"days": "Sat", "time": "4:30pm"}, {"days": "Sun", "time": "Closed"}], "id": "9507600065", "name": "USPS COLLECTION BOX - BLUE BOX", "address": {"city": "ROYAL OAKS", "state": "CA", "street": "225 MAIN ST", "postcode": "95076"}}},
{"geometry": {"type": "Point", "coordinates": [-121.7541797424, 36.9077782511]}, "type": "Feature", "properties": {"collection_times": [{"days": "Mon-Fri", "time": "5:00pm"}, {"days": "Sat", "time": "4:30pm"}, {"days": "Sun", "time": "Closed"}], "id": "9507600066", "name": "USPS COLLECTION BOX - BLUE BOX", "address": {"city": "ROYAL OAKS", "state": "CA", "street": "225 MAIN ST", "postcode": "95076"}}},
{"geometry": {"type": "Point", "coordinates": [-121.7696667259, 36.926810676]}, "type": "Feature", "properties": {"collection_times": [{"days": "Mon-Fri", "time": "5:00pm"}, {"days": "Sat", "time": "4:30pm"}, {"days": "Sun", "time": "Closed"}], "id": "9507600067", "name": "USPS COLLECTION BOX - EXPRESS", "address": {"city": "ROYAL OAKS", "state": "CA", "street": "225 MAIN ST", "postcode": "95076"}}},
{"geometry": {"type": "Point", "coordinates": [-121.7541797424, 36.9077782511]}, "type": "Feature", "properties": {"collection_times": [{"days": "Mon-Fri", "time": "5:00pm"}, {"days": "Sat", "time": "4:30pm"}, {"days": "Sun", "time": "Closed"}], "id": "9507600068", "name": "USPS COLLECTION BOX - BLUE BOX", "address": {"city": "ROYAL OAKS", "state": "CA", "street": "225 MAIN ST", "postcode": "95076"}}},
{"geometry": {"type": "Point", "coordinates": [-121.7935401737, 36.9282295064]}, "type": "Feature", "properties": {"collection_times": [{"days": "Mon-Fri", "time": "3:15pm"}, {"days": "Sat", "time": "1:00pm"}, {"days": "Sun", "time": "Closed"}], "id": "9507600077", "name": "USPS COLLECTION BOX - BLUE BOX", "address": {"city": "ROYAL OAKS", "state": "CA", "street": "75 NEILSON ST", "postcode": "95076"}}},
{"geometry": {"type": "Point", "coordinates": [-121.7478710705, 36.898461191]}, "type": "Feature", "properties": {"collection_times": [{"days": "Mon-Sat", "time": "10:00am"}, {"days": "Sun", "time": "Closed"}], "id": "9507600079", "name": "USPS COLLECTION BOX - BLUE BOX", "address": {"city": "ROYAL OAKS", "state": "CA", "street": "305 SALINAS RD", "postcode": "95076"}}}
]}
