{"type": "FeatureCollection", "features": [
{"geometry": {"type": "Point", "coordinates": [-121.9151602784, 37.3662481218]}, "type": "Feature", "properties": {"collection_times": [{"days": "Mon-Fri", "time": "1:30pm"}, {"days": "Sat-Sun", "time": "Closed"}], "id": "9511000010", "name": "USPS COLLECTION BOX - BLUE BOX", "address": {"city": "SAN JOSE", "state": "CA", "street": "101 SKYPORT DR", "postcode": "95110"}}},
{"geometry": {"type": "Point", "coordinates": [-121.8965239429, 37.3375731965]}, "type": "Feature", "properties": {"collection_times": [{"days": "Mon-Fri", "time": "2:00pm"}, {"days": "Sat-Sun", "time": "Closed"}], "id": "9511000016", "name": "USPS COLLECTION BOX - BLUE BOX", "address": {"city": "SAN JOSE", "state": "CA", "street": "255 W JULIAN ST", "postcode": "95110"}}},
{"geometry": {"type": "Point", "coordinates": [-121.876610046, 37.3144819979]}, "type": "Feature", "properties": {"collection_times": [{"days": "Mon-Fri", "time": "12:00pm"}, {"days": "Sat-Sun", "time": "Closed"}], "id": "9511000018", "name": "USPS COLLECTION BOX - BLUE BOX", "address": {"city": "SAN JOSE", "state": "CA", "street": "136 W ALMA AVE", "postcode": "95110"}}},
{"geometry": {"type": "Point", "coordinates": [-121.8844246386, 37.321932113]}, "type": "Feature", "properties": {"collection_times": [{"days": "Mon-Fri", "time": "1:00pm"}, {"days": "Sat-Sun", "time": "Closed"}], "id": "9511000020", "name": "USPS COLLECTION BOX - BLUE BOX", "address": {"city": "SAN JOSE", "state": "CA", "street": "804 S ALMADEN AVE", "postcode": "95110"}}},
{"geometry": {"type": "Point", "coordinates": [-121.9049845907, 37.3525017237]}, "type": "Feature", "properties": {"collection_times": [{"days": "Mon-Fri", "time": "12:00pm"}, {"days": "Sat-Sun", "time": "Closed"}], "id": "9511000027", "name": "USPS COLLECTION BOX - BLUE BOX", "address": {"city": "SAN JOSE", "state": "CA", "street": "70 W HEDDING ST", "postcode": "95110"}}},
{"geometry": {"type": "Point", "coordinates": [-121.9298018878, 37.3555500469]}, "type": "Feature", "properties": {"collection_times": [{"days": "Mon-Sat", "time": "12:00pm"}, {"days": "Sun", "time": "Closed"}], "id": "9511000032", "name": "USPS COLLECTION BOX - BLUE BOX", "address": {"city": "SAN JOSE", "state": "CA", "street": "1250 AVIATION AVE", "postcode": "95110"}}},
{"geometry": {"type": "Point", "coordinates": [-121.9200320286, 37.3694047841]}, "type": "Feature", "properties": {"collection_times": [{"days": "Mon-Fri", "time": "4:00pm"}, {"days": "Sat-Sun", "time": "Closed"}], "id": "9511000037", "name": "USPS COLLECTION BOX - BLUE BOX", "address": {"city": "SAN JOSE", "state": "CA", "street": "1772 TECHNOLOGY DR", "postcode": "95110"}}},
{"geometry": {"type": "Point", "coordinates": [-121.8337182855, 37.2780999345]}, "type": "Feature", "properties": {"collection_times": [{"days": "Mon-Fri", "time": "12:00pm"}, {"days": "Sat-Sun", "time": "Closed"}], "id": "9511100002", "name": "USPS COLLECTION BOX - BLUE BOX", "address": {"city": "SAN JOSE", "state": "CA", "street": "60 SENTER RD", "postcode": "95111"}}},
{"geometry": {"type": "Point", "coordinates": [-121.8438136573, 37.3039830767]}, "type": "Feature", "properties": {"collection_times": [{"days": "Mon-Fri", "time": "11:00am"}, {"days": "Sat-Sun", "time": "Closed"}], "id": "9511100009", "name": "USPS COLLECTION BOX - BLUE BOX", "address": {"city": "SAN JOSE", "state": "CA", "street": "2600 SENTER RD", "postcode": "95111"}}},
{"geometry": {"type": "Point", "coordinates": [-121.8088844279, 37.2596516895]}, "type": "Feature", "properties": {"collection_times": [{"days": "Mon-Fri", "time": "12:00pm"}, {"days": "Sat-Sun", "time": "Closed"}], "id": "9511100012", "name": "USPS COLLECTION BOX - BLUE BOX", "address": {"city": "SAN JOSE", "state": "CA", "street": "5284 MONTEREY HWY", "postcode": "95111"}}},
{"geometry": {"type": "Point", "coordinates": [-121.8469993658, 37.2912201324]}, "type": "Feature", "properties": {"collection_times": [{"days": "Mon-Fri", "time": "5:00pm"}, {"days": "Sat", "time": "4:30pm"}, {"days": "Sun", "time": "Closed"}], "id": "9511100015", "name": "USPS COLLECTION BOX - BLUE BOX", "address": {"city": "SAN JOSE", "state": "CA", "street": "80 LEWIS RD", "postcode": "95111"}}},
{"geometry": {"type": "Point", "coordinates": [-121.8467536283, 37.2913269717]}, "type": "Feature", "properties": {"collection_times": [{"days": "Mon-Fri", "time": "5:00pm"}, {"days": "Sat", "time": "4:30pm"}, {"days": "Sun", "time": "Closed"}], "id": "9511100023", "name": "USPS COLLECTION BOX - BLUE BOX", "address": {"city": "SAN JOSE", "state": "CA", "street": "80 LEWIS RD", "postcode": "95111"}}},
{"geometry": {"type": "Point", "coordinates": [-121.9065353246, 37.3686081249]}, "type": "Feature", "properties": {"collection_times": [{"days": "Mon-Fri", "time": "12:00pm"}, {"days": "Sat-Sun", "time": "Closed"}], "id": "9511200001", "name": "USPS COLLECTION BOX - BLUE BOX", "address": {"city": "SAN JOSE", "state": "CA", "street": "1660 OLD BAYSHORE HWY", "postcode": "95112"}}},
{"geometry": {"type": "Point", "coordinates": [-121.8957921574, 37.3732906363]}, "type": "Feature", "properties": {"collection_times": [{"days": "Mon-Fri", "time": "12:00pm"}, {"days": "Sat-Sun", "time": "Closed"}], "id": "9511200003", "name": "USPS COLLECTION BOX - BLUE BOX", "address": {"city": "SAN JOSE", "state": "CA", "street": "1555 BERGER DR", "postcode": "95112"}}},
{"geometry": {"type": "Point", "coordinates": [-121.9050944806, 37.3575581052]}, "type": "Feature", "properties": {"collection_times": [{"days": "Mon-Fri", "time": "12:00pm"}, {"days": "Sat-Sun", "time": "Closed"}], "id": "9511200005", "name": "USPS COLLECTION BOX - BLUE BOX", "address": {"city": "SAN JOSE", "state": "CA", "street": "1124 N 2ND ST", "postcode": "95112"}}},
{"geometry": {"type": "Point", "coordinates": [-121.9161445003, 37.3678415675]}, "type": "Feature", "properties": {"collection_times": [{"days": "Mon-Fri", "time": "12:00pm"}, {"days": "Sat-Sun", "time": "Closed"}], "id": "9511200006", "name": "USPS COLLECTION BOX - BLUE BOX", "address": {"city": "SAN JOSE", "state": "CA", "street": "100 CENTURY CENTER CT", "postcode": "95112"}}},
{"geometry": {"type": "Point", "coordinates": [-121.9056977979, 37.3639182158]}, "type": "Feature", "properties": {"collection_times": [{"days": "Mon-Fri", "time": "12:00pm"}, {"days": "Sat-Sun", "time": "Closed"}], "id": "9511200009", "name": "USPS COLLECTION BOX - BLUE BOX", "address": {"city": "SAN JOSE", "state": "CA", "street": "195 E GISH RD", "postcode": "95112"}}},
{"geometry": {"type": "Point", "coordinates": [-121.8902897491, 37.3674440933]}, "type": "Feature", "properties": {"collection_times": [{"days": "Mon-Fri", "time": "11:00am"}, {"days": "Sat-Sun", "time": "Closed"}], "id": "9511200015", "name": "USPS COLLECTION BOX - BLUE BOX", "address": {"city": "SAN JOSE", "state": "CA", "street": "1212 OLD OAKLAND RD", "postcode": "95112"}}},
{"geometry": {"type": "Point", "coordinates": [-121.8845216412, 37.3365286437]}, "type": "Feature", "properties": {"collection_times": [{"days": "Mon-Fri", "time": "11:00am"}, {"days": "Sat-Sun", "time": "Closed"}], "id": "9511200019", "name": "USPS COLLECTION BOX - BLUE BOX", "address": {"city": "SAN JOSE", "state": "CA", "street": "221 E SAN FERNANDO ST", "postcode": "95112"}}},
{"geometry": {"type": "Point", "coordinates": [-121.8562134332, 37.315993659]}, "type": "Feature", "properties": {"collection_times": [{"days": "Mon-Fri", "time": "11:00am"}, {"days": "Sat-Sun", "time": "Closed"}], "id": "9511200023", "name": "USPS COLLECTION BOX - BLUE BOX", "address": {"city": "SAN JOSE", "state": "CA", "street": "1870 SENTER RD", "postcode": "95112"}}},
{"geometry": {"type": "Point", "coordinates": [-121.8926252944, 37.3527646878]}, "type": "Feature", "properties": {"collection_times": [{"days": "Mon-Fri", "time": "12:00pm"}, {"days": "Sat-Sun", "time": "Closed"}], "id": "9511200025", "name": "USPS COLLECTION BOX - BLUE BOX", "address": {"city": "SAN JOSE", "state": "CA", "street": "357 E TAYLOR ST", "postcode": "95112"}}},
{"geometry": {"type": "Point", "coordinates": [-121.8770808293, 37.3513511195]}, "type": "Feature", "properties": {"collection_times": [{"days": "Mon-Fri", "time": "12:00pm"}, {"days": "Sat-Sun", "time": "Closed"}], "id": "9511200028", "name": "USPS COLLECTION BOX - BLUE BOX", "address": {"city": "SAN JOSE", "state": "CA", "street": "909 WASHINGTON ST", "postcode": "95112"}}},
{"geometry": {"type": "Point", "coordinates": [-121.8967747302, 37.3445987898]}, "type": "Feature", "properties": {"collection_times": [{"days": "Mon-Fri", "time": "12:00pm"}, {"days": "Sat-Sun", "time": "Closed"}], "id": "9511200029", "name": "USPS COLLECTION BOX - BLUE BOX", "address": {"city": "SAN JOSE", "state": "CA", "street": "490 N 1ST ST", "postcode": "95112"}}},
{"geometry": {"type": "Point", "coordinates": [-121.8984261409, 37.3468251185]}, "type": "Feature", "properties": {"collection_times": [{"days": "Mon-Fri", "time": "12:00pm"}, {"days": "Sat-Sun", "time": "Closed"}], "id": "9511200032", "name": "USPS COLLECTION BOX - BLUE BOX", "address": {"city": "SAN JOSE", "state": "CA", "street": "598 N 1ST ST", "postcode": "95112"}}},
{"geometry": {"type": "Point", "coordinates": [-121.8960602229, 37.3434347581]}, "type": "Feature", "properties": {"collection_times": [{"days": "Mon-Fri", "time": "12:00pm"}, {"days": "Sat-Sun", "time": "Closed"}], "id": "9511200033", "name": "USPS COLLECTION BOX - BLUE BOX", "address": {"city": "SAN JOSE", "state": "CA", "street": "447 N 1ST ST", "postcode": "95112"}}},
{"geometry": {"type": "Point", "coordinates": [-121.8998835463, 37.3485191158]}, "type": "Feature", "properties": {"collection_times": [{"days": "Mon-Fri", "time": "12:00pm"}, {"days": "Sat-Sun", "time": "Closed"}], "id": "9511200035", "name": "USPS COLLECTION BOX - BLUE BOX", "address": {"city": "SAN JOSE", "state": "CA", "street": "675 N 1ST ST", "postcode": "95112"}}},
{"geometry": {"type": "Point", "coordinates": [-121.8998835463, 37.3485191158]}, "type": "Feature", "properties": {"collection_times": [{"days": "Mon-Fri", "time": "12:00pm"}, {"days": "Sat-Sun", "time": "Closed"}], "id": "9511200036", "name": "USPS COLLECTION BOX - BLUE BOX", "address": {"city": "SAN JOSE", "state": "CA", "street": "675 N 1ST ST", "postcode": "95112"}}},
{"geometry": {"type": "Point", "coordinates": [-121.9152513662, 37.3690836744]}, "type": "Feature", "properties": {"collection_times": [{"days": "Mon-Fri", "time": "1:30pm"}, {"days": "Sat-Sun", "time": "Closed"}], "id": "9511200041", "name": "USPS COLLECTION BOX - BLUE BOX", "address": {"city": "SAN JOSE", "state": "CA", "street": "1737 N 1ST ST", "postcode": "95112"}}},
{"geometry": {"type": "Point", "coordinates": [-121.8690750836, 37.3117572017]}, "type": "Feature", "properties": {"collection_times": [{"days": "Mon-Fri", "time": "4:00pm"}, {"days": "Sat-Sun", "time": "Closed"}], "id": "9511200043", "name": "USPS COLLECTION BOX - BLUE BOX", "address": {"city": "SAN JOSE", "state": "CA", "street": "1682 S 1ST ST", "postcode": "95112"}}},
{"geometry": {"type": "Point", "coordinates": [-121.888994409, 37.3378807658]}, "type": "Feature", "properties": {"collection_times": [{"days": "Mon-Fri", "time": "3:00pm"}, {"days": "Sat-Sun", "time": "Closed"}], "id": "9511200046", "name": "USPS COLLECTION BOX - BLUE BOX", "address": {"city": "SAN JOSE", "state": "CA", "street": "60 N 3RD ST", "postcode": "95112"}}},
{"geometry": {"type": "Point", "coordinates": [-121.9073068095, 37.3645086387]}, "type": "Feature", "properties": {"collection_times": [{"days": "Mon-Fri", "time": "12:00pm"}, {"days": "Sat-Sun", "time": "Closed"}], "id": "9511200048", "name": "USPS COLLECTION BOX - BLUE BOX", "address": {"city": "SAN JOSE", "state": "CA", "street": "1482 N 4TH ST", "postcode": "95112"}}},
{"geometry": {"type": "Point", "coordinates": [-121.88968304, 37.34073912]}, "type": "Feature", "properties": {"collection_times": [{"days": "Mon-Fri", "time": "3:00pm"}, {"days": "Sat-Sun", "time": "Closed"}], "id": "9511200053", "name": "USPS COLLECTION BOX - BLUE BOX", "address": {"city": "SAN JOSE", "state": "CA", "street": "210 N 4TH ST", "postcode": "95112"}}},
{"geometry": {"type": "Point", "coordinates": [-121.8776356371, 37.3431283718]}, "type": "Feature", "properties": {"collection_times": [{"days": "Mon-Fri", "time": "3:00pm"}, {"days": "Sat-Sun", "time": "Closed"}], "id": "9511200073", "name": "USPS COLLECTION BOX - BLUE BOX", "address": {"city": "SAN JOSE", "state": "CA", "street": "25 N 14TH ST", "postcode": "95112"}}},
{"geometry": {"type": "Point", "coordinates": [-121.90157, 37.35069]}, "type": "Feature", "properties": {"collection_times": [{"days": "Mon-Fri", "time": "12:00pm"}, {"days": "Sat-Sun", "time": "Closed"}], "id": "9511200076", "name": "USPS COLLECTION BOX - BLUE BOX", "address": {"city": "SAN JOSE", "state": "CA", "street": "777 N 1ST ST", "postcode": "95112"}}},
{"geometry": {"type": "Point", "coordinates": [-121.8900507914, 37.3392967677]}, "type": "Feature", "properties": {"collection_times": [{"days": "Mon-Fri", "time": "3:00pm"}, {"days": "Sat-Sun", "time": "Closed"}], "id": "9511200082", "name": "USPS COLLECTION BOX - BLUE BOX", "address": {"city": "SAN JOSE", "state": "CA", "street": "152 N 3RD ST", "postcode": "95112"}}},
{"geometry": {"type": "Point", "coordinates": [-121.894351456, 37.3488967714]}, "type": "Feature", "properties": {"collection_times": [{"days": "Mon-Fri", "time": "11:00am"}, {"days": "Sat-Sun", "time": "Closed"}], "id": "9511200117", "name": "USPS COLLECTION BOX - BLUE BOX", "address": {"city": "SAN JOSE", "state": "CA", "street": "198 N JACKSON AVE", "postcode": "95112"}}},
{"geometry": {"type": "Point", "coordinates": [-121.9152513662, 37.3690836744]}, "type": "Feature", "properties": {"collection_times": [{"days": "Mon-Fri", "time": "1:30pm"}, {"days": "Sat-Sun", "time": "Closed"}], "id": "9511200124", "name": "USPS COLLECTION BOX - BLUE BOX", "address": {"city": "SAN JOSE", "state": "CA", "street": "1737 N 1ST ST", "postcode": "95112"}}},
{"geometry": {"type": "Point", "coordinates": [-121.8900507914, 37.3392967677]}, "type": "Feature", "properties": {"collection_times": [{"days": "Mon-Fri", "time": "3:00pm"}, {"days": "Sat-Sun", "time": "Closed"}], "id": "9511200125", "name": "USPS COLLECTION BOX - BLUE BOX", "address": {"city": "SAN JOSE", "state": "CA", "street": "152 N 3RD ST", "postcode": "95112"}}},
{"geometry": {"type": "Point", "coordinates": [-121.8897339475, 37.3408082129]}, "type": "Feature", "properties": {"collection_times": [{"days": "Mon-Fri", "time": "3:00pm"}, {"days": "Sat-Sun", "time": "Closed"}], "id": "9511200126", "name": "USPS COLLECTION BOX - BLUE BOX", "address": {"city": "SAN JOSE", "state": "CA", "street": "210 N 4TH ST", "postcode": "95112"}}},
{"geometry": {"type": "Point", "coordinates": [-121.8932555258, 37.3323874193]}, "type": "Feature", "properties": {"collection_times": [{"days": "Mon-Fri", "time": "3:00pm"}, {"days": "Sat-Sun", "time": "Closed"}], "id": "9511300004", "name": "USPS COLLECTION BOX - BLUE BOX", "address": {"city": "SAN JOSE", "state": "CA", "street": "101 PARK CENTER PLZ", "postcode": "95113"}}},
{"geometry": {"type": "Point", "coordinates": [-121.8932555258, 37.3323874193]}, "type": "Feature", "properties": {"collection_times": [{"days": "Mon-Fri", "time": "3:00pm"}, {"days": "Sat-Sun", "time": "Closed"}], "id": "9511300007", "name": "USPS COLLECTION BOX - BLUE BOX", "address": {"city": "SAN JOSE", "state": "CA", "street": "101 PARK CENTER PLZ", "postcode": "95113"}}},
{"geometry": {"type": "Point", "coordinates": [-121.8896430368, 37.336908382]}, "type": "Feature", "properties": {"collection_times": [{"days": "Mon-Fri", "time": "2:00pm"}, {"days": "Sat-Sun", "time": "Closed"}], "id": "9511300011", "name": "USPS COLLECTION BOX - BLUE BOX", "address": {"city": "SAN JOSE", "state": "CA", "street": "2 N 2ND ST", "postcode": "95113"}}},
{"geometry": {"type": "Point", "coordinates": [-121.8890883462, 37.3322492477]}, "type": "Feature", "properties": {"collection_times": [{"days": "Mon-Fri", "time": "2:00pm"}, {"days": "Sat-Sun", "time": "Closed"}], "id": "9511300013", "name": "USPS COLLECTION BOX - BLUE BOX", "address": {"city": "SAN JOSE", "state": "CA", "street": "240 S MARKET ST", "postcode": "95113"}}},
{"geometry": {"type": "Point", "coordinates": [-121.8866644212, 37.3310115846]}, "type": "Feature", "properties": {"collection_times": [{"days": "Mon-Fri", "time": "2:00pm"}, {"days": "Sat-Sun", "time": "Closed"}], "id": "9511300015", "name": "USPS COLLECTION BOX - BLUE BOX", "address": {"city": "SAN JOSE", "state": "CA", "street": "330 S 1ST ST", "postcode": "95113"}}},
{"geometry": {"type": "Point", "coordinates": [-121.8906290107, 37.336198678]}, "type": "Feature", "properties": {"collection_times": [{"days": "Mon-Fri", "time": "12:00pm"}, {"days": "Sat-Sun", "time": "Closed"}], "id": "9511300019", "name": "USPS COLLECTION BOX - BLUE BOX", "address": {"city": "SAN JOSE", "state": "CA", "street": "1 W SANTA CLARA ST", "postcode": "95113"}}},
{"geometry": {"type": "Point", "coordinates": [-121.8917459716, 37.3356047528]}, "type": "Feature", "properties": {"collection_times": [{"days": "Mon-Fri", "time": "1:00pm"}, {"days": "Sat-Sun", "time": "Closed"}], "id": "9511300020", "name": "USPS COLLECTION BOX - BLUE BOX", "address": {"city": "SAN JOSE", "state": "CA", "street": "84 W SANTA CLARA ST", "postcode": "95113"}}},
{"geometry": {"type": "Point", "coordinates": [-121.8931702542, 37.3349281002]}, "type": "Feature", "properties": {"collection_times": [{"days": "Mon-Fri", "time": "2:00pm"}, {"days": "Sat-Sun", "time": "Closed"}], "id": "9511300021", "name": "USPS COLLECTION BOX - BLUE BOX", "address": {"city": "SAN JOSE", "state": "CA", "street": "160 W SANTA CLARA ST", "postcode": "95113"}}},
{"geometry": {"type": "Point", "coordinates": [-121.895048793, 37.333725031]}, "type": "Feature", "properties": {"collection_times": [{"days": "Mon-Fri", "time": "2:00pm"}, {"days": "Sat-Sun", "time": "Closed"}], "id": "9511300022", "name": "USPS COLLECTION BOX - BLUE BOX", "address": {"city": "SAN JOSE", "state": "CA", "street": "1 ALMADEN BLVD", "postcode": "95113"}}},
{"geometry": {"type": "Point", "coordinates": [-121.895048793, 37.333725031]}, "type": "Feature", "properties": {"collection_times": [{"days": "Mon-Fri", "time": "2:00pm"}, {"days": "Sat-Sun", "time": "Closed"}], "id": "9511300023", "name": "USPS COLLECTION BOX - BLUE BOX", "address": {"city": "SAN JOSE", "state": "CA", "street": "1 ALMADEN BLVD", "postcode": "95113"}}},
{"geometry": {"type": "Point", "coordinates": [-121.8949565222, 37.3315838752]}, "type": "Feature", "properties": {"collection_times": [{"days": "Mon-Fri", "time": "3:00pm"}, {"days": "Sat-Sun", "time": "Closed"}], "id": "9511300024", "name": "USPS COLLECTION BOX - BLUE BOX", "address": {"city": "SAN JOSE", "state": "CA", "street": "333 W SAN FERNANDO ST", "postcode": "95113"}}},
{"geometry": {"type": "Point", "coordinates": [-121.8856986854, 37.3334624141]}, "type": "Feature", "properties": {"collection_times": [{"days": "Mon-Fri", "time": "5:00pm"}, {"days": "Sat", "time": "3:00pm"}, {"days": "Sun", "time": "Closed"}], "id": "9511300025", "name": "USPS COLLECTION BOX - BLUE BOX", "address": {"city": "SAN JOSE", "state": "CA", "street": "200 S 3RD ST", "postcode": "95113"}}},
{"geometry": {"type": "Point", "coordinates": [-121.8895870715, 37.334127237]}, "type": "Feature", "properties": {"collection_times": [{"days": "Mon-Fri", "time": "3:00pm"}, {"days": "Sat-Sun", "time": "Closed"}], "id": "9511300028", "name": "USPS COLLECTION BOX - BLUE BOX", "address": {"city": "SAN JOSE", "state": "CA", "street": "50 W SAN FERNANDO ST", "postcode": "95113"}}},
{"geometry": {"type": "Point", "coordinates": [-121.8919884782, 37.338019172]}, "type": "Feature", "properties": {"collection_times": [{"days": "Mon-Fri", "time": "5:00pm"}, {"days": "Sat", "time": "4:00pm"}, {"days": "Sun", "time": "Closed"}], "id": "9511300029", "name": "USPS COLLECTION BOX - BLUE BOX", "address": {"city": "SAN JOSE", "state": "CA", "street": "105 N 1ST ST", "postcode": "95113"}}},
{"geometry": {"type": "Point", "coordinates": [-121.8919884782, 37.338019172]}, "type": "Feature", "properties": {"collection_times": [{"days": "Mon-Fri", "time": "5:00pm"}, {"days": "Sat", "time": "4:00pm"}, {"days": "Sun", "time": "Closed"}], "id": "9511300030", "name": "USPS COLLECTION BOX - BLUE BOX", "address": {"city": "SAN JOSE", "state": "CA", "street": "105 N 1ST ST", "postcode": "95113"}}},
{"geometry": {"type": "Point", "coordinates": [-121.8931702542, 37.3349281002]}, "type": "Feature", "properties": {"collection_times": [{"days": "Mon-Fri", "time": "2:00pm"}, {"days": "Sat-Sun", "time": "Closed"}], "id": "9511300035", "name": "USPS COLLECTION BOX - BLUE BOX", "address": {"city": "SAN JOSE", "state": "CA", "street": "160 W SANTA CLARA ST", "postcode": "95113"}}},
{"geometry": {"type": "Point", "coordinates": [-121.8856986854, 37.3334624141]}, "type": "Feature", "properties": {"collection_times": [{"days": "Mon-Fri", "time": "5:00pm"}, {"days": "Sat", "time": "3:00pm"}, {"days": "Sun", "time": "Closed"}], "id": "9511300046", "name": "USPS COLLECTION BOX - BLUE BOX", "address": {"city": "SAN JOSE", "state": "CA", "street": "200 S 3RD ST", "postcode": "95113"}}},
{"geometry": {"type": "Point", "coordinates": [-121.8810226622, 37.3406252202]}, "type": "Feature", "properties": {"collection_times": [{"days": "Mon-Fri", "time": "2:00pm"}, {"days": "Sat-Sun", "time": "Closed"}], "id": "9511300051", "name": "USPS COLLECTION BOX - BLUE BOX", "address": {"city": "SAN JOSE", "state": "CA", "street": "448 E SANTA CLARA ST", "postcode": "95113"}}},
{"geometry": {"type": "Point", "coordinates": [-121.8957502877, 37.3337049207]}, "type": "Feature", "properties": {"collection_times": [{"days": "Mon-Fri", "time": "12:00pm"}, {"days": "Sat-Sun", "time": "Closed"}], "id": "9511300088", "name": "USPS COLLECTION BOX - BLUE BOX", "address": {"city": "SAN JOSE", "state": "CA", "street": "333 W SANTA CLARA ST", "postcode": "95113"}}},
{"geometry": {"type": "Point", "coordinates": [-121.8894859113, 37.3313004441]}, "type": "Feature", "properties": {"collection_times": [{"days": "Mon-Fri", "time": "12:00pm"}, {"days": "Sat-Sun", "time": "Closed"}], "id": "9511300102", "name": "USPS COLLECTION BOX - BLUE BOX", "address": {"city": "SAN JOSE", "state": "CA", "street": "255 N MARKET ST", "postcode": "95113"}}},
{"geometry": {"type": "Point", "coordinates": [-121.8932555258, 37.3323874193]}, "type": "Feature", "properties": {"collection_times": [{"days": "Mon-Fri", "time": "3:00pm"}, {"days": "Sat-Sun", "time": "Closed"}], "id": "9511300103", "name": "USPS COLLECTION BOX - BLUE BOX", "address": {"city": "SAN JOSE", "state": "CA", "street": "101 PARK CENTER PLZ", "postcode": "95113"}}},
{"geometry": {"type": "Point", "coordinates": [-121.8909238151, 37.3339426954]}, "type": "Feature", "properties": {"collection_times": [{"days": "Mon-Fri", "time": "1:00pm"}, {"days": "Sat-Sun", "time": "Closed"}], "id": "9511300106", "name": "USPS COLLECTION BOX - BLUE BOX", "address": {"city": "SAN JOSE", "state": "CA", "street": "95 S MARKET ST", "postcode": "95113"}}},
{"geometry": {"type": "Point", "coordinates": [-121.8917459716, 37.3356047528]}, "type": "Feature", "properties": {"collection_times": [{"days": "Mon-Fri", "time": "1:00pm"}, {"days": "Sat-Sun", "time": "Closed"}], "id": "9511300116", "name": "USPS COLLECTION BOX - BLUE BOX", "address": {"city": "SAN JOSE", "state": "CA", "street": "84 W SANTA CLARA ST", "postcode": "95113"}}},
{"geometry": {"type": "Point", "coordinates": [-121.8949565222, 37.3315838752]}, "type": "Feature", "properties": {"collection_times": [{"days": "Mon-Fri", "time": "3:00pm"}, {"days": "Sat-Sun", "time": "Closed"}], "id": "9511300117", "name": "USPS COLLECTION BOX - BLUE BOX", "address": {"city": "SAN JOSE", "state": "CA", "street": "333 W SAN FERNANDO ST", "postcode": "95113"}}},
{"geometry": {"type": "Point", "coordinates": [-121.8931702542, 37.3349281002]}, "type": "Feature", "properties": {"collection_times": [{"days": "Mon-Fri", "time": "2:00pm"}, {"days": "Sat-Sun", "time": "Closed"}], "id": "9511300118", "name": "USPS COLLECTION BOX - BLUE BOX", "address": {"city": "SAN JOSE", "state": "CA", "street": "160 W SANTA CLARA ST", "postcode": "95113"}}},
{"geometry": {"type": "Point", "coordinates": [-121.8938938062, 37.3346504799]}, "type": "Feature", "properties": {"collection_times": [{"days": "Mon-Fri", "time": "2:00pm"}, {"days": "Sat-Sun", "time": "Closed"}], "id": "9511300120", "name": "USPS COLLECTION BOX - BLUE BOX", "address": {"city": "SAN JOSE", "state": "CA", "street": "201 E SANTA CLARA ST", "postcode": "95113"}}},
{"geometry": {"type": "Point", "coordinates": [-121.8895870715, 37.334127237]}, "type": "Feature", "properties": {"collection_times": [{"days": "Mon-Fri", "time": "3:00pm"}, {"days": "Sat-Sun", "time": "Closed"}], "id": "9511300121", "name": "USPS COLLECTION BOX - BLUE BOX", "address": {"city": "SAN JOSE", "state": "CA", "street": "50 W SAN FERNANDO ST", "postcode": "95113"}}},
{"geometry": {"type": "Point", "coordinates": [-121.8899064704, 37.3371970155]}, "type": "Feature", "properties": {"collection_times": [{"days": "Mon-Fri", "time": "2:00pm"}, {"days": "Sat-Sun", "time": "Closed"}], "id": "9511300123", "name": "USPS COLLECTION BOX - BLUE BOX", "address": {"city": "SAN JOSE", "state": "CA", "street": "2 N 2ND ST", "postcode": "95113"}}},
{"geometry": {"type": "Point", "coordinates": [-121.8579973353, 37.3516161023]}, "type": "Feature", "properties": {"collection_times": [{"days": "Mon-Sat", "time": "12:00pm"}, {"days": "Sun", "time": "Closed"}], "id": "9511600008", "name": "USPS COLLECTION BOX - BLUE BOX", "address": {"city": "SAN JOSE", "state": "CA", "street": "1640 ALUM ROCK AVE", "postcode": "95116"}}},
{"geometry": {"type": "Point", "coordinates": [-121.8630729626, 37.3565503023]}, "type": "Feature", "properties": {"collection_times": [{"days": "Mon-Fri", "time": "12:00pm"}, {"days": "Sat", "time": "11:00am"}, {"days": "Sun", "time": "Closed"}], "id": "9511600012", "name": "USPS COLLECTION BOX - BLUE BOX", "address": {"city": "SAN JOSE", "state": "CA", "street": "1637 MCKEE RD", "postcode": "95116"}}},
{"geometry": {"type": "Point", "coordinates": [-121.8463333599, 37.3613625013]}, "type": "Feature", "properties": {"collection_times": [{"days": "Mon-Sat", "time": "12:00pm"}, {"days": "Sun", "time": "Closed"}], "id": "9511600014", "name": "USPS COLLECTION BOX - BLUE BOX", "address": {"city": "SAN JOSE", "state": "CA", "street": "115 N JACKSON AVE", "postcode": "95116"}}},
{"geometry": {"type": "Point", "coordinates": [-121.9730803152, 37.3158836439]}, "type": "Feature", "properties": {"collection_times": [{"days": "Mon-Fri", "time": "3:00pm"}, {"days": "Sat-Sun", "time": "Closed"}], "id": "9511700001", "name": "USPS COLLECTION BOX - BLUE BOX", "address": {"city": "SAN JOSE", "state": "CA", "street": "4010 MOORPARK AVE", "postcode": "95117"}}},
{"geometry": {"type": "Point", "coordinates": [-121.9743236051, 37.3158694483]}, "type": "Feature", "properties": {"collection_times": [{"days": "Mon-Fri", "time": "12:00pm"}, {"days": "Sat-Sun", "time": "Closed"}], "id": "9511700003", "name": "USPS COLLECTION BOX - BLUE BOX", "address": {"city": "SAN JOSE", "state": "CA", "street": "4155 MOORPARK AVE", "postcode": "95117"}}},
{"geometry": {"type": "Point", "coordinates": [-121.9593710038, 37.3232049769]}, "type": "Feature", "properties": {"collection_times": [{"days": "Mon-Fri", "time": "12:00pm"}, {"days": "Sat-Sun", "time": "Closed"}], "id": "9511700007", "name": "USPS COLLECTION BOX - BLUE BOX", "address": {"city": "SAN JOSE", "state": "CA", "street": "3490 STEVENS CREEK BLVD", "postcode": "95117"}}},
{"geometry": {"type": "Point", "coordinates": [-121.9546060451, 37.3232925158]}, "type": "Feature", "properties": {"collection_times": [{"days": "Mon-Fri", "time": "12:00pm"}, {"days": "Sat-Sun", "time": "Closed"}], "id": "9511700010", "name": "USPS COLLECTION BOX - BLUE BOX", "address": {"city": "SAN JOSE", "state": "CA", "street": "3275 STEVENS CREEK BLVD", "postcode": "95117"}}},
{"geometry": {"type": "Point", "coordinates": [-121.9615287209, 37.3232641248]}, "type": "Feature", "properties": {"collection_times": [{"days": "Mon-Fri", "time": "12:00pm"}, {"days": "Sat-Sun", "time": "Closed"}], "id": "9511700016", "name": "USPS COLLECTION BOX - BLUE BOX", "address": {"city": "SAN JOSE", "state": "CA", "street": "3550 STEVENS CREEK BLVD", "postcode": "95117"}}},
{"geometry": {"type": "Point", "coordinates": [-121.9546687419, 37.3158670824]}, "type": "Feature", "properties": {"collection_times": [{"days": "Mon-Fri", "time": "11:00am"}, {"days": "Sat-Sun", "time": "Closed"}], "id": "9511700019", "name": "USPS COLLECTION BOX - BLUE BOX", "address": {"city": "SAN JOSE", "state": "CA", "street": "604 EDEN AVE", "postcode": "95117"}}},
{"geometry": {"type": "Point", "coordinates": [-121.9612530915, 37.3010493384]}, "type": "Feature", "properties": {"collection_times": [{"days": "Mon-Fri", "time": "11:00am"}, {"days": "Sat-Sun", "time": "Closed"}], "id": "9511700020", "name": "USPS COLLECTION BOX - BLUE BOX", "address": {"city": "SAN JOSE", "state": "CA", "street": "1301 PHELPS AVE", "postcode": "95117"}}},
{"geometry": {"type": "Point", "coordinates": [-121.9730105207, 37.3084570275]}, "type": "Feature", "properties": {"collection_times": [{"days": "Mon-Fri", "time": "1:00pm"}, {"days": "Sat-Sun", "time": "Closed"}], "id": "9511700021", "name": "USPS COLLECTION BOX - BLUE BOX", "address": {"city": "SAN JOSE", "state": "CA", "street": "998 CAMELLIA WAY", "postcode": "95117"}}},
{"geometry": {"type": "Point", "coordinates": [-121.9779907779, 37.3008789923]}, "type": "Feature", "properties": {"collection_times": [{"days": "Mon-Fri", "time": "5:00pm"}, {"days": "Sat", "time": "2:00pm"}, {"days": "Sun", "time": "Closed"}], "id": "9511700024", "name": "USPS COLLECTION BOX - BLUE BOX", "address": {"city": "SAN JOSE", "state": "CA", "street": "4285 PAYNE AVE", "postcode": "95117"}}},
{"geometry": {"type": "Point", "coordinates": [-121.9779800905, 37.3008782349]}, "type": "Feature", "properties": {"collection_times": [{"days": "Mon-Fri", "time": "5:00pm"}, {"days": "Sat", "time": "2:00pm"}, {"days": "Sun", "time": "Closed"}], "id": "9511700027", "name": "USPS COLLECTION BOX - BLUE BOX", "address": {"city": "SAN JOSE", "state": "CA", "street": "4285 PAYNE AVE", "postcode": "95117"}}},
{"geometry": {"type": "Point", "coordinates": [-121.9779907779, 37.3008789923]}, "type": "Feature", "properties": {"collection_times": [{"days": "Mon-Fri", "time": "5:00pm"}, {"days": "Sat", "time": "2:00pm"}, {"days": "Sun", "time": "Closed"}], "id": "9511700028", "name": "USPS COLLECTION BOX - BLUE BOX", "address": {"city": "SAN JOSE", "state": "CA", "street": "4285 PAYNE AVE", "postcode": "95117"}}},
{"geometry": {"type": "Point", "coordinates": [-121.9779907779, 37.3008789923]}, "type": "Feature", "properties": {"collection_times": [{"days": "Mon-Fri", "time": "5:00pm"}, {"days": "Sat", "time": "2:00pm"}, {"days": "Sun", "time": "Closed"}], "id": "9511700038", "name": "USPS COLLECTION BOX - APC", "address": {"city": "SAN JOSE", "state": "CA", "street": "4285 PAYNE AVE", "postcode": "95117"}}},
{"geometry": {"type": "Point", "coordinates": [-121.9730803152, 37.3158836439]}, "type": "Feature", "properties": {"collection_times": [{"days": "Mon-Fri", "time": "3:00pm"}, {"days": "Sat-Sun", "time": "Closed"}], "id": "9511700039", "name": "USPS COLLECTION BOX - BLUE BOX", "address": {"city": "SAN JOSE", "state": "CA", "street": "4010 MOORPARK AVE", "postcode": "95117"}}},
{"geometry": {"type": "Point", "coordinates": [-121.8930652217, 37.2745307691]}, "type": "Feature", "properties": {"collection_times": [{"days": "Mon-Fri", "time": "12:00pm"}, {"days": "Sat", "time": "11:00am"}, {"days": "Sun", "time": "Closed"}], "id": "9511800002", "name": "USPS COLLECTION BOX - BLUE BOX", "address": {"city": "SAN JOSE", "state": "CA", "street": "1445 FOXWORTHY AVE STE 40", "postcode": "95118"}}},
{"geometry": {"type": "Point", "coordinates": [-121.8978905421, 37.2555168176]}, "type": "Feature", "properties": {"collection_times": [{"days": "Mon-Fri", "time": "12:00pm"}, {"days": "Sat-Sun", "time": "Closed"}], "id": "9511800004", "name": "USPS COLLECTION BOX - BLUE BOX", "address": {"city": "SAN JOSE", "state": "CA", "street": "1532 BRANHAM LN", "postcode": "95118"}}},
{"geometry": {"type": "Point", "coordinates": [-121.9077648717, 37.2519405033]}, "type": "Feature", "properties": {"collection_times": [{"days": "Mon-Sat", "time": "12:00pm"}, {"days": "Sun", "time": "Closed"}], "id": "9511800005", "name": "USPS COLLECTION BOX - BLUE BOX", "address": {"city": "SAN JOSE", "state": "CA", "street": "1683 BRANHAM LN", "postcode": "95118"}}},
{"geometry": {"type": "Point", "coordinates": [-121.8788919395, 37.2624245453]}, "type": "Feature", "properties": {"collection_times": [{"days": "Mon-Fri", "time": "5:00pm"}, {"days": "Sat", "time": "2:00pm"}, {"days": "Sun", "time": "Closed"}], "id": "9511800017", "name": "USPS COLLECTION BOX - BLUE BOX", "address": {"city": "SAN JOSE", "state": "CA", "street": "1175 BRANHAM LN", "postcode": "95118"}}},
{"geometry": {"type": "Point", "coordinates": [-121.8889458167, 37.2561534486]}, "type": "Feature", "properties": {"collection_times": [{"days": "Mon-Fri", "time": "5:00pm"}, {"days": "Sat", "time": "2:00pm"}, {"days": "Sun", "time": "Closed"}], "id": "9511800023", "name": "USPS COLLECTION BOX - BLUE BOX", "address": {"city": "SAN JOSE", "state": "CA", "street": "1175 BRANHAM LN", "postcode": "95118"}}},
{"geometry": {"type": "Point", "coordinates": [-121.8892161383, 37.2438868362]}, "type": "Feature", "properties": {"collection_times": [{"days": "Mon-Fri", "time": "4:00pm"}, {"days": "Sat", "time": "3:00pm"}, {"days": "Sun", "time": "Closed"}], "id": "9511800030", "name": "USPS COLLECTION BOX - BLUE BOX", "address": {"city": "SAN JOSE", "state": "CA", "street": "1375 BLOSSOM HILL RD STE 61", "postcode": "95118"}}},
{"geometry": {"type": "Point", "coordinates": [-121.8794053437, 37.2768341684]}, "type": "Feature", "properties": {"collection_times": [{"days": "Mon-Fri", "time": "3:00pm"}, {"days": "Sat-Sun", "time": "Closed"}], "id": "9511800031", "name": "USPS COLLECTION BOX - BLUE BOX", "address": {"city": "SAN JOSE", "state": "CA", "street": "3150 ALMADEN EXPY STE 100", "postcode": "95118"}}},
{"geometry": {"type": "Point", "coordinates": [-121.8788919395, 37.2624245453]}, "type": "Feature", "properties": {"collection_times": [{"days": "Mon-Fri", "time": "5:00pm"}, {"days": "Sat", "time": "2:00pm"}, {"days": "Sun", "time": "Closed"}], "id": "9511800039", "name": "USPS COLLECTION BOX - APC", "address": {"city": "SAN JOSE", "state": "CA", "street": "1175 BRANHAM LN", "postcode": "95118"}}},
{"geometry": {"type": "Point", "coordinates": [-121.8015181425, 37.2369282307]}, "type": "Feature", "properties": {"collection_times": [{"days": "Mon-Sat", "time": "12:00pm"}, {"days": "Sun", "time": "Closed"}], "id": "9511900001", "name": "USPS COLLECTION BOX - BLUE BOX", "address": {"city": "SAN JOSE", "state": "CA", "street": "6239 SANTA TERESA BLVD", "postcode": "95119"}}},
{"geometry": {"type": "Point", "coordinates": [-121.8005327376, 37.2394159934]}, "type": "Feature", "properties": {"collection_times": [{"days": "Mon-Fri", "time": "1:00pm"}, {"days": "Sat-Sun", "time": "Closed"}], "id": "9511900004", "name": "USPS COLLECTION BOX - BLUE BOX", "address": {"city": "SAN JOSE", "state": "CA", "street": "250 HOSPITAL PKWY", "postcode": "95119"}}},
{"geometry": {"type": "Point", "coordinates": [-121.8028352704, 37.2392875526]}, "type": "Feature", "properties": {"collection_times": [{"days": "Mon-Fri", "time": "1:00pm"}, {"days": "Sat-Sun", "time": "Closed"}], "id": "9511900005", "name": "USPS COLLECTION BOX - BLUE BOX", "address": {"city": "SAN JOSE", "state": "CA", "street": "275 HOSPITAL PKWY", "postcode": "95119"}}},
{"geometry": {"type": "Point", "coordinates": [-121.7756326344, 37.2283174724]}, "type": "Feature", "properties": {"collection_times": [{"days": "Mon-Sat", "time": "1:00pm"}, {"days": "Sun", "time": "Closed"}], "id": "9511900008", "name": "USPS COLLECTION BOX - BLUE BOX", "address": {"city": "SAN JOSE", "state": "CA", "street": "155 BERNAL RD", "postcode": "95119"}}},
{"geometry": {"type": "Point", "coordinates": [-121.7877880983, 37.2305907035]}, "type": "Feature", "properties": {"collection_times": [{"days": "Mon-Fri", "time": "12:00pm"}, {"days": "Sat-Sun", "time": "Closed"}], "id": "9511900009", "name": "USPS COLLECTION BOX - BLUE BOX", "address": {"city": "SAN JOSE", "state": "CA", "street": "6111 SAN INGNACIO AVE", "postcode": "95119"}}},
{"geometry": {"type": "Point", "coordinates": [-121.7756326344, 37.2283174724]}, "type": "Feature", "properties": {"collection_times": [{"days": "Mon-Sat", "time": "1:00pm"}, {"days": "Sun", "time": "Closed"}], "id": "9511900010", "name": "USPS COLLECTION BOX - BLUE BOX", "address": {"city": "SAN JOSE", "state": "CA", "street": "155 BERNAL RD", "postcode": "95119"}}},
{"geometry": {"type": "Point", "coordinates": [-121.8580484828, 37.2153842163]}, "type": "Feature", "properties": {"collection_times": [{"days": "Mon-Sat", "time": "1:00pm"}, {"days": "Sun", "time": "Closed"}], "id": "9512000003", "name": "USPS COLLECTION BOX - BLUE BOX", "address": {"city": "SAN JOSE", "state": "CA", "street": "1594 COLEMAN RD", "postcode": "95120"}}},
{"geometry": {"type": "Point", "coordinates": [-121.8719042009, 37.2293277193]}, "type": "Feature", "properties": {"collection_times": [{"days": "Mon-Fri", "time": "12:00pm"}, {"days": "Sat-Sun", "time": "Closed"}], "id": "9512000006", "name": "USPS COLLECTION BOX - BLUE BOX", "address": {"city": "SAN JOSE", "state": "CA", "street": "1187 REDMOND AVE", "postcode": "95120"}}},
{"geometry": {"type": "Point", "coordinates": [-121.874156132, 37.2392034417]}, "type": "Feature", "properties": {"collection_times": [{"days": "Mon-Sat", "time": "2:00pm"}, {"days": "Sun", "time": "Closed"}], "id": "9512000008", "name": "USPS COLLECTION BOX - BLUE BOX", "address": {"city": "SAN JOSE", "state": "CA", "street": "5965 ALMADEN EXPY", "postcode": "95120"}}},
{"geometry": {"type": "Point", "coordinates": [-121.884614147, 37.2274331617]}, "type": "Feature", "properties": {"collection_times": [{"days": "Mon-Sat", "time": "12:00pm"}, {"days": "Sun", "time": "Closed"}], "id": "9512000009", "name": "USPS COLLECTION BOX - BLUE BOX", "address": {"city": "SAN JOSE", "state": "CA", "street": "6111 MERIDIAN AVE", "postcode": "95120"}}},
{"geometry": {"type": "Point", "coordinates": [-121.8640906504, 37.2209306135]}, "type": "Feature", "properties": {"collection_times": [{"days": "Mon-Fri", "time": "12:00pm"}, {"days": "Sat-Sun", "time": "Closed"}], "id": "9512000014", "name": "USPS COLLECTION BOX - BLUE BOX", "address": {"city": "SAN JOSE", "state": "CA", "street": "6484 CAMDEN AVE", "postcode": "95120"}}},
{"geometry": {"type": "Point", "coordinates": [-121.862249663, 37.218132743]}, "type": "Feature", "properties": {"collection_times": [{"days": "Mon-Fri", "time": "5:00pm"}, {"days": "Sat", "time": "2:00pm"}, {"days": "Sun", "time": "Closed"}], "id": "9512000017", "name": "USPS COLLECTION BOX - BLUE BOX", "address": {"city": "SAN JOSE", "state": "CA", "street": "6525 CROWN BLVD", "postcode": "95120"}}},
{"geometry": {"type": "Point", "coordinates": [-121.8384447671, 37.1955910855]}, "type": "Feature", "properties": {"collection_times": [{"days": "Mon-Sat", "time": "2:00pm"}, {"days": "Sun", "time": "Closed"}], "id": "9512000020", "name": "USPS COLLECTION BOX - BLUE BOX", "address": {"city": "SAN JOSE", "state": "CA", "street": "6938 VIA VALIENTE", "postcode": "95120"}}},
{"geometry": {"type": "Point", "coordinates": [-121.8184565604, 37.1792879929]}, "type": "Feature", "properties": {"collection_times": [{"days": "Mon-Fri", "time": "3:30pm"}, {"days": "Sat", "time": "9:00am"}, {"days": "Sun", "time": "Closed"}], "id": "9512000024", "name": "USPS COLLECTION BOX - BLUE BOX", "address": {"city": "SAN JOSE", "state": "CA", "street": "21300 ALMADEN RD", "postcode": "95120"}}},
{"geometry": {"type": "Point", "coordinates": [-121.862249663, 37.218132743]}, "type": "Feature", "properties": {"collection_times": [{"days": "Mon-Fri", "time": "5:00pm"}, {"days": "Sat", "time": "2:00pm"}, {"days": "Sun", "time": "Closed"}], "id": "9512000025", "name": "USPS COLLECTION BOX - APC", "address": {"city": "SAN JOSE", "state": "CA", "street": "6525 CROWN BLVD", "postcode": "95120"}}},
{"geometry": {"type": "Point", "coordinates": [-121.8221513496, 37.2997930162]}, "type": "Feature", "properties": {"collection_times": [{"days": "Mon-Sat", "time": "3:00pm"}, {"days": "Sun", "time": "Closed"}], "id": "9512100003", "name": "USPS COLLECTION BOX - BLUE BOX", "address": {"city": "SAN JOSE", "state": "CA", "street": "1055 E CAPITOL EXPY", "postcode": "95121"}}},
{"geometry": {"type": "Point", "coordinates": [-121.809690023, 37.30847004]}, "type": "Feature", "properties": {"collection_times": [{"days": "Mon-Sat", "time": "2:00pm"}, {"days": "Sun", "time": "Closed"}], "id": "9512100004", "name": "USPS COLLECTION BOX - BLUE BOX", "address": {"city": "SAN JOSE", "state": "CA", "street": "1771 E CAPITOL EXPY", "postcode": "95121"}}},
{"geometry": {"type": "Point", "coordinates": [-121.7937383741, 37.3134938183]}, "type": "Feature", "properties": {"collection_times": [{"days": "Mon-Fri", "time": "11:00am"}, {"days": "Sat-Sun", "time": "Closed"}], "id": "9512100005", "name": "USPS COLLECTION BOX - BLUE BOX", "address": {"city": "SAN JOSE", "state": "CA", "street": "2726 ABORN RD", "postcode": "95121"}}},
{"geometry": {"type": "Point", "coordinates": [-121.8272321215, 37.319453814]}, "type": "Feature", "properties": {"collection_times": [{"days": "Mon-Fri", "time": "5:00pm"}, {"days": "Sat", "time": "2:00pm"}, {"days": "Sun", "time": "Closed"}], "id": "9512100013", "name": "USPS COLLECTION BOX - BLUE BOX", "address": {"city": "SAN JOSE", "state": "CA", "street": "2450 ALVIN AVE", "postcode": "95121"}}},
{"geometry": {"type": "Point", "coordinates": [-121.8098363018, 37.3068335932]}, "type": "Feature", "properties": {"collection_times": [{"days": "Mon-Fri", "time": "5:00pm"}, {"days": "Sat", "time": "2:00pm"}, {"days": "Sun", "time": "Closed"}], "id": "9512100014", "name": "USPS COLLECTION BOX - BLUE BOX", "address": {"city": "SAN JOSE", "state": "CA", "street": "2450 ALVIN AVE", "postcode": "95121"}}},
{"geometry": {"type": "Point", "coordinates": [-121.816495527, 37.3272154921]}, "type": "Feature", "properties": {"collection_times": [{"days": "Mon-Sat", "time": "3:00pm"}, {"days": "Sun", "time": "Closed"}], "id": "9512200002", "name": "USPS COLLECTION BOX - BLUE BOX", "address": {"city": "SAN JOSE", "state": "CA", "street": "2230 EASTRIDGE LOOP", "postcode": "95122"}}},
{"geometry": {"type": "Point", "coordinates": [-121.8095587145, 37.3236545013]}, "type": "Feature", "properties": {"collection_times": [{"days": "Mon-Sat", "time": "12:00pm"}, {"days": "Sun", "time": "Closed"}], "id": "9512200003", "name": "USPS COLLECTION BOX - BLUE BOX", "address": {"city": "SAN JOSE", "state": "CA", "street": "2225 QUIMBY RD", "postcode": "95122"}}},
{"geometry": {"type": "Point", "coordinates": [-121.8262502655, 37.3222373165]}, "type": "Feature", "properties": {"collection_times": [{"days": "Mon-Sat", "time": "12:00pm"}, {"days": "Sun", "time": "Closed"}], "id": "9512200006", "name": "USPS COLLECTION BOX - BLUE BOX", "address": {"city": "SAN JOSE", "state": "CA", "street": "1685 TULLY RD", "postcode": "95122"}}},
{"geometry": {"type": "Point", "coordinates": [-121.8528987822, 37.3318760661]}, "type": "Feature", "properties": {"collection_times": [{"days": "Mon-Fri", "time": "12:00pm"}, {"days": "Sat-Sun", "time": "Closed"}], "id": "9512200008", "name": "USPS COLLECTION BOX - BLUE BOX", "address": {"city": "SAN JOSE", "state": "CA", "street": "1173 MCLAUGHLIN AVE", "postcode": "95122"}}},
{"geometry": {"type": "Point", "coordinates": [-121.8317704513, 37.3282083378]}, "type": "Feature", "properties": {"collection_times": [{"days": "Mon-Fri", "time": "11:00am"}, {"days": "Sat-Sun", "time": "Closed"}], "id": "9512200013", "name": "USPS COLLECTION BOX - BLUE BOX", "address": {"city": "SAN JOSE", "state": "CA", "street": "2001 S KING RD", "postcode": "95122"}}},
{"geometry": {"type": "Point", "coordinates": [-121.8091376591, 37.2514367119]}, "type": "Feature", "properties": {"collection_times": [{"days": "Mon-Fri", "time": "11:00am"}, {"days": "Sat-Sun", "time": "Closed"}], "id": "9512300003", "name": "USPS COLLECTION BOX - BLUE BOX", "address": {"city": "SAN JOSE", "state": "CA", "street": "165 BLOSSOM HILL RD", "postcode": "95123"}}},
{"geometry": {"type": "Point", "coordinates": [-121.8116263169, 37.2515582691]}, "type": "Feature", "properties": {"collection_times": [{"days": "Mon-Fri", "time": "12:00pm"}, {"days": "Sat-Sun", "time": "Closed"}], "id": "9512300004", "name": "USPS COLLECTION BOX - BLUE BOX", "address": {"city": "SAN JOSE", "state": "CA", "street": "195 BLOSSOM HILL RD", "postcode": "95123"}}},
{"geometry": {"type": "Point", "coordinates": [-121.8295387383, 37.2511809239]}, "type": "Feature", "properties": {"collection_times": [{"days": "Mon-Fri", "time": "12:00pm"}, {"days": "Sat-Sun", "time": "Closed"}], "id": "9512300007", "name": "USPS COLLECTION BOX - BLUE BOX", "address": {"city": "SAN JOSE", "state": "CA", "street": "430 BLOSSOM HILL RD", "postcode": "95123"}}},
{"geometry": {"type": "Point", "coordinates": [-121.8595931469, 37.2529975453]}, "type": "Feature", "properties": {"collection_times": [{"days": "Mon-Sat", "time": "12:00pm"}, {"days": "Sun", "time": "Closed"}], "id": "9512300012", "name": "USPS COLLECTION BOX - BLUE BOX", "address": {"city": "SAN JOSE", "state": "CA", "street": "5450 THORNWOOD DR", "postcode": "95123"}}},
{"geometry": {"type": "Point", "coordinates": [-121.8306989748, 37.2386812675]}, "type": "Feature", "properties": {"collection_times": [{"days": "Mon-Sat", "time": "12:00pm"}, {"days": "Sun", "time": "Closed"}], "id": "9512300015", "name": "USPS COLLECTION BOX - BLUE BOX", "address": {"city": "SAN JOSE", "state": "CA", "street": "6009 SNELL AVE", "postcode": "95123"}}},
{"geometry": {"type": "Point", "coordinates": [-121.8175649253, 37.2532403359]}, "type": "Feature", "properties": {"collection_times": [{"days": "Mon-Fri", "time": "3:00pm"}, {"days": "Sat-Sun", "time": "Closed"}], "id": "9512300017", "name": "USPS COLLECTION BOX - BLUE BOX", "address": {"city": "SAN JOSE", "state": "CA", "street": "5480 LEAN AVE", "postcode": "95123"}}},
{"geometry": {"type": "Point", "coordinates": [-121.8673912124, 37.2476706811]}, "type": "Feature", "properties": {"collection_times": [{"days": "Mon-Sat", "time": "11:00am"}, {"days": "Sun", "time": "Closed"}], "id": "9512300023", "name": "USPS COLLECTION BOX - BLUE BOX", "address": {"city": "SAN JOSE", "state": "CA", "street": "5770 WINFIELD BLVD", "postcode": "95123"}}},
{"geometry": {"type": "Point", "coordinates": [-121.8471879466, 37.2485684569]}, "type": "Feature", "properties": {"collection_times": [{"days": "Mon-Fri", "time": "5:00pm"}, {"days": "Sat", "time": "2:00pm"}, {"days": "Sun", "time": "Closed"}], "id": "9512300034", "name": "USPS COLLECTION BOX - BLUE BOX", "address": {"city": "SAN JOSE", "state": "CA", "street": "5706 CAHALAN AVE", "postcode": "95123"}}},
{"geometry": {"type": "Point", "coordinates": [-121.8665217376, 37.2518086715]}, "type": "Feature", "properties": {"collection_times": [{"days": "Mon-Fri", "time": "12:00pm"}, {"days": "Sat-Sun", "time": "Closed"}], "id": "9512300039", "name": "USPS COLLECTION BOX - BLUE BOX", "address": {"city": "SAN JOSE", "state": "CA", "street": "5595 WINFIELD BLVD", "postcode": "95123"}}},
{"geometry": {"type": "Point", "coordinates": [-121.8471879466, 37.2485684569]}, "type": "Feature", "properties": {"collection_times": [{"days": "Mon-Fri", "time": "5:00pm"}, {"days": "Sat", "time": "2:00pm"}, {"days": "Sun", "time": "Closed"}], "id": "9512300044", "name": "USPS COLLECTION BOX - BLUE BOX", "address": {"city": "SAN JOSE", "state": "CA", "street": "5706 CAHALAN AVE", "postcode": "95123"}}},
{"geometry": {"type": "Point", "coordinates": [-121.8471879466, 37.2485684569]}, "type": "Feature", "properties": {"collection_times": [{"days": "Mon-Fri", "time": "5:00pm"}, {"days": "Sat", "time": "2:00pm"}, {"days": "Sun", "time": "Closed"}], "id": "9512300048", "name": "USPS COLLECTION BOX - BLUE BOX", "address": {"city": "SAN JOSE", "state": "CA", "street": "5706 CAHALAN AVE", "postcode": "95123"}}},
{"geometry": {"type": "Point", "coordinates": [-121.8471879466, 37.2485684569]}, "type": "Feature", "properties": {"collection_times": [{"days": "Mon-Fri", "time": "5:00pm"}, {"days": "Sat", "time": "2:00pm"}, {"days": "Sun", "time": "Closed"}], "id": "9512300049", "name": "USPS COLLECTION BOX - APC", "address": {"city": "SAN JOSE", "state": "CA", "street": "5706 CAHALAN AVE", "postcode": "95123"}}},
{"geometry": {"type": "Point", "coordinates": [-121.9408766233, 37.2601946676]}, "type": "Feature", "properties": {"collection_times": [{"days": "Mon-Fri", "time": "1:00pm"}, {"days": "Sat-Sun", "time": "Closed"}], "id": "9512400001", "name": "USPS COLLECTION BOX - BLUE BOX", "address": {"city": "SAN JOSE", "state": "CA", "street": "2256 WOODARD RD", "postcode": "95124"}}},
{"geometry": {"type": "Point", "coordinates": [-121.9345860736, 37.2621202471]}, "type": "Feature", "properties": {"collection_times": [{"days": "Mon-Fri", "time": "12:00pm"}, {"days": "Sat", "time": "11:00am"}, {"days": "Sun", "time": "Closed"}], "id": "9512400002", "name": "USPS COLLECTION BOX - BLUE BOX", "address": {"city": "SAN JOSE", "state": "CA", "street": "2059 CAMDEN AVE", "postcode": "95124"}}},
{"geometry": {"type": "Point", "coordinates": [-121.9313478889, 37.2591891525]}, "type": "Feature", "properties": {"collection_times": [{"days": "Mon-Fri", "time": "12:00pm"}, {"days": "Sat", "time": "11:00am"}, {"days": "Sun", "time": "Closed"}], "id": "9512400005", "name": "USPS COLLECTION BOX - BLUE BOX", "address": {"city": "SAN JOSE", "state": "CA", "street": "14458 UNION AVE", "postcode": "95124"}}},
{"geometry": {"type": "Point", "coordinates": [-121.939647529, 37.264997481]}, "type": "Feature", "properties": {"collection_times": [{"days": "Mon-Fri", "time": "11:00am"}, {"days": "Sat-Sun", "time": "Closed"}], "id": "9512400006", "name": "USPS COLLECTION BOX - BLUE BOX", "address": {"city": "SAN JOSE", "state": "CA", "street": "2230 CAMDEN AVE", "postcode": "95124"}}},
{"geometry": {"type": "Point", "coordinates": [-121.9499522845, 37.2514348565]}, "type": "Feature", "properties": {"collection_times": [{"days": "Mon-Fri", "time": "12:00pm"}, {"days": "Sat-Sun", "time": "Closed"}], "id": "9512400011", "name": "USPS COLLECTION BOX - BLUE BOX", "address": {"city": "SAN JOSE", "state": "CA", "street": "2512 SAMARITAN CT", "postcode": "95124"}}},
{"geometry": {"type": "Point", "coordinates": [-121.9355308318, 37.2482952834]}, "type": "Feature", "properties": {"collection_times": [{"days": "Mon-Fri", "time": "11:00am"}, {"days": "Sat-Sun", "time": "Closed"}], "id": "9512400012", "name": "USPS COLLECTION BOX - BLUE BOX", "address": {"city": "SAN JOSE", "state": "CA", "street": "15231 CARLTON AVE", "postcode": "95124"}}},
{"geometry": {"type": "Point", "coordinates": [-121.9325876299, 37.2717805677]}, "type": "Feature", "properties": {"collection_times": [{"days": "Mon-Sat", "time": "11:00am"}, {"days": "Sun", "time": "Closed"}], "id": "9512400014", "name": "USPS COLLECTION BOX - BLUE BOX", "address": {"city": "SAN JOSE", "state": "CA", "street": "2730 UNION AVE", "postcode": "95124"}}},
{"geometry": {"type": "Point", "coordinates": [-121.90368, 37.23972]}, "type": "Feature", "properties": {"collection_times": [{"days": "Mon-Sat", "time": "12:00pm"}, {"days": "Sun", "time": "Closed"}], "id": "9512400015", "name": "USPS COLLECTION BOX - BLUE BOX", "address": {"city": "SAN JOSE", "state": "CA", "street": "5415 CAMDEN AVE", "postcode": "95124"}}},
{"geometry": {"type": "Point", "coordinates": [-121.9162090577, 37.2623459492]}, "type": "Feature", "properties": {"collection_times": [{"days": "Mon-Fri", "time": "1:00pm"}, {"days": "Sat-Sun", "time": "Closed"}], "id": "9512400016", "name": "USPS COLLECTION BOX - BLUE BOX", "address": {"city": "SAN JOSE", "state": "CA", "street": "1797 DONNA LN", "postcode": "95124"}}},
{"geometry": {"type": "Point", "coordinates": [-121.9265202333, 37.2470448958]}, "type": "Feature", "properties": {"collection_times": [{"days": "Mon-Fri", "time": "1:00pm"}, {"days": "Sat-Sun", "time": "Closed"}], "id": "9512400017", "name": "USPS COLLECTION BOX - BLUE BOX", "address": {"city": "SAN JOSE", "state": "CA", "street": "1938 ROSSWOOD DR", "postcode": "95124"}}},
{"geometry": {"type": "Point", "coordinates": [-121.8993846758, 37.2568106966]}, "type": "Feature", "properties": {"collection_times": [{"days": "Mon-Fri", "time": "2:30pm"}, {"days": "Sat", "time": "11:00am"}, {"days": "Sun", "time": "Closed"}], "id": "9512400021", "name": "USPS COLLECTION BOX - BLUE BOX", "address": {"city": "SAN JOSE", "state": "CA", "street": "4550 MERIDIAN AVE", "postcode": "95124"}}},
{"geometry": {"type": "Point", "coordinates": [-121.9132438849, 37.2741902551]}, "type": "Feature", "properties": {"collection_times": [{"days": "Mon-Fri", "time": "1:00pm"}, {"days": "Sat-Sun", "time": "Closed"}], "id": "9512400024", "name": "USPS COLLECTION BOX - BLUE BOX", "address": {"city": "SAN JOSE", "state": "CA", "street": "1759 VALPICO DR", "postcode": "95124"}}},
{"geometry": {"type": "Point", "coordinates": [-121.9465276183, 37.2511059939]}, "type": "Feature", "properties": {"collection_times": [{"days": "Mon-Fri", "time": "12:00pm"}, {"days": "Sat-Sun", "time": "Closed"}], "id": "9512400025", "name": "USPS COLLECTION BOX - BLUE BOX", "address": {"city": "SAN JOSE", "state": "CA", "street": "2425 SAMARITAN DR", "postcode": "95124"}}},
{"geometry": {"type": "Point", "coordinates": [-121.9498771594, 37.2514425269]}, "type": "Feature", "properties": {"collection_times": [{"days": "Mon-Sat", "time": "12:00pm"}, {"days": "Sun", "time": "Closed"}], "id": "9512400026", "name": "USPS COLLECTION BOX - BLUE BOX", "address": {"city": "SAN JOSE", "state": "CA", "street": "2505 SAMARITAN DR", "postcode": "95124"}}},
{"geometry": {"type": "Point", "coordinates": [-121.913960758, 37.2433020136]}, "type": "Feature", "properties": {"collection_times": [{"days": "Mon-Fri", "time": "11:00am"}, {"days": "Sat-Sun", "time": "Closed"}], "id": "9512400029", "name": "USPS COLLECTION BOX - BLUE BOX", "address": {"city": "SAN JOSE", "state": "CA", "street": "5208 ELROSE AVE", "postcode": "95124"}}},
{"geometry": {"type": "Point", "coordinates": [-121.9149418221, 37.2649258433]}, "type": "Feature", "properties": {"collection_times": [{"days": "Mon-Fri", "time": "5:00pm"}, {"days": "Sat", "time": "5:05pm"}, {"days": "Sun", "time": "Closed"}], "id": "9512400035", "name": "USPS COLLECTION BOX - BLUE BOX", "address": {"city": "SAN JOSE", "state": "CA", "street": "1769 HILLSDALE AVE", "postcode": "95124"}}},
{"geometry": {"type": "Point", "coordinates": [-121.9149508947, 37.2648697214]}, "type": "Feature", "properties": {"collection_times": [{"days": "Mon-Fri", "time": "5:00pm"}, {"days": "Sat", "time": "5:05pm"}, {"days": "Sun", "time": "Closed"}], "id": "9512400037", "name": "USPS COLLECTION BOX - BLUE BOX", "address": {"city": "SAN JOSE", "state": "CA", "street": "1769 HILLSDALE AVE", "postcode": "95124"}}},
{"geometry": {"type": "Point", "coordinates": [-121.9251882215, 37.2672959703]}, "type": "Feature", "properties": {"collection_times": [{"days": "Mon-Sat", "time": "11:00am"}, {"days": "Sun", "time": "Closed"}], "id": "9512400053", "name": "USPS COLLECTION BOX - BLUE BOX", "address": {"city": "SAN JOSE", "state": "CA", "street": "1915 FOXWORTHY AVE", "postcode": "95124"}}},
{"geometry": {"type": "Point", "coordinates": [-121.9510772785, 37.2530933649]}, "type": "Feature", "properties": {"collection_times": [{"days": "Mon-Sat", "time": "12:00pm"}, {"days": "Sun", "time": "Closed"}], "id": "9512400055", "name": "USPS COLLECTION BOX - BLUE BOX", "address": {"city": "SAN JOSE", "state": "CA", "street": "2585 SAMARITAN DR", "postcode": "95124"}}},
{"geometry": {"type": "Point", "coordinates": [-121.9149508947, 37.2648697214]}, "type": "Feature", "properties": {"collection_times": [{"days": "Mon-Fri", "time": "5:00pm"}, {"days": "Sat", "time": "5:05pm"}, {"days": "Sun", "time": "Closed"}], "id": "9512400058", "name": "USPS COLLECTION BOX - APC", "address": {"city": "SAN JOSE", "state": "CA", "street": "1769 HILLSDALE AVE", "postcode": "95124"}}},
{"geometry": {"type": "Point", "coordinates": [-121.9510772785, 37.2530933649]}, "type": "Feature", "properties": {"collection_times": [{"days": "Mon-Sat", "time": "12:00pm"}, {"days": "Sun", "time": "Closed"}], "id": "9512400060", "name": "USPS COLLECTION BOX - BLUE BOX", "address": {"city": "SAN JOSE", "state": "CA", "street": "2585 SAMARITAN DR", "postcode": "95124"}}},
{"geometry": {"type": "Point", "coordinates": [-121.9134367072, 37.2906026278]}, "type": "Feature", "properties": {"collection_times": [{"days": "Mon-Fri", "time": "6:00pm"}, {"days": "Sat", "time": "5:00pm"}, {"days": "Sun", "time": "Closed"}], "id": "9512500000", "name": "USPS COLLECTION BOX - BLUE BOX", "address": {"city": "SAN JOSE", "state": "CA", "street": "1750 MERIDIAN AVE", "postcode": "95125"}}},
{"geometry": {"type": "Point", "coordinates": [-121.8967061185, 37.303973613]}, "type": "Feature", "properties": {"collection_times": [{"days": "Mon-Fri", "time": "12:00pm"}, {"days": "Sat", "time": "10:00am"}, {"days": "Sun", "time": "Closed"}], "id": "9512500002", "name": "USPS COLLECTION BOX - BLUE BOX", "address": {"city": "SAN JOSE", "state": "CA", "street": "1093 MINNESOTA AVE", "postcode": "95125"}}},
{"geometry": {"type": "Point", "coordinates": [-121.8993108212, 37.3059662813]}, "type": "Feature", "properties": {"collection_times": [{"days": "Mon-Fri", "time": "5:00pm"}, {"days": "Sat", "time": "11:00am"}, {"days": "Sun", "time": "Closed"}], "id": "9512500003", "name": "USPS COLLECTION BOX - BLUE BOX", "address": {"city": "SAN JOSE", "state": "CA", "street": "1245 LINCOLN AVE # A", "postcode": "95125"}}},
{"geometry": {"type": "Point", "coordinates": [-121.8993324242, 37.306207343]}, "type": "Feature", "properties": {"collection_times": [{"days": "Mon-Fri", "time": "4:00pm"}, {"days": "Sat", "time": "10:00am"}, {"days": "Sun", "time": "Closed"}], "id": "9512500004", "name": "USPS COLLECTION BOX - BLUE BOX", "address": {"city": "SAN JOSE", "state": "CA", "street": "1238 LINCOLN AVE", "postcode": "95125"}}},
{"geometry": {"type": "Point", "coordinates": [-121.9149922982, 37.3027374209]}, "type": "Feature", "properties": {"collection_times": [{"days": "Mon-Fri", "time": "4:00pm"}, {"days": "Sat-Sun", "time": "Closed"}], "id": "9512500006", "name": "USPS COLLECTION BOX - BLUE BOX", "address": {"city": "SAN JOSE", "state": "CA", "street": "1620 WESTWOOD DR", "postcode": "95125"}}},
{"geometry": {"type": "Point", "coordinates": [-121.8942380336, 37.2963316687]}, "type": "Feature", "properties": {"collection_times": [{"days": "Mon-Fri", "time": "12:00pm"}, {"days": "Sat-Sun", "time": "Closed"}], "id": "9512500007", "name": "USPS COLLECTION BOX - BLUE BOX", "address": {"city": "SAN JOSE", "state": "CA", "street": "1655 WILLOW ST", "postcode": "95125"}}},
{"geometry": {"type": "Point", "coordinates": [-121.9013953679, 37.3089408577]}, "type": "Feature", "properties": {"collection_times": [{"days": "Mon-Fri", "time": "11:00am"}, {"days": "Sat-Sun", "time": "Closed"}], "id": "9512500012", "name": "USPS COLLECTION BOX - BLUE BOX", "address": {"city": "SAN JOSE", "state": "CA", "street": "1093 LINCOLN AVE", "postcode": "95125"}}},
{"geometry": {"type": "Point", "coordinates": [-121.9021737549, 37.3100102526]}, "type": "Feature", "properties": {"collection_times": [{"days": "Mon-Fri", "time": "12:00pm"}, {"days": "Sat", "time": "11:00am"}, {"days": "Sun", "time": "Closed"}], "id": "9512500013", "name": "USPS COLLECTION BOX - BLUE BOX", "address": {"city": "SAN JOSE", "state": "CA", "street": "1072 LINCOLN AVE", "postcode": "95125"}}},
{"geometry": {"type": "Point", "coordinates": [-121.9171819553, 37.2944105727]}, "type": "Feature", "properties": {"collection_times": [{"days": "Mon-Fri", "time": "12:00pm"}, {"days": "Sat-Sun", "time": "Closed"}], "id": "9512500019", "name": "USPS COLLECTION BOX - BLUE BOX", "address": {"city": "SAN JOSE", "state": "CA", "street": "1777 HAMILTON AVE", "postcode": "95125"}}},
{"geometry": {"type": "Point", "coordinates": [-121.8899100383, 37.3060185646]}, "type": "Feature", "properties": {"collection_times": [{"days": "Mon-Fri", "time": "12:00pm"}, {"days": "Sat", "time": "10:00am"}, {"days": "Sun", "time": "Closed"}], "id": "9512500026", "name": "USPS COLLECTION BOX - BLUE BOX", "address": {"city": "SAN JOSE", "state": "CA", "street": "1409 BIRD AVE", "postcode": "95125"}}},
{"geometry": {"type": "Point", "coordinates": [-121.8827579215, 37.2831343425]}, "type": "Feature", "properties": {"collection_times": [{"days": "Mon-Fri", "time": "12:00pm"}, {"days": "Sat", "time": "11:00am"}, {"days": "Sun", "time": "Closed"}], "id": "9512500027", "name": "USPS COLLECTION BOX - BLUE BOX", "address": {"city": "SAN JOSE", "state": "CA", "street": "2585 ALMADEN RD", "postcode": "95125"}}},
{"geometry": {"type": "Point", "coordinates": [-121.903707245, 37.301143287]}, "type": "Feature", "properties": {"collection_times": [{"days": "Mon-Fri", "time": "11:00am"}, {"days": "Sat-Sun", "time": "Closed"}], "id": "9512500028", "name": "USPS COLLECTION BOX - BLUE BOX", "address": {"city": "SAN JOSE", "state": "CA", "street": "1246 MINNESOTA AVE", "postcode": "95125"}}},
{"geometry": {"type": "Point", "coordinates": [-121.9086741144, 37.3050299953]}, "type": "Feature", "properties": {"collection_times": [{"days": "Mon-Sat", "time": "1:00pm"}, {"days": "Sun", "time": "Closed"}], "id": "9512500029", "name": "USPS COLLECTION BOX - BLUE BOX", "address": {"city": "SAN JOSE", "state": "CA", "street": "1309 WILLOW ST", "postcode": "95125"}}},
{"geometry": {"type": "Point", "coordinates": [-121.8942254536, 37.3119432075]}, "type": "Feature", "properties": {"collection_times": [{"days": "Mon-Sat", "time": "1:00pm"}, {"days": "Sun", "time": "Closed"}], "id": "9512500030", "name": "USPS COLLECTION BOX - BLUE BOX", "address": {"city": "SAN JOSE", "state": "CA", "street": "710 WILLOW ST", "postcode": "95125"}}},
{"geometry": {"type": "Point", "coordinates": [-121.9135358952, 37.3027439054]}, "type": "Feature", "properties": {"collection_times": [{"days": "Mon-Fri", "time": "11:00am"}, {"days": "Sat-Sun", "time": "Closed"}], "id": "9512500032", "name": "USPS COLLECTION BOX - BLUE BOX", "address": {"city": "SAN JOSE", "state": "CA", "street": "1202 MERIDIAN AVE", "postcode": "95125"}}},
{"geometry": {"type": "Point", "coordinates": [-121.9030420468, 37.2843838125]}, "type": "Feature", "properties": {"collection_times": [{"days": "Mon-Fri", "time": "11:00am"}, {"days": "Sat-Sun", "time": "Closed"}], "id": "9512500033", "name": "USPS COLLECTION BOX - BLUE BOX", "address": {"city": "SAN JOSE", "state": "CA", "street": "1576 CURTNER AVE", "postcode": "95125"}}},
{"geometry": {"type": "Point", "coordinates": [-121.9135502712, 37.2969066161]}, "type": "Feature", "properties": {"collection_times": [{"days": "Mon-Fri", "time": "12:00pm"}, {"days": "Sat", "time": "10:00am"}, {"days": "Sun", "time": "Closed"}], "id": "9512500037", "name": "USPS COLLECTION BOX - BLUE BOX", "address": {"city": "SAN JOSE", "state": "CA", "street": "1530 MERIDIAN AVE", "postcode": "95125"}}},
{"geometry": {"type": "Point", "coordinates": [-121.8867555157, 37.2886386434]}, "type": "Feature", "properties": {"collection_times": [{"days": "Mon-Fri", "time": "11:00am"}, {"days": "Sat-Sun", "time": "Closed"}], "id": "9512500043", "name": "USPS COLLECTION BOX - BLUE BOX", "address": {"city": "SAN JOSE", "state": "CA", "street": "2292 LINCOLN AVE", "postcode": "95125"}}},
{"geometry": {"type": "Point", "coordinates": [-121.8826015631, 37.2966676722]}, "type": "Feature", "properties": {"collection_times": [{"days": "Mon-Fri", "time": "11:00am"}, {"days": "Sat", "time": "10:00am"}, {"days": "Sun", "time": "Closed"}], "id": "9512500044", "name": "USPS COLLECTION BOX - BLUE BOX", "address": {"city": "SAN JOSE", "state": "CA", "street": "830 MALONE RD", "postcode": "95125"}}},
{"geometry": {"type": "Point", "coordinates": [-121.9180849541, 37.2943498426]}, "type": "Feature", "properties": {"collection_times": [{"days": "Mon-Fri", "time": "11:00am"}, {"days": "Sat-Sun", "time": "Closed"}], "id": "9512500045", "name": "USPS COLLECTION BOX - BLUE BOX", "address": {"city": "SAN JOSE", "state": "CA", "street": "1800 HAMILTON AVE", "postcode": "95125"}}},
{"geometry": {"type": "Point", "coordinates": [-121.9225053379, 37.2944943737]}, "type": "Feature", "properties": {"collection_times": [{"days": "Mon-Fri", "time": "12:00pm"}, {"days": "Sat-Sun", "time": "Closed"}], "id": "9512500046", "name": "USPS COLLECTION BOX - BLUE BOX", "address": {"city": "SAN JOSE", "state": "CA", "street": "2145 HAMILTON AVE", "postcode": "95125"}}},
{"geometry": {"type": "Point", "coordinates": [-121.9225053379, 37.2944943737]}, "type": "Feature", "properties": {"collection_times": [{"days": "Mon-Fri", "time": "2:00pm"}, {"days": "Sat-Sun", "time": "Closed"}], "id": "9512500047", "name": "USPS COLLECTION BOX - BLUE BOX", "address": {"city": "SAN JOSE", "state": "CA", "street": "2145 HAMILTON AVE", "postcode": "95125"}}},
{"geometry": {"type": "Point", "coordinates": [-121.9003143947, 37.3073349931]}, "type": "Feature", "properties": {"collection_times": [{"days": "Mon-Fri", "time": "5:00pm"}, {"days": "Sat", "time": "11:00am"}, {"days": "Sun", "time": "Closed"}], "id": "9512500050", "name": "USPS COLLECTION BOX - BLUE BOX", "address": {"city": "SAN JOSE", "state": "CA", "street": "1165 LINCOLN AVE", "postcode": "95125"}}},
{"geometry": {"type": "Point", "coordinates": [-121.8942380336, 37.2963316687]}, "type": "Feature", "properties": {"collection_times": [{"days": "Mon-Fri", "time": "12:00pm"}, {"days": "Sat-Sun", "time": "Closed"}], "id": "9512500053", "name": "USPS COLLECTION BOX - BLUE BOX", "address": {"city": "SAN JOSE", "state": "CA", "street": "1655 WILLOW ST", "postcode": "95125"}}},
{"geometry": {"type": "Point", "coordinates": [-121.9134367072, 37.2906026278]}, "type": "Feature", "properties": {"collection_times": [{"days": "Mon-Fri", "time": "6:00pm"}, {"days": "Sat", "time": "5:00pm"}, {"days": "Sun", "time": "Closed"}], "id": "9512500058", "name": "USPS COLLECTION BOX - BLUE BOX", "address": {"city": "SAN JOSE", "state": "CA", "street": "1750 MERIDIAN AVE", "postcode": "95125"}}},
{"geometry": {"type": "Point", "coordinates": [-121.9134367072, 37.2906026278]}, "type": "Feature", "properties": {"collection_times": [{"days": "Mon-Fri", "time": "6:00pm"}, {"days": "Sat", "time": "5:00pm"}, {"days": "Sun", "time": "Closed"}], "id": "9512500059", "name": "USPS COLLECTION BOX - BLUE BOX", "address": {"city": "SAN JOSE", "state": "CA", "street": "1750 MERIDIAN AVE", "postcode": "95125"}}},
{"geometry": {"type": "Point", "coordinates": [-121.9134367072, 37.2906026278]}, "type": "Feature", "properties": {"collection_times": [{"days": "Mon-Fri", "time": "6:00pm"}, {"days": "Sat", "time": "5:00pm"}, {"days": "Sun", "time": "Closed"}], "id": "9512500064", "name": "USPS COLLECTION BOX - BLUE BOX", "address": {"city": "SAN JOSE", "state": "CA", "street": "1750 MERIDIAN AVE", "postcode": "95125"}}},
{"geometry": {"type": "Point", "coordinates": [-121.9134367072, 37.2906026278]}, "type": "Feature", "properties": {"collection_times": [{"days": "Mon-Fri", "time": "6:00pm"}, {"days": "Sat", "time": "5:00pm"}, {"days": "Sun", "time": "Closed"}], "id": "9512500065", "name": "USPS COLLECTION BOX - BLUE BOX", "address": {"city": "SAN JOSE", "state": "CA", "street": "1750 MERIDIAN AVE", "postcode": "95125"}}},
{"geometry": {"type": "Point", "coordinates": [-121.9134367072, 37.2906026278]}, "type": "Feature", "properties": {"collection_times": [{"days": "Mon-Fri", "time": "6:00pm"}, {"days": "Sat", "time": "5:00pm"}, {"days": "Sun", "time": "Closed"}], "id": "9512500066", "name": "USPS COLLECTION BOX - BLUE BOX", "address": {"city": "SAN JOSE", "state": "CA", "street": "1750 MERIDIAN AVE", "postcode": "95125"}}},
{"geometry": {"type": "Point", "coordinates": [-121.9171819553, 37.2944105727]}, "type": "Feature", "properties": {"collection_times": [{"days": "Mon-Fri", "time": "12:00pm"}, {"days": "Sat-Sun", "time": "Closed"}], "id": "9512500068", "name": "USPS COLLECTION BOX - BLUE BOX", "address": {"city": "SAN JOSE", "state": "CA", "street": "1777 HAMILTON AVE", "postcode": "95125"}}},
{"geometry": {"type": "Point", "coordinates": [-121.8802327864, 37.2967296429]}, "type": "Feature", "properties": {"collection_times": [{"days": "Mon-Fri", "time": "11:00am"}, {"days": "Sat", "time": "10:00am"}, {"days": "Sun", "time": "Closed"}], "id": "9512500077", "name": "USPS COLLECTION BOX - BLUE BOX", "address": {"city": "SAN JOSE", "state": "CA", "street": "2102 ALMADEN RD", "postcode": "95125"}}},
{"geometry": {"type": "Point", "coordinates": [-121.8942380336, 37.2963316687]}, "type": "Feature", "properties": {"collection_times": [{"days": "Mon-Fri", "time": "4:00pm"}, {"days": "Sat-Sun", "time": "Closed"}], "id": "9512500080", "name": "USPS COLLECTION BOX - EXPRESS", "address": {"city": "SAN JOSE", "state": "CA", "street": "1620 WESTWOOD DR", "postcode": "95125"}}},
{"geometry": {"type": "Point", "coordinates": [-121.9134367072, 37.2906026278]}, "type": "Feature", "properties": {"collection_times": [{"days": "Mon-Fri", "time": "6:00pm"}, {"days": "Sat", "time": "5:00pm"}, {"days": "Sun", "time": "Closed"}], "id": "9512500082", "name": "USPS COLLECTION BOX - APC", "address": {"city": "SAN JOSE", "state": "CA", "street": "1750 MERIDIAN AVE", "postcode": "95125"}}},
{"geometry": {"type": "Point", "coordinates": [-121.9104354155, 37.3316718275]}, "type": "Feature", "properties": {"collection_times": [{"days": "Mon-Fri", "time": "11:00am"}, {"days": "Sat-Sun", "time": "Closed"}], "id": "9512600001", "name": "USPS COLLECTION BOX - BLUE BOX", "address": {"city": "SAN JOSE", "state": "CA", "street": "1085 THE ALAMEDA", "postcode": "95126"}}},
{"geometry": {"type": "Point", "coordinates": [-121.917141756, 37.3356693685]}, "type": "Feature", "properties": {"collection_times": [{"days": "Mon-Fri", "time": "4:00pm"}, {"days": "Sat-Sun", "time": "Closed"}], "id": "9512600003", "name": "USPS COLLECTION BOX - BLUE BOX", "address": {"city": "SAN JOSE", "state": "CA", "street": "1625 THE ALAMEDA", "postcode": "95126"}}},
{"geometry": {"type": "Point", "coordinates": [-121.9177391289, 37.3363831398]}, "type": "Feature", "properties": {"collection_times": [{"days": "Mon-Sat", "time": "3:00pm"}, {"days": "Sun", "time": "Closed"}], "id": "9512600004", "name": "USPS COLLECTION BOX - BLUE BOX", "address": {"city": "SAN JOSE", "state": "CA", "street": "1654 THE ALAMEDA", "postcode": "95126"}}},
{"geometry": {"type": "Point", "coordinates": [-121.919148623, 37.3297992697]}, "type": "Feature", "properties": {"collection_times": [{"days": "Mon-Sat", "time": "11:00am"}, {"days": "Sun", "time": "Closed"}], "id": "9512600008", "name": "USPS COLLECTION BOX - BLUE BOX", "address": {"city": "SAN JOSE", "state": "CA", "street": "1451 PARK AVE", "postcode": "95126"}}},
{"geometry": {"type": "Point", "coordinates": [-121.9304192661, 37.3439623578]}, "type": "Feature", "properties": {"collection_times": [{"days": "Mon-Fri", "time": "12:00pm"}, {"days": "Sat-Sun", "time": "Closed"}], "id": "9512600010", "name": "USPS COLLECTION BOX - BLUE BOX", "address": {"city": "SAN JOSE", "state": "CA", "street": "2155 THE ALAMEDA", "postcode": "95126"}}},
{"geometry": {"type": "Point", "coordinates": [-121.9160275066, 37.3350638373]}, "type": "Feature", "properties": {"collection_times": [{"days": "Mon-Fri", "time": "4:00pm"}, {"days": "Sat", "time": "1:00pm"}, {"days": "Sun", "time": "Closed"}], "id": "9512600015", "name": "USPS COLLECTION BOX - BLUE BOX", "address": {"city": "SAN JOSE", "state": "CA", "street": "1570 THE ALAMEDA", "postcode": "95126"}}},
{"geometry": {"type": "Point", "coordinates": [-121.9264835616, 37.30123388]}, "type": "Feature", "properties": {"collection_times": [{"days": "Mon-Fri", "time": "11:00am"}, {"days": "Sat", "time": "10:00am"}, {"days": "Sun", "time": "Closed"}], "id": "9512600023", "name": "USPS COLLECTION BOX - BLUE BOX", "address": {"city": "SAN JOSE", "state": "CA", "street": "1800 STOKES ST", "postcode": "95126"}}},
{"geometry": {"type": "Point", "coordinates": [-121.9234374423, 37.3411847702]}, "type": "Feature", "properties": {"collection_times": [{"days": "Mon-Fri", "time": "4:00pm"}, {"days": "Sat-Sun", "time": "Closed"}], "id": "9512600024", "name": "USPS COLLECTION BOX - BLUE BOX", "address": {"city": "SAN JOSE", "state": "CA", "street": "1922 THE ALAMEDA", "postcode": "95126"}}},
{"geometry": {"type": "Point", "coordinates": [-121.9125400243, 37.3234344709]}, "type": "Feature", "properties": {"collection_times": [{"days": "Mon-Fri", "time": "12:00pm"}, {"days": "Sat", "time": "3:00pm"}, {"days": "Sun", "time": "Closed"}], "id": "9512600027", "name": "USPS COLLECTION BOX - BLUE BOX", "address": {"city": "SAN JOSE", "state": "CA", "street": "1300 W SAN CARLOS ST", "postcode": "95126"}}},
{"geometry": {"type": "Point", "coordinates": [-121.917141756, 37.3356693685]}, "type": "Feature", "properties": {"collection_times": [{"days": "Mon-Fri", "time": "4:00pm"}, {"days": "Sat-Sun", "time": "Closed"}], "id": "9512600028", "name": "USPS COLLECTION BOX - BLUE BOX", "address": {"city": "SAN JOSE", "state": "CA", "street": "1625 THE ALAMEDA", "postcode": "95126"}}},
{"geometry": {"type": "Point", "coordinates": [-121.922291155, 37.340038483]}, "type": "Feature", "properties": {"collection_times": [{"days": "Mon-Fri", "time": "4:00pm"}, {"days": "Sat-Sun", "time": "Closed"}], "id": "9512600032", "name": "USPS COLLECTION BOX - BLUE BOX", "address": {"city": "SAN JOSE", "state": "CA", "street": "1871 THE ALAMEDA", "postcode": "95126"}}},
{"geometry": {"type": "Point", "coordinates": [-121.9160275066, 37.3350638373]}, "type": "Feature", "properties": {"collection_times": [{"days": "Mon-Fri", "time": "4:00pm"}, {"days": "Sat", "time": "1:00pm"}, {"days": "Sun", "time": "Closed"}], "id": "9512600034", "name": "USPS COLLECTION BOX - BLUE BOX", "address": {"city": "SAN JOSE", "state": "CA", "street": "1570 THE ALAMEDA", "postcode": "95126"}}},
{"geometry": {"type": "Point", "coordinates": [-121.9160275066, 37.3350638373]}, "type": "Feature", "properties": {"collection_times": [{"days": "Mon-Fri", "time": "4:00pm"}, {"days": "Sat", "time": "1:00pm"}, {"days": "Sun", "time": "Closed"}], "id": "9512600035", "name": "USPS COLLECTION BOX - BLUE BOX", "address": {"city": "SAN JOSE", "state": "CA", "street": "1570 THE ALAMEDA", "postcode": "95126"}}},
{"geometry": {"type": "Point", "coordinates": [-121.9160275066, 37.3350638373]}, "type": "Feature", "properties": {"collection_times": [{"days": "Mon-Fri", "time": "4:00pm"}, {"days": "Sat", "time": "1:00pm"}, {"days": "Sun", "time": "Closed"}], "id": "9512600036", "name": "USPS COLLECTION BOX - BLUE BOX", "address": {"city": "SAN JOSE", "state": "CA", "street": "1570 THE ALAMEDA", "postcode": "95126"}}},
{"geometry": {"type": "Point", "coordinates": [-121.9173360828, 37.3246002745]}, "type": "Feature", "properties": {"collection_times": [{"days": "Mon-Fri", "time": "4:00pm"}, {"days": "Sat-Sun", "time": "Closed"}], "id": "9512600065", "name": "USPS COLLECTION BOX - BLUE BOX", "address": {"city": "SAN JOSE", "state": "CA", "street": "1625 THE ALAMEDA", "postcode": "95126"}}},
{"geometry": {"type": "Point", "coordinates": [-121.9234374423, 37.3411847702]}, "type": "Feature", "properties": {"collection_times": [{"days": "Mon-Fri", "time": "4:00pm"}, {"days": "Sat-Sun", "time": "Closed"}], "id": "9512600067", "name": "USPS COLLECTION BOX - BLUE BOX", "address": {"city": "SAN JOSE", "state": "CA", "street": "1922 THE ALAMEDA", "postcode": "95126"}}},
{"geometry": {"type": "Point", "coordinates": [-121.9173360828, 37.3246002745]}, "type": "Feature", "properties": {"collection_times": [{"days": "Mon-Fri", "time": "5:00pm"}, {"days": "Sat", "time": "3:00pm"}, {"days": "Sun", "time": "Closed"}], "id": "9512600069", "name": "USPS COLLECTION BOX - BLUE BOX", "address": {"city": "SAN JOSE", "state": "CA", "street": "545 MERIDIAN AVE STE D", "postcode": "95126"}}},
{"geometry": {"type": "Point", "coordinates": [-121.8208769347, 37.3581859018]}, "type": "Feature", "properties": {"collection_times": [{"days": "Mon-Fri", "time": "12:00pm"}, {"days": "Sat-Sun", "time": "Closed"}], "id": "9512700004", "name": "USPS COLLECTION BOX - BLUE BOX", "address": {"city": "SAN JOSE", "state": "CA", "street": "1030 S WHITE RD", "postcode": "95127"}}},
{"geometry": {"type": "Point", "coordinates": [-121.8242542636, 37.3706432977]}, "type": "Feature", "properties": {"collection_times": [{"days": "Mon-Fri", "time": "1:00pm"}, {"days": "Sat-Sun", "time": "Closed"}], "id": "9512700008", "name": "USPS COLLECTION BOX - BLUE BOX", "address": {"city": "SAN JOSE", "state": "CA", "street": "4 LAUMER AVE", "postcode": "95127"}}},
{"geometry": {"type": "Point", "coordinates": [-121.8368188209, 37.3742614858]}, "type": "Feature", "properties": {"collection_times": [{"days": "Mon-Fri", "time": "12:00pm"}, {"days": "Sat-Sun", "time": "Closed"}], "id": "9512700012", "name": "USPS COLLECTION BOX - BLUE BOX", "address": {"city": "SAN JOSE", "state": "CA", "street": "3045 MCKEE RD", "postcode": "95127"}}},
{"geometry": {"type": "Point", "coordinates": [-121.8265661156, 37.3814491445]}, "type": "Feature", "properties": {"collection_times": [{"days": "Mon-Sat", "time": "1:00pm"}, {"days": "Sun", "time": "Closed"}], "id": "9512700013", "name": "USPS COLLECTION BOX - BLUE BOX", "address": {"city": "SAN JOSE", "state": "CA", "street": "302 TOYON AVE", "postcode": "95127"}}},
{"geometry": {"type": "Point", "coordinates": [-121.8321047295, 37.3639023142]}, "type": "Feature", "properties": {"collection_times": [{"days": "Mon-Fri", "time": "2:00pm"}, {"days": "Sat-Sun", "time": "Closed"}], "id": "9512700019", "name": "USPS COLLECTION BOX - BLUE BOX", "address": {"city": "SAN JOSE", "state": "CA", "street": "2880 ALUM ROCK AVE", "postcode": "95127"}}},
{"geometry": {"type": "Point", "coordinates": [-121.8202880691, 37.3552904984]}, "type": "Feature", "properties": {"collection_times": [{"days": "Mon-Fri", "time": "12:00pm"}, {"days": "Sat", "time": "11:00am"}, {"days": "Sun", "time": "Closed"}], "id": "9512700021", "name": "USPS COLLECTION BOX - BLUE BOX", "address": {"city": "SAN JOSE", "state": "CA", "street": "3070 STORY RD", "postcode": "95127"}}},
{"geometry": {"type": "Point", "coordinates": [-121.8279288843, 37.3802732833]}, "type": "Feature", "properties": {"collection_times": [{"days": "Mon-Sat", "time": "1:00pm"}, {"days": "Sun", "time": "Closed"}], "id": "9512700023", "name": "USPS COLLECTION BOX - BLUE BOX", "address": {"city": "SAN JOSE", "state": "CA", "street": "3457 MCKEE RD", "postcode": "95127"}}},
{"geometry": {"type": "Point", "coordinates": [-121.8255345754, 37.3532793427]}, "type": "Feature", "properties": {"collection_times": [{"days": "Mon-Fri", "time": "5:00pm"}, {"days": "Sat", "time": "3:00pm"}, {"days": "Sun", "time": "Closed"}], "id": "9512700027", "name": "USPS COLLECTION BOX - BLUE BOX", "address": {"city": "SAN JOSE", "state": "CA", "street": "1085 MCGUINESS AVE", "postcode": "95127"}}},
{"geometry": {"type": "Point", "coordinates": [-121.8255345754, 37.3532793427]}, "type": "Feature", "properties": {"collection_times": [{"days": "Mon-Fri", "time": "5:00pm"}, {"days": "Sat", "time": "3:00pm"}, {"days": "Sun", "time": "Closed"}], "id": "9512700028", "name": "USPS COLLECTION BOX - BLUE BOX", "address": {"city": "SAN JOSE", "state": "CA", "street": "1085 MCGUINESS AVE", "postcode": "95127"}}},
{"geometry": {"type": "Point", "coordinates": [-121.8255345754, 37.3532793427]}, "type": "Feature", "properties": {"collection_times": [{"days": "Mon-Fri", "time": "5:00pm"}, {"days": "Sat", "time": "3:00pm"}, {"days": "Sun", "time": "Closed"}], "id": "9512700029", "name": "USPS COLLECTION BOX - BLUE BOX", "address": {"city": "SAN JOSE", "state": "CA", "street": "1085 MCGUINESS AVE", "postcode": "95127"}}},
{"geometry": {"type": "Point", "coordinates": [-121.931690947, 37.309364357]}, "type": "Feature", "properties": {"collection_times": [{"days": "Mon-Fri", "time": "1:00pm"}, {"days": "Sat-Sun", "time": "Closed"}], "id": "9512800001", "name": "USPS COLLECTION BOX - BLUE BOX", "address": {"city": "SAN JOSE", "state": "CA", "street": "950 S BASCOM AVE", "postcode": "95128"}}},
{"geometry": {"type": "Point", "coordinates": [-121.9433217995, 37.3227353422]}, "type": "Feature", "properties": {"collection_times": [{"days": "Mon-Fri", "time": "12:00pm"}, {"days": "Sat-Sun", "time": "Closed"}], "id": "9512800012", "name": "USPS COLLECTION BOX - BLUE BOX", "address": {"city": "SAN JOSE", "state": "CA", "street": "319 S MONROE ST", "postcode": "95128"}}},
{"geometry": {"type": "Point", "coordinates": [-121.9475011935, 37.3171446781]}, "type": "Feature", "properties": {"collection_times": [{"days": "Mon-Fri", "time": "4:00pm"}, {"days": "Sat-Sun", "time": "Closed"}], "id": "9512800014", "name": "USPS COLLECTION BOX - BLUE BOX", "address": {"city": "SAN JOSE", "state": "CA", "street": "3031 TISCH WAY", "postcode": "95128"}}},
{"geometry": {"type": "Point", "coordinates": [-121.9332796609, 37.3270271173]}, "type": "Feature", "properties": {"collection_times": [{"days": "Mon-Fri", "time": "12:00pm"}, {"days": "Sat-Sun", "time": "Closed"}], "id": "9512800018", "name": "USPS COLLECTION BOX - BLUE BOX", "address": {"city": "SAN JOSE", "state": "CA", "street": "2020 FOREST AVE", "postcode": "95128"}}},
{"geometry": {"type": "Point", "coordinates": [-121.948525636, 37.316082381]}, "type": "Feature", "properties": {"collection_times": [{"days": "Mon-Fri", "time": "12:00pm"}, {"days": "Sat-Sun", "time": "Closed"}], "id": "9512800019", "name": "USPS COLLECTION BOX - BLUE BOX", "address": {"city": "SAN JOSE", "state": "CA", "street": "3033 MOORPARK AVE", "postcode": "95128"}}},
{"geometry": {"type": "Point", "coordinates": [-121.9433267316, 37.3159682165]}, "type": "Feature", "properties": {"collection_times": [{"days": "Mon-Sat", "time": "12:00pm"}, {"days": "Sun", "time": "Closed"}], "id": "9512800020", "name": "USPS COLLECTION BOX - BLUE BOX", "address": {"city": "SAN JOSE", "state": "CA", "street": "2800 MOORPARK AVE", "postcode": "95128"}}},
{"geometry": {"type": "Point", "coordinates": [-121.9403490236, 37.3347601201]}, "type": "Feature", "properties": {"collection_times": [{"days": "Mon-Fri", "time": "11:00am"}, {"days": "Sat-Sun", "time": "Closed"}], "id": "9512800021", "name": "USPS COLLECTION BOX - BLUE BOX", "address": {"city": "SAN JOSE", "state": "CA", "street": "1197 BROADLEAF LN", "postcode": "95128"}}},
{"geometry": {"type": "Point", "coordinates": [-121.9436816485, 37.3363001175]}, "type": "Feature", "properties": {"collection_times": [{"days": "Mon-Fri", "time": "12:00pm"}, {"days": "Sat-Sun", "time": "Closed"}], "id": "9512800022", "name": "USPS COLLECTION BOX - BLUE BOX", "address": {"city": "SAN JOSE", "state": "CA", "street": "1301 N MONROE ST", "postcode": "95128"}}},
{"geometry": {"type": "Point", "coordinates": [-121.9347690062, 37.3317837953]}, "type": "Feature", "properties": {"collection_times": [{"days": "Mon-Fri", "time": "4:00pm"}, {"days": "Sat", "time": "10:00am"}, {"days": "Sun", "time": "Closed"}], "id": "9512800024", "name": "USPS COLLECTION BOX - BLUE BOX", "address": {"city": "SAN JOSE", "state": "CA", "street": "2007 W HEDDING ST", "postcode": "95128"}}},
{"geometry": {"type": "Point", "coordinates": [-121.9502184503, 37.3304707108]}, "type": "Feature", "properties": {"collection_times": [{"days": "Mon-Sat", "time": "12:00pm"}, {"days": "Sun", "time": "Closed"}], "id": "9512800025", "name": "USPS COLLECTION BOX - BLUE BOX", "address": {"city": "SAN JOSE", "state": "CA", "street": "826 N WINCHESTER BLVD", "postcode": "95128"}}},
{"geometry": {"type": "Point", "coordinates": [-121.9501170727, 37.3033891234]}, "type": "Feature", "properties": {"collection_times": [{"days": "Mon-Fri", "time": "12:00pm"}, {"days": "Sat-Sun", "time": "Closed"}], "id": "9512800031", "name": "USPS COLLECTION BOX - BLUE BOX", "address": {"city": "SAN JOSE", "state": "CA", "street": "1245 S WINCHESTER BLVD", "postcode": "95128"}}},
{"geometry": {"type": "Point", "coordinates": [-121.932249799, 37.322634253]}, "type": "Feature", "properties": {"collection_times": [{"days": "Mon-Fri", "time": "12:00pm"}, {"days": "Sat-Sun", "time": "Closed"}], "id": "9512800032", "name": "USPS COLLECTION BOX - BLUE BOX", "address": {"city": "SAN JOSE", "state": "CA", "street": "2206 BUSINESS CIR", "postcode": "95128"}}},
{"geometry": {"type": "Point", "coordinates": [-121.9489976366, 37.3043994782]}, "type": "Feature", "properties": {"collection_times": [{"days": "Mon-Fri", "time": "11:00am"}, {"days": "Sat-Sun", "time": "Closed"}], "id": "9512800039", "name": "USPS COLLECTION BOX - BLUE BOX", "address": {"city": "SAN JOSE", "state": "CA", "street": "1193 REDOAKS DR", "postcode": "95128"}}},
{"geometry": {"type": "Point", "coordinates": [-121.9500895078, 37.3063288843]}, "type": "Feature", "properties": {"collection_times": [{"days": "Mon-Fri", "time": "12:00pm"}, {"days": "Sat-Sun", "time": "Closed"}], "id": "9512800040", "name": "USPS COLLECTION BOX - BLUE BOX", "address": {"city": "SAN JOSE", "state": "CA", "street": "1101 S WINCHESTER BLVD", "postcode": "95128"}}},
{"geometry": {"type": "Point", "coordinates": [-121.9499451868, 37.3081317138]}, "type": "Feature", "properties": {"collection_times": [{"days": "Mon-Fri", "time": "1:00pm"}, {"days": "Sat-Sun", "time": "Closed"}], "id": "9512800041", "name": "USPS COLLECTION BOX - BLUE BOX", "address": {"city": "SAN JOSE", "state": "CA", "street": "1030 S WINCHESTER BLVD", "postcode": "95128"}}},
{"geometry": {"type": "Point", "coordinates": [-121.9169536442, 37.313342648]}, "type": "Feature", "properties": {"collection_times": [{"days": "Mon-Fri", "time": "1:00pm"}, {"days": "Sat-Sun", "time": "Closed"}], "id": "9512800042", "name": "USPS COLLECTION BOX - BLUE BOX", "address": {"city": "SAN JOSE", "state": "CA", "street": "1418 KINGMAN AVE", "postcode": "95128"}}},
{"geometry": {"type": "Point", "coordinates": [-121.9475011935, 37.3171446781]}, "type": "Feature", "properties": {"collection_times": [{"days": "Mon-Fri", "time": "4:00pm"}, {"days": "Sat-Sun", "time": "Closed"}], "id": "9512800053", "name": "USPS COLLECTION BOX - BLUE BOX", "address": {"city": "SAN JOSE", "state": "CA", "street": "3031 TISCH WAY", "postcode": "95128"}}},
{"geometry": {"type": "Point", "coordinates": [-121.9316412627, 37.3049116995]}, "type": "Feature", "properties": {"collection_times": [{"days": "Mon-Fri", "time": "11:00am"}, {"days": "Sat-Sun", "time": "Closed"}], "id": "9512800056", "name": "USPS COLLECTION BOX - BLUE BOX", "address": {"city": "SAN JOSE", "state": "CA", "street": "1210 S BASCOM AVE", "postcode": "95128"}}},
{"geometry": {"type": "Point", "coordinates": [-121.9500895078, 37.3063288843]}, "type": "Feature", "properties": {"collection_times": [{"days": "Mon-Fri", "time": "12:00pm"}, {"days": "Sat-Sun", "time": "Closed"}], "id": "9512800060", "name": "USPS COLLECTION BOX - BLUE BOX", "address": {"city": "SAN JOSE", "state": "CA", "street": "1101 S WINCHESTER BLVD", "postcode": "95128"}}},
{"geometry": {"type": "Point", "coordinates": [-121.937111265, 37.3160634536]}, "type": "Feature", "properties": {"collection_times": [{"days": "Mon-Fri", "time": "1:00pm"}, {"days": "Sat-Sun", "time": "Closed"}], "id": "9512800066", "name": "USPS COLLECTION BOX - BLUE BOX", "address": {"city": "SAN JOSE", "state": "CA", "street": "2400 MOORPARK AVE", "postcode": "95128"}}},
{"geometry": {"type": "Point", "coordinates": [-121.9318979648, 37.313774428]}, "type": "Feature", "properties": {"collection_times": [{"days": "Mon-Fri", "time": "1:00pm"}, {"days": "Sat-Sun", "time": "Closed"}], "id": "9512800083", "name": "USPS COLLECTION BOX - BLUE BOX", "address": {"city": "SAN JOSE", "state": "CA", "street": "751 S BASCOM AVE", "postcode": "95128"}}},
{"geometry": {"type": "Point", "coordinates": [-121.922684861, 37.323508667]}, "type": "Feature", "properties": {"collection_times": [{"days": "Mon-Fri", "time": "12:00pm"}, {"days": "Sat-Sun", "time": "Closed"}], "id": "9512800085", "name": "USPS COLLECTION BOX - BLUE BOX", "address": {"city": "SAN JOSE", "state": "CA", "street": "1731 W SAN CARLOS ST", "postcode": "95128"}}},
{"geometry": {"type": "Point", "coordinates": [-121.9167383457, 37.3382297387]}, "type": "Feature", "properties": {"collection_times": [{"days": "Mon-Fri", "time": "4:00pm"}, {"days": "Sat", "time": "11:00am"}, {"days": "Sun", "time": "Closed"}], "id": "9512800090", "name": "USPS COLLECTION BOX - BLUE BOX", "address": {"city": "SAN JOSE", "state": "CA", "street": "999 W TAYLOR ST", "postcode": "95128"}}},
{"geometry": {"type": "Point", "coordinates": [-121.9500862522, 37.3005476333]}, "type": "Feature", "properties": {"collection_times": [{"days": "Mon-Fri", "time": "12:00pm"}, {"days": "Sat", "time": "2:00pm"}, {"days": "Sun", "time": "Closed"}], "id": "9512800092", "name": "USPS COLLECTION BOX - BLUE BOX", "address": {"city": "SAN JOSE", "state": "CA", "street": "1325 S WINCHESTER BLVD", "postcode": "95128"}}},
{"geometry": {"type": "Point", "coordinates": [-121.9475011935, 37.3171446781]}, "type": "Feature", "properties": {"collection_times": [{"days": "Mon-Fri", "time": "4:00pm"}, {"days": "Sat-Sun", "time": "Closed"}], "id": "9512800095", "name": "USPS COLLECTION BOX - BLUE BOX", "address": {"city": "SAN JOSE", "state": "CA", "street": "3031 TISCH WAY", "postcode": "95128"}}},
{"geometry": {"type": "Point", "coordinates": [-121.9167383457, 37.3382297387]}, "type": "Feature", "properties": {"collection_times": [{"days": "Mon-Fri", "time": "4:00pm"}, {"days": "Sat", "time": "11:00am"}, {"days": "Sun", "time": "Closed"}], "id": "9512800096", "name": "USPS COLLECTION BOX - BLUE BOX", "address": {"city": "SAN JOSE", "state": "CA", "street": "999 W TAYLOR ST", "postcode": "95128"}}},
{"geometry": {"type": "Point", "coordinates": [-121.9877643849, 37.3230949617]}, "type": "Feature", "properties": {"collection_times": [{"days": "Mon-Sat", "time": "12:00pm"}, {"days": "Sun", "time": "Closed"}], "id": "9512900003", "name": "USPS COLLECTION BOX - BLUE BOX", "address": {"city": "SAN JOSE", "state": "CA", "street": "4880 STEVENS CREEK BLVD", "postcode": "95129"}}},
{"geometry": {"type": "Point", "coordinates": [-121.9870262185, 37.2961637179]}, "type": "Feature", "properties": {"collection_times": [{"days": "Mon-Fri", "time": "12:00pm"}, {"days": "Sat-Sun", "time": "Closed"}], "id": "9512900007", "name": "USPS COLLECTION BOX - BLUE BOX", "address": {"city": "SAN JOSE", "state": "CA", "street": "1471 SARATOGA AVE", "postcode": "95129"}}},
{"geometry": {"type": "Point", "coordinates": [-122.0321643837, 37.2947145932]}, "type": "Feature", "properties": {"collection_times": [{"days": "Mon-Sat", "time": "12:00pm"}, {"days": "Sun", "time": "Closed"}], "id": "9512900010", "name": "USPS COLLECTION BOX - BLUE BOX", "address": {"city": "SAN JOSE", "state": "CA", "street": "1660 S DE ANZA BLVD", "postcode": "95129"}}},
{"geometry": {"type": "Point", "coordinates": [-121.9948727853, 37.2921641336]}, "type": "Feature", "properties": {"collection_times": [{"days": "Mon-Sat", "time": "12:00pm"}, {"days": "Sun", "time": "Closed"}], "id": "9512900011", "name": "USPS COLLECTION BOX - BLUE BOX", "address": {"city": "SAN JOSE", "state": "CA", "street": "5285 PROSPECT RD", "postcode": "95129"}}},
{"geometry": {"type": "Point", "coordinates": [-121.9767456463, 37.314775214]}, "type": "Feature", "properties": {"collection_times": [{"days": "Mon-Sat", "time": "1:00pm"}, {"days": "Sun", "time": "Closed"}], "id": "9512900014", "name": "USPS COLLECTION BOX - BLUE BOX", "address": {"city": "SAN JOSE", "state": "CA", "street": "675 SARATOGA AVE", "postcode": "95129"}}},
{"geometry": {"type": "Point", "coordinates": [-121.9948668705, 37.3094601767]}, "type": "Feature", "properties": {"collection_times": [{"days": "Mon-Sat", "time": "12:00pm"}, {"days": "Sun", "time": "Closed"}], "id": "9512900015", "name": "USPS COLLECTION BOX - BLUE BOX", "address": {"city": "SAN JOSE", "state": "CA", "street": "5170 MOORPARK AVE", "postcode": "95129"}}},
{"geometry": {"type": "Point", "coordinates": [-121.9778783968, 37.3231410971]}, "type": "Feature", "properties": {"collection_times": [{"days": "Mon-Fri", "time": "3:00pm"}, {"days": "Sat-Sun", "time": "Closed"}], "id": "9512900016", "name": "USPS COLLECTION BOX - BLUE BOX", "address": {"city": "SAN JOSE", "state": "CA", "street": "4300 STEVENS CREEK BLVD", "postcode": "95129"}}},
{"geometry": {"type": "Point", "coordinates": [-121.9737539187, 37.318836059]}, "type": "Feature", "properties": {"collection_times": [{"days": "Mon-Fri", "time": "12:00pm"}, {"days": "Sat-Sun", "time": "Closed"}], "id": "9512900017", "name": "USPS COLLECTION BOX - BLUE BOX", "address": {"city": "SAN JOSE", "state": "CA", "street": "471 SARATOGA AVE", "postcode": "95129"}}},
{"geometry": {"type": "Point", "coordinates": [-122.0046617707, 37.3058568837]}, "type": "Feature", "properties": {"collection_times": [{"days": "Mon-Fri", "time": "1:00pm"}, {"days": "Sat-Sun", "time": "Closed"}], "id": "9512900021", "name": "USPS COLLECTION BOX - BLUE BOX", "address": {"city": "SAN JOSE", "state": "CA", "street": "1079 JOHNSON AVE", "postcode": "95129"}}},
{"geometry": {"type": "Point", "coordinates": [-121.9926358099, 37.3042445106]}, "type": "Feature", "properties": {"collection_times": [{"days": "Mon-Fri", "time": "11:00am"}, {"days": "Sat-Sun", "time": "Closed"}], "id": "9512900024", "name": "USPS COLLECTION BOX - BLUE BOX", "address": {"city": "SAN JOSE", "state": "CA", "street": "1156 HAPPY VALLEY AVE", "postcode": "95129"}}},
{"geometry": {"type": "Point", "coordinates": [-122.0236003275, 37.3012455263]}, "type": "Feature", "properties": {"collection_times": [{"days": "Mon-Fri", "time": "1:00pm"}, {"days": "Sat", "time": "12:00pm"}, {"days": "Sun", "time": "Closed"}], "id": "9512900027", "name": "USPS COLLECTION BOX - BLUE BOX", "address": {"city": "SAN JOSE", "state": "CA", "street": "1248 S BLANEY AVE", "postcode": "95129"}}},
{"geometry": {"type": "Point", "coordinates": [-121.9782096021, 37.3230858038]}, "type": "Feature", "properties": {"collection_times": [{"days": "Mon-Fri", "time": "3:00pm"}, {"days": "Sat-Sun", "time": "Closed"}], "id": "9512900040", "name": "USPS COLLECTION BOX - BLUE BOX", "address": {"city": "SAN JOSE", "state": "CA", "street": "4320 STEVENS CREEK BLVD", "postcode": "95129"}}},
{"geometry": {"type": "Point", "coordinates": [-122.0072157791, 37.2997776575]}, "type": "Feature", "properties": {"collection_times": [{"days": "Mon-Fri", "time": "11:00am"}, {"days": "Sat-Sun", "time": "Closed"}], "id": "9512900042", "name": "USPS COLLECTION BOX - BLUE BOX", "address": {"city": "SAN JOSE", "state": "CA", "street": "5852 RAINBOW DR", "postcode": "95129"}}},
{"geometry": {"type": "Point", "coordinates": [-121.9774146769, 37.3109400583]}, "type": "Feature", "properties": {"collection_times": [{"days": "Mon-Fri", "time": "11:00am"}, {"days": "Sat-Sun", "time": "Closed"}], "id": "9512900043", "name": "USPS COLLECTION BOX - BLUE BOX", "address": {"city": "SAN JOSE", "state": "CA", "street": "891 SARATOGA AVE", "postcode": "95129"}}},
{"geometry": {"type": "Point", "coordinates": [-122.0321643837, 37.3085918848]}, "type": "Feature", "properties": {"collection_times": [{"days": "Mon-Fri", "time": "12:00pm"}, {"days": "Sat-Sun", "time": "Closed"}], "id": "9512900044", "name": "USPS COLLECTION BOX - BLUE BOX", "address": {"city": "SAN JOSE", "state": "CA", "street": "1054 S DE ANZA BLVD", "postcode": "95129"}}},
{"geometry": {"type": "Point", "coordinates": [-121.9933545188, 37.3229207531]}, "type": "Feature", "properties": {"collection_times": [{"days": "Mon-Sat", "time": "12:00pm"}, {"days": "Sun", "time": "Closed"}], "id": "9512900048", "name": "USPS COLLECTION BOX - BLUE BOX", "address": {"city": "SAN JOSE", "state": "CA", "street": "5150 STEVENS CREEK BLVD", "postcode": "95129"}}},
{"geometry": {"type": "Point", "coordinates": [-121.9948326906, 37.3229076918]}, "type": "Feature", "properties": {"collection_times": [{"days": "Mon-Fri", "time": "3:00pm"}, {"days": "Sat-Sun", "time": "Closed"}], "id": "9512900052", "name": "USPS COLLECTION BOX - BLUE BOX", "address": {"city": "SAN JOSE", "state": "CA", "street": "5300 STEVENS CREEK BLVD", "postcode": "95129"}}},
{"geometry": {"type": "Point", "coordinates": [-121.9870262185, 37.2961637179]}, "type": "Feature", "properties": {"collection_times": [{"days": "Mon-Fri", "time": "1:00pm"}, {"days": "Sat-Sun", "time": "Closed"}], "id": "9512900054", "name": "USPS COLLECTION BOX - BLUE BOX", "address": {"city": "SAN JOSE", "state": "CA", "street": "1471 SARATOGA AVE", "postcode": "95129"}}},
{"geometry": {"type": "Point", "coordinates": [-121.9782096021, 37.3230858038]}, "type": "Feature", "properties": {"collection_times": [{"days": "Mon-Fri", "time": "3:00pm"}, {"days": "Sat-Sun", "time": "Closed"}], "id": "9512900055", "name": "USPS COLLECTION BOX - BLUE BOX", "address": {"city": "SAN JOSE", "state": "CA", "street": "4320 STEVENS CREEK BLVD", "postcode": "95129"}}},
{"geometry": {"type": "Point", "coordinates": [-121.9879737686, 37.2899366219]}, "type": "Feature", "properties": {"collection_times": [{"days": "Mon-Fri", "time": "12:00pm"}, {"days": "Sat-Sun", "time": "Closed"}], "id": "9513000002", "name": "USPS COLLECTION BOX - BLUE BOX", "address": {"city": "SAN JOSE", "state": "CA", "street": "4950 HAMILTON AVE", "postcode": "95130"}}},
{"geometry": {"type": "Point", "coordinates": [-121.9911302411, 37.2899769266]}, "type": "Feature", "properties": {"collection_times": [{"days": "Mon-Fri", "time": "2:00pm"}, {"days": "Sat", "time": "12:00pm"}, {"days": "Sun", "time": "Closed"}], "id": "9513000006", "name": "USPS COLLECTION BOX - BLUE BOX", "address": {"city": "SAN JOSE", "state": "CA", "street": "200 EL PASEO DE SARATOGA", "postcode": "95130"}}},
{"geometry": {"type": "Point", "coordinates": [-121.8911791497, 37.3864427378]}, "type": "Feature", "properties": {"collection_times": [{"days": "Mon-Fri", "time": "11:00am"}, {"days": "Sat-Sun", "time": "Closed"}], "id": "9513100002", "name": "USPS COLLECTION BOX - BLUE BOX", "address": {"city": "SAN JOSE", "state": "CA", "street": "2055 HIKIDO DR", "postcode": "95131"}}},
{"geometry": {"type": "Point", "coordinates": [-121.9131606984, 37.3841888716]}, "type": "Feature", "properties": {"collection_times": [{"days": "Mon-Fri", "time": "12:00pm"}, {"days": "Sat-Sun", "time": "Closed"}], "id": "9513100004", "name": "USPS COLLECTION BOX - BLUE BOX", "address": {"city": "SAN JOSE", "state": "CA", "street": "2020 JUNCTION AVE", "postcode": "95131"}}},
{"geometry": {"type": "Point", "coordinates": [-121.89551, 37.379642]}, "type": "Feature", "properties": {"collection_times": [{"days": "Mon-Fri", "time": "12:00pm"}, {"days": "Sat-Sun", "time": "Closed"}], "id": "9513100005", "name": "USPS COLLECTION BOX - BLUE BOX", "address": {"city": "SAN JOSE", "state": "CA", "street": "1570 OAKLAND RD", "postcode": "95131"}}},
{"geometry": {"type": "Point", "coordinates": [-121.9187138871, 37.3741100671]}, "type": "Feature", "properties": {"collection_times": [{"days": "Mon-Fri", "time": "1:00pm"}, {"days": "Sat-Sun", "time": "Closed"}], "id": "9513100009", "name": "USPS COLLECTION BOX - BLUE BOX", "address": {"city": "SAN JOSE", "state": "CA", "street": "2010 N 1ST ST", "postcode": "95131"}}},
{"geometry": {"type": "Point", "coordinates": [-121.8848524517, 37.3876317483]}, "type": "Feature", "properties": {"collection_times": [{"days": "Mon-Fri", "time": "12:00pm"}, {"days": "Sat-Sun", "time": "Closed"}], "id": "9513100013", "name": "USPS COLLECTION BOX - BLUE BOX", "address": {"city": "SAN JOSE", "state": "CA", "street": "1688 HOSTETTER RD", "postcode": "95131"}}},
{"geometry": {"type": "Point", "coordinates": [-121.9185324032, 37.3803958725]}, "type": "Feature", "properties": {"collection_times": [{"days": "Mon-Fri", "time": "12:00pm"}, {"days": "Sat-Sun", "time": "Closed"}], "id": "9513100018", "name": "USPS COLLECTION BOX - BLUE BOX", "address": {"city": "SAN JOSE", "state": "CA", "street": "235 CHARCOT AVE", "postcode": "95131"}}},
{"geometry": {"type": "Point", "coordinates": [-121.8876705965, 37.3890599939]}, "type": "Feature", "properties": {"collection_times": [{"days": "Mon-Sat", "time": "8:00pm"}, {"days": "Sun", "time": "Closed"}], "id": "9513100031", "name": "USPS COLLECTION BOX - BLUE BOX", "address": {"city": "SAN JOSE", "state": "CA", "street": "1750 LUNDY AVE", "postcode": "95131"}}},
{"geometry": {"type": "Point", "coordinates": [-121.8876705965, 37.3890599939]}, "type": "Feature", "properties": {"collection_times": [{"days": "Mon-Sat", "time": "8:00pm"}, {"days": "Sun", "time": "Closed"}], "id": "9513100032", "name": "USPS COLLECTION BOX - BLUE BOX", "address": {"city": "SAN JOSE", "state": "CA", "street": "1750 LUNDY AVE", "postcode": "95131"}}},
{"geometry": {"type": "Point", "coordinates": [-121.8876705965, 37.3890599939]}, "type": "Feature", "properties": {"collection_times": [{"days": "Mon-Sat", "time": "8:00pm"}, {"days": "Sun", "time": "Closed"}], "id": "9513100033", "name": "USPS COLLECTION BOX - BLUE BOX", "address": {"city": "SAN JOSE", "state": "CA", "street": "1750 LUNDY AVE", "postcode": "95131"}}},
{"geometry": {"type": "Point", "coordinates": [-121.8876705965, 37.3890599939]}, "type": "Feature", "properties": {"collection_times": [{"days": "Mon-Sat", "time": "8:00pm"}, {"days": "Sun", "time": "Closed"}], "id": "9513100068", "name": "USPS COLLECTION BOX - APC", "address": {"city": "SAN JOSE", "state": "CA", "street": "1750 LUNDY AVE", "postcode": "95131"}}},
{"geometry": {"type": "Point", "coordinates": [-121.8730843871, 37.3973337878]}, "type": "Feature", "properties": {"collection_times": [{"days": "Mon-Sat", "time": "12:00pm"}, {"days": "Sun", "time": "Closed"}], "id": "9513200005", "name": "USPS COLLECTION BOX - BLUE BOX", "address": {"city": "SAN JOSE", "state": "CA", "street": "1639 N CAPITOL AVE", "postcode": "95132"}}},
{"geometry": {"type": "Point", "coordinates": [-121.8740389944, 37.413681684]}, "type": "Feature", "properties": {"collection_times": [{"days": "Mon-Fri", "time": "12:00pm"}, {"days": "Sat", "time": "10:00am"}, {"days": "Sun", "time": "Closed"}], "id": "9513200008", "name": "USPS COLLECTION BOX - BLUE BOX", "address": {"city": "SAN JOSE", "state": "CA", "street": "2105 MORRILL AVE", "postcode": "95132"}}},
{"geometry": {"type": "Point", "coordinates": [-121.8475656163, 37.4009324226]}, "type": "Feature", "properties": {"collection_times": [{"days": "Mon-Fri", "time": "5:00pm"}, {"days": "Sat", "time": "2:00pm"}, {"days": "Sun", "time": "Closed"}], "id": "9513200015", "name": "USPS COLLECTION BOX - BLUE BOX", "address": {"city": "SAN JOSE", "state": "CA", "street": "1315 PIEDMONT RD", "postcode": "95132"}}},
{"geometry": {"type": "Point", "coordinates": [-121.847435, 37.40073]}, "type": "Feature", "properties": {"collection_times": [{"days": "Mon-Fri", "time": "5:00pm"}, {"days": "Sat", "time": "2:00pm"}, {"days": "Sun", "time": "Closed"}], "id": "9513200022", "name": "USPS COLLECTION BOX - BLUE BOX", "address": {"city": "SAN JOSE", "state": "CA", "street": "1315 PIEDMONT RD", "postcode": "95132"}}},
{"geometry": {"type": "Point", "coordinates": [-121.8651332894, 37.3624009743]}, "type": "Feature", "properties": {"collection_times": [{"days": "Mon-Fri", "time": "11:00am"}, {"days": "Sat", "time": "10:00am"}, {"days": "Sun", "time": "Closed"}], "id": "9513300001", "name": "USPS COLLECTION BOX - BLUE BOX", "address": {"city": "SAN JOSE", "state": "CA", "street": "591 N KING RD STE 1", "postcode": "95133"}}},
{"geometry": {"type": "Point", "coordinates": [-121.8579507178, 37.3602855571]}, "type": "Feature", "properties": {"collection_times": [{"days": "Mon-Fri", "time": "12:00pm"}, {"days": "Sat", "time": "10:00am"}, {"days": "Sun", "time": "Closed"}], "id": "9513300004", "name": "USPS COLLECTION BOX - BLUE BOX", "address": {"city": "SAN JOSE", "state": "CA", "street": "303 CHECKERS DR", "postcode": "95133"}}},
{"geometry": {"type": "Point", "coordinates": [-121.8511255267, 37.3781900925]}, "type": "Feature", "properties": {"collection_times": [{"days": "Mon-Fri", "time": "4:00pm"}, {"days": "Sat", "time": "10:00am"}, {"days": "Sun", "time": "Closed"}], "id": "9513300007", "name": "USPS COLLECTION BOX - BLUE BOX", "address": {"city": "SAN JOSE", "state": "CA", "street": "750 N CAPITOL AVE", "postcode": "95133"}}},
{"geometry": {"type": "Point", "coordinates": [-121.8600935386, 37.3658979659]}, "type": "Feature", "properties": {"collection_times": [{"days": "Mon-Fri", "time": "12:00pm"}, {"days": "Sat-Sun", "time": "Closed"}], "id": "9513300008", "name": "USPS COLLECTION BOX - BLUE BOX", "address": {"city": "SAN JOSE", "state": "CA", "street": "1941 LAS PLUMAS AVE", "postcode": "95133"}}},
{"geometry": {"type": "Point", "coordinates": [-121.880636804, 37.3621018506]}, "type": "Feature", "properties": {"collection_times": [{"days": "Mon-Fri", "time": "12:00pm"}, {"days": "Sat-Sun", "time": "Closed"}], "id": "9513300013", "name": "USPS COLLECTION BOX - BLUE BOX", "address": {"city": "SAN JOSE", "state": "CA", "street": "967 MABURY RD", "postcode": "95133"}}},
{"geometry": {"type": "Point", "coordinates": [-121.9387178549, 37.4070206838]}, "type": "Feature", "properties": {"collection_times": [{"days": "Mon-Fri", "time": "12:00pm"}, {"days": "Sat-Sun", "time": "Closed"}], "id": "9513400001", "name": "USPS COLLECTION BOX - BLUE BOX", "address": {"city": "SAN JOSE", "state": "CA", "street": "3331 N 1ST ST", "postcode": "95134"}}},
{"geometry": {"type": "Point", "coordinates": [-121.9287536599, 37.3944735227]}, "type": "Feature", "properties": {"collection_times": [{"days": "Mon-Fri", "time": "1:00pm"}, {"days": "Sat-Sun", "time": "Closed"}], "id": "9513400002", "name": "USPS COLLECTION BOX - BLUE BOX", "address": {"city": "SAN JOSE", "state": "CA", "street": "2860 ZANKER RD", "postcode": "95134"}}},
{"geometry": {"type": "Point", "coordinates": [-121.9488403031, 37.4118996912]}, "type": "Feature", "properties": {"collection_times": [{"days": "Mon-Fri", "time": "12:00pm"}, {"days": "Sat-Sun", "time": "Closed"}], "id": "9513400005", "name": "USPS COLLECTION BOX - BLUE BOX", "address": {"city": "SAN JOSE", "state": "CA", "street": "3833 N 1ST ST", "postcode": "95134"}}},
{"geometry": {"type": "Point", "coordinates": [-121.9269577258, 37.3975411819]}, "type": "Feature", "properties": {"collection_times": [{"days": "Mon-Sat", "time": "5:00pm"}, {"days": "Sun", "time": "Closed"}], "id": "9513400006", "name": "USPS COLLECTION BOX - BLUE BOX", "address": {"city": "SAN JOSE", "state": "CA", "street": "2731 JUNCTION AVE", "postcode": "95134"}}},
{"geometry": {"type": "Point", "coordinates": [-121.9269577258, 37.3975411819]}, "type": "Feature", "properties": {"collection_times": [{"days": "Mon-Sat", "time": "5:00pm"}, {"days": "Sun", "time": "Closed"}], "id": "9513400015", "name": "USPS COLLECTION BOX - BLUE BOX", "address": {"city": "SAN JOSE", "state": "CA", "street": "2731 JUNCTION AVE", "postcode": "95134"}}},
{"geometry": {"type": "Point", "coordinates": [-121.7610597629, 37.2905375651]}, "type": "Feature", "properties": {"collection_times": [{"days": "Mon-Sat", "time": "11:00am"}, {"days": "Sun", "time": "Closed"}], "id": "9513500002", "name": "USPS COLLECTION BOX - BLUE BOX", "address": {"city": "SAN JOSE", "state": "CA", "street": "2901 THE VILLAGES PKWY", "postcode": "95135"}}},
{"geometry": {"type": "Point", "coordinates": [-121.7542954808, 37.2933085339]}, "type": "Feature", "properties": {"collection_times": [{"days": "Mon-Sat", "time": "11:00am"}, {"days": "Sun", "time": "Closed"}], "id": "9513500003", "name": "USPS COLLECTION BOX - BLUE BOX", "address": {"city": "SAN JOSE", "state": "CA", "street": "5000 CRIBARI LN", "postcode": "95135"}}},
{"geometry": {"type": "Point", "coordinates": [-121.7101194648, 37.2830460861]}, "type": "Feature", "properties": {"collection_times": [{"days": "Mon-Fri", "time": "11:00am"}, {"days": "Sat-Sun", "time": "Closed"}], "id": "9513500006", "name": "USPS COLLECTION BOX - BLUE BOX", "address": {"city": "SAN JOSE", "state": "CA", "street": "3300 SAN FELIPE RD", "postcode": "95135"}}},
{"geometry": {"type": "Point", "coordinates": [-121.8479613964, 37.2744659146]}, "type": "Feature", "properties": {"collection_times": [{"days": "Mon-Sat", "time": "11:00am"}, {"days": "Sun", "time": "Closed"}], "id": "9513600003", "name": "USPS COLLECTION BOX - BLUE BOX", "address": {"city": "SAN JOSE", "state": "CA", "street": "408 W CAPITOL EXPY", "postcode": "95136"}}},
{"geometry": {"type": "Point", "coordinates": [-121.8645401667, 37.2631887321]}, "type": "Feature", "properties": {"collection_times": [{"days": "Mon-Fri", "time": "11:00am"}, {"days": "Sat-Sun", "time": "Closed"}], "id": "9513600005", "name": "USPS COLLECTION BOX - BLUE BOX", "address": {"city": "SAN JOSE", "state": "CA", "street": "4690 ADAMO DR", "postcode": "95136"}}},
{"geometry": {"type": "Point", "coordinates": [-121.836469848, 37.2770967853]}, "type": "Feature", "properties": {"collection_times": [{"days": "Mon-Sat", "time": "1:00pm"}, {"days": "Sun", "time": "Closed"}], "id": "9513600009", "name": "USPS COLLECTION BOX - BLUE BOX", "address": {"city": "SAN JOSE", "state": "CA", "street": "4300 THE WOODS DR", "postcode": "95136"}}},
{"geometry": {"type": "Point", "coordinates": [-121.8004569764, 37.2546728339]}, "type": "Feature", "properties": {"collection_times": [{"days": "Mon-Fri", "time": "12:00pm"}, {"days": "Sat-Sun", "time": "Closed"}], "id": "9513800004", "name": "USPS COLLECTION BOX - BLUE BOX", "address": {"city": "SAN JOSE", "state": "CA", "street": "5510 MONTEREY HWY", "postcode": "95138"}}},
{"geometry": {"type": "Point", "coordinates": [-121.7991696876, 37.3129775911]}, "type": "Feature", "properties": {"collection_times": [{"days": "Mon-Sat", "time": "11:00am"}, {"days": "Sun", "time": "Closed"}], "id": "9514800001", "name": "USPS COLLECTION BOX - BLUE BOX", "address": {"city": "SAN JOSE", "state": "CA", "street": "2635 ABORN RD", "postcode": "95148"}}},
{"geometry": {"type": "Point", "coordinates": [-121.7968951388, 37.3244861214]}, "type": "Feature", "properties": {"collection_times": [{"days": "Mon-Sat", "time": "11:00am"}, {"days": "Sun", "time": "Closed"}], "id": "9514800004", "name": "USPS COLLECTION BOX - BLUE BOX", "address": {"city": "SAN JOSE", "state": "CA", "street": "2801 S WHITE RD", "postcode": "95148"}}},
{"geometry": {"type": "Point", "coordinates": [-121.7929346767, 37.3160457958]}, "type": "Feature", "properties": {"collection_times": [{"days": "Mon-Sat", "time": "11:00am"}, {"days": "Sun", "time": "Closed"}], "id": "9514800005", "name": "USPS COLLECTION BOX - BLUE BOX", "address": {"city": "SAN JOSE", "state": "CA", "street": "3245 S WHITE RD", "postcode": "95148"}}}
]}
