{"type": "FeatureCollection", "features": [
{"geometry": {"type": "Point", "coordinates": [-121.2896955678, 37.952461071]}, "type": "Feature", "properties": {"collection_times": [{"days": "Mon-Fri", "time": "4:00pm"}, {"days": "Sat", "time": "1:30pm"}, {"days": "Sun", "time": "Closed"}], "id": "9520200012", "name": "USPS COLLECTION BOX - BLUE BOX", "address": {"city": "STOCKTON", "state": "CA", "street": "6 S EL DORADO ST", "postcode": "95202"}}},
{"geometry": {"type": "Point", "coordinates": [-121.2876916353, 37.9542213139]}, "type": "Feature", "properties": {"collection_times": [{"days": "Mon-Fri", "time": "3:00pm"}, {"days": "Sat", "time": "1:00pm"}, {"days": "Sun", "time": "Closed"}], "id": "9520200062", "name": "USPS COLLECTION BOX - BLUE BOX", "address": {"city": "STOCKTON", "state": "CA", "street": "255 E WEBER AVE", "postcode": "95202"}}},
{"geometry": {"type": "Point", "coordinates": [-121.2940559545, 37.9634590405]}, "type": "Feature", "properties": {"collection_times": [{"days": "Mon-Fri", "time": "3:00pm"}, {"days": "Sat", "time": "1:30pm"}, {"days": "Sun", "time": "Closed"}], "id": "9520200083", "name": "USPS COLLECTION BOX - BLUE BOX", "address": {"city": "STOCKTON", "state": "CA", "street": "1108 N CENTER ST", "postcode": "95202"}}},
{"geometry": {"type": "Point", "coordinates": [-121.2884058749, 37.9549099412]}, "type": "Feature", "properties": {"collection_times": [{"days": "Mon-Fri", "time": "5:00pm"}, {"days": "Sat-Sun", "time": "Closed"}], "id": "9520200090", "name": "USPS COLLECTION BOX - PO LOBBY", "address": {"city": "STOCKTON", "state": "CA", "street": "240 E CHANNEL ST", "postcode": "95202"}}},
{"geometry": {"type": "Point", "coordinates": [-121.3083946001, 37.9560726447]}, "type": "Feature", "properties": {"collection_times": [{"days": "Mon-Fri", "time": "3:00pm"}, {"days": "Sat", "time": "2:30pm"}, {"days": "Sun", "time": "Closed"}], "id": "9520300067", "name": "USPS COLLECTION BOX - BLUE BOX", "address": {"city": "STOCKTON", "state": "CA", "street": "611 N ARGONAUT ST", "postcode": "95203"}}},
{"geometry": {"type": "Point", "coordinates": [-121.2979068397, 37.952418685]}, "type": "Feature", "properties": {"collection_times": [{"days": "Mon-Sat", "time": "3:00pm"}, {"days": "Sun", "time": "Closed"}], "id": "9520300081", "name": "USPS COLLECTION BOX - BLUE BOX", "address": {"city": "STOCKTON", "state": "CA", "street": "501 W WEBER AVE", "postcode": "95203"}}},
{"geometry": {"type": "Point", "coordinates": [-121.3005944543, 37.9612714114]}, "type": "Feature", "properties": {"collection_times": [{"days": "Mon-Fri", "time": "3:00pm"}, {"days": "Sat", "time": "2:15pm"}, {"days": "Sun", "time": "Closed"}], "id": "9520300086", "name": "USPS COLLECTION BOX - BLUE BOX", "address": {"city": "STOCKTON", "state": "CA", "street": "525 W ACACIA ST", "postcode": "95203"}}},
{"geometry": {"type": "Point", "coordinates": [-121.2906348372, 37.974628539]}, "type": "Feature", "properties": {"collection_times": [{"days": "Mon-Fri", "time": "3:00pm"}, {"days": "Sat", "time": "3:45pm"}, {"days": "Sun", "time": "Closed"}], "id": "9520400010", "name": "USPS COLLECTION BOX - BLUE BOX", "address": {"city": "STOCKTON", "state": "CA", "street": "2308 N CALIFORNIA ST", "postcode": "95204"}}},
{"geometry": {"type": "Point", "coordinates": [-121.3025044242, 37.9744791385]}, "type": "Feature", "properties": {"collection_times": [{"days": "Mon-Fri", "time": "5:00pm"}, {"days": "Sat", "time": "3:00pm"}, {"days": "Sun", "time": "Closed"}], "id": "9520400038", "name": "USPS COLLECTION BOX - BLUE BOX", "address": {"city": "STOCKTON", "state": "CA", "street": "2616 PACIFIC AVE", "postcode": "95204"}}},
{"geometry": {"type": "Point", "coordinates": [-121.3072282002, 37.9806798701]}, "type": "Feature", "properties": {"collection_times": [{"days": "Mon-Fri", "time": "3:00pm"}, {"days": "Sat", "time": "1:00pm"}, {"days": "Sun", "time": "Closed"}], "id": "9520400042", "name": "USPS COLLECTION BOX - BLUE BOX", "address": {"city": "STOCKTON", "state": "CA", "street": "3601 PACIFIC AVE", "postcode": "95204"}}},
{"geometry": {"type": "Point", "coordinates": [-121.3025046475, 37.9744215212]}, "type": "Feature", "properties": {"collection_times": [{"days": "Mon-Fri", "time": "5:00pm"}, {"days": "Sat", "time": "9:00am"}, {"days": "Sun", "time": "Closed"}], "id": "9520400049", "name": "USPS COLLECTION BOX - PO LOBBY", "address": {"city": "STOCKTON", "state": "CA", "street": "2616 PACIFIC AVE", "postcode": "95204"}}},
{"geometry": {"type": "Point", "coordinates": [-121.3025046475, 37.9744215212]}, "type": "Feature", "properties": {"collection_times": [{"days": "Mon-Fri", "time": "5:00pm"}, {"days": "Sat", "time": "9:00am"}, {"days": "Sun", "time": "Closed"}], "id": "9520400050", "name": "USPS COLLECTION BOX - PO LOBBY", "address": {"city": "STOCKTON", "state": "CA", "street": "2616 PACIFIC AVE", "postcode": "95204"}}},
{"geometry": {"type": "Point", "coordinates": [-121.2461047129, 37.9872779192]}, "type": "Feature", "properties": {"collection_times": [{"days": "Mon-Fri", "time": "3:00pm"}, {"days": "Sat", "time": "12:30pm"}, {"days": "Sun", "time": "Closed"}], "id": "9520500017", "name": "USPS COLLECTION BOX - BLUE BOX", "address": {"city": "STOCKTON", "state": "CA", "street": "4407 E WATERLOO RD", "postcode": "95205"}}},
{"geometry": {"type": "Point", "coordinates": [-121.2431780724, 37.9544247829]}, "type": "Feature", "properties": {"collection_times": [{"days": "Mon-Fri", "time": "5:00pm"}, {"days": "Sat", "time": "2:30pm"}, {"days": "Sun", "time": "Closed"}], "id": "9520500022", "name": "USPS COLLECTION BOX - PO LOBBY", "address": {"city": "STOCKTON", "state": "CA", "street": "3333 E MAIN ST", "postcode": "95205"}}},
{"geometry": {"type": "Point", "coordinates": [-121.2431780724, 37.9544247829]}, "type": "Feature", "properties": {"collection_times": [{"days": "Mon-Fri", "time": "5:00pm"}, {"days": "Sat", "time": "2:30pm"}, {"days": "Sun", "time": "Closed"}], "id": "9520500023", "name": "USPS COLLECTION BOX - PO LOBBY", "address": {"city": "STOCKTON", "state": "CA", "street": "3333 E MAIN ST", "postcode": "95205"}}},
{"geometry": {"type": "Point", "coordinates": [-121.2852133363, 37.9360203073]}, "type": "Feature", "properties": {"collection_times": [{"days": "Mon-Fri", "time": "5:00pm"}, {"days": "Sat", "time": "10:00am"}, {"days": "Sun", "time": "Closed"}], "id": "9520600030", "name": "USPS COLLECTION BOX - PO LOBBY", "address": {"city": "STOCKTON", "state": "CA", "street": "1610 S EL DORADO ST", "postcode": "95206"}}},
{"geometry": {"type": "Point", "coordinates": [-121.2852133363, 37.9360203073]}, "type": "Feature", "properties": {"collection_times": [{"days": "Mon-Fri", "time": "5:00pm"}, {"days": "Sat", "time": "10:00am"}, {"days": "Sun", "time": "Closed"}], "id": "9520600031", "name": "USPS COLLECTION BOX - PO LOBBY", "address": {"city": "STOCKTON", "state": "CA", "street": "1610 S EL DORADO ST", "postcode": "95206"}}},
{"geometry": {"type": "Point", "coordinates": [-121.2937546737, 37.910976357]}, "type": "Feature", "properties": {"collection_times": [{"days": "Mon-Fri", "time": "3:00pm"}, {"days": "Sat", "time": "1:00pm"}, {"days": "Sun", "time": "Closed"}], "id": "9520600035", "name": "USPS COLLECTION BOX - BLUE BOX", "address": {"city": "STOCKTON", "state": "CA", "street": "3526 MANTHEY RD", "postcode": "95206"}}},
{"geometry": {"type": "Point", "coordinates": [-121.3243211942, 38.011557]}, "type": "Feature", "properties": {"collection_times": [{"days": "Mon-Sat", "time": "3:00pm"}, {"days": "Sun", "time": "Closed"}], "id": "9520700012", "name": "USPS COLLECTION BOX - BLUE BOX", "address": {"city": "STOCKTON", "state": "CA", "street": "6800 GETTYSBURG PL", "postcode": "95207"}}},
{"geometry": {"type": "Point", "coordinates": [-121.3275230466, 37.9864936174]}, "type": "Feature", "properties": {"collection_times": [{"days": "Mon-Fri", "time": "3:00pm"}, {"days": "Sat", "time": "1:30pm"}, {"days": "Sun", "time": "Closed"}], "id": "9520700015", "name": "USPS COLLECTION BOX - BLUE BOX", "address": {"city": "STOCKTON", "state": "CA", "street": "1743 GRAND CANAL BLVD", "postcode": "95207"}}},
{"geometry": {"type": "Point", "coordinates": [-121.3318893482, 37.9853709894]}, "type": "Feature", "properties": {"collection_times": [{"days": "Mon-Fri", "time": "3:00pm"}, {"days": "Sat", "time": "1:45pm"}, {"days": "Sun", "time": "Closed"}], "id": "9520700016", "name": "USPS COLLECTION BOX - BLUE BOX", "address": {"city": "STOCKTON", "state": "CA", "street": "2087 GRAND CANAL BLVD", "postcode": "95207"}}},
{"geometry": {"type": "Point", "coordinates": [-121.3295897319, 37.9860119372]}, "type": "Feature", "properties": {"collection_times": [{"days": "Mon-Fri", "time": "3:00pm"}, {"days": "Sat", "time": "1:45pm"}, {"days": "Sun", "time": "Closed"}], "id": "9520700020", "name": "USPS COLLECTION BOX - BLUE BOX", "address": {"city": "STOCKTON", "state": "CA", "street": "1901 GRAND CANAL BLVD", "postcode": "95207"}}},
{"geometry": {"type": "Point", "coordinates": [-121.3184154692, 37.9900233898]}, "type": "Feature", "properties": {"collection_times": [{"days": "Mon-Fri", "time": "3:00pm"}, {"days": "Sat", "time": "12:45pm"}, {"days": "Sun", "time": "Closed"}], "id": "9520700029", "name": "USPS COLLECTION BOX - BLUE BOX", "address": {"city": "STOCKTON", "state": "CA", "street": "1121 W MARCH LN", "postcode": "95207"}}},
{"geometry": {"type": "Point", "coordinates": [-121.3373157489, 37.9852570663]}, "type": "Feature", "properties": {"collection_times": [{"days": "Mon-Fri", "time": "3:30pm"}, {"days": "Sat", "time": "2:00pm"}, {"days": "Sun", "time": "Closed"}], "id": "9520700030", "name": "USPS COLLECTION BOX - BLUE BOX", "address": {"city": "STOCKTON", "state": "CA", "street": "2423 W MARCH LN", "postcode": "95207"}}},
{"geometry": {"type": "Point", "coordinates": [-121.3344705646, 37.9859186994]}, "type": "Feature", "properties": {"collection_times": [{"days": "Mon-Fri", "time": "3:30pm"}, {"days": "Sat", "time": "2:00pm"}, {"days": "Sun", "time": "Closed"}], "id": "9520700034", "name": "USPS COLLECTION BOX - BLUE BOX", "address": {"city": "STOCKTON", "state": "CA", "street": "2291 W MARCH LN", "postcode": "95207"}}},
{"geometry": {"type": "Point", "coordinates": [-121.340139304, 37.9872400645]}, "type": "Feature", "properties": {"collection_times": [{"days": "Mon-Fri", "time": "3:00pm"}, {"days": "Sat", "time": "2:15pm"}, {"days": "Sun", "time": "Closed"}], "id": "9520700052", "name": "USPS COLLECTION BOX - BLUE BOX", "address": {"city": "STOCKTON", "state": "CA", "street": "4609 QUAIL LAKES DR", "postcode": "95207"}}},
{"geometry": {"type": "Point", "coordinates": [-121.3199450115, 37.9997687829]}, "type": "Feature", "properties": {"collection_times": [{"days": "Mon-Fri", "time": "5:00pm"}, {"days": "Sat", "time": "4:00pm"}, {"days": "Sun", "time": "Closed"}], "id": "9520700056", "name": "USPS COLLECTION BOX - BLUE BOX", "address": {"city": "STOCKTON", "state": "CA", "street": "1048 W ROBINHOOD DR", "postcode": "95207"}}},
{"geometry": {"type": "Point", "coordinates": [-121.3199450115, 37.9997687829]}, "type": "Feature", "properties": {"collection_times": [{"days": "Mon-Fri", "time": "5:00pm"}, {"days": "Sat", "time": "4:00pm"}, {"days": "Sun", "time": "Closed"}], "id": "9520700058", "name": "USPS COLLECTION BOX - BLUE BOX", "address": {"city": "STOCKTON", "state": "CA", "street": "1048 W ROBINHOOD DR", "postcode": "95207"}}},
{"geometry": {"type": "Point", "coordinates": [-121.3069303846, 37.998526112]}, "type": "Feature", "properties": {"collection_times": [{"days": "Mon-Sat", "time": "3:00pm"}, {"days": "Sun", "time": "Closed"}], "id": "9520700095", "name": "USPS COLLECTION BOX - BLUE BOX", "address": {"city": "STOCKTON", "state": "CA", "street": "37 W YOKUTS AVE", "postcode": "95207"}}},
{"geometry": {"type": "Point", "coordinates": [-121.3199450115, 37.9997687829]}, "type": "Feature", "properties": {"collection_times": [{"days": "Mon-Fri", "time": "5:00pm"}, {"days": "Sat", "time": "4:00pm"}, {"days": "Sun", "time": "Closed"}], "id": "9520700099", "name": "USPS COLLECTION BOX - BLUE BOX", "address": {"city": "STOCKTON", "state": "CA", "street": "1048 W ROBINHOOD DR", "postcode": "95207"}}},
{"geometry": {"type": "Point", "coordinates": [-121.3199450115, 37.9997687829]}, "type": "Feature", "properties": {"collection_times": [{"days": "Mon-Fri", "time": "5:00pm"}, {"days": "Sat", "time": "4:00pm"}, {"days": "Sun", "time": "Closed"}], "id": "9520700103", "name": "USPS COLLECTION BOX - PO LOBBY", "address": {"city": "STOCKTON", "state": "CA", "street": "1048 W ROBINHOOD DR", "postcode": "95207"}}},
{"geometry": {"type": "Point", "coordinates": [-121.3199450115, 37.9997687829]}, "type": "Feature", "properties": {"collection_times": [{"days": "Mon-Fri", "time": "5:00pm"}, {"days": "Sat", "time": "4:00pm"}, {"days": "Sun", "time": "Closed"}], "id": "9520700104", "name": "USPS COLLECTION BOX - PO LOBBY", "address": {"city": "STOCKTON", "state": "CA", "street": "1048 W ROBINHOOD DR", "postcode": "95207"}}},
{"geometry": {"type": "Point", "coordinates": [-121.3135997776, 37.9896957458]}, "type": "Feature", "properties": {"collection_times": [{"days": "Mon-Fri", "time": "3:00pm"}, {"days": "Sat", "time": "12:30pm"}, {"days": "Sun", "time": "Closed"}], "id": "9520700110", "name": "USPS COLLECTION BOX - BLUE BOX", "address": {"city": "STOCKTON", "state": "CA", "street": "4600 GEORGETOWN PL", "postcode": "95207"}}},
{"geometry": {"type": "Point", "coordinates": [-121.3250071625, 38.0023270234]}, "type": "Feature", "properties": {"collection_times": [{"days": "Mon-Fri", "time": "3:00pm"}, {"days": "Sat", "time": "2:00pm"}, {"days": "Sun", "time": "Closed"}], "id": "9520700114", "name": "USPS COLLECTION BOX - BLUE BOX", "address": {"city": "STOCKTON", "state": "CA", "street": "400 W BEN HOLT", "postcode": "95207"}}},
{"geometry": {"type": "Point", "coordinates": [-121.2868020502, 37.9919198502]}, "type": "Feature", "properties": {"collection_times": [{"days": "Mon-Sat", "time": "5:00pm"}, {"days": "Sun", "time": "Closed"}], "id": "9520800098", "name": "USPS COLLECTION BOX - BLUE BOX", "address": {"city": "STOCKTON", "state": "CA", "street": "4245 WEST LN", "postcode": "95208"}}},
{"geometry": {"type": "Point", "coordinates": [-121.2868020502, 37.9919198502]}, "type": "Feature", "properties": {"collection_times": [{"days": "Mon-Sat", "time": "5:00pm"}, {"days": "Sun", "time": "Closed"}], "id": "9520800100", "name": "USPS COLLECTION BOX - PO LOBBY", "address": {"city": "STOCKTON", "state": "CA", "street": "4245 WEST LN", "postcode": "95208"}}},
{"geometry": {"type": "Point", "coordinates": [-121.2868020502, 37.9919198502]}, "type": "Feature", "properties": {"collection_times": [{"days": "Mon-Sat", "time": "5:00pm"}, {"days": "Sun", "time": "Closed"}], "id": "9520800101", "name": "USPS COLLECTION BOX - PO LOBBY", "address": {"city": "STOCKTON", "state": "CA", "street": "4245 WEST LN", "postcode": "95208"}}},
{"geometry": {"type": "Point", "coordinates": [-121.3215278106, 38.0186511739]}, "type": "Feature", "properties": {"collection_times": [{"days": "Mon-Fri", "time": "5:00pm"}, {"days": "Sat", "time": "3:30pm"}, {"days": "Sun", "time": "Closed"}], "id": "9520900014", "name": "USPS COLLECTION BOX - PO LOBBY", "address": {"city": "STOCKTON", "state": "CA", "street": "7554 PACIFIC AVE", "postcode": "95209"}}},
{"geometry": {"type": "Point", "coordinates": [-121.3215278106, 38.0186511739]}, "type": "Feature", "properties": {"collection_times": [{"days": "Mon-Fri", "time": "5:00pm"}, {"days": "Sat", "time": "3:30pm"}, {"days": "Sun", "time": "Closed"}], "id": "9520900015", "name": "USPS COLLECTION BOX - PO LOBBY", "address": {"city": "STOCKTON", "state": "CA", "street": "7554 PACIFIC AVE", "postcode": "95209"}}},
{"geometry": {"type": "Point", "coordinates": [-121.3439484318, 38.0213151975]}, "type": "Feature", "properties": {"collection_times": [{"days": "Mon-Sat", "time": "3:00pm"}, {"days": "Sun", "time": "Closed"}], "id": "9520900019", "name": "USPS COLLECTION BOX - BLUE BOX", "address": {"city": "STOCKTON", "state": "CA", "street": "2323 W HAMMER LN", "postcode": "95209"}}},
{"geometry": {"type": "Point", "coordinates": [-121.2283966232, 38.0475221947]}, "type": "Feature", "properties": {"collection_times": [{"days": "Mon-Fri", "time": "3:00pm"}, {"days": "Sat", "time": "2:30pm"}, {"days": "Sun", "time": "Closed"}], "id": "9521200006", "name": "USPS COLLECTION BOX - BLUE BOX", "address": {"city": "STOCKTON", "state": "CA", "street": "3158 STOCKTON AUTO CTR", "postcode": "95212"}}},
{"geometry": {"type": "Point", "coordinates": [-121.2282163781, 37.9044539238]}, "type": "Feature", "properties": {"collection_times": [{"days": "Mon-Fri", "time": "5:00pm"}, {"days": "Sat", "time": "4:00pm"}, {"days": "Sun", "time": "Closed"}], "id": "9521300004", "name": "USPS COLLECTION BOX - BLUE BOX", "address": {"city": "STOCKTON", "state": "CA", "street": "3131 ARCH AIRPORT RD", "postcode": "95213"}}},
{"geometry": {"type": "Point", "coordinates": [-121.2267597849, 37.9043075433]}, "type": "Feature", "properties": {"collection_times": [{"days": "Mon-Fri", "time": "5:00pm"}, {"days": "Sat", "time": "1:00pm"}, {"days": "Sun", "time": "Closed"}], "id": "9521300005", "name": "USPS COLLECTION BOX - PO LOBBY", "address": {"city": "STOCKTON", "state": "CA", "street": "3131 ARCH AIRPORT RD", "postcode": "95213"}}},
{"geometry": {"type": "Point", "coordinates": [-121.2267597849, 37.9043075433]}, "type": "Feature", "properties": {"collection_times": [{"days": "Mon-Fri", "time": "5:00pm"}, {"days": "Sat", "time": "4:00pm"}, {"days": "Sun", "time": "Closed"}], "id": "9521300006", "name": "USPS COLLECTION BOX - PO LOBBY", "address": {"city": "STOCKTON", "state": "CA", "street": "3131 ARCH AIRPORT RD", "postcode": "95213"}}},
{"geometry": {"type": "Point", "coordinates": [-121.2282095205, 37.9044803635]}, "type": "Feature", "properties": {"collection_times": [{"days": "Mon-Fri", "time": "5:00pm"}, {"days": "Sat", "time": "4:00pm"}, {"days": "Sun", "time": "Closed"}], "id": "9521300007", "name": "USPS COLLECTION BOX - EXPRESS", "address": {"city": "STOCKTON", "state": "CA", "street": "3131 ARCH AIRPORT RD", "postcode": "95213"}}},
{"geometry": {"type": "Point", "coordinates": [-121.3525139147, 37.9844637704]}, "type": "Feature", "properties": {"collection_times": [{"days": "Mon-Fri", "time": "3:00pm"}, {"days": "Sat", "time": "2:45pm"}, {"days": "Sun", "time": "Closed"}], "id": "9521900008", "name": "USPS COLLECTION BOX - BLUE BOX", "address": {"city": "STOCKTON", "state": "CA", "street": "3423 DEER PARK DR", "postcode": "95219"}}},
{"geometry": {"type": "Point", "coordinates": [-121.345337973, 37.9843173615]}, "type": "Feature", "properties": {"collection_times": [{"days": "Mon-Fri", "time": "4:00pm"}, {"days": "Sat", "time": "2:45pm"}, {"days": "Sun", "time": "Closed"}], "id": "9521900011", "name": "USPS COLLECTION BOX - BLUE BOX", "address": {"city": "STOCKTON", "state": "CA", "street": "2800 W MARCH LN", "postcode": "95219"}}},
{"geometry": {"type": "Point", "coordinates": [-121.3503812327, 37.9842279118]}, "type": "Feature", "properties": {"collection_times": [{"days": "Mon-Fri", "time": "3:00pm"}, {"days": "Sat", "time": "2:30pm"}, {"days": "Sun", "time": "Closed"}], "id": "9521900015", "name": "USPS COLLECTION BOX - BLUE BOX", "address": {"city": "STOCKTON", "state": "CA", "street": "3101 W MARCH LN", "postcode": "95219"}}},
{"geometry": {"type": "Point", "coordinates": [-121.3538804064, 38.0052123298]}, "type": "Feature", "properties": {"collection_times": [{"days": "Mon-Sat", "time": "3:00pm"}, {"days": "Sun", "time": "Closed"}], "id": "9521900025", "name": "USPS COLLECTION BOX - BLUE BOX", "address": {"city": "STOCKTON", "state": "CA", "street": "3201 W BENJAMIN HOLT DR", "postcode": "95219"}}},
{"geometry": {"type": "Point", "coordinates": [-121.278942344, 38.1747427274]}, "type": "Feature", "properties": {"collection_times": [{"days": "Mon-Fri", "time": "4:30pm"}, {"days": "Sat", "time": "9:00am"}, {"days": "Sun", "time": "Closed"}], "id": "9522000000", "name": "USPS COLLECTION BOX - BLUE BOX", "address": {"city": "ACAMPO", "state": "CA", "street": "3113 E ACAMPO RD", "postcode": "95220"}}},
{"geometry": {"type": "Point", "coordinates": [-121.278942344, 38.1747427274]}, "type": "Feature", "properties": {"collection_times": [{"days": "Mon-Fri", "time": "4:30pm"}, {"days": "Sat", "time": "9:00am"}, {"days": "Sun", "time": "Closed"}], "id": "9522000002", "name": "USPS COLLECTION BOX - PO LOBBY", "address": {"city": "ACAMPO", "state": "CA", "street": "3113 E ACAMPO RD", "postcode": "95220"}}},
{"geometry": {"type": "Point", "coordinates": [-120.5544032082, 38.0794358676]}, "type": "Feature", "properties": {"collection_times": [{"days": "Mon-Fri", "time": "5:00pm"}, {"days": "Sat", "time": "10:30am"}, {"days": "Sun", "time": "Closed"}], "id": "9522100000", "name": "USPS COLLECTION BOX - PO LOBBY", "address": {"city": "ALTAVILLE", "state": "CA", "street": "380 S MAIN ST", "postcode": "95221"}}},
{"geometry": {"type": "Point", "coordinates": [-120.5544032082, 38.0794358676]}, "type": "Feature", "properties": {"collection_times": [{"days": "Mon-Fri", "time": "5:00pm"}, {"days": "Sat", "time": "10:30am"}, {"days": "Sun", "time": "Closed"}], "id": "9522100001", "name": "USPS COLLECTION BOX - PO LOBBY", "address": {"city": "ALTAVILLE", "state": "CA", "street": "380 S MAIN ST", "postcode": "95221"}}},
{"geometry": {"type": "Point", "coordinates": [-120.5544032082, 38.0794358676]}, "type": "Feature", "properties": {"collection_times": [{"days": "Mon-Fri", "time": "4:30pm"}, {"days": "Sat", "time": "10:30am"}, {"days": "Sun", "time": "Closed"}], "id": "9522100002", "name": "USPS COLLECTION BOX - BLUE BOX", "address": {"city": "ALTAVILLE", "state": "CA", "street": "380 S MAIN ST", "postcode": "95221"}}},
{"geometry": {"type": "Point", "coordinates": [-120.5544032082, 38.0794358676]}, "type": "Feature", "properties": {"collection_times": [{"days": "Mon-Fri", "time": "5:00pm"}, {"days": "Sat", "time": "10:30am"}, {"days": "Sun", "time": "Closed"}], "id": "9522100003", "name": "USPS COLLECTION BOX - PO LOBBY", "address": {"city": "ALTAVILLE", "state": "CA", "street": "380 S MAIN ST", "postcode": "95221"}}},
{"geometry": {"type": "Point", "coordinates": [-120.5415255583, 38.0708641561]}, "type": "Feature", "properties": {"collection_times": [{"days": "Mon-Fri", "time": "4:30pm"}, {"days": "Sat", "time": "10:30am"}, {"days": "Sun", "time": "Closed"}], "id": "9522200000", "name": "USPS COLLECTION BOX - BLUE BOX", "address": {"city": "ANGELS CAMP", "state": "CA", "street": "1216 S MAIN ST", "postcode": "95222"}}},
{"geometry": {"type": "Point", "coordinates": [-120.5659616014, 38.0856585195]}, "type": "Feature", "properties": {"collection_times": [{"days": "Mon-Fri", "time": "2:30pm"}, {"days": "Sat-Sun", "time": "Closed"}], "id": "9522200002", "name": "USPS COLLECTION BOX - BLUE BOX", "address": {"city": "ANGELS CAMP", "state": "CA", "street": "374 N MAIN ST", "postcode": "95222"}}},
{"geometry": {"type": "Point", "coordinates": [-120.5781928324, 38.0582576462]}, "type": "Feature", "properties": {"collection_times": [{"days": "Mon-Fri", "time": "2:30pm"}, {"days": "Sat-Sun", "time": "Closed"}], "id": "9522200003", "name": "USPS COLLECTION BOX - BLUE BOX", "address": {"city": "ANGELS CAMP", "state": "CA", "street": "0 ANGEL TOWN CTR", "postcode": "95222"}}},
{"geometry": {"type": "Point", "coordinates": [-120.5415255583, 38.0708641561]}, "type": "Feature", "properties": {"collection_times": [{"days": "Mon-Fri", "time": "4:30pm"}, {"days": "Sat", "time": "10:30am"}, {"days": "Sun", "time": "Closed"}], "id": "9522200004", "name": "USPS COLLECTION BOX - PO LOBBY", "address": {"city": "ANGELS CAMP", "state": "CA", "street": "1216 S MAIN ST", "postcode": "95222"}}},
{"geometry": {"type": "Point", "coordinates": [-120.5415255583, 38.0708641561]}, "type": "Feature", "properties": {"collection_times": [{"days": "Mon-Fri", "time": "5:00pm"}, {"days": "Sat", "time": "10:30am"}, {"days": "Sun", "time": "Closed"}], "id": "9522200005", "name": "USPS COLLECTION BOX - PO LOBBY", "address": {"city": "ANGELS CAMP", "state": "CA", "street": "1216 S MAIN ST", "postcode": "95222"}}},
{"geometry": {"type": "Point", "coordinates": [-120.3450419154, 38.2583195699]}, "type": "Feature", "properties": {"collection_times": [{"days": "Mon-Fri", "time": "4:30pm"}, {"days": "Sat", "time": "12:30pm"}, {"days": "Sun", "time": "Closed"}], "id": "9522300003", "name": "USPS COLLECTION BOX - PO LOBBY", "address": {"city": "ARNOLD", "state": "CA", "street": "997 BLAGEN RD", "postcode": "95223"}}},
{"geometry": {"type": "Point", "coordinates": [-120.3695604988, 38.2046439676]}, "type": "Feature", "properties": {"collection_times": [{"days": "Mon-Fri", "time": "4:30pm"}, {"days": "Sat", "time": "11:00am"}, {"days": "Sun", "time": "Closed"}], "id": "9522400000", "name": "USPS COLLECTION BOX - BLUE BOX", "address": {"city": "AVERY", "state": "CA", "street": "4529A HIGHWAY 4", "postcode": "95224"}}},
{"geometry": {"type": "Point", "coordinates": [-120.3695604988, 38.2046439676]}, "type": "Feature", "properties": {"collection_times": [{"days": "Mon-Fri", "time": "4:45pm"}, {"days": "Sat", "time": "11:00am"}, {"days": "Sun", "time": "Closed"}], "id": "9522400001", "name": "USPS COLLECTION BOX - PO LOBBY", "address": {"city": "AVERY", "state": "CA", "street": "4529A HIGHWAY 4", "postcode": "95224"}}},
{"geometry": {"type": "Point", "coordinates": [-120.3695604988, 38.2046439676]}, "type": "Feature", "properties": {"collection_times": [{"days": "Mon-Fri", "time": "4:45pm"}, {"days": "Sat", "time": "11:00am"}, {"days": "Sun", "time": "Closed"}], "id": "9522400002", "name": "USPS COLLECTION BOX - PO LOBBY", "address": {"city": "AVERY", "state": "CA", "street": "4529A HIGHWAY 4", "postcode": "95224"}}},
{"geometry": {"type": "Point", "coordinates": [-120.8904202844, 38.1828519671]}, "type": "Feature", "properties": {"collection_times": [{"days": "Mon-Fri", "time": "4:30pm"}, {"days": "Sat", "time": "9:00am"}, {"days": "Sun", "time": "Closed"}], "id": "9522500000", "name": "USPS COLLECTION BOX - PO LOBBY", "address": {"city": "BURSON", "state": "CA", "street": "3171 HIGHWAY 12", "postcode": "95225"}}},
{"geometry": {"type": "Point", "coordinates": [-120.8904202844, 38.1828519671]}, "type": "Feature", "properties": {"collection_times": [{"days": "Mon-Fri", "time": "4:30pm"}, {"days": "Sat", "time": "9:00am"}, {"days": "Sun", "time": "Closed"}], "id": "9522500001", "name": "USPS COLLECTION BOX - PO LOBBY", "address": {"city": "BURSON", "state": "CA", "street": "3171 HIGHWAY 12", "postcode": "95225"}}},
{"geometry": {"type": "Point", "coordinates": [-120.8589527391, 38.2210993438]}, "type": "Feature", "properties": {"collection_times": [{"days": "Mon-Sat", "time": "9:00am"}, {"days": "Sun", "time": "Closed"}], "id": "9522600001", "name": "USPS COLLECTION BOX - PO LOBBY", "address": {"city": "CAMPO SECO", "state": "CA", "street": "3958 CAMPO SECO RD", "postcode": "95226"}}},
{"geometry": {"type": "Point", "coordinates": [-121.0855452149, 38.1915358051]}, "type": "Feature", "properties": {"collection_times": [{"days": "Mon-Fri", "time": "4:30pm"}, {"days": "Sat", "time": "9:45am"}, {"days": "Sun", "time": "Closed"}], "id": "9522700003", "name": "USPS COLLECTION BOX - PO LOBBY", "address": {"city": "CLEMENTS", "state": "CA", "street": "18860 E HIGHWAY 88", "postcode": "95227"}}},
{"geometry": {"type": "Point", "coordinates": [-121.0855452149, 38.1915358051]}, "type": "Feature", "properties": {"collection_times": [{"days": "Mon-Fri", "time": "4:30pm"}, {"days": "Sat", "time": "9:45am"}, {"days": "Sun", "time": "Closed"}], "id": "9522700004", "name": "USPS COLLECTION BOX - PO LOBBY", "address": {"city": "CLEMENTS", "state": "CA", "street": "18860 E HIGHWAY 88", "postcode": "95227"}}},
{"geometry": {"type": "Point", "coordinates": [-120.5831542662, 37.9041482815]}, "type": "Feature", "properties": {"collection_times": [{"days": "Mon-Fri", "time": "12:00pm"}, {"days": "Sat-Sun", "time": "Closed"}], "id": "9522800001", "name": "USPS COLLECTION BOX - BLUE BOX", "address": {"city": "COPPEROPOLIS", "state": "CA", "street": "385 POKER FLAT RD", "postcode": "95228"}}},
{"geometry": {"type": "Point", "coordinates": [-120.6452566267, 37.9834290072]}, "type": "Feature", "properties": {"collection_times": [{"days": "Mon-Fri", "time": "3:30pm"}, {"days": "Sat", "time": "9:00am"}, {"days": "Sun", "time": "Closed"}], "id": "9522800002", "name": "USPS COLLECTION BOX - BLUE BOX", "address": {"city": "COPPEROPOLIS", "state": "CA", "street": "405 MAIN ST", "postcode": "95228"}}},
{"geometry": {"type": "Point", "coordinates": [-120.6452566267, 37.9834290072]}, "type": "Feature", "properties": {"collection_times": [{"days": "Mon-Fri", "time": "4:00pm"}, {"days": "Sat", "time": "9:00am"}, {"days": "Sun", "time": "Closed"}], "id": "9522800004", "name": "USPS COLLECTION BOX - PO LOBBY", "address": {"city": "COPPEROPOLIS", "state": "CA", "street": "405 MAIN ST", "postcode": "95228"}}},
{"geometry": {"type": "Point", "coordinates": [-120.6045015967, 37.9367555206]}, "type": "Feature", "properties": {"collection_times": [{"days": "Mon-Fri", "time": "12:00pm"}, {"days": "Sat-Sun", "time": "Closed"}], "id": "9522800005", "name": "USPS COLLECTION BOX - BLUE BOX", "address": {"city": "COPPEROPOLIS", "state": "CA", "street": "3505 SPANGLER LN", "postcode": "95228"}}},
{"geometry": {"type": "Point", "coordinates": [-121.0019159574, 37.9300191565]}, "type": "Feature", "properties": {"collection_times": [{"days": "Mon-Fri", "time": "4:00pm"}, {"days": "Sat", "time": "8:00am"}, {"days": "Sun", "time": "Closed"}], "id": "9523000001", "name": "USPS COLLECTION BOX - PO LOBBY", "address": {"city": "FARMINGTON", "state": "CA", "street": "25320 E HIGHWAY 4", "postcode": "95230"}}},
{"geometry": {"type": "Point", "coordinates": [-121.269249305, 37.882955134]}, "type": "Feature", "properties": {"collection_times": [{"days": "Mon-Fri", "time": "5:00pm"}, {"days": "Sat", "time": "10:00am"}, {"days": "Sun", "time": "Closed"}], "id": "9523100001", "name": "USPS COLLECTION BOX - BLUE BOX", "address": {"city": "FRENCH CAMP", "state": "CA", "street": "315 E FRENCH CAMP RD", "postcode": "95231"}}},
{"geometry": {"type": "Point", "coordinates": [-121.269249305, 37.882955134]}, "type": "Feature", "properties": {"collection_times": [{"days": "Mon-Fri", "time": "5:00pm"}, {"days": "Sat", "time": "10:00am"}, {"days": "Sun", "time": "Closed"}], "id": "9523100002", "name": "USPS COLLECTION BOX - PO LOBBY", "address": {"city": "FRENCH CAMP", "state": "CA", "street": "315 E FRENCH CAMP RD", "postcode": "95231"}}},
{"geometry": {"type": "Point", "coordinates": [-121.269249305, 37.882955134]}, "type": "Feature", "properties": {"collection_times": [{"days": "Mon-Fri", "time": "5:00pm"}, {"days": "Sat", "time": "10:00am"}, {"days": "Sun", "time": "Closed"}], "id": "9523100003", "name": "USPS COLLECTION BOX - PO LOBBY", "address": {"city": "FRENCH CAMP", "state": "CA", "street": "315 E FRENCH CAMP RD", "postcode": "95231"}}},
{"geometry": {"type": "Point", "coordinates": [-120.6056615424, 38.3404777307]}, "type": "Feature", "properties": {"collection_times": [{"days": "Mon-Fri", "time": "4:15pm"}, {"days": "Sat", "time": "9:00am"}, {"days": "Sun", "time": "Closed"}], "id": "9523200001", "name": "USPS COLLECTION BOX - PO LOBBY", "address": {"city": "GLENCOE", "state": "CA", "street": "16087 HIGHWAY 26", "postcode": "95232"}}},
{"geometry": {"type": "Point", "coordinates": [-120.6056615424, 38.3404777307]}, "type": "Feature", "properties": {"collection_times": [{"days": "Mon-Fri", "time": "4:15pm"}, {"days": "Sat", "time": "9:00am"}, {"days": "Sun", "time": "Closed"}], "id": "9523200002", "name": "USPS COLLECTION BOX - PO LOBBY", "address": {"city": "GLENCOE", "state": "CA", "street": "16087 HIGHWAY 26", "postcode": "95232"}}},
{"geometry": {"type": "Point", "coordinates": [-120.365052348, 38.1925829237]}, "type": "Feature", "properties": {"collection_times": [{"days": "Mon-Fri", "time": "12:45pm"}, {"days": "Sat", "time": "11:00am"}, {"days": "Sun", "time": "Closed"}], "id": "9523300000", "name": "USPS COLLECTION BOX - BLUE BOX", "address": {"city": "HATHAWAY PINES", "state": "CA", "street": "5234F E HIGHWAY 4", "postcode": "95233"}}},
{"geometry": {"type": "Point", "coordinates": [-120.365052348, 38.1925829237]}, "type": "Feature", "properties": {"collection_times": [{"days": "Mon-Fri", "time": "12:45pm"}, {"days": "Sat", "time": "11:00am"}, {"days": "Sun", "time": "Closed"}], "id": "9523300001", "name": "USPS COLLECTION BOX - PO LOBBY", "address": {"city": "HATHAWAY PINES", "state": "CA", "street": "5234F E HIGHWAY 4", "postcode": "95233"}}},
{"geometry": {"type": "Point", "coordinates": [-120.365052348, 38.1925829237]}, "type": "Feature", "properties": {"collection_times": [{"days": "Mon-Fri", "time": "12:45pm"}, {"days": "Sat", "time": "11:00am"}, {"days": "Sun", "time": "Closed"}], "id": "9523300002", "name": "USPS COLLECTION BOX - PO LOBBY", "address": {"city": "HATHAWAY PINES", "state": "CA", "street": "5234F E HIGHWAY 4", "postcode": "95233"}}},
{"geometry": {"type": "Point", "coordinates": [-121.4326586221, 37.9269302252]}, "type": "Feature", "properties": {"collection_times": [{"days": "Mon-Fri", "time": "3:00pm"}, {"days": "Sat", "time": "9:45am"}, {"days": "Sun", "time": "Closed"}], "id": "9523400000", "name": "USPS COLLECTION BOX - BLUE BOX", "address": {"city": "HOLT", "state": "CA", "street": "10340 S WHISKEY SLOUGH RD", "postcode": "95234"}}},
{"geometry": {"type": "Point", "coordinates": [-121.4326586221, 37.9269302252]}, "type": "Feature", "properties": {"collection_times": [{"days": "Mon-Fri", "time": "3:00pm"}, {"days": "Sat", "time": "9:45am"}, {"days": "Sun", "time": "Closed"}], "id": "9523400001", "name": "USPS COLLECTION BOX - PO LOBBY", "address": {"city": "HOLT", "state": "CA", "street": "10340 S WHISKEY SLOUGH RD", "postcode": "95234"}}},
{"geometry": {"type": "Point", "coordinates": [-121.4326586221, 37.9269302252]}, "type": "Feature", "properties": {"collection_times": [{"days": "Mon-Fri", "time": "3:00pm"}, {"days": "Sat", "time": "9:45am"}, {"days": "Sun", "time": "Closed"}], "id": "9523400002", "name": "USPS COLLECTION BOX - PO LOBBY", "address": {"city": "HOLT", "state": "CA", "street": "10340 S WHISKEY SLOUGH RD", "postcode": "95234"}}},
{"geometry": {"type": "Point", "coordinates": [-121.0838228532, 38.0211188263]}, "type": "Feature", "properties": {"collection_times": [{"days": "Mon-Fri", "time": "4:30pm"}, {"days": "Sat", "time": "9:00am"}, {"days": "Sun", "time": "Closed"}], "id": "9523600000", "name": "USPS COLLECTION BOX - BLUE BOX", "address": {"city": "LINDEN", "state": "CA", "street": "4916 N MILL ST", "postcode": "95236"}}},
{"geometry": {"type": "Point", "coordinates": [-121.0838228532, 38.0211188263]}, "type": "Feature", "properties": {"collection_times": [{"days": "Mon-Fri", "time": "5:00pm"}, {"days": "Sat-Sun", "time": "Closed"}], "id": "9523600002", "name": "USPS COLLECTION BOX - PO LOBBY", "address": {"city": "LINDEN", "state": "CA", "street": "4916 N MILL ST", "postcode": "95236"}}},
{"geometry": {"type": "Point", "coordinates": [-121.0838228532, 38.0211188263]}, "type": "Feature", "properties": {"collection_times": [{"days": "Mon-Fri", "time": "5:00pm"}, {"days": "Sat-Sun", "time": "Closed"}], "id": "9523600003", "name": "USPS COLLECTION BOX - PO LOBBY", "address": {"city": "LINDEN", "state": "CA", "street": "4916 N MILL ST", "postcode": "95236"}}},
{"geometry": {"type": "Point", "coordinates": [-121.0838228532, 38.0211188263]}, "type": "Feature", "properties": {"collection_times": [{"days": "Mon-Fri", "time": "5:00pm"}, {"days": "Sat-Sun", "time": "Closed"}], "id": "9523600004", "name": "USPS COLLECTION BOX - PO LOBBY", "address": {"city": "LINDEN", "state": "CA", "street": "4916 N MILL ST", "postcode": "95236"}}},
{"geometry": {"type": "Point", "coordinates": [-121.1548110377, 38.1562222038]}, "type": "Feature", "properties": {"collection_times": [{"days": "Mon-Fri", "time": "10:30am"}, {"days": "Sat-Sun", "time": "Closed"}], "id": "9523700000", "name": "USPS COLLECTION BOX - BLUE BOX", "address": {"city": "LOCKEFORD", "state": "CA", "street": "18980 N HIGHWAY 88", "postcode": "95237"}}},
{"geometry": {"type": "Point", "coordinates": [-121.1514942142, 38.1624858992]}, "type": "Feature", "properties": {"collection_times": [{"days": "Mon-Fri", "time": "4:30pm"}, {"days": "Sat", "time": "9:30am"}, {"days": "Sun", "time": "Closed"}], "id": "9523700001", "name": "USPS COLLECTION BOX - BLUE BOX", "address": {"city": "LOCKEFORD", "state": "CA", "street": "13355 E HIGHWAY 88", "postcode": "95237"}}},
{"geometry": {"type": "Point", "coordinates": [-121.1514942142, 38.1624858992]}, "type": "Feature", "properties": {"collection_times": [{"days": "Mon-Fri", "time": "5:00pm"}, {"days": "Sat", "time": "9:30am"}, {"days": "Sun", "time": "Closed"}], "id": "9523700002", "name": "USPS COLLECTION BOX - PO LOBBY", "address": {"city": "LOCKEFORD", "state": "CA", "street": "13355 E HIGHWAY 88", "postcode": "95237"}}},
{"geometry": {"type": "Point", "coordinates": [-121.285850805, 38.1212108736]}, "type": "Feature", "properties": {"collection_times": [{"days": "Mon-Fri", "time": "5:00pm"}, {"days": "Sat", "time": "3:00pm"}, {"days": "Sun", "time": "Closed"}], "id": "9524000000", "name": "USPS COLLECTION BOX - BLUE BOX", "address": {"city": "LODI", "state": "CA", "street": "999 S FAIRMONT AVE", "postcode": "95240"}}},
{"geometry": {"type": "Point", "coordinates": [-121.2774543084, 38.1343753177]}, "type": "Feature", "properties": {"collection_times": [{"days": "Mon-Fri", "time": "5:00pm"}, {"days": "Sat", "time": "3:00pm"}, {"days": "Sun", "time": "Closed"}], "id": "9524000005", "name": "USPS COLLECTION BOX - BLUE BOX", "address": {"city": "LODI", "state": "CA", "street": "325 W PINE ST", "postcode": "95240"}}},
{"geometry": {"type": "Point", "coordinates": [-121.2606362965, 38.1233339456]}, "type": "Feature", "properties": {"collection_times": [{"days": "Mon-Fri", "time": "5:00pm"}, {"days": "Sat", "time": "3:00pm"}, {"days": "Sun", "time": "Closed"}], "id": "9524000009", "name": "USPS COLLECTION BOX - BLUE BOX", "address": {"city": "LODI", "state": "CA", "street": "230 W ELM ST", "postcode": "95240"}}},
{"geometry": {"type": "Point", "coordinates": [-121.2737658424, 38.1323453601]}, "type": "Feature", "properties": {"collection_times": [{"days": "Mon-Fri", "time": "5:00pm"}, {"days": "Sat", "time": "4:45pm"}, {"days": "Sun", "time": "Closed"}], "id": "9524000010", "name": "USPS COLLECTION BOX - BLUE BOX", "address": {"city": "LODI", "state": "CA", "street": "120 S SCHOOL ST", "postcode": "95240"}}},
{"geometry": {"type": "Point", "coordinates": [-121.265459138, 38.1336753785]}, "type": "Feature", "properties": {"collection_times": [{"days": "Mon-Fri", "time": "2:00pm"}, {"days": "Sat", "time": "1:00pm"}, {"days": "Sun", "time": "Closed"}], "id": "9524000017", "name": "USPS COLLECTION BOX - BLUE BOX", "address": {"city": "LODI", "state": "CA", "street": "19 S CENTRAL AVE", "postcode": "95240"}}},
{"geometry": {"type": "Point", "coordinates": [-121.2858024498, 38.1232732478]}, "type": "Feature", "properties": {"collection_times": [{"days": "Mon-Fri", "time": "5:00pm"}, {"days": "Sat", "time": "3:00pm"}, {"days": "Sun", "time": "Closed"}], "id": "9524000031", "name": "USPS COLLECTION BOX - BLUE BOX", "address": {"city": "LODI", "state": "CA", "street": "845 S FAIRMONT AVE", "postcode": "95240"}}},
{"geometry": {"type": "Point", "coordinates": [-121.2606362965, 38.1233339456]}, "type": "Feature", "properties": {"collection_times": [{"days": "Mon-Fri", "time": "2:00pm"}, {"days": "Sat", "time": "1:00pm"}, {"days": "Sun", "time": "Closed"}], "id": "9524000032", "name": "USPS COLLECTION BOX - BLUE BOX", "address": {"city": "LODI", "state": "CA", "street": "1001 EDGEWOOD DR", "postcode": "95240"}}},
{"geometry": {"type": "Point", "coordinates": [-121.2779599678, 38.1262124654]}, "type": "Feature", "properties": {"collection_times": [{"days": "Mon-Fri", "time": "2:00pm"}, {"days": "Sat", "time": "1:00pm"}, {"days": "Sun", "time": "Closed"}], "id": "9524000036", "name": "USPS COLLECTION BOX - BLUE BOX", "address": {"city": "LODI", "state": "CA", "street": "700 S LEE AVE", "postcode": "95240"}}},
{"geometry": {"type": "Point", "coordinates": [-121.2603675544, 38.1292327994]}, "type": "Feature", "properties": {"collection_times": [{"days": "Mon-Fri", "time": "2:00pm"}, {"days": "Sat", "time": "1:00pm"}, {"days": "Sun", "time": "Closed"}], "id": "9524000041", "name": "USPS COLLECTION BOX - BLUE BOX", "address": {"city": "LODI", "state": "CA", "street": "480 S CHEROKEE LN", "postcode": "95240"}}},
{"geometry": {"type": "Point", "coordinates": [-121.2642808351, 38.1160597802]}, "type": "Feature", "properties": {"collection_times": [{"days": "Mon-Fri", "time": "2:00pm"}, {"days": "Sat", "time": "1:00pm"}, {"days": "Sun", "time": "Closed"}], "id": "9524000045", "name": "USPS COLLECTION BOX - BLUE BOX", "address": {"city": "LODI", "state": "CA", "street": "420 E KETTLEMAN LN", "postcode": "95240"}}},
{"geometry": {"type": "Point", "coordinates": [-121.2695769847, 38.1040241395]}, "type": "Feature", "properties": {"collection_times": [{"days": "Mon-Fri", "time": "2:00pm"}, {"days": "Sat", "time": "1:00pm"}, {"days": "Sun", "time": "Closed"}], "id": "9524000048", "name": "USPS COLLECTION BOX - BLUE BOX", "address": {"city": "LODI", "state": "CA", "street": "2405 S STOCKTON ST", "postcode": "95240"}}},
{"geometry": {"type": "Point", "coordinates": [-121.2737658424, 38.1323453601]}, "type": "Feature", "properties": {"collection_times": [{"days": "Mon-Fri", "time": "5:00pm"}, {"days": "Sat", "time": "4:45pm"}, {"days": "Sun", "time": "Closed"}], "id": "9524000081", "name": "USPS COLLECTION BOX - BLUE BOX", "address": {"city": "LODI", "state": "CA", "street": "120 S SCHOOL ST", "postcode": "95240"}}},
{"geometry": {"type": "Point", "coordinates": [-121.28193982, 38.115328965]}, "type": "Feature", "properties": {"collection_times": [{"days": "Mon-Fri", "time": "5:00pm"}, {"days": "Sat", "time": "3:00pm"}, {"days": "Sun", "time": "Closed"}], "id": "9524000084", "name": "USPS COLLECTION BOX - BLUE BOX", "address": {"city": "LODI", "state": "CA", "street": "708 W KETTLEMAN LN", "postcode": "95240"}}},
{"geometry": {"type": "Point", "coordinates": [-121.2737658424, 38.1323453601]}, "type": "Feature", "properties": {"collection_times": [{"days": "Mon-Fri", "time": "5:00pm"}, {"days": "Sat", "time": "4:45pm"}, {"days": "Sun", "time": "Closed"}], "id": "9524000086", "name": "USPS COLLECTION BOX - PO LOBBY", "address": {"city": "LODI", "state": "CA", "street": "120 S SCHOOL ST", "postcode": "95240"}}},
{"geometry": {"type": "Point", "coordinates": [-121.2737658424, 38.1323453601]}, "type": "Feature", "properties": {"collection_times": [{"days": "Mon-Fri", "time": "5:00pm"}, {"days": "Sat", "time": "4:45pm"}, {"days": "Sun", "time": "Closed"}], "id": "9524000087", "name": "USPS COLLECTION BOX - PO LOBBY", "address": {"city": "LODI", "state": "CA", "street": "120 S SCHOOL ST", "postcode": "95240"}}},
{"geometry": {"type": "Point", "coordinates": [-121.2737658424, 38.1323453601]}, "type": "Feature", "properties": {"collection_times": [{"days": "Mon-Fri", "time": "5:00pm"}, {"days": "Sat", "time": "4:45pm"}, {"days": "Sun", "time": "Closed"}], "id": "9524000088", "name": "USPS COLLECTION BOX - PO LOBBY", "address": {"city": "LODI", "state": "CA", "street": "120 S SCHOOL ST", "postcode": "95240"}}},
{"geometry": {"type": "Point", "coordinates": [-121.2737658424, 38.1323453601]}, "type": "Feature", "properties": {"collection_times": [{"days": "Mon-Fri", "time": "5:00pm"}, {"days": "Sat", "time": "4:45pm"}, {"days": "Sun", "time": "Closed"}], "id": "9524000089", "name": "USPS COLLECTION BOX - PO LOBBY", "address": {"city": "LODI", "state": "CA", "street": "120 S SCHOOL ST", "postcode": "95240"}}},
{"geometry": {"type": "Point", "coordinates": [-121.2884095698, 38.1362354636]}, "type": "Feature", "properties": {"collection_times": [{"days": "Mon-Fri", "time": "5:00pm"}, {"days": "Sat", "time": "3:00pm"}, {"days": "Sun", "time": "Closed"}], "id": "9524200002", "name": "USPS COLLECTION BOX - BLUE BOX", "address": {"city": "LODI", "state": "CA", "street": "115 N HAM LN", "postcode": "95242"}}},
{"geometry": {"type": "Point", "coordinates": [-121.2915421667, 38.1300314923]}, "type": "Feature", "properties": {"collection_times": [{"days": "Mon-Fri", "time": "2:00pm"}, {"days": "Sat", "time": "1:00pm"}, {"days": "Sun", "time": "Closed"}], "id": "9524200008", "name": "USPS COLLECTION BOX - BLUE BOX", "address": {"city": "LODI", "state": "CA", "street": "1540 W LODI AVE", "postcode": "95242"}}},
{"geometry": {"type": "Point", "coordinates": [-121.2987872565, 38.1127804134]}, "type": "Feature", "properties": {"collection_times": [{"days": "Mon-Fri", "time": "2:00pm"}, {"days": "Sat", "time": "1:00pm"}, {"days": "Sun", "time": "Closed"}], "id": "9524200010", "name": "USPS COLLECTION BOX - BLUE BOX", "address": {"city": "LODI", "state": "CA", "street": "1558 S MILLS AVE", "postcode": "95242"}}},
{"geometry": {"type": "Point", "coordinates": [-121.2867140251, 38.1043651613]}, "type": "Feature", "properties": {"collection_times": [{"days": "Mon-Fri", "time": "2:00pm"}, {"days": "Sat", "time": "1:00pm"}, {"days": "Sun", "time": "Closed"}], "id": "9524200012", "name": "USPS COLLECTION BOX - BLUE BOX", "address": {"city": "LODI", "state": "CA", "street": "2265 S HAM LN", "postcode": "95242"}}},
{"geometry": {"type": "Point", "coordinates": [-121.3450086259, 38.1456427947]}, "type": "Feature", "properties": {"collection_times": [{"days": "Mon-Fri", "time": "2:00pm"}, {"days": "Sat", "time": "1:00pm"}, {"days": "Sun", "time": "Closed"}], "id": "9524200013", "name": "USPS COLLECTION BOX - BLUE BOX", "address": {"city": "LODI", "state": "CA", "street": "2420 W TURNER RD", "postcode": "95242"}}},
{"geometry": {"type": "Point", "coordinates": [-121.2882847599, 38.1246606236]}, "type": "Feature", "properties": {"collection_times": [{"days": "Mon-Fri", "time": "5:00pm"}, {"days": "Sat", "time": "3:00pm"}, {"days": "Sun", "time": "Closed"}], "id": "9524200022", "name": "USPS COLLECTION BOX - BLUE BOX", "address": {"city": "LODI", "state": "CA", "street": "801 S HAM LN", "postcode": "95242"}}},
{"geometry": {"type": "Point", "coordinates": [-121.3035125285, 38.1155851975]}, "type": "Feature", "properties": {"collection_times": [{"days": "Mon-Fri", "time": "2:30pm"}, {"days": "Sat", "time": "1:00pm"}, {"days": "Sun", "time": "Closed"}], "id": "9524200024", "name": "USPS COLLECTION BOX - BLUE BOX", "address": {"city": "LODI", "state": "CA", "street": "2347 W KETTLEMAN LN", "postcode": "95242"}}},
{"geometry": {"type": "Point", "coordinates": [-120.7058329078, 38.3012266422]}, "type": "Feature", "properties": {"collection_times": [{"days": "Mon-Fri", "time": "3:45pm"}, {"days": "Sat", "time": "10:30am"}, {"days": "Sun", "time": "Closed"}], "id": "9524500000", "name": "USPS COLLECTION BOX - BLUE BOX", "address": {"city": "MOKELUMNE HILL", "state": "CA", "street": "8331 MAIN ST", "postcode": "95245"}}},
{"geometry": {"type": "Point", "coordinates": [-120.7058329078, 38.3012266422]}, "type": "Feature", "properties": {"collection_times": [{"days": "Mon-Fri", "time": "3:45pm"}, {"days": "Sat", "time": "10:30am"}, {"days": "Sun", "time": "Closed"}], "id": "9524500002", "name": "USPS COLLECTION BOX - PO LOBBY", "address": {"city": "MOKELUMNE HILL", "state": "CA", "street": "8331 MAIN ST", "postcode": "95245"}}},
{"geometry": {"type": "Point", "coordinates": [-120.7058329078, 38.3012266422]}, "type": "Feature", "properties": {"collection_times": [{"days": "Mon-Fri", "time": "3:45pm"}, {"days": "Sat", "time": "10:30am"}, {"days": "Sun", "time": "Closed"}], "id": "9524500003", "name": "USPS COLLECTION BOX - PO LOBBY", "address": {"city": "MOKELUMNE HILL", "state": "CA", "street": "8331 MAIN ST", "postcode": "95245"}}},
{"geometry": {"type": "Point", "coordinates": [-120.5419171459, 38.227872197]}, "type": "Feature", "properties": {"collection_times": [{"days": "Mon-Fri", "time": "4:15pm"}, {"days": "Sat", "time": "11:45am"}, {"days": "Sun", "time": "Closed"}], "id": "9524600000", "name": "USPS COLLECTION BOX - BLUE BOX", "address": {"city": "MOUNTAIN RANCH", "state": "CA", "street": "8062 WASHINGTON ST", "postcode": "95246"}}},
{"geometry": {"type": "Point", "coordinates": [-120.5419171459, 38.227872197]}, "type": "Feature", "properties": {"collection_times": [{"days": "Mon-Fri", "time": "4:15pm"}, {"days": "Sat", "time": "11:30am"}, {"days": "Sun", "time": "Closed"}], "id": "9524600001", "name": "USPS COLLECTION BOX - PO LOBBY", "address": {"city": "MOUNTAIN RANCH", "state": "CA", "street": "8062 WASHINGTON ST", "postcode": "95246"}}},
{"geometry": {"type": "Point", "coordinates": [-120.4579524234, 38.1384279107]}, "type": "Feature", "properties": {"collection_times": [{"days": "Mon-Fri", "time": "4:45pm"}, {"days": "Sat", "time": "10:00am"}, {"days": "Sun", "time": "Closed"}], "id": "9524700000", "name": "USPS COLLECTION BOX - BLUE BOX", "address": {"city": "MURPHYS", "state": "CA", "street": "140 BIG TREES RD", "postcode": "95247"}}},
{"geometry": {"type": "Point", "coordinates": [-120.4579524234, 38.1384279107]}, "type": "Feature", "properties": {"collection_times": [{"days": "Mon-Fri", "time": "4:45pm"}, {"days": "Sat", "time": "10:00am"}, {"days": "Sun", "time": "Closed"}], "id": "9524700002", "name": "USPS COLLECTION BOX - PO LOBBY", "address": {"city": "MURPHYS", "state": "CA", "street": "140 BIG TREES RD", "postcode": "95247"}}},
{"geometry": {"type": "Point", "coordinates": [-120.4579524234, 38.1384279107]}, "type": "Feature", "properties": {"collection_times": [{"days": "Mon-Fri", "time": "4:45pm"}, {"days": "Sat", "time": "10:00am"}, {"days": "Sun", "time": "Closed"}], "id": "9524700003", "name": "USPS COLLECTION BOX - PO LOBBY", "address": {"city": "MURPHYS", "state": "CA", "street": "140 BIG TREES RD", "postcode": "95247"}}},
{"geometry": {"type": "Point", "coordinates": [-120.5167580885, 38.337443322]}, "type": "Feature", "properties": {"collection_times": [{"days": "Mon-Fri", "time": "4:30pm"}, {"days": "Sat", "time": "10:15am"}, {"days": "Sun", "time": "Closed"}], "id": "9524800000", "name": "USPS COLLECTION BOX - BLUE BOX", "address": {"city": "RAIL ROAD FLAT", "state": "CA", "street": "313B RAIL ROAD FLAT RD", "postcode": "95248"}}},
{"geometry": {"type": "Point", "coordinates": [-120.5167580885, 38.337443322]}, "type": "Feature", "properties": {"collection_times": [{"days": "Mon-Fri", "time": "2:20pm"}, {"days": "Sat", "time": "10:15am"}, {"days": "Sun", "time": "Closed"}], "id": "9524800001", "name": "USPS COLLECTION BOX - PO LOBBY", "address": {"city": "RAIL ROAD FLAT", "state": "CA", "street": "313B RAIL ROAD FLAT RD", "postcode": "95248"}}},
{"geometry": {"type": "Point", "coordinates": [-120.5167580885, 38.337443322]}, "type": "Feature", "properties": {"collection_times": [{"days": "Mon-Fri", "time": "2:20pm"}, {"days": "Sat", "time": "10:15am"}, {"days": "Sun", "time": "Closed"}], "id": "9524800002", "name": "USPS COLLECTION BOX - PO LOBBY", "address": {"city": "RAIL ROAD FLAT", "state": "CA", "street": "313B RAIL ROAD FLAT RD", "postcode": "95248"}}},
{"geometry": {"type": "Point", "coordinates": [-120.6803158001, 38.1958963507]}, "type": "Feature", "properties": {"collection_times": [{"days": "Mon-Fri", "time": "12:00pm"}, {"days": "Sat-Sun", "time": "Closed"}], "id": "9524900001", "name": "USPS COLLECTION BOX - BLUE BOX", "address": {"city": "SAN ANDREAS", "state": "CA", "street": "169 E SAINT CHARLES ST", "postcode": "95249"}}},
{"geometry": {"type": "Point", "coordinates": [-120.6713762847, 38.1900724561]}, "type": "Feature", "properties": {"collection_times": [{"days": "Mon-Fri", "time": "12:00pm"}, {"days": "Sat-Sun", "time": "Closed"}], "id": "9524900002", "name": "USPS COLLECTION BOX - BLUE BOX", "address": {"city": "SAN ANDREAS", "state": "CA", "street": "749 MOUNTAIN RANCH RD", "postcode": "95249"}}},
{"geometry": {"type": "Point", "coordinates": [-120.6871075801, 38.1978516761]}, "type": "Feature", "properties": {"collection_times": [{"days": "Mon-Fri", "time": "4:30pm"}, {"days": "Sat", "time": "9:30am"}, {"days": "Sun", "time": "Closed"}], "id": "9524900003", "name": "USPS COLLECTION BOX - BLUE BOX", "address": {"city": "SAN ANDREAS", "state": "CA", "street": "315 RUSSELL RD", "postcode": "95249"}}},
{"geometry": {"type": "Point", "coordinates": [-120.6871075801, 38.1978516761]}, "type": "Feature", "properties": {"collection_times": [{"days": "Mon-Fri", "time": "4:30pm"}, {"days": "Sat", "time": "9:30am"}, {"days": "Sun", "time": "Closed"}], "id": "9524900005", "name": "USPS COLLECTION BOX - PO LOBBY", "address": {"city": "SAN ANDREAS", "state": "CA", "street": "315 RUSSELL RD", "postcode": "95249"}}},
{"geometry": {"type": "Point", "coordinates": [-120.6871075801, 38.1978516761]}, "type": "Feature", "properties": {"collection_times": [{"days": "Mon-Fri", "time": "4:30pm"}, {"days": "Sat", "time": "9:30am"}, {"days": "Sun", "time": "Closed"}], "id": "9524900006", "name": "USPS COLLECTION BOX - PO LOBBY", "address": {"city": "SAN ANDREAS", "state": "CA", "street": "315 RUSSELL RD", "postcode": "95249"}}},
{"geometry": {"type": "Point", "coordinates": [-120.6871075801, 38.1978516761]}, "type": "Feature", "properties": {"collection_times": [{"days": "Mon-Fri", "time": "4:30pm"}, {"days": "Sat", "time": "9:30am"}, {"days": "Sun", "time": "Closed"}], "id": "9524900007", "name": "USPS COLLECTION BOX - PO LOBBY", "address": {"city": "SAN ANDREAS", "state": "CA", "street": "315 RUSSELL RD", "postcode": "95249"}}},
{"geometry": {"type": "Point", "coordinates": [-120.4727743001, 38.0859426263]}, "type": "Feature", "properties": {"collection_times": [{"days": "Mon-Fri", "time": "3:30pm"}, {"days": "Sat", "time": "9:30am"}, {"days": "Sun", "time": "Closed"}], "id": "9525100002", "name": "USPS COLLECTION BOX - PO LOBBY", "address": {"city": "VALLECITO", "state": "CA", "street": "3511 MAIN ST", "postcode": "95251"}}},
{"geometry": {"type": "Point", "coordinates": [-120.4727743001, 38.0859426263]}, "type": "Feature", "properties": {"collection_times": [{"days": "Mon-Fri", "time": "3:30pm"}, {"days": "Sat", "time": "9:30am"}, {"days": "Sun", "time": "Closed"}], "id": "9525100003", "name": "USPS COLLECTION BOX - PO LOBBY", "address": {"city": "VALLECITO", "state": "CA", "street": "3511 MAIN ST", "postcode": "95251"}}},
{"geometry": {"type": "Point", "coordinates": [-120.8944681149, 38.1827606396]}, "type": "Feature", "properties": {"collection_times": [{"days": "Mon-Fri", "time": "5:00pm"}, {"days": "Sat", "time": "9:00am"}, {"days": "Sun", "time": "Closed"}], "id": "9525200000", "name": "USPS COLLECTION BOX - BLUE BOX", "address": {"city": "VALLEY SPRINGS", "state": "CA", "street": "200 E HIGHWAY 12", "postcode": "95252"}}},
{"geometry": {"type": "Point", "coordinates": [-120.8386723784, 38.1682784888]}, "type": "Feature", "properties": {"collection_times": [{"days": "Mon-Fri", "time": "9:45am"}, {"days": "Sat-Sun", "time": "Closed"}], "id": "9525200001", "name": "USPS COLLECTION BOX - BLUE BOX", "address": {"city": "VALLEY SPRINGS", "state": "CA", "street": "1919 VISTA DEL LAGO DR", "postcode": "95252"}}},
{"geometry": {"type": "Point", "coordinates": [-120.8944681149, 38.1827606396]}, "type": "Feature", "properties": {"collection_times": [{"days": "Mon-Fri", "time": "5:00pm"}, {"days": "Sat", "time": "9:00am"}, {"days": "Sun", "time": "Closed"}], "id": "9525200004", "name": "USPS COLLECTION BOX - PO LOBBY", "address": {"city": "VALLEY SPRINGS", "state": "CA", "street": "200 E HIGHWAY 12", "postcode": "95252"}}},
{"geometry": {"type": "Point", "coordinates": [-120.8944681149, 38.1827606396]}, "type": "Feature", "properties": {"collection_times": [{"days": "Mon-Fri", "time": "5:00pm"}, {"days": "Sat", "time": "9:00am"}, {"days": "Sun", "time": "Closed"}], "id": "9525200007", "name": "USPS COLLECTION BOX - PO LOBBY", "address": {"city": "VALLEY SPRINGS", "state": "CA", "street": "200 E HIGHWAY 12", "postcode": "95252"}}},
{"geometry": {"type": "Point", "coordinates": [-120.8944681149, 38.1827606396]}, "type": "Feature", "properties": {"collection_times": [{"days": "Mon-Fri", "time": "5:00pm"}, {"days": "Sat", "time": "9:00am"}, {"days": "Sun", "time": "Closed"}], "id": "9525200008", "name": "USPS COLLECTION BOX - PO LOBBY", "address": {"city": "VALLEY SPRINGS", "state": "CA", "street": "200 E HIGHWAY 12", "postcode": "95252"}}},
{"geometry": {"type": "Point", "coordinates": [-120.8944681149, 38.1827606396]}, "type": "Feature", "properties": {"collection_times": [{"days": "Mon-Fri", "time": "5:00pm"}, {"days": "Sat", "time": "9:00am"}, {"days": "Sun", "time": "Closed"}], "id": "9525200009", "name": "USPS COLLECTION BOX - PO LOBBY", "address": {"city": "VALLEY SPRINGS", "state": "CA", "street": "200 E HIGHWAY 12", "postcode": "95252"}}},
{"geometry": {"type": "Point", "coordinates": [-121.1962840403, 38.1380446702]}, "type": "Feature", "properties": {"collection_times": [{"days": "Mon-Fri", "time": "4:30pm"}, {"days": "Sat", "time": "8:45am"}, {"days": "Sun", "time": "Closed"}], "id": "9525300000", "name": "USPS COLLECTION BOX - BLUE BOX", "address": {"city": "VICTOR", "state": "CA", "street": "8958 E HIGHWAY 12", "postcode": "95253"}}},
{"geometry": {"type": "Point", "coordinates": [-121.1962840403, 38.1380446702]}, "type": "Feature", "properties": {"collection_times": [{"days": "Mon-Fri", "time": "4:45pm"}, {"days": "Sat", "time": "8:45am"}, {"days": "Sun", "time": "Closed"}], "id": "9525300001", "name": "USPS COLLECTION BOX - PO LOBBY", "address": {"city": "VICTOR", "state": "CA", "street": "8958 E HIGHWAY 12", "postcode": "95253"}}},
{"geometry": {"type": "Point", "coordinates": [-120.9798462508, 38.198054089]}, "type": "Feature", "properties": {"collection_times": [{"days": "Mon-Fri", "time": "3:30pm"}, {"days": "Sat", "time": "8:00am"}, {"days": "Sun", "time": "Closed"}], "id": "9525400001", "name": "USPS COLLECTION BOX - PO LOBBY", "address": {"city": "WALLACE", "state": "CA", "street": "8271 CAMANCHE PKWY S", "postcode": "95254"}}},
{"geometry": {"type": "Point", "coordinates": [-120.9798462508, 38.198054089]}, "type": "Feature", "properties": {"collection_times": [{"days": "Mon-Fri", "time": "3:30pm"}, {"days": "Sat", "time": "8:00am"}, {"days": "Sun", "time": "Closed"}], "id": "9525400002", "name": "USPS COLLECTION BOX - PO LOBBY", "address": {"city": "WALLACE", "state": "CA", "street": "8271 CAMANCHE PKWY S", "postcode": "95254"}}},
{"geometry": {"type": "Point", "coordinates": [-120.5283608427, 38.4018921218]}, "type": "Feature", "properties": {"collection_times": [{"days": "Mon-Fri", "time": "4:20pm"}, {"days": "Sat", "time": "9:30am"}, {"days": "Sun", "time": "Closed"}], "id": "9525500000", "name": "USPS COLLECTION BOX - BLUE BOX", "address": {"city": "WEST POINT", "state": "CA", "street": "397 MAIN ST", "postcode": "95255"}}},
{"geometry": {"type": "Point", "coordinates": [-120.5283608427, 38.4018921218]}, "type": "Feature", "properties": {"collection_times": [{"days": "Mon-Fri", "time": "4:20pm"}, {"days": "Sat", "time": "9:30am"}, {"days": "Sun", "time": "Closed"}], "id": "9525500001", "name": "USPS COLLECTION BOX - PO LOBBY", "address": {"city": "WEST POINT", "state": "CA", "street": "397 MAIN ST", "postcode": "95255"}}},
{"geometry": {"type": "Point", "coordinates": [-120.5283608427, 38.4018921218]}, "type": "Feature", "properties": {"collection_times": [{"days": "Mon-Fri", "time": "4:20pm"}, {"days": "Sat", "time": "9:30am"}, {"days": "Sun", "time": "Closed"}], "id": "9525500002", "name": "USPS COLLECTION BOX - PO LOBBY", "address": {"city": "WEST POINT", "state": "CA", "street": "397 MAIN ST", "postcode": "95255"}}},
{"geometry": {"type": "Point", "coordinates": [-120.5283608427, 38.4018921218]}, "type": "Feature", "properties": {"collection_times": [{"days": "Mon-Fri", "time": "4:20pm"}, {"days": "Sat", "time": "9:30am"}, {"days": "Sun", "time": "Closed"}], "id": "9525500003", "name": "USPS COLLECTION BOX - PO LOBBY", "address": {"city": "WEST POINT", "state": "CA", "street": "397 MAIN ST", "postcode": "95255"}}},
{"geometry": {"type": "Point", "coordinates": [-120.4352249197, 38.3826484387]}, "type": "Feature", "properties": {"collection_times": [{"days": "Mon-Fri", "time": "11:45am"}, {"days": "Sat", "time": "9:15am"}, {"days": "Sun", "time": "Closed"}], "id": "9525700001", "name": "USPS COLLECTION BOX - PO LOBBY", "address": {"city": "WILSEYVILLE", "state": "CA", "street": "3983 BLIZZARD MINE RD", "postcode": "95257"}}},
{"geometry": {"type": "Point", "coordinates": [-120.4352249197, 38.3826484387]}, "type": "Feature", "properties": {"collection_times": [{"days": "Mon-Fri", "time": "4:15pm"}, {"days": "Sat", "time": "9:15am"}, {"days": "Sun", "time": "Closed"}], "id": "9525700002", "name": "USPS COLLECTION BOX - BLUE BOX", "address": {"city": "WILSEYVILLE", "state": "CA", "street": "3983 BLIZZARD MINE RD", "postcode": "95257"}}},
{"geometry": {"type": "Point", "coordinates": [-121.3018528371, 38.154084597]}, "type": "Feature", "properties": {"collection_times": [{"days": "Mon-Fri", "time": "5:00pm"}, {"days": "Sat", "time": "10:00am"}, {"days": "Sun", "time": "Closed"}], "id": "9525800000", "name": "USPS COLLECTION BOX - BLUE BOX", "address": {"city": "WOODBRIDGE", "state": "CA", "street": "1049 E AUGUSTA ST", "postcode": "95258"}}},
{"geometry": {"type": "Point", "coordinates": [-121.3018528371, 38.154084597]}, "type": "Feature", "properties": {"collection_times": [{"days": "Mon-Fri", "time": "5:00pm"}, {"days": "Sat", "time": "10:00am"}, {"days": "Sun", "time": "Closed"}], "id": "9525800001", "name": "USPS COLLECTION BOX - PO LOBBY", "address": {"city": "WOODBRIDGE", "state": "CA", "street": "1049 E AUGUSTA ST", "postcode": "95258"}}},
{"geometry": {"type": "Point", "coordinates": [-121.3018528371, 38.154084597]}, "type": "Feature", "properties": {"collection_times": [{"days": "Mon-Fri", "time": "5:00pm"}, {"days": "Sat", "time": "10:00am"}, {"days": "Sun", "time": "Closed"}], "id": "9525800002", "name": "USPS COLLECTION BOX - PO LOBBY", "address": {"city": "WOODBRIDGE", "state": "CA", "street": "1049 E AUGUSTA ST", "postcode": "95258"}}}
]}
