{"type": "FeatureCollection", "features": [
{"geometry": {"type": "Point", "coordinates": [-120.6014359803, 37.3604089653]}, "type": "Feature", "properties": {"collection_times": [{"days": "Mon-Fri", "time": "2:30pm"}, {"days": "Sat", "time": "2:00pm"}, {"days": "Sun", "time": "Closed"}], "id": "9530100011", "name": "USPS COLLECTION BOX - BLUE BOX", "address": {"city": "ATWATER", "state": "CA", "street": "800 BELLEVUE RD", "postcode": "95301"}}},
{"geometry": {"type": "Point", "coordinates": [-120.6122398107, 37.3480542129]}, "type": "Feature", "properties": {"collection_times": [{"days": "Mon-Fri", "time": "5:00pm"}, {"days": "Sat", "time": "3:30pm"}, {"days": "Sun", "time": "Closed"}], "id": "9530100016", "name": "USPS COLLECTION BOX - BLUE BOX", "address": {"city": "ATWATER", "state": "CA", "street": "1599 BROADWAY AVE", "postcode": "95301"}}},
{"geometry": {"type": "Point", "coordinates": [-120.6122398107, 37.3480542129]}, "type": "Feature", "properties": {"collection_times": [{"days": "Mon-Fri", "time": "5:00pm"}, {"days": "Sat", "time": "3:30pm"}, {"days": "Sun", "time": "Closed"}], "id": "9530100017", "name": "USPS COLLECTION BOX - BLUE BOX", "address": {"city": "ATWATER", "state": "CA", "street": "1599 BROADWAY AVE", "postcode": "95301"}}},
{"geometry": {"type": "Point", "coordinates": [-120.6122398107, 37.3480542129]}, "type": "Feature", "properties": {"collection_times": [{"days": "Mon-Fri", "time": "5:00pm"}, {"days": "Sat", "time": "3:30pm"}, {"days": "Sun", "time": "Closed"}], "id": "9530100025", "name": "USPS COLLECTION BOX - PO LOBBY", "address": {"city": "ATWATER", "state": "CA", "street": "1599 BROADWAY AVE", "postcode": "95301"}}},
{"geometry": {"type": "Point", "coordinates": [-120.7018315834, 37.4514051456]}, "type": "Feature", "properties": {"collection_times": [{"days": "Mon-Fri", "time": "4:20pm"}, {"days": "Sat", "time": "10:00am"}, {"days": "Sun", "time": "Closed"}], "id": "9530300000", "name": "USPS COLLECTION BOX - BLUE BOX", "address": {"city": "BALLICO", "state": "CA", "street": "11224 SANTA FE DR", "postcode": "95303"}}},
{"geometry": {"type": "Point", "coordinates": [-120.7018315834, 37.4514051456]}, "type": "Feature", "properties": {"collection_times": [{"days": "Mon-Fri", "time": "4:20pm"}, {"days": "Sat", "time": "10:00am"}, {"days": "Sun", "time": "Closed"}], "id": "9530300001", "name": "USPS COLLECTION BOX - PO LOBBY", "address": {"city": "BALLICO", "state": "CA", "street": "11224 SANTA FE DR", "postcode": "95303"}}},
{"geometry": {"type": "Point", "coordinates": [-121.4291250262, 37.7660350188]}, "type": "Feature", "properties": {"collection_times": [{"days": "Mon-Fri", "time": "5:00pm"}, {"days": "Sat", "time": "3:00pm"}, {"days": "Sun", "time": "Closed"}], "id": "9530400001", "name": "USPS COLLECTION BOX - BLUE BOX", "address": {"city": "TRACY", "state": "CA", "street": "4025 COMMERCIAL DR STE B", "postcode": "95304"}}},
{"geometry": {"type": "Point", "coordinates": [-121.2790572178, 37.6780086763]}, "type": "Feature", "properties": {"collection_times": [{"days": "Mon-Sat", "time": "10:30am"}, {"days": "Sun", "time": "Closed"}], "id": "9530400002", "name": "USPS COLLECTION BOX - BLUE BOX", "address": {"city": "TRACY", "state": "CA", "street": "30000 KASSON RD", "postcode": "95304"}}},
{"geometry": {"type": "Point", "coordinates": [-120.251660492, 37.827346969]}, "type": "Feature", "properties": {"collection_times": [{"days": "Mon-Fri", "time": "3:45pm"}, {"days": "Sat", "time": "10:45am"}, {"days": "Sun", "time": "Closed"}], "id": "9530500000", "name": "USPS COLLECTION BOX - BLUE BOX", "address": {"city": "BIG OAK FLAT", "state": "CA", "street": "17850 HIGHWAY 120", "postcode": "95305"}}},
{"geometry": {"type": "Point", "coordinates": [-120.2521809242, 37.8269779995]}, "type": "Feature", "properties": {"collection_times": [{"days": "Mon-Fri", "time": "3:45pm"}, {"days": "Sat", "time": "10:45am"}, {"days": "Sun", "time": "Closed"}], "id": "9530500001", "name": "USPS COLLECTION BOX - PO LOBBY", "address": {"city": "BIG OAK FLAT", "state": "CA", "street": "17850 HIGHWAY 120", "postcode": "95305"}}},
{"geometry": {"type": "Point", "coordinates": [-120.2521809242, 37.8269779995]}, "type": "Feature", "properties": {"collection_times": [{"days": "Mon-Fri", "time": "3:45pm"}, {"days": "Sat", "time": "10:45am"}, {"days": "Sun", "time": "Closed"}], "id": "9530500002", "name": "USPS COLLECTION BOX - PO LOBBY", "address": {"city": "BIG OAK FLAT", "state": "CA", "street": "17850 HIGHWAY 120", "postcode": "95305"}}},
{"geometry": {"type": "Point", "coordinates": [-120.0378439856, 37.4759336823]}, "type": "Feature", "properties": {"collection_times": [{"days": "Mon-Fri", "time": "4:15pm"}, {"days": "Sat", "time": "9:45am"}, {"days": "Sun", "time": "Closed"}], "id": "9530600000", "name": "USPS COLLECTION BOX - BLUE BOX", "address": {"city": "CATHEYS VALLEY", "state": "CA", "street": "2675 HIGHWAY 140", "postcode": "95306"}}},
{"geometry": {"type": "Point", "coordinates": [-120.9515195702, 37.5885811295]}, "type": "Feature", "properties": {"collection_times": [{"days": "Mon-Fri", "time": "2:30pm"}, {"days": "Sat", "time": "12:00pm"}, {"days": "Sun", "time": "Closed"}], "id": "9530700009", "name": "USPS COLLECTION BOX - BLUE BOX", "address": {"city": "CERES", "state": "CA", "street": "2341 NORTH ST", "postcode": "95307"}}},
{"geometry": {"type": "Point", "coordinates": [-120.9551831635, 37.586920836]}, "type": "Feature", "properties": {"collection_times": [{"days": "Mon-Fri", "time": "2:30pm"}, {"days": "Sat", "time": "12:00pm"}, {"days": "Sun", "time": "Closed"}], "id": "9530700012", "name": "USPS COLLECTION BOX - BLUE BOX", "address": {"city": "CERES", "state": "CA", "street": "2140 PINE ST", "postcode": "95307"}}},
{"geometry": {"type": "Point", "coordinates": [-120.9388169262, 37.5920643416]}, "type": "Feature", "properties": {"collection_times": [{"days": "Mon-Fri", "time": "5:00pm"}, {"days": "Sat", "time": "3:00pm"}, {"days": "Sun", "time": "Closed"}], "id": "9530700017", "name": "USPS COLLECTION BOX - BLUE BOX", "address": {"city": "CERES", "state": "CA", "street": "2801 MITCHELL RD", "postcode": "95307"}}},
{"geometry": {"type": "Point", "coordinates": [-120.9388169262, 37.5920643416]}, "type": "Feature", "properties": {"collection_times": [{"days": "Mon-Fri", "time": "5:00pm"}, {"days": "Sat", "time": "3:00pm"}, {"days": "Sun", "time": "Closed"}], "id": "9530700018", "name": "USPS COLLECTION BOX - BLUE BOX", "address": {"city": "CERES", "state": "CA", "street": "2801 MITCHELL RD", "postcode": "95307"}}},
{"geometry": {"type": "Point", "coordinates": [-120.9388169262, 37.5920643416]}, "type": "Feature", "properties": {"collection_times": [{"days": "Mon-Fri", "time": "5:00pm"}, {"days": "Sat", "time": "3:00pm"}, {"days": "Sun", "time": "Closed"}], "id": "9530700020", "name": "USPS COLLECTION BOX - BLUE BOX", "address": {"city": "CERES", "state": "CA", "street": "2801 MITCHELL RD", "postcode": "95307"}}},
{"geometry": {"type": "Point", "coordinates": [-120.9388169262, 37.5920643416]}, "type": "Feature", "properties": {"collection_times": [{"days": "Mon-Fri", "time": "5:00pm"}, {"days": "Sat", "time": "3:00pm"}, {"days": "Sun", "time": "Closed"}], "id": "9530700021", "name": "USPS COLLECTION BOX - PO LOBBY", "address": {"city": "CERES", "state": "CA", "street": "2801 MITCHELL RD", "postcode": "95307"}}},
{"geometry": {"type": "Point", "coordinates": [-120.9388169262, 37.5920643416]}, "type": "Feature", "properties": {"collection_times": [{"days": "Mon-Fri", "time": "5:00pm"}, {"days": "Sat", "time": "3:00pm"}, {"days": "Sun", "time": "Closed"}], "id": "9530700022", "name": "USPS COLLECTION BOX - PO LOBBY", "address": {"city": "CERES", "state": "CA", "street": "2801 MITCHELL RD", "postcode": "95307"}}},
{"geometry": {"type": "Point", "coordinates": [-120.9388169262, 37.5920643416]}, "type": "Feature", "properties": {"collection_times": [{"days": "Mon-Fri", "time": "5:00pm"}, {"days": "Sat", "time": "3:00pm"}, {"days": "Sun", "time": "Closed"}], "id": "9530700023", "name": "USPS COLLECTION BOX - PO LOBBY", "address": {"city": "CERES", "state": "CA", "street": "2801 MITCHELL RD", "postcode": "95307"}}},
{"geometry": {"type": "Point", "coordinates": [-120.400633067, 37.8506369116]}, "type": "Feature", "properties": {"collection_times": [{"days": "Mon-Fri", "time": "1:00pm"}, {"days": "Sat", "time": "9:00am"}, {"days": "Sun", "time": "Closed"}], "id": "9530900000", "name": "USPS COLLECTION BOX - PO LOBBY", "address": {"city": "CHINESE CAMP", "state": "CA", "street": "13691 RED HL", "postcode": "95309"}}},
{"geometry": {"type": "Point", "coordinates": [-120.400633067, 37.8506369116]}, "type": "Feature", "properties": {"collection_times": [{"days": "Mon-Fri", "time": "3:00pm"}, {"days": "Sat", "time": "9:00am"}, {"days": "Sun", "time": "Closed"}], "id": "9530900001", "name": "USPS COLLECTION BOX - BLUE BOX", "address": {"city": "CHINESE CAMP", "state": "CA", "street": "13691 RED HL", "postcode": "95309"}}},
{"geometry": {"type": "Point", "coordinates": [-120.4418354208, 38.0467006222]}, "type": "Feature", "properties": {"collection_times": [{"days": "Mon-Fri", "time": "4:15pm"}, {"days": "Sat", "time": "10:00am"}, {"days": "Sun", "time": "Closed"}], "id": "9531000000", "name": "USPS COLLECTION BOX - PO LOBBY", "address": {"city": "COLUMBIA", "state": "CA", "street": "22628 PARROTTS FERRY RD", "postcode": "95310"}}},
{"geometry": {"type": "Point", "coordinates": [-120.4418354208, 38.0467006222]}, "type": "Feature", "properties": {"collection_times": [{"days": "Mon-Fri", "time": "4:00pm"}, {"days": "Sat", "time": "10:00am"}, {"days": "Sun", "time": "Closed"}], "id": "9531000001", "name": "USPS COLLECTION BOX - BLUE BOX", "address": {"city": "COLUMBIA", "state": "CA", "street": "22628 PARROTTS FERRY RD", "postcode": "95310"}}},
{"geometry": {"type": "Point", "coordinates": [-120.4418354208, 38.0467006222]}, "type": "Feature", "properties": {"collection_times": [{"days": "Mon-Fri", "time": "4:15pm"}, {"days": "Sat", "time": "10:00am"}, {"days": "Sun", "time": "Closed"}], "id": "9531000002", "name": "USPS COLLECTION BOX - PO LOBBY", "address": {"city": "COLUMBIA", "state": "CA", "street": "22628 PARROTTS FERRY RD", "postcode": "95310"}}},
{"geometry": {"type": "Point", "coordinates": [-120.1970066816, 37.7108752152]}, "type": "Feature", "properties": {"collection_times": [{"days": "Mon-Fri", "time": "3:45pm"}, {"days": "Sat", "time": "11:15am"}, {"days": "Sun", "time": "Closed"}], "id": "9531100000", "name": "USPS COLLECTION BOX - BLUE BOX", "address": {"city": "COULTERVILLE", "state": "CA", "street": "5008A MAIN ST", "postcode": "95311"}}},
{"geometry": {"type": "Point", "coordinates": [-120.1284941923, 37.745555879]}, "type": "Feature", "properties": {"collection_times": [{"days": "Mon-Fri", "time": "2:00pm"}, {"days": "Sat-Sun", "time": "Closed"}], "id": "9531100001", "name": "USPS COLLECTION BOX - BLUE BOX", "address": {"city": "COULTERVILLE", "state": "CA", "street": "6364 GREELEY HILL RD", "postcode": "95311"}}},
{"geometry": {"type": "Point", "coordinates": [-120.1046934944, 37.67874892]}, "type": "Feature", "properties": {"collection_times": [{"days": "Mon-Fri", "time": "3:45pm"}, {"days": "Sat", "time": "11:15am"}, {"days": "Sun", "time": "Closed"}], "id": "9531100003", "name": "USPS COLLECTION BOX - PO LOBBY", "address": {"city": "COULTERVILLE", "state": "CA", "street": "5008 A MAIN ST", "postcode": "95311"}}},
{"geometry": {"type": "Point", "coordinates": [-120.6677022882, 37.4208593908]}, "type": "Feature", "properties": {"collection_times": [{"days": "Mon-Fri", "time": "4:30pm"}, {"days": "Sat", "time": "9:45am"}, {"days": "Sun", "time": "Closed"}], "id": "9531200000", "name": "USPS COLLECTION BOX - BLUE BOX", "address": {"city": "CRESSEY", "state": "CA", "street": "9211 CRESSEY WAY", "postcode": "95312"}}},
{"geometry": {"type": "Point", "coordinates": [-120.6677022882, 37.4208593908]}, "type": "Feature", "properties": {"collection_times": [{"days": "Mon-Fri", "time": "4:30pm"}, {"days": "Sat", "time": "9:45am"}, {"days": "Sun", "time": "Closed"}], "id": "9531200001", "name": "USPS COLLECTION BOX - PO LOBBY", "address": {"city": "CRESSEY", "state": "CA", "street": "9211 CRESSEY WAY", "postcode": "95312"}}},
{"geometry": {"type": "Point", "coordinates": [-120.6677022882, 37.4208593908]}, "type": "Feature", "properties": {"collection_times": [{"days": "Mon-Fri", "time": "4:30pm"}, {"days": "Sat", "time": "9:45am"}, {"days": "Sun", "time": "Closed"}], "id": "9531200002", "name": "USPS COLLECTION BOX - PO LOBBY", "address": {"city": "CRESSEY", "state": "CA", "street": "9211 CRESSEY WAY", "postcode": "95312"}}},
{"geometry": {"type": "Point", "coordinates": [-121.0722738129, 37.3937049949]}, "type": "Feature", "properties": {"collection_times": [{"days": "Mon-Fri", "time": "3:55pm"}, {"days": "Sat", "time": "9:00am"}, {"days": "Sun", "time": "Closed"}], "id": "9531300000", "name": "USPS COLLECTION BOX - BLUE BOX", "address": {"city": "CROWS LANDING", "state": "CA", "street": "13 W 5TH ST", "postcode": "95313"}}},
{"geometry": {"type": "Point", "coordinates": [-121.0722738129, 37.3937049949]}, "type": "Feature", "properties": {"collection_times": [{"days": "Mon-Fri", "time": "3:55pm"}, {"days": "Sat", "time": "9:00am"}, {"days": "Sun", "time": "Closed"}], "id": "9531300001", "name": "USPS COLLECTION BOX - PO LOBBY", "address": {"city": "CROWS LANDING", "state": "CA", "street": "13 W 5TH ST", "postcode": "95313"}}},
{"geometry": {"type": "Point", "coordinates": [-121.0722738129, 37.3937049949]}, "type": "Feature", "properties": {"collection_times": [{"days": "Mon-Fri", "time": "3:55pm"}, {"days": "Sat", "time": "9:00am"}, {"days": "Sun", "time": "Closed"}], "id": "9531300002", "name": "USPS COLLECTION BOX - PO LOBBY", "address": {"city": "CROWS LANDING", "state": "CA", "street": "13 W 5TH ST", "postcode": "95313"}}},
{"geometry": {"type": "Point", "coordinates": [-120.7786939666, 37.430269861]}, "type": "Feature", "properties": {"collection_times": [{"days": "Mon-Fri", "time": "4:30pm"}, {"days": "Sat", "time": "10:30am"}, {"days": "Sun", "time": "Closed"}], "id": "9531500001", "name": "USPS COLLECTION BOX - PO LOBBY", "address": {"city": "DELHI", "state": "CA", "street": "16096 LOCUST ST", "postcode": "95315"}}},
{"geometry": {"type": "Point", "coordinates": [-120.7786939666, 37.430269861]}, "type": "Feature", "properties": {"collection_times": [{"days": "Mon-Fri", "time": "4:30pm"}, {"days": "Sat", "time": "10:30am"}, {"days": "Sun", "time": "Closed"}], "id": "9531500002", "name": "USPS COLLECTION BOX - PO LOBBY", "address": {"city": "DELHI", "state": "CA", "street": "16096 LOCUST ST", "postcode": "95315"}}},
{"geometry": {"type": "Point", "coordinates": [-120.7786939666, 37.430269861]}, "type": "Feature", "properties": {"collection_times": [{"days": "Mon-Fri", "time": "4:30pm"}, {"days": "Sat", "time": "10:30am"}, {"days": "Sun", "time": "Closed"}], "id": "9531500003", "name": "USPS COLLECTION BOX - BLUE BOX", "address": {"city": "DELHI", "state": "CA", "street": "16096 LOCUST ST", "postcode": "95315"}}},
{"geometry": {"type": "Point", "coordinates": [-120.7946331557, 37.5274700502]}, "type": "Feature", "properties": {"collection_times": [{"days": "Mon-Fri", "time": "5:00pm"}, {"days": "Sat", "time": "9:00am"}, {"days": "Sun", "time": "Closed"}], "id": "9531600000", "name": "USPS COLLECTION BOX - BLUE BOX", "address": {"city": "DENAIR", "state": "CA", "street": "4733 MAIN ST", "postcode": "95316"}}},
{"geometry": {"type": "Point", "coordinates": [-120.7946331557, 37.5274700502]}, "type": "Feature", "properties": {"collection_times": [{"days": "Mon-Fri", "time": "5:00pm"}, {"days": "Sat", "time": "9:00am"}, {"days": "Sun", "time": "Closed"}], "id": "9531600001", "name": "USPS COLLECTION BOX - PO LOBBY", "address": {"city": "DENAIR", "state": "CA", "street": "4733 MAIN ST", "postcode": "95316"}}},
{"geometry": {"type": "Point", "coordinates": [-120.7946331557, 37.5274700502]}, "type": "Feature", "properties": {"collection_times": [{"days": "Mon-Fri", "time": "5:00pm"}, {"days": "Sat", "time": "9:00am"}, {"days": "Sun", "time": "Closed"}], "id": "9531600002", "name": "USPS COLLECTION BOX - PO LOBBY", "address": {"city": "DENAIR", "state": "CA", "street": "4733 MAIN ST", "postcode": "95316"}}},
{"geometry": {"type": "Point", "coordinates": [-120.4920061963, 37.1354640517]}, "type": "Feature", "properties": {"collection_times": [{"days": "Mon-Fri", "time": "3:30pm"}, {"days": "Sat", "time": "10:00am"}, {"days": "Sun", "time": "Closed"}], "id": "9531700000", "name": "USPS COLLECTION BOX - BLUE BOX", "address": {"city": "EL NIDO", "state": "CA", "street": "10366 S HIGHWAY 59", "postcode": "95317"}}},
{"geometry": {"type": "Point", "coordinates": [-120.4920061963, 37.1354640517]}, "type": "Feature", "properties": {"collection_times": [{"days": "Mon-Fri", "time": "1:15pm"}, {"days": "Sat", "time": "10:00am"}, {"days": "Sun", "time": "Closed"}], "id": "9531700001", "name": "USPS COLLECTION BOX - PO LOBBY", "address": {"city": "EL NIDO", "state": "CA", "street": "10366 S HIGHWAY 59", "postcode": "95317"}}},
{"geometry": {"type": "Point", "coordinates": [-119.7878884822, 37.6728912348]}, "type": "Feature", "properties": {"collection_times": [{"days": "Mon-Fri", "time": "3:00pm"}, {"days": "Sat", "time": "10:30am"}, {"days": "Sun", "time": "Closed"}], "id": "9531800001", "name": "USPS COLLECTION BOX - PO LOBBY", "address": {"city": "EL PORTAL", "state": "CA", "street": "5508 FORESTA RD", "postcode": "95318"}}},
{"geometry": {"type": "Point", "coordinates": [-119.7878884822, 37.6728912348]}, "type": "Feature", "properties": {"collection_times": [{"days": "Mon-Fri", "time": "3:00pm"}, {"days": "Sat", "time": "10:30am"}, {"days": "Sun", "time": "Closed"}], "id": "9531800002", "name": "USPS COLLECTION BOX - PO LOBBY", "address": {"city": "EL PORTAL", "state": "CA", "street": "5508 FORESTA RD", "postcode": "95318"}}},
{"geometry": {"type": "Point", "coordinates": [-119.7878884822, 37.6728912348]}, "type": "Feature", "properties": {"collection_times": [{"days": "Mon-Fri", "time": "3:00pm"}, {"days": "Sat", "time": "10:30am"}, {"days": "Sun", "time": "Closed"}], "id": "9531800003", "name": "USPS COLLECTION BOX - PO LOBBY", "address": {"city": "EL PORTAL", "state": "CA", "street": "5508 FORESTA RD", "postcode": "95318"}}},
{"geometry": {"type": "Point", "coordinates": [-120.9010475771, 37.6382226977]}, "type": "Feature", "properties": {"collection_times": [{"days": "Mon-Fri", "time": "4:45pm"}, {"days": "Sat", "time": "10:00am"}, {"days": "Sun", "time": "Closed"}], "id": "9531900000", "name": "USPS COLLECTION BOX - BLUE BOX", "address": {"city": "EMPIRE", "state": "CA", "street": "5102 YOSEMITE BLVD", "postcode": "95319"}}},
{"geometry": {"type": "Point", "coordinates": [-120.9010475771, 37.6382226977]}, "type": "Feature", "properties": {"collection_times": [{"days": "Mon-Fri", "time": "4:45pm"}, {"days": "Sat", "time": "10:00am"}, {"days": "Sun", "time": "Closed"}], "id": "9531900001", "name": "USPS COLLECTION BOX - PO LOBBY", "address": {"city": "EMPIRE", "state": "CA", "street": "5102 YOSEMITE BLVD", "postcode": "95319"}}},
{"geometry": {"type": "Point", "coordinates": [-120.990771301, 37.7941835274]}, "type": "Feature", "properties": {"collection_times": [{"days": "Mon-Fri", "time": "5:00pm"}, {"days": "Sat", "time": "3:15pm"}, {"days": "Sun", "time": "Closed"}], "id": "9532000011", "name": "USPS COLLECTION BOX - BLUE BOX", "address": {"city": "ESCALON", "state": "CA", "street": "1854 COLEY AVE", "postcode": "95320"}}},
{"geometry": {"type": "Point", "coordinates": [-120.990771301, 37.7941835274]}, "type": "Feature", "properties": {"collection_times": [{"days": "Mon-Fri", "time": "5:00pm"}, {"days": "Sat", "time": "3:15pm"}, {"days": "Sun", "time": "Closed"}], "id": "9532000012", "name": "USPS COLLECTION BOX - PO LOBBY", "address": {"city": "ESCALON", "state": "CA", "street": "1854 COLEY AVE", "postcode": "95320"}}},
{"geometry": {"type": "Point", "coordinates": [-120.990771301, 37.7941835274]}, "type": "Feature", "properties": {"collection_times": [{"days": "Mon-Fri", "time": "5:00pm"}, {"days": "Sat", "time": "3:15pm"}, {"days": "Sun", "time": "Closed"}], "id": "9532000013", "name": "USPS COLLECTION BOX - PO LOBBY", "address": {"city": "ESCALON", "state": "CA", "street": "1854 COLEY AVE", "postcode": "95320"}}},
{"geometry": {"type": "Point", "coordinates": [-120.2307384588, 37.8384881925]}, "type": "Feature", "properties": {"collection_times": [{"days": "Mon-Fri", "time": "3:15pm"}, {"days": "Sat", "time": "10:45am"}, {"days": "Sun", "time": "Closed"}], "id": "9532100001", "name": "USPS COLLECTION BOX - PO LOBBY", "address": {"city": "GROVELAND", "state": "CA", "street": "18737 BACK ST", "postcode": "95321"}}},
{"geometry": {"type": "Point", "coordinates": [-120.2307384588, 37.8384881925]}, "type": "Feature", "properties": {"collection_times": [{"days": "Mon-Fri", "time": "3:15pm"}, {"days": "Sat", "time": "10:45am"}, {"days": "Sun", "time": "Closed"}], "id": "9532100002", "name": "USPS COLLECTION BOX - PO LOBBY", "address": {"city": "GROVELAND", "state": "CA", "street": "18737 BACK ST", "postcode": "95321"}}},
{"geometry": {"type": "Point", "coordinates": [-120.2307384588, 37.8384881925]}, "type": "Feature", "properties": {"collection_times": [{"days": "Mon-Fri", "time": "3:15pm"}, {"days": "Sat", "time": "10:45am"}, {"days": "Sun", "time": "Closed"}], "id": "9532100003", "name": "USPS COLLECTION BOX - BLUE BOX", "address": {"city": "GROVELAND", "state": "CA", "street": "18737 BACK ST", "postcode": "95321"}}},
{"geometry": {"type": "Point", "coordinates": [-121.0156903316, 37.1097258361]}, "type": "Feature", "properties": {"collection_times": [{"days": "Mon-Fri", "time": "12:30pm"}, {"days": "Sat", "time": "11:30am"}, {"days": "Sun", "time": "Closed"}], "id": "9532200006", "name": "USPS COLLECTION BOX - BLUE BOX", "address": {"city": "GUSTINE", "state": "CA", "street": "12310 HIGHWAY 33", "postcode": "95322"}}},
{"geometry": {"type": "Point", "coordinates": [-121.0158121764, 37.1023737462]}, "type": "Feature", "properties": {"collection_times": [{"days": "Mon-Sat", "time": "12:30pm"}, {"days": "Sun", "time": "Closed"}], "id": "9532200009", "name": "USPS COLLECTION BOX - BLUE BOX", "address": {"city": "GUSTINE", "state": "CA", "street": "12860 HIGHWAY 33", "postcode": "95322"}}},
{"geometry": {"type": "Point", "coordinates": [-120.9999983809, 37.2570196058]}, "type": "Feature", "properties": {"collection_times": [{"days": "Mon-Fri", "time": "5:00pm"}, {"days": "Sat", "time": "9:45am"}, {"days": "Sun", "time": "Closed"}], "id": "9532200010", "name": "USPS COLLECTION BOX - PO LOBBY", "address": {"city": "GUSTINE", "state": "CA", "street": "316 5TH ST", "postcode": "95322"}}},
{"geometry": {"type": "Point", "coordinates": [-120.9999983809, 37.2570196058]}, "type": "Feature", "properties": {"collection_times": [{"days": "Mon-Fri", "time": "5:00pm"}, {"days": "Sat", "time": "9:45am"}, {"days": "Sun", "time": "Closed"}], "id": "9532200011", "name": "USPS COLLECTION BOX - PO LOBBY", "address": {"city": "GUSTINE", "state": "CA", "street": "316 5TH ST", "postcode": "95322"}}},
{"geometry": {"type": "Point", "coordinates": [-120.7553688821, 37.6233706142]}, "type": "Feature", "properties": {"collection_times": [{"days": "Mon-Fri", "time": "4:30pm"}, {"days": "Sat", "time": "10:45am"}, {"days": "Sun", "time": "Closed"}], "id": "9532300000", "name": "USPS COLLECTION BOX - BLUE BOX", "address": {"city": "HICKMAN", "state": "CA", "street": "808 HICKMAN RD", "postcode": "95323"}}},
{"geometry": {"type": "Point", "coordinates": [-120.7553314809, 37.6233978984]}, "type": "Feature", "properties": {"collection_times": [{"days": "Mon-Fri", "time": "5:00pm"}, {"days": "Sat", "time": "10:45am"}, {"days": "Sun", "time": "Closed"}], "id": "9532300001", "name": "USPS COLLECTION BOX - PO LOBBY", "address": {"city": "HICKMAN", "state": "CA", "street": "808 HICKMAN RD", "postcode": "95323"}}},
{"geometry": {"type": "Point", "coordinates": [-120.8490576372, 37.4079383007]}, "type": "Feature", "properties": {"collection_times": [{"days": "Mon-Fri", "time": "5:00pm"}, {"days": "Sat", "time": "10:00am"}, {"days": "Sun", "time": "Closed"}], "id": "9532400000", "name": "USPS COLLECTION BOX - BLUE BOX", "address": {"city": "HILMAR", "state": "CA", "street": "19948 1ST ST", "postcode": "95324"}}},
{"geometry": {"type": "Point", "coordinates": [-120.8490576372, 37.4079383007]}, "type": "Feature", "properties": {"collection_times": [{"days": "Mon-Fri", "time": "5:00pm"}, {"days": "Sat", "time": "10:00am"}, {"days": "Sun", "time": "Closed"}], "id": "9532400001", "name": "USPS COLLECTION BOX - PO LOBBY", "address": {"city": "HILMAR", "state": "CA", "street": "19948 1ST ST", "postcode": "95324"}}},
{"geometry": {"type": "Point", "coordinates": [-120.8490576372, 37.4079383007]}, "type": "Feature", "properties": {"collection_times": [{"days": "Mon-Fri", "time": "5:00pm"}, {"days": "Sat", "time": "10:00am"}, {"days": "Sun", "time": "Closed"}], "id": "9532400002", "name": "USPS COLLECTION BOX - PO LOBBY", "address": {"city": "HILMAR", "state": "CA", "street": "19948 1ST ST", "postcode": "95324"}}},
{"geometry": {"type": "Point", "coordinates": [-120.2651768447, 37.4358088907]}, "type": "Feature", "properties": {"collection_times": [{"days": "Mon-Fri", "time": "11:00am"}, {"days": "Sat", "time": "10:00am"}, {"days": "Sun", "time": "Closed"}], "id": "9532500000", "name": "USPS COLLECTION BOX - BLUE BOX", "address": {"city": "HORNITOS", "state": "CA", "street": "2885 BEAR VALLEY RD", "postcode": "95325"}}},
{"geometry": {"type": "Point", "coordinates": [-120.2651768447, 37.4358088907]}, "type": "Feature", "properties": {"collection_times": [{"days": "Mon-Fri", "time": "11:00am"}, {"days": "Sat", "time": "10:00am"}, {"days": "Sun", "time": "Closed"}], "id": "9532500001", "name": "USPS COLLECTION BOX - PO LOBBY", "address": {"city": "HORNITOS", "state": "CA", "street": "2885 BEAR VALLEY RD", "postcode": "95325"}}},
{"geometry": {"type": "Point", "coordinates": [-120.8663296722, 37.5956967613]}, "type": "Feature", "properties": {"collection_times": [{"days": "Mon-Fri", "time": "4:30pm"}, {"days": "Sat", "time": "9:30am"}, {"days": "Sun", "time": "Closed"}], "id": "9532600000", "name": "USPS COLLECTION BOX - BLUE BOX", "address": {"city": "HUGHSON", "state": "CA", "street": "6924 ELM ST", "postcode": "95326"}}},
{"geometry": {"type": "Point", "coordinates": [-120.8663296722, 37.5956967613]}, "type": "Feature", "properties": {"collection_times": [{"days": "Mon-Fri", "time": "4:30pm"}, {"days": "Sat", "time": "9:30am"}, {"days": "Sun", "time": "Closed"}], "id": "9532600001", "name": "USPS COLLECTION BOX - PO LOBBY", "address": {"city": "HUGHSON", "state": "CA", "street": "6924 ELM ST", "postcode": "95326"}}},
{"geometry": {"type": "Point", "coordinates": [-120.8663296722, 37.5956967613]}, "type": "Feature", "properties": {"collection_times": [{"days": "Mon-Fri", "time": "4:30pm"}, {"days": "Sat", "time": "9:30am"}, {"days": "Sun", "time": "Closed"}], "id": "9532600002", "name": "USPS COLLECTION BOX - PO LOBBY", "address": {"city": "HUGHSON", "state": "CA", "street": "6924 ELM ST", "postcode": "95326"}}},
{"geometry": {"type": "Point", "coordinates": [-120.8663296722, 37.5956967613]}, "type": "Feature", "properties": {"collection_times": [{"days": "Mon-Fri", "time": "4:30pm"}, {"days": "Sat", "time": "9:30am"}, {"days": "Sun", "time": "Closed"}], "id": "9532600003", "name": "USPS COLLECTION BOX - PO LOBBY", "address": {"city": "HUGHSON", "state": "CA", "street": "6924 ELM ST", "postcode": "95326"}}},
{"geometry": {"type": "Point", "coordinates": [-120.8663296722, 37.5956967613]}, "type": "Feature", "properties": {"collection_times": [{"days": "Mon-Fri", "time": "4:30pm"}, {"days": "Sat", "time": "9:30am"}, {"days": "Sun", "time": "Closed"}], "id": "9532600004", "name": "USPS COLLECTION BOX - PO LOBBY", "address": {"city": "HUGHSON", "state": "CA", "street": "6924 ELM ST", "postcode": "95326"}}},
{"geometry": {"type": "Point", "coordinates": [-120.8528264561, 37.6019455978]}, "type": "Feature", "properties": {"collection_times": [{"days": "Mon-Sat", "time": "11:00am"}, {"days": "Sun", "time": "Closed"}], "id": "9532600005", "name": "USPS COLLECTION BOX - BLUE BOX", "address": {"city": "HUGHSON", "state": "CA", "street": "7700 FOX RD", "postcode": "95326"}}},
{"geometry": {"type": "Point", "coordinates": [-120.4223263925, 37.9548357396]}, "type": "Feature", "properties": {"collection_times": [{"days": "Mon-Fri", "time": "4:15pm"}, {"days": "Sat", "time": "10:00am"}, {"days": "Sun", "time": "Closed"}], "id": "9532700001", "name": "USPS COLLECTION BOX - BLUE BOX", "address": {"city": "JAMESTOWN", "state": "CA", "street": "18303 MAIN ST", "postcode": "95327"}}},
{"geometry": {"type": "Point", "coordinates": [-120.4223263925, 37.9548357396]}, "type": "Feature", "properties": {"collection_times": [{"days": "Mon-Fri", "time": "4:45pm"}, {"days": "Sat", "time": "10:00am"}, {"days": "Sun", "time": "Closed"}], "id": "9532700003", "name": "USPS COLLECTION BOX - PO LOBBY", "address": {"city": "JAMESTOWN", "state": "CA", "street": "18303 MAIN ST", "postcode": "95327"}}},
{"geometry": {"type": "Point", "coordinates": [-120.9104815101, 37.5524943642]}, "type": "Feature", "properties": {"collection_times": [{"days": "Mon-Fri", "time": "4:30pm"}, {"days": "Sat", "time": "9:00am"}, {"days": "Sun", "time": "Closed"}], "id": "9532800000", "name": "USPS COLLECTION BOX - BLUE BOX", "address": {"city": "KEYES", "state": "CA", "street": "5655 7TH ST", "postcode": "95328"}}},
{"geometry": {"type": "Point", "coordinates": [-120.9104815101, 37.5524943642]}, "type": "Feature", "properties": {"collection_times": [{"days": "Mon-Fri", "time": "4:30pm"}, {"days": "Sat", "time": "9:00am"}, {"days": "Sun", "time": "Closed"}], "id": "9532800002", "name": "USPS COLLECTION BOX - PO LOBBY", "address": {"city": "KEYES", "state": "CA", "street": "5655 7TH ST", "postcode": "95328"}}},
{"geometry": {"type": "Point", "coordinates": [-120.4614595189, 37.6619253484]}, "type": "Feature", "properties": {"collection_times": [{"days": "Mon-Fri", "time": "3:30pm"}, {"days": "Sat", "time": "10:30am"}, {"days": "Sun", "time": "Closed"}], "id": "9532900000", "name": "USPS COLLECTION BOX - BLUE BOX", "address": {"city": "LAGRANGE", "state": "CA", "street": "30204 FLOTO ST", "postcode": "95329"}}},
{"geometry": {"type": "Point", "coordinates": [-120.4614595189, 37.6619253484]}, "type": "Feature", "properties": {"collection_times": [{"days": "Mon-Fri", "time": "3:30pm"}, {"days": "Sat", "time": "10:30am"}, {"days": "Sun", "time": "Closed"}], "id": "9532900002", "name": "USPS COLLECTION BOX - PO LOBBY", "address": {"city": "LAGRANGE", "state": "CA", "street": "30204 FLOTO ST", "postcode": "95329"}}},
{"geometry": {"type": "Point", "coordinates": [-120.3307863221, 37.6844935928]}, "type": "Feature", "properties": {"collection_times": [{"days": "Mon-Fri", "time": "12:45pm"}, {"days": "Sat-Sun", "time": "Closed"}], "id": "9532900003", "name": "USPS COLLECTION BOX - BLUE BOX", "address": {"city": "LAGRANGE", "state": "CA", "street": "3317 HIGHWAY 132", "postcode": "95329"}}},
{"geometry": {"type": "Point", "coordinates": [-121.2755371473, 37.8211497683]}, "type": "Feature", "properties": {"collection_times": [{"days": "Mon-Fri", "time": "5:00pm"}, {"days": "Sat", "time": "10:00am"}, {"days": "Sun", "time": "Closed"}], "id": "9533000001", "name": "USPS COLLECTION BOX - BLUE BOX", "address": {"city": "LATHROP", "state": "CA", "street": "15529 7TH ST", "postcode": "95330"}}},
{"geometry": {"type": "Point", "coordinates": [-121.2755371473, 37.8211497683]}, "type": "Feature", "properties": {"collection_times": [{"days": "Mon-Fri", "time": "5:00pm"}, {"days": "Sat", "time": "10:00am"}, {"days": "Sun", "time": "Closed"}], "id": "9533000004", "name": "USPS COLLECTION BOX - PO LOBBY", "address": {"city": "LATHROP", "state": "CA", "street": "15529 7TH ST", "postcode": "95330"}}},
{"geometry": {"type": "Point", "coordinates": [-120.2502178038, 37.2299132079]}, "type": "Feature", "properties": {"collection_times": [{"days": "Mon-Fri", "time": "4:15pm"}, {"days": "Sat", "time": "10:00am"}, {"days": "Sun", "time": "Closed"}], "id": "9533300000", "name": "USPS COLLECTION BOX - BLUE BOX", "address": {"city": "LE GRAND", "state": "CA", "street": "13201 JEFFERSON ST", "postcode": "95333"}}},
{"geometry": {"type": "Point", "coordinates": [-120.2502178038, 37.2299132079]}, "type": "Feature", "properties": {"collection_times": [{"days": "Mon-Fri", "time": "4:15pm"}, {"days": "Sat", "time": "10:00am"}, {"days": "Sun", "time": "Closed"}], "id": "9533300001", "name": "USPS COLLECTION BOX - PO LOBBY", "address": {"city": "LE GRAND", "state": "CA", "street": "13201 JEFFERSON ST", "postcode": "95333"}}},
{"geometry": {"type": "Point", "coordinates": [-120.2502178038, 37.2299132079]}, "type": "Feature", "properties": {"collection_times": [{"days": "Mon-Fri", "time": "4:15pm"}, {"days": "Sat", "time": "10:00am"}, {"days": "Sun", "time": "Closed"}], "id": "9533300002", "name": "USPS COLLECTION BOX - PO LOBBY", "address": {"city": "LE GRAND", "state": "CA", "street": "13201 JEFFERSON ST", "postcode": "95333"}}},
{"geometry": {"type": "Point", "coordinates": [-120.72243032, 37.3859628032]}, "type": "Feature", "properties": {"collection_times": [{"days": "Mon-Fri", "time": "5:00pm"}, {"days": "Sat", "time": "2:00pm"}, {"days": "Sun", "time": "Closed"}], "id": "9533400004", "name": "USPS COLLECTION BOX - BLUE BOX", "address": {"city": "LIVINGSTON", "state": "CA", "street": "1444 B ST", "postcode": "95334"}}},
{"geometry": {"type": "Point", "coordinates": [-120.7224241575, 37.3859917069]}, "type": "Feature", "properties": {"collection_times": [{"days": "Mon-Fri", "time": "4:15pm"}, {"days": "Sat", "time": "2:00pm"}, {"days": "Sun", "time": "Closed"}], "id": "9533400006", "name": "USPS COLLECTION BOX - PO LOBBY", "address": {"city": "LIVINGSTON", "state": "CA", "street": "1444 B ST", "postcode": "95334"}}},
{"geometry": {"type": "Point", "coordinates": [-120.0654078386, 38.1530233681]}, "type": "Feature", "properties": {"collection_times": [{"days": "Mon-Fri", "time": "3:00pm"}, {"days": "Sat", "time": "9:30am"}, {"days": "Sun", "time": "Closed"}], "id": "9533500000", "name": "USPS COLLECTION BOX - BLUE BOX", "address": {"city": "LONG BARN", "state": "CA", "street": "25955 LONG BARN DR", "postcode": "95335"}}},
{"geometry": {"type": "Point", "coordinates": [-120.0654078386, 38.1530233681]}, "type": "Feature", "properties": {"collection_times": [{"days": "Mon-Fri", "time": "12:15pm"}, {"days": "Sat", "time": "9:30am"}, {"days": "Sun", "time": "Closed"}], "id": "9533500001", "name": "USPS COLLECTION BOX - PO LOBBY", "address": {"city": "LONG BARN", "state": "CA", "street": "25955 LONG BARN DR", "postcode": "95335"}}},
{"geometry": {"type": "Point", "coordinates": [-120.0406613848, 38.1694262189]}, "type": "Feature", "properties": {"collection_times": [{"days": "Mon-Fri", "time": "2:40pm"}, {"days": "Sat-Sun", "time": "Closed"}], "id": "9533500002", "name": "USPS COLLECTION BOX - BLUE BOX", "address": {"city": "LONG BARN", "state": "CA", "street": "29820 HIGHWAY 108", "postcode": "95335"}}},
{"geometry": {"type": "Point", "coordinates": [-121.2178698802, 37.7991856357]}, "type": "Feature", "properties": {"collection_times": [{"days": "Mon-Fri", "time": "5:00pm"}, {"days": "Sat", "time": "4:00pm"}, {"days": "Sun", "time": "Closed"}], "id": "9533600001", "name": "USPS COLLECTION BOX - BLUE BOX", "address": {"city": "MANTECA", "state": "CA", "street": "207 W CENTER ST", "postcode": "95336"}}},
{"geometry": {"type": "Point", "coordinates": [-121.2178739335, 37.7988206894]}, "type": "Feature", "properties": {"collection_times": [{"days": "Mon-Fri", "time": "5:00pm"}, {"days": "Sat", "time": "4:00pm"}, {"days": "Sun", "time": "Closed"}], "id": "9533600005", "name": "USPS COLLECTION BOX - BLUE BOX", "address": {"city": "MANTECA", "state": "CA", "street": "165 N MAPLE AVE", "postcode": "95336"}}},
{"geometry": {"type": "Point", "coordinates": [-121.2177941389, 37.7988609471]}, "type": "Feature", "properties": {"collection_times": [{"days": "Mon-Fri", "time": "5:00pm"}, {"days": "Sat", "time": "4:00pm"}, {"days": "Sun", "time": "Closed"}], "id": "9533600006", "name": "USPS COLLECTION BOX - BLUE BOX", "address": {"city": "MANTECA", "state": "CA", "street": "165 N MAPLE AVE", "postcode": "95336"}}},
{"geometry": {"type": "Point", "coordinates": [-121.2372033156, 37.8263772701]}, "type": "Feature", "properties": {"collection_times": [{"days": "Mon-Fri", "time": "2:00pm"}, {"days": "Sat", "time": "12:00pm"}, {"days": "Sun", "time": "Closed"}], "id": "9533600018", "name": "USPS COLLECTION BOX - BLUE BOX", "address": {"city": "MANTECA", "state": "CA", "street": "1254 W LATHROP RD", "postcode": "95336"}}},
{"geometry": {"type": "Point", "coordinates": [-121.1986041786, 37.8010908248]}, "type": "Feature", "properties": {"collection_times": [{"days": "Mon-Sat", "time": "2:00pm"}, {"days": "Sun", "time": "Closed"}], "id": "9533600022", "name": "USPS COLLECTION BOX - BLUE BOX", "address": {"city": "MANTECA", "state": "CA", "street": "1192 E NORTH ST", "postcode": "95336"}}},
{"geometry": {"type": "Point", "coordinates": [-121.2033348315, 37.7974674215]}, "type": "Feature", "properties": {"collection_times": [{"days": "Mon-Sat", "time": "12:00pm"}, {"days": "Sun", "time": "Closed"}], "id": "9533600026", "name": "USPS COLLECTION BOX - BLUE BOX", "address": {"city": "MANTECA", "state": "CA", "street": "965 E YOSEMITE AVE", "postcode": "95336"}}},
{"geometry": {"type": "Point", "coordinates": [-121.2177941389, 37.7988609471]}, "type": "Feature", "properties": {"collection_times": [{"days": "Mon-Fri", "time": "5:00pm"}, {"days": "Sat", "time": "4:30pm"}, {"days": "Sun", "time": "Closed"}], "id": "9533600031", "name": "USPS COLLECTION BOX - PO LOBBY", "address": {"city": "MANTECA", "state": "CA", "street": "165 N MAPLE AVE", "postcode": "95336"}}},
{"geometry": {"type": "Point", "coordinates": [-121.2177941389, 37.7988609471]}, "type": "Feature", "properties": {"collection_times": [{"days": "Mon-Fri", "time": "5:00pm"}, {"days": "Sat", "time": "4:30pm"}, {"days": "Sun", "time": "Closed"}], "id": "9533600032", "name": "USPS COLLECTION BOX - PO LOBBY", "address": {"city": "MANTECA", "state": "CA", "street": "165 N MAPLE AVE", "postcode": "95336"}}},
{"geometry": {"type": "Point", "coordinates": [-121.2098162637, 37.7974591408]}, "type": "Feature", "properties": {"collection_times": [{"days": "Mon-Sat", "time": "2:00pm"}, {"days": "Sun", "time": "Closed"}], "id": "9533600035", "name": "USPS COLLECTION BOX - BLUE BOX", "address": {"city": "MANTECA", "state": "CA", "street": "531 E YOSEMITE AVE", "postcode": "95336"}}},
{"geometry": {"type": "Point", "coordinates": [-121.2178739335, 37.7988206894]}, "type": "Feature", "properties": {"collection_times": [{"days": "Mon-Fri", "time": "5:00pm"}, {"days": "Sat", "time": "4:00pm"}, {"days": "Sun", "time": "Closed"}], "id": "9533600041", "name": "USPS COLLECTION BOX - BLUE BOX", "address": {"city": "MANTECA", "state": "CA", "street": "165 N MAPLE AVE", "postcode": "95336"}}},
{"geometry": {"type": "Point", "coordinates": [-121.2310054247, 37.8014930308]}, "type": "Feature", "properties": {"collection_times": [{"days": "Mon-Sat", "time": "1:00pm"}, {"days": "Sun", "time": "Closed"}], "id": "9533700001", "name": "USPS COLLECTION BOX - BLUE BOX", "address": {"city": "MANTECA", "state": "CA", "street": "309 CHERRY LN", "postcode": "95337"}}},
{"geometry": {"type": "Point", "coordinates": [-121.2086522321, 37.7854722176]}, "type": "Feature", "properties": {"collection_times": [{"days": "Mon-Fri", "time": "5:00pm"}, {"days": "Sat", "time": "3:00pm"}, {"days": "Sun", "time": "Closed"}], "id": "9533700009", "name": "USPS COLLECTION BOX - BLUE BOX", "address": {"city": "MANTECA", "state": "CA", "street": "668 INDUSTRIAL PARK DR", "postcode": "95337"}}},
{"geometry": {"type": "Point", "coordinates": [-121.2086522321, 37.7854722176]}, "type": "Feature", "properties": {"collection_times": [{"days": "Mon-Fri", "time": "5:00pm"}, {"days": "Sat", "time": "3:00pm"}, {"days": "Sun", "time": "Closed"}], "id": "9533700010", "name": "USPS COLLECTION BOX - PO LOBBY", "address": {"city": "MANTECA", "state": "CA", "street": "668 INDUSTRIAL PARK DR", "postcode": "95337"}}},
{"geometry": {"type": "Point", "coordinates": [-119.9693106526, 37.4877733115]}, "type": "Feature", "properties": {"collection_times": [{"days": "Mon-Fri", "time": "4:15pm"}, {"days": "Sat", "time": "2:00pm"}, {"days": "Sun", "time": "Closed"}], "id": "9533800002", "name": "USPS COLLECTION BOX - BLUE BOX", "address": {"city": "MARIPOSA", "state": "CA", "street": "5109 JESSIE ST", "postcode": "95338"}}},
{"geometry": {"type": "Point", "coordinates": [-119.9693106526, 37.4877733115]}, "type": "Feature", "properties": {"collection_times": [{"days": "Mon-Fri", "time": "4:15pm"}, {"days": "Sat", "time": "2:00pm"}, {"days": "Sun", "time": "Closed"}], "id": "9533800005", "name": "USPS COLLECTION BOX - PO LOBBY", "address": {"city": "MARIPOSA", "state": "CA", "street": "5109 JESSIE ST", "postcode": "95338"}}},
{"geometry": {"type": "Point", "coordinates": [-119.9693106526, 37.4877733115]}, "type": "Feature", "properties": {"collection_times": [{"days": "Mon-Fri", "time": "4:15pm"}, {"days": "Sat", "time": "2:00pm"}, {"days": "Sun", "time": "Closed"}], "id": "9533800006", "name": "USPS COLLECTION BOX - PO LOBBY", "address": {"city": "MARIPOSA", "state": "CA", "street": "5109 JESSIE ST", "postcode": "95338"}}},
{"geometry": {"type": "Point", "coordinates": [-119.884531399, 37.4639704407]}, "type": "Feature", "properties": {"collection_times": [{"days": "Mon-Sat", "time": "11:45am"}, {"days": "Sun", "time": "Closed"}], "id": "9533800007", "name": "USPS COLLECTION BOX - BLUE BOX", "address": {"city": "MARIPOSA", "state": "CA", "street": "3939 BOOTJACK LN", "postcode": "95338"}}},
{"geometry": {"type": "Point", "coordinates": [-120.4814757283, 37.3020055852]}, "type": "Feature", "properties": {"collection_times": [{"days": "Mon-Fri", "time": "4:30pm"}, {"days": "Sat", "time": "1:00pm"}, {"days": "Sun", "time": "Closed"}], "id": "9534000013", "name": "USPS COLLECTION BOX - BLUE BOX", "address": {"city": "MERCED", "state": "CA", "street": "415 W 18TH ST", "postcode": "95340"}}},
{"geometry": {"type": "Point", "coordinates": [-120.4808201674, 37.3089692487]}, "type": "Feature", "properties": {"collection_times": [{"days": "Mon-Fri", "time": "5:30pm"}, {"days": "Sat", "time": "5:00pm"}, {"days": "Sun", "time": "Closed"}], "id": "9534000016", "name": "USPS COLLECTION BOX - BLUE BOX", "address": {"city": "MERCED", "state": "CA", "street": "2334 M ST", "postcode": "95340"}}},
{"geometry": {"type": "Point", "coordinates": [-120.4613464648, 37.3150716774]}, "type": "Feature", "properties": {"collection_times": [{"days": "Mon-Fri", "time": "5:30pm"}, {"days": "Sat", "time": "4:00pm"}, {"days": "Sun", "time": "Closed"}], "id": "9534000017", "name": "USPS COLLECTION BOX - EXPRESS", "address": {"city": "MERCED", "state": "CA", "street": "2334 M ST", "postcode": "95340"}}},
{"geometry": {"type": "Point", "coordinates": [-120.4690102849, 37.3306695417]}, "type": "Feature", "properties": {"collection_times": [{"days": "Mon-Fri", "time": "1:35pm"}, {"days": "Sat", "time": "1:30pm"}, {"days": "Sun", "time": "Closed"}], "id": "9534000025", "name": "USPS COLLECTION BOX - BLUE BOX", "address": {"city": "MERCED", "state": "CA", "street": "3534 G ST", "postcode": "95340"}}},
{"geometry": {"type": "Point", "coordinates": [-120.4931723263, 37.3049470411]}, "type": "Feature", "properties": {"collection_times": [{"days": "Mon-Fri", "time": "1:00pm"}, {"days": "Sat-Sun", "time": "Closed"}], "id": "9534000039", "name": "USPS COLLECTION BOX - BLUE BOX", "address": {"city": "MERCED", "state": "CA", "street": "1136 W MAIN ST", "postcode": "95340"}}},
{"geometry": {"type": "Point", "coordinates": [-120.4808201674, 37.3089692487]}, "type": "Feature", "properties": {"collection_times": [{"days": "Mon-Fri", "time": "5:30pm"}, {"days": "Sat", "time": "5:00pm"}, {"days": "Sun", "time": "Closed"}], "id": "9534000047", "name": "USPS COLLECTION BOX - PO LOBBY", "address": {"city": "MERCED", "state": "CA", "street": "2334 M ST", "postcode": "95340"}}},
{"geometry": {"type": "Point", "coordinates": [-120.4808201674, 37.3089692487]}, "type": "Feature", "properties": {"collection_times": [{"days": "Mon-Fri", "time": "5:30pm"}, {"days": "Sat", "time": "5:00pm"}, {"days": "Sun", "time": "Closed"}], "id": "9534000048", "name": "USPS COLLECTION BOX - PO LOBBY", "address": {"city": "MERCED", "state": "CA", "street": "2334 M ST", "postcode": "95340"}}},
{"geometry": {"type": "Point", "coordinates": [-120.4808201674, 37.3089692487]}, "type": "Feature", "properties": {"collection_times": [{"days": "Mon-Fri", "time": "5:30pm"}, {"days": "Sat", "time": "5:00pm"}, {"days": "Sun", "time": "Closed"}], "id": "9534000050", "name": "USPS COLLECTION BOX - BLUE BOX", "address": {"city": "MERCED", "state": "CA", "street": "2334 M ST", "postcode": "95340"}}},
{"geometry": {"type": "Point", "coordinates": [-120.4850492019, 37.3032542402]}, "type": "Feature", "properties": {"collection_times": [{"days": "Mon-Fri", "time": "5:00pm"}, {"days": "Sat-Sun", "time": "Closed"}], "id": "9534000052", "name": "USPS COLLECTION BOX - BLUE BOX", "address": {"city": "MERCED", "state": "CA", "street": "678 W 18TH ST", "postcode": "95340"}}},
{"geometry": {"type": "Point", "coordinates": [-119.9454640441, 37.6309685699]}, "type": "Feature", "properties": {"collection_times": [{"days": "Mon-Fri", "time": "3:00pm"}, {"days": "Sat", "time": "10:30am"}, {"days": "Sun", "time": "Closed"}], "id": "9534500001", "name": "USPS COLLECTION BOX - PO LOBBY", "address": {"city": "MIDPINES", "state": "CA", "street": "6629 HIGHWAY 140", "postcode": "95345"}}},
{"geometry": {"type": "Point", "coordinates": [-120.1071400862, 38.0468231684]}, "type": "Feature", "properties": {"collection_times": [{"days": "Mon-Fri", "time": "3:15pm"}, {"days": "Sat", "time": "10:45am"}, {"days": "Sun", "time": "Closed"}], "id": "9534600000", "name": "USPS COLLECTION BOX - BLUE BOX", "address": {"city": "MI WUK VILLAGE", "state": "CA", "street": "20755 LONG BARN & SUGAR PINE RD", "postcode": "95346"}}},
{"geometry": {"type": "Point", "coordinates": [-120.1071400862, 38.0468231684]}, "type": "Feature", "properties": {"collection_times": [{"days": "Mon-Fri", "time": "3:15pm"}, {"days": "Sat", "time": "10:30am"}, {"days": "Sun", "time": "Closed"}], "id": "9534600002", "name": "USPS COLLECTION BOX - PO LOBBY", "address": {"city": "MI WUK VILLAGE", "state": "CA", "street": "20755 LONG BARN SUGAR PINE RD", "postcode": "95346"}}},
{"geometry": {"type": "Point", "coordinates": [-120.1071400862, 38.0468231684]}, "type": "Feature", "properties": {"collection_times": [{"days": "Mon-Fri", "time": "3:15pm"}, {"days": "Sat", "time": "10:30am"}, {"days": "Sun", "time": "Closed"}], "id": "9534600003", "name": "USPS COLLECTION BOX - PO LOBBY", "address": {"city": "MI WUK VILLAGE", "state": "CA", "street": "20755 LONG BARN SUGAR PINE RD", "postcode": "95346"}}},
{"geometry": {"type": "Point", "coordinates": [-120.1071400862, 38.0468231684]}, "type": "Feature", "properties": {"collection_times": [{"days": "Mon-Fri", "time": "3:15pm"}, {"days": "Sat", "time": "10:30am"}, {"days": "Sun", "time": "Closed"}], "id": "9534600004", "name": "USPS COLLECTION BOX - PO LOBBY", "address": {"city": "MI WUK VILLAGE", "state": "CA", "street": "20755 LONG BARN SUGAR PINE RD", "postcode": "95346"}}},
{"geometry": {"type": "Point", "coordinates": [-120.1071400862, 38.0468231684]}, "type": "Feature", "properties": {"collection_times": [{"days": "Mon-Fri", "time": "3:15pm"}, {"days": "Sat", "time": "10:30am"}, {"days": "Sun", "time": "Closed"}], "id": "9534600005", "name": "USPS COLLECTION BOX - PO LOBBY", "address": {"city": "MI WUK VILLAGE", "state": "CA", "street": "20755 LONG BARN SUGAR PINE RD", "postcode": "95346"}}},
{"geometry": {"type": "Point", "coordinates": [-120.4699325598, 37.3153007846]}, "type": "Feature", "properties": {"collection_times": [{"days": "Mon-Fri", "time": "3:15pm"}, {"days": "Sat-Sun", "time": "Closed"}], "id": "9534800001", "name": "USPS COLLECTION BOX - BLUE BOX", "address": {"city": "MERCED", "state": "CA", "street": "23 W ALEXANDER AVE", "postcode": "95348"}}},
{"geometry": {"type": "Point", "coordinates": [-120.4920949493, 37.3190953774]}, "type": "Feature", "properties": {"collection_times": [{"days": "Mon-Fri", "time": "1:00pm"}, {"days": "Sat", "time": "1:45pm"}, {"days": "Sun", "time": "Closed"}], "id": "9534800008", "name": "USPS COLLECTION BOX - BLUE BOX", "address": {"city": "MERCED", "state": "CA", "street": "1300 W OLIVE AVE", "postcode": "95348"}}},
{"geometry": {"type": "Point", "coordinates": [-120.470405595, 37.3183697716]}, "type": "Feature", "properties": {"collection_times": [{"days": "Mon-Fri", "time": "1:05pm"}, {"days": "Sat", "time": "1:35pm"}, {"days": "Sun", "time": "Closed"}], "id": "9534800012", "name": "USPS COLLECTION BOX - BLUE BOX", "address": {"city": "MERCED", "state": "CA", "street": "20 W OLIVE AVE", "postcode": "95348"}}},
{"geometry": {"type": "Point", "coordinates": [-120.4795165466, 37.3193437988]}, "type": "Feature", "properties": {"collection_times": [{"days": "Mon-Fri", "time": "1:25pm"}, {"days": "Sat-Sun", "time": "Closed"}], "id": "9534800015", "name": "USPS COLLECTION BOX - BLUE BOX", "address": {"city": "MERCED", "state": "CA", "street": "625 W OLIVE AVE", "postcode": "95348"}}},
{"geometry": {"type": "Point", "coordinates": [-120.9939771198, 37.666196831]}, "type": "Feature", "properties": {"collection_times": [{"days": "Mon-Fri", "time": "3:00pm"}, {"days": "Sat", "time": "12:00pm"}, {"days": "Sun", "time": "Closed"}], "id": "9535000024", "name": "USPS COLLECTION BOX - BLUE BOX", "address": {"city": "MODESTO", "state": "CA", "street": "1524 MCHENRY AVE", "postcode": "95350"}}},
{"geometry": {"type": "Point", "coordinates": [-121.0489906265, 37.6852105305]}, "type": "Feature", "properties": {"collection_times": [{"days": "Mon-Fri", "time": "3:00pm"}, {"days": "Sat", "time": "12:00pm"}, {"days": "Sun", "time": "Closed"}], "id": "9535000041", "name": "USPS COLLECTION BOX - BLUE BOX", "address": {"city": "MODESTO", "state": "CA", "street": "2900 STANDIFORD AVE", "postcode": "95350"}}},
{"geometry": {"type": "Point", "coordinates": [-121.016654417, 37.655360452]}, "type": "Feature", "properties": {"collection_times": [{"days": "Mon-Fri", "time": "5:30pm"}, {"days": "Sat", "time": "5:00pm"}, {"days": "Sun", "time": "Closed"}], "id": "9535000044", "name": "USPS COLLECTION BOX - BLUE BOX", "address": {"city": "MODESTO", "state": "CA", "street": "715 KEARNEY AVE", "postcode": "95350"}}},
{"geometry": {"type": "Point", "coordinates": [-121.016654417, 37.655360452]}, "type": "Feature", "properties": {"collection_times": [{"days": "Mon-Fri", "time": "5:30pm"}, {"days": "Sat", "time": "5:00pm"}, {"days": "Sun", "time": "Closed"}], "id": "9535000063", "name": "USPS COLLECTION BOX - PO LOBBY", "address": {"city": "MODESTO", "state": "CA", "street": "715 KEARNEY AVE", "postcode": "95350"}}},
{"geometry": {"type": "Point", "coordinates": [-121.016654417, 37.655360452]}, "type": "Feature", "properties": {"collection_times": [{"days": "Mon-Fri", "time": "5:30pm"}, {"days": "Sat", "time": "5:00pm"}, {"days": "Sun", "time": "Closed"}], "id": "9535000064", "name": "USPS COLLECTION BOX - PO LOBBY", "address": {"city": "MODESTO", "state": "CA", "street": "715 KEARNEY AVE", "postcode": "95350"}}},
{"geometry": {"type": "Point", "coordinates": [-121.0034584859, 37.6602576488]}, "type": "Feature", "properties": {"collection_times": [{"days": "Mon-Sat", "time": "3:00pm"}, {"days": "Sun", "time": "Closed"}], "id": "9535000086", "name": "USPS COLLECTION BOX - BLUE BOX", "address": {"city": "MODESTO", "state": "CA", "street": "839 W ROSEBURG AVE", "postcode": "95350"}}},
{"geometry": {"type": "Point", "coordinates": [-120.9669098357, 37.6092089659]}, "type": "Feature", "properties": {"collection_times": [{"days": "Mon-Fri", "time": "3:00pm"}, {"days": "Sat", "time": "12:00pm"}, {"days": "Sun", "time": "Closed"}], "id": "9535100008", "name": "USPS COLLECTION BOX - BLUE BOX", "address": {"city": "MODESTO", "state": "CA", "street": "1640 E HATCH RD", "postcode": "95351"}}},
{"geometry": {"type": "Point", "coordinates": [-121.0307979005, 37.6485719254]}, "type": "Feature", "properties": {"collection_times": [{"days": "Mon-Fri", "time": "3:00pm"}, {"days": "Sat", "time": "12:00pm"}, {"days": "Sun", "time": "Closed"}], "id": "9535100022", "name": "USPS COLLECTION BOX - BLUE BOX", "address": {"city": "MODESTO", "state": "CA", "street": "901 N CARPENTER RD", "postcode": "95351"}}},
{"geometry": {"type": "Point", "coordinates": [-120.9923351728, 37.636849985]}, "type": "Feature", "properties": {"collection_times": [{"days": "Mon-Fri", "time": "3:00pm"}, {"days": "Sat-Sun", "time": "Closed"}], "id": "9535400004", "name": "USPS COLLECTION BOX - BLUE BOX", "address": {"city": "MODESTO", "state": "CA", "street": "400 12TH ST", "postcode": "95354"}}},
{"geometry": {"type": "Point", "coordinates": [-120.998268609, 37.6387376339]}, "type": "Feature", "properties": {"collection_times": [{"days": "Mon-Fri", "time": "3:00pm"}, {"days": "Sat-Sun", "time": "Closed"}], "id": "9535400012", "name": "USPS COLLECTION BOX - BLUE BOX", "address": {"city": "MODESTO", "state": "CA", "street": "801 10TH ST", "postcode": "95354"}}},
{"geometry": {"type": "Point", "coordinates": [-120.9955658337, 37.6422218017]}, "type": "Feature", "properties": {"collection_times": [{"days": "Mon-Fri", "time": "3:00pm"}, {"days": "Sat-Sun", "time": "Closed"}], "id": "9535400020", "name": "USPS COLLECTION BOX - BLUE BOX", "address": {"city": "MODESTO", "state": "CA", "street": "1321 I ST", "postcode": "95354"}}},
{"geometry": {"type": "Point", "coordinates": [-120.9998162053, 37.6427186445]}, "type": "Feature", "properties": {"collection_times": [{"days": "Mon-Fri", "time": "3:00pm"}, {"days": "Sat-Sun", "time": "Closed"}], "id": "9535400025", "name": "USPS COLLECTION BOX - BLUE BOX", "address": {"city": "MODESTO", "state": "CA", "street": "1125 K ST", "postcode": "95354"}}},
{"geometry": {"type": "Point", "coordinates": [-120.9975236308, 37.6407549326]}, "type": "Feature", "properties": {"collection_times": [{"days": "Mon-Fri", "time": "5:00pm"}, {"days": "Sat", "time": "1:30pm"}, {"days": "Sun", "time": "Closed"}], "id": "9535400039", "name": "USPS COLLECTION BOX - BLUE BOX", "address": {"city": "MODESTO", "state": "CA", "street": "1125 I ST", "postcode": "95354"}}},
{"geometry": {"type": "Point", "coordinates": [-120.9975236308, 37.6407549326]}, "type": "Feature", "properties": {"collection_times": [{"days": "Mon-Fri", "time": "5:00pm"}, {"days": "Sat", "time": "1:30pm"}, {"days": "Sun", "time": "Closed"}], "id": "9535400040", "name": "USPS COLLECTION BOX - BLUE BOX", "address": {"city": "MODESTO", "state": "CA", "street": "1125 I ST", "postcode": "95354"}}},
{"geometry": {"type": "Point", "coordinates": [-120.9927858801, 37.6443404812]}, "type": "Feature", "properties": {"collection_times": [{"days": "Mon-Fri", "time": "3:00pm"}, {"days": "Sat-Sun", "time": "Closed"}], "id": "9535400043", "name": "USPS COLLECTION BOX - BLUE BOX", "address": {"city": "MODESTO", "state": "CA", "street": "1625 I ST", "postcode": "95354"}}},
{"geometry": {"type": "Point", "coordinates": [-121.0031521495, 37.6413428632]}, "type": "Feature", "properties": {"collection_times": [{"days": "Mon-Fri", "time": "11:00am"}, {"days": "Sat-Sun", "time": "Closed"}], "id": "9535400054", "name": "USPS COLLECTION BOX - BLUE BOX", "address": {"city": "MODESTO", "state": "CA", "street": "1150 9TH ST", "postcode": "95354"}}},
{"geometry": {"type": "Point", "coordinates": [-120.994331262, 37.6413072228]}, "type": "Feature", "properties": {"collection_times": [{"days": "Mon-Fri", "time": "3:00pm"}, {"days": "Sat", "time": "12:00pm"}, {"days": "Sun", "time": "Closed"}], "id": "9535400058", "name": "USPS COLLECTION BOX - BLUE BOX", "address": {"city": "MODESTO", "state": "CA", "street": "1328 H ST", "postcode": "95354"}}},
{"geometry": {"type": "Point", "coordinates": [-120.9756540849, 37.6725172143]}, "type": "Feature", "properties": {"collection_times": [{"days": "Mon-Fri", "time": "3:00pm"}, {"days": "Sat", "time": "12:30pm"}, {"days": "Sun", "time": "Closed"}], "id": "9535500002", "name": "USPS COLLECTION BOX - BLUE BOX", "address": {"city": "MODESTO", "state": "CA", "street": "2030 COFFEE RD", "postcode": "95355"}}},
{"geometry": {"type": "Point", "coordinates": [-120.9760801336, 37.6909963828]}, "type": "Feature", "properties": {"collection_times": [{"days": "Mon-Fri", "time": "3:00pm"}, {"days": "Sat", "time": "2:30pm"}, {"days": "Sun", "time": "Closed"}], "id": "9535500004", "name": "USPS COLLECTION BOX - BLUE BOX", "address": {"city": "MODESTO", "state": "CA", "street": "3600 COFFEE RD", "postcode": "95355"}}},
{"geometry": {"type": "Point", "coordinates": [-120.9572313075, 37.653616434]}, "type": "Feature", "properties": {"collection_times": [{"days": "Mon-Fri", "time": "3:00pm"}, {"days": "Sat", "time": "2:15pm"}, {"days": "Sun", "time": "Closed"}], "id": "9535500008", "name": "USPS COLLECTION BOX - BLUE BOX", "address": {"city": "MODESTO", "state": "CA", "street": "820 OAKDALE RD", "postcode": "95355"}}},
{"geometry": {"type": "Point", "coordinates": [-120.9547296409, 37.6635785249]}, "type": "Feature", "properties": {"collection_times": [{"days": "Mon-Fri", "time": "3:00pm"}, {"days": "Sat", "time": "2:15pm"}, {"days": "Sun", "time": "Closed"}], "id": "9535500010", "name": "USPS COLLECTION BOX - BLUE BOX", "address": {"city": "MODESTO", "state": "CA", "street": "2401 E ORANGEBURG AVE", "postcode": "95355"}}},
{"geometry": {"type": "Point", "coordinates": [-120.9515586753, 37.6708624528]}, "type": "Feature", "properties": {"collection_times": [{"days": "Mon-Fri", "time": "5:00pm"}, {"days": "Sat", "time": "4:00pm"}, {"days": "Sun", "time": "Closed"}], "id": "9535500022", "name": "USPS COLLECTION BOX - PO LOBBY", "address": {"city": "MODESTO", "state": "CA", "street": "2300 SYLVAN AVE", "postcode": "95355"}}},
{"geometry": {"type": "Point", "coordinates": [-120.9515586753, 37.6708624528]}, "type": "Feature", "properties": {"collection_times": [{"days": "Mon-Fri", "time": "5:00pm"}, {"days": "Sat", "time": "4:00pm"}, {"days": "Sun", "time": "Closed"}], "id": "9535500023", "name": "USPS COLLECTION BOX - PO LOBBY", "address": {"city": "MODESTO", "state": "CA", "street": "2300 SYLVAN AVE", "postcode": "95355"}}},
{"geometry": {"type": "Point", "coordinates": [-120.9515586753, 37.6708624528]}, "type": "Feature", "properties": {"collection_times": [{"days": "Mon-Fri", "time": "5:00pm"}, {"days": "Sat", "time": "4:00pm"}, {"days": "Sun", "time": "Closed"}], "id": "9535500024", "name": "USPS COLLECTION BOX - PO LOBBY", "address": {"city": "MODESTO", "state": "CA", "street": "2300 SYLVAN AVE", "postcode": "95355"}}},
{"geometry": {"type": "Point", "coordinates": [-120.9560297422, 37.6889328335]}, "type": "Feature", "properties": {"collection_times": [{"days": "Mon-Fri", "time": "5:00pm"}, {"days": "Sat", "time": "4:00pm"}, {"days": "Sun", "time": "Closed"}], "id": "9535500028", "name": "USPS COLLECTION BOX - BLUE BOX", "address": {"city": "MODESTO", "state": "CA", "street": "2300 SYLVAN AVE", "postcode": "95355"}}},
{"geometry": {"type": "Point", "coordinates": [-120.9517498551, 37.6708624993]}, "type": "Feature", "properties": {"collection_times": [{"days": "Mon-Fri", "time": "3:30pm"}, {"days": "Sat", "time": "3:00pm"}, {"days": "Sun", "time": "Closed"}], "id": "9535500033", "name": "USPS COLLECTION BOX - BLUE BOX", "address": {"city": "MODESTO", "state": "CA", "street": "3420 OAKDALE RD", "postcode": "95355"}}},
{"geometry": {"type": "Point", "coordinates": [-120.9946111858, 37.702291275]}, "type": "Feature", "properties": {"collection_times": [{"days": "Mon-Fri", "time": "3:00pm"}, {"days": "Sat", "time": "12:00pm"}, {"days": "Sun", "time": "Closed"}], "id": "9535600005", "name": "USPS COLLECTION BOX - BLUE BOX", "address": {"city": "MODESTO", "state": "CA", "street": "4360 MCHENRY AVE", "postcode": "95356"}}},
{"geometry": {"type": "Point", "coordinates": [-121.0441681222, 37.622893638]}, "type": "Feature", "properties": {"collection_times": [{"days": "Mon-Fri", "time": "5:00pm"}, {"days": "Sat", "time": "4:30pm"}, {"days": "Sun", "time": "Closed"}], "id": "9535800002", "name": "USPS COLLECTION BOX - BLUE BOX", "address": {"city": "MODESTO", "state": "CA", "street": "1717 PARADISE RD", "postcode": "95358"}}},
{"geometry": {"type": "Point", "coordinates": [-121.0338538289, 37.615735752]}, "type": "Feature", "properties": {"collection_times": [{"days": "Mon-Fri", "time": "5:00pm"}, {"days": "Sat", "time": "4:30pm"}, {"days": "Sun", "time": "Closed"}], "id": "9535800007", "name": "USPS COLLECTION BOX - PO LOBBY", "address": {"city": "MODESTO", "state": "CA", "street": "1717 PARADISE RD", "postcode": "95358"}}},
{"geometry": {"type": "Point", "coordinates": [-121.0338538289, 37.615735752]}, "type": "Feature", "properties": {"collection_times": [{"days": "Mon-Fri", "time": "5:00pm"}, {"days": "Sat", "time": "4:30pm"}, {"days": "Sun", "time": "Closed"}], "id": "9535800008", "name": "USPS COLLECTION BOX - PO LOBBY", "address": {"city": "MODESTO", "state": "CA", "street": "1717 PARADISE RD", "postcode": "95358"}}},
{"geometry": {"type": "Point", "coordinates": [-121.0441681222, 37.622893638]}, "type": "Feature", "properties": {"collection_times": [{"days": "Mon-Fri", "time": "3:00pm"}, {"days": "Sat-Sun", "time": "Closed"}], "id": "9535800020", "name": "USPS COLLECTION BOX - BLUE BOX", "address": {"city": "MODESTO", "state": "CA", "street": "1620 CROWS LANDING RD", "postcode": "95358"}}},
{"geometry": {"type": "Point", "coordinates": [-121.0228684897, 37.3156955484]}, "type": "Feature", "properties": {"collection_times": [{"days": "Mon-Fri", "time": "5:00pm"}, {"days": "Sat", "time": "2:45pm"}, {"days": "Sun", "time": "Closed"}], "id": "9536000004", "name": "USPS COLLECTION BOX - BLUE BOX", "address": {"city": "NEWMAN", "state": "CA", "street": "1313 MAIN ST", "postcode": "95360"}}},
{"geometry": {"type": "Point", "coordinates": [-121.0225716039, 37.3150922443]}, "type": "Feature", "properties": {"collection_times": [{"days": "Mon-Fri", "time": "4:00pm"}, {"days": "Sat", "time": "2:45pm"}, {"days": "Sun", "time": "Closed"}], "id": "9536000005", "name": "USPS COLLECTION BOX - BLUE BOX", "address": {"city": "NEWMAN", "state": "CA", "street": "1342 MAIN ST", "postcode": "95360"}}},
{"geometry": {"type": "Point", "coordinates": [-121.0228684897, 37.3156955484]}, "type": "Feature", "properties": {"collection_times": [{"days": "Mon-Fri", "time": "4:45pm"}, {"days": "Sat", "time": "3:45pm"}, {"days": "Sun", "time": "Closed"}], "id": "9536000007", "name": "USPS COLLECTION BOX - PO LOBBY", "address": {"city": "NEWMAN", "state": "CA", "street": "1313 MAIN ST", "postcode": "95360"}}},
{"geometry": {"type": "Point", "coordinates": [-120.852941184, 37.7651913524]}, "type": "Feature", "properties": {"collection_times": [{"days": "Mon-Fri", "time": "5:00pm"}, {"days": "Sat", "time": "3:20pm"}, {"days": "Sun", "time": "Closed"}], "id": "9536100019", "name": "USPS COLLECTION BOX - BLUE BOX", "address": {"city": "OAKDALE", "state": "CA", "street": "170 CALIFORNIA AVE", "postcode": "95361"}}},
{"geometry": {"type": "Point", "coordinates": [-120.852941184, 37.7651913524]}, "type": "Feature", "properties": {"collection_times": [{"days": "Mon-Fri", "time": "5:00pm"}, {"days": "Sat", "time": "3:20pm"}, {"days": "Sun", "time": "Closed"}], "id": "9536100020", "name": "USPS COLLECTION BOX - BLUE BOX", "address": {"city": "OAKDALE", "state": "CA", "street": "170 CALIFORNIA AVE", "postcode": "95361"}}},
{"geometry": {"type": "Point", "coordinates": [-120.852941184, 37.7651913524]}, "type": "Feature", "properties": {"collection_times": [{"days": "Mon-Fri", "time": "5:00pm"}, {"days": "Sat", "time": "3:20pm"}, {"days": "Sun", "time": "Closed"}], "id": "9536100022", "name": "USPS COLLECTION BOX - PO LOBBY", "address": {"city": "OAKDALE", "state": "CA", "street": "170 CALIFORNIA AVE", "postcode": "95361"}}},
{"geometry": {"type": "Point", "coordinates": [-120.852941184, 37.7651913524]}, "type": "Feature", "properties": {"collection_times": [{"days": "Mon-Fri", "time": "5:00pm"}, {"days": "Sat", "time": "3:20pm"}, {"days": "Sun", "time": "Closed"}], "id": "9536100023", "name": "USPS COLLECTION BOX - PO LOBBY", "address": {"city": "OAKDALE", "state": "CA", "street": "170 CALIFORNIA AVE", "postcode": "95361"}}},
{"geometry": {"type": "Point", "coordinates": [-121.1318959396, 37.4720235806]}, "type": "Feature", "properties": {"collection_times": [{"days": "Mon-Fri", "time": "5:00pm"}, {"days": "Sat", "time": "3:30pm"}, {"days": "Sun", "time": "Closed"}], "id": "9536300002", "name": "USPS COLLECTION BOX - BLUE BOX", "address": {"city": "PATTERSON", "state": "CA", "street": "50 N SALADO AVE", "postcode": "95363"}}},
{"geometry": {"type": "Point", "coordinates": [-121.1318959396, 37.4720235806]}, "type": "Feature", "properties": {"collection_times": [{"days": "Mon-Fri", "time": "5:00pm"}, {"days": "Sat", "time": "3:30pm"}, {"days": "Sun", "time": "Closed"}], "id": "9536300008", "name": "USPS COLLECTION BOX - PO LOBBY", "address": {"city": "PATTERSON", "state": "CA", "street": "50 N SALADO AVE", "postcode": "95363"}}},
{"geometry": {"type": "Point", "coordinates": [-121.1318959396, 37.4720235806]}, "type": "Feature", "properties": {"collection_times": [{"days": "Mon-Fri", "time": "5:00pm"}, {"days": "Sat", "time": "3:30pm"}, {"days": "Sun", "time": "Closed"}], "id": "9536300009", "name": "USPS COLLECTION BOX - PO LOBBY", "address": {"city": "PATTERSON", "state": "CA", "street": "50 N SALADO AVE", "postcode": "95363"}}},
{"geometry": {"type": "Point", "coordinates": [-121.1318959396, 37.4720235806]}, "type": "Feature", "properties": {"collection_times": [{"days": "Mon-Fri", "time": "5:00pm"}, {"days": "Sat", "time": "3:30pm"}, {"days": "Sun", "time": "Closed"}], "id": "9536300010", "name": "USPS COLLECTION BOX - PO LOBBY", "address": {"city": "PATTERSON", "state": "CA", "street": "50 N SALADO AVE", "postcode": "95363"}}},
{"geometry": {"type": "Point", "coordinates": [-121.177677736, 37.560913672]}, "type": "Feature", "properties": {"collection_times": [{"days": "Mon-Sat", "time": "11:15am"}, {"days": "Sun", "time": "Closed"}], "id": "9536300011", "name": "USPS COLLECTION BOX - BLUE BOX", "address": {"city": "PATTERSON", "state": "CA", "street": "10143 GRAYSON RD", "postcode": "95363"}}},
{"geometry": {"type": "Point", "coordinates": [-121.2674128339, 37.4024253744]}, "type": "Feature", "properties": {"collection_times": [{"days": "Mon-Sat", "time": "12:00pm"}, {"days": "Sun", "time": "Closed"}], "id": "9536300012", "name": "USPS COLLECTION BOX - BLUE BOX", "address": {"city": "PATTERSON", "state": "CA", "street": "9501 MORTON DAVIS DR", "postcode": "95363"}}},
{"geometry": {"type": "Point", "coordinates": [-119.7846474625, 38.3521612339]}, "type": "Feature", "properties": {"collection_times": [{"days": "Mon-Fri", "time": "12:00pm"}, {"days": "Sat", "time": "10:00am"}, {"days": "Sun", "time": "Closed"}], "id": "9536400000", "name": "USPS COLLECTION BOX - PO LOBBY", "address": {"city": "PINECREST", "state": "CA", "street": "411 PINECREST LAKE RD", "postcode": "95364"}}},
{"geometry": {"type": "Point", "coordinates": [-120.3207122538, 37.2904770443]}, "type": "Feature", "properties": {"collection_times": [{"days": "Mon-Fri", "time": "4:30pm"}, {"days": "Sat", "time": "10:00am"}, {"days": "Sun", "time": "Closed"}], "id": "9536500000", "name": "USPS COLLECTION BOX - BLUE BOX", "address": {"city": "PLANADA", "state": "CA", "street": "9249 E BROADWAY ST", "postcode": "95365"}}},
{"geometry": {"type": "Point", "coordinates": [-120.3207122538, 37.2904770443]}, "type": "Feature", "properties": {"collection_times": [{"days": "Mon-Fri", "time": "4:45pm"}, {"days": "Sat", "time": "9:30am"}, {"days": "Sun", "time": "Closed"}], "id": "9536500001", "name": "USPS COLLECTION BOX - PO LOBBY", "address": {"city": "PLANADA", "state": "CA", "street": "9249 E BROADWAY ST", "postcode": "95365"}}},
{"geometry": {"type": "Point", "coordinates": [-120.3207122538, 37.2904770443]}, "type": "Feature", "properties": {"collection_times": [{"days": "Mon-Fri", "time": "4:45pm"}, {"days": "Sat", "time": "9:30am"}, {"days": "Sun", "time": "Closed"}], "id": "9536500002", "name": "USPS COLLECTION BOX - PO LOBBY", "address": {"city": "PLANADA", "state": "CA", "street": "9249 E BROADWAY ST", "postcode": "95365"}}},
{"geometry": {"type": "Point", "coordinates": [-121.1375800574, 37.7394965174]}, "type": "Feature", "properties": {"collection_times": [{"days": "Mon-Fri", "time": "4:45pm"}, {"days": "Sat", "time": "3:15pm"}, {"days": "Sun", "time": "Closed"}], "id": "9536600012", "name": "USPS COLLECTION BOX - BLUE BOX", "address": {"city": "RIPON", "state": "CA", "street": "1275 W MAIN ST", "postcode": "95366"}}},
{"geometry": {"type": "Point", "coordinates": [-121.1375800574, 37.7394965174]}, "type": "Feature", "properties": {"collection_times": [{"days": "Mon-Fri", "time": "4:45pm"}, {"days": "Sat", "time": "3:15pm"}, {"days": "Sun", "time": "Closed"}], "id": "9536600014", "name": "USPS COLLECTION BOX - BLUE BOX", "address": {"city": "RIPON", "state": "CA", "street": "1275 W MAIN ST", "postcode": "95366"}}},
{"geometry": {"type": "Point", "coordinates": [-121.1426573173, 37.7559550255]}, "type": "Feature", "properties": {"collection_times": [{"days": "Mon-Sat", "time": "10:00am"}, {"days": "Sun", "time": "Closed"}], "id": "9536600016", "name": "USPS COLLECTION BOX - BLUE BOX", "address": {"city": "RIPON", "state": "CA", "street": "1501 N JACK TONE RD", "postcode": "95366"}}},
{"geometry": {"type": "Point", "coordinates": [-121.1375800574, 37.7394965174]}, "type": "Feature", "properties": {"collection_times": [{"days": "Mon-Fri", "time": "4:30pm"}, {"days": "Sat", "time": "3:15pm"}, {"days": "Sun", "time": "Closed"}], "id": "9536600017", "name": "USPS COLLECTION BOX - PO LOBBY", "address": {"city": "RIPON", "state": "CA", "street": "1275 W MAIN ST", "postcode": "95366"}}},
{"geometry": {"type": "Point", "coordinates": [-121.1375800574, 37.7394965174]}, "type": "Feature", "properties": {"collection_times": [{"days": "Mon-Fri", "time": "4:30pm"}, {"days": "Sat", "time": "3:15pm"}, {"days": "Sun", "time": "Closed"}], "id": "9536600018", "name": "USPS COLLECTION BOX - PO LOBBY", "address": {"city": "RIPON", "state": "CA", "street": "1275 W MAIN ST", "postcode": "95366"}}},
{"geometry": {"type": "Point", "coordinates": [-120.935783823, 37.7343516743]}, "type": "Feature", "properties": {"collection_times": [{"days": "Mon-Fri", "time": "5:00pm"}, {"days": "Sat", "time": "3:00pm"}, {"days": "Sun", "time": "Closed"}], "id": "9536700001", "name": "USPS COLLECTION BOX - BLUE BOX", "address": {"city": "RIVERBANK", "state": "CA", "street": "6501 3RD ST", "postcode": "95367"}}},
{"geometry": {"type": "Point", "coordinates": [-120.9357803196, 37.7340989273]}, "type": "Feature", "properties": {"collection_times": [{"days": "Mon-Fri", "time": "5:00pm"}, {"days": "Sat", "time": "3:00pm"}, {"days": "Sun", "time": "Closed"}], "id": "9536700008", "name": "USPS COLLECTION BOX - PO LOBBY", "address": {"city": "RIVERBANK", "state": "CA", "street": "6501 3RD ST", "postcode": "95367"}}},
{"geometry": {"type": "Point", "coordinates": [-120.9357803196, 37.7340989273]}, "type": "Feature", "properties": {"collection_times": [{"days": "Mon-Fri", "time": "5:00pm"}, {"days": "Sat", "time": "3:00pm"}, {"days": "Sun", "time": "Closed"}], "id": "9536700009", "name": "USPS COLLECTION BOX - PO LOBBY", "address": {"city": "RIVERBANK", "state": "CA", "street": "6501 3RD ST", "postcode": "95367"}}},
{"geometry": {"type": "Point", "coordinates": [-121.083656056, 37.7069817073]}, "type": "Feature", "properties": {"collection_times": [{"days": "Mon-Fri", "time": "4:30pm"}, {"days": "Sat", "time": "11:00am"}, {"days": "Sun", "time": "Closed"}], "id": "9536800001", "name": "USPS COLLECTION BOX - BLUE BOX", "address": {"city": "SALIDA", "state": "CA", "street": "4536 BROADWAY", "postcode": "95368"}}},
{"geometry": {"type": "Point", "coordinates": [-121.083656056, 37.7069817073]}, "type": "Feature", "properties": {"collection_times": [{"days": "Mon-Fri", "time": "4:30pm"}, {"days": "Sat", "time": "11:00am"}, {"days": "Sun", "time": "Closed"}], "id": "9536800002", "name": "USPS COLLECTION BOX - PO LOBBY", "address": {"city": "SALIDA", "state": "CA", "street": "4536 BROADWAY", "postcode": "95368"}}},
{"geometry": {"type": "Point", "coordinates": [-120.4369083968, 37.5187482308]}, "type": "Feature", "properties": {"collection_times": [{"days": "Mon-Fri", "time": "1:45pm"}, {"days": "Sat", "time": "9:30am"}, {"days": "Sun", "time": "Closed"}], "id": "9536900000", "name": "USPS COLLECTION BOX - BLUE BOX", "address": {"city": "SNELLING", "state": "CA", "street": "15906 LEWIS ST", "postcode": "95369"}}},
{"geometry": {"type": "Point", "coordinates": [-120.4369083968, 37.5187482308]}, "type": "Feature", "properties": {"collection_times": [{"days": "Mon-Fri", "time": "1:45pm"}, {"days": "Sat", "time": "9:30am"}, {"days": "Sun", "time": "Closed"}], "id": "9536900001", "name": "USPS COLLECTION BOX - PO LOBBY", "address": {"city": "SNELLING", "state": "CA", "street": "15906 LEWIS ST", "postcode": "95369"}}},
{"geometry": {"type": "Point", "coordinates": [-120.447868258, 37.5306708961]}, "type": "Feature", "properties": {"collection_times": [{"days": "Mon-Fri", "time": "1:00pm"}, {"days": "Sat", "time": "10:00am"}, {"days": "Sun", "time": "Closed"}], "id": "9536900002", "name": "USPS COLLECTION BOX - BLUE BOX", "address": {"city": "SNELLING", "state": "CA", "street": "15875 STATE HIGHWAY 59", "postcode": "95369"}}},
{"geometry": {"type": "Point", "coordinates": [-120.3683010899, 37.9875830106]}, "type": "Feature", "properties": {"collection_times": [{"days": "Mon-Fri", "time": "3:15pm"}, {"days": "Sat", "time": "2:30pm"}, {"days": "Sun", "time": "Closed"}], "id": "9537000000", "name": "USPS COLLECTION BOX - BLUE BOX", "address": {"city": "SONORA", "state": "CA", "street": "940 SYLVA LN", "postcode": "95370"}}},
{"geometry": {"type": "Point", "coordinates": [-120.3437029205, 37.976227399]}, "type": "Feature", "properties": {"collection_times": [{"days": "Mon-Fri", "time": "3:15pm"}, {"days": "Sat", "time": "2:30pm"}, {"days": "Sun", "time": "Closed"}], "id": "9537000002", "name": "USPS COLLECTION BOX - BLUE BOX", "address": {"city": "SONORA", "state": "CA", "street": "13777 MONO WAY", "postcode": "95370"}}},
{"geometry": {"type": "Point", "coordinates": [-120.368728999, 37.9750747771]}, "type": "Feature", "properties": {"collection_times": [{"days": "Mon-Fri", "time": "3:15pm"}, {"days": "Sat", "time": "2:30pm"}, {"days": "Sun", "time": "Closed"}], "id": "9537000004", "name": "USPS COLLECTION BOX - BLUE BOX", "address": {"city": "SONORA", "state": "CA", "street": "1045 MONO WAY", "postcode": "95370"}}},
{"geometry": {"type": "Point", "coordinates": [-120.3842012238, 37.9854931422]}, "type": "Feature", "properties": {"collection_times": [{"days": "Mon-Fri", "time": "3:15pm"}, {"days": "Sat", "time": "2:30pm"}, {"days": "Sun", "time": "Closed"}], "id": "9537000009", "name": "USPS COLLECTION BOX - BLUE BOX", "address": {"city": "SONORA", "state": "CA", "street": "41 YANEY AVE", "postcode": "95370"}}},
{"geometry": {"type": "Point", "coordinates": [-120.3793330386, 37.9743828203]}, "type": "Feature", "properties": {"collection_times": [{"days": "Mon-Fri", "time": "5:00pm"}, {"days": "Sat", "time": "4:00pm"}, {"days": "Sun", "time": "Closed"}], "id": "9537000011", "name": "USPS COLLECTION BOX - BLUE BOX", "address": {"city": "SONORA", "state": "CA", "street": "781 S WASHINGTON ST", "postcode": "95370"}}},
{"geometry": {"type": "Point", "coordinates": [-120.3816799658, 37.9836257582]}, "type": "Feature", "properties": {"collection_times": [{"days": "Mon-Fri", "time": "5:00pm"}, {"days": "Sat", "time": "2:30pm"}, {"days": "Sun", "time": "Closed"}], "id": "9537000013", "name": "USPS COLLECTION BOX - BLUE BOX", "address": {"city": "SONORA", "state": "CA", "street": "83 S STEWART ST", "postcode": "95370"}}},
{"geometry": {"type": "Point", "coordinates": [-120.3793330386, 37.9743828203]}, "type": "Feature", "properties": {"collection_times": [{"days": "Mon-Fri", "time": "5:00pm"}, {"days": "Sat", "time": "4:00pm"}, {"days": "Sun", "time": "Closed"}], "id": "9537000016", "name": "USPS COLLECTION BOX - PO LOBBY", "address": {"city": "SONORA", "state": "CA", "street": "781 S WASHINGTON ST", "postcode": "95370"}}},
{"geometry": {"type": "Point", "coordinates": [-120.3793330386, 37.9743828203]}, "type": "Feature", "properties": {"collection_times": [{"days": "Mon-Fri", "time": "5:00pm"}, {"days": "Sat", "time": "4:00pm"}, {"days": "Sun", "time": "Closed"}], "id": "9537000017", "name": "USPS COLLECTION BOX - PO LOBBY", "address": {"city": "SONORA", "state": "CA", "street": "781 S WASHINGTON ST", "postcode": "95370"}}},
{"geometry": {"type": "Point", "coordinates": [-120.3793330386, 37.9743828203]}, "type": "Feature", "properties": {"collection_times": [{"days": "Mon-Fri", "time": "5:00pm"}, {"days": "Sat", "time": "4:00pm"}, {"days": "Sun", "time": "Closed"}], "id": "9537000018", "name": "USPS COLLECTION BOX - PO LOBBY", "address": {"city": "SONORA", "state": "CA", "street": "781 S WASHINGTON ST", "postcode": "95370"}}},
{"geometry": {"type": "Point", "coordinates": [-120.3793330386, 37.9743828203]}, "type": "Feature", "properties": {"collection_times": [{"days": "Mon-Fri", "time": "5:00pm"}, {"days": "Sat", "time": "4:00pm"}, {"days": "Sun", "time": "Closed"}], "id": "9537000019", "name": "USPS COLLECTION BOX - PO LOBBY", "address": {"city": "SONORA", "state": "CA", "street": "781 S WASHINGTON ST", "postcode": "95370"}}},
{"geometry": {"type": "Point", "coordinates": [-120.321121375, 37.9769650258]}, "type": "Feature", "properties": {"collection_times": [{"days": "Mon-Fri", "time": "5:00pm"}, {"days": "Sat", "time": "2:30pm"}, {"days": "Sun", "time": "Closed"}], "id": "9537000021", "name": "USPS COLLECTION BOX - BLUE BOX", "address": {"city": "SONORA", "state": "CA", "street": "14665 MONO WAY", "postcode": "95370"}}},
{"geometry": {"type": "Point", "coordinates": [-120.2620883862, 37.9952875538]}, "type": "Feature", "properties": {"collection_times": [{"days": "Mon-Fri", "time": "3:30pm"}, {"days": "Sat", "time": "10:00am"}, {"days": "Sun", "time": "Closed"}], "id": "9537200000", "name": "USPS COLLECTION BOX - BLUE BOX", "address": {"city": "SOULSBYVILLE", "state": "CA", "street": "20489 WILLOW SPRINGS DR", "postcode": "95372"}}},
{"geometry": {"type": "Point", "coordinates": [-120.2620883862, 37.9952875538]}, "type": "Feature", "properties": {"collection_times": [{"days": "Mon-Fri", "time": "3:45pm"}, {"days": "Sat", "time": "10:00am"}, {"days": "Sun", "time": "Closed"}], "id": "9537200001", "name": "USPS COLLECTION BOX - PO LOBBY", "address": {"city": "SOULSBYVILLE", "state": "CA", "street": "20489 WILLOW SPRINGS DR", "postcode": "95372"}}},
{"geometry": {"type": "Point", "coordinates": [-120.8525074806, 37.3276415679]}, "type": "Feature", "properties": {"collection_times": [{"days": "Mon-Fri", "time": "4:30pm"}, {"days": "Sat", "time": "10:00am"}, {"days": "Sun", "time": "Closed"}], "id": "9537400000", "name": "USPS COLLECTION BOX - BLUE BOX", "address": {"city": "STEVINSON", "state": "CA", "street": "20085 3RD AVE", "postcode": "95374"}}},
{"geometry": {"type": "Point", "coordinates": [-120.8525074806, 37.3276415679]}, "type": "Feature", "properties": {"collection_times": [{"days": "Mon-Fri", "time": "3:00pm"}, {"days": "Sat", "time": "10:00am"}, {"days": "Sun", "time": "Closed"}], "id": "9537400001", "name": "USPS COLLECTION BOX - PO LOBBY", "address": {"city": "STEVINSON", "state": "CA", "street": "20085 3RD AVE", "postcode": "95374"}}},
{"geometry": {"type": "Point", "coordinates": [-121.4285938776, 37.7373352514]}, "type": "Feature", "properties": {"collection_times": [{"days": "Mon-Fri", "time": "5:00pm"}, {"days": "Sat", "time": "4:00pm"}, {"days": "Sun", "time": "Closed"}], "id": "9537600000", "name": "USPS COLLECTION BOX - BLUE BOX", "address": {"city": "TRACY", "state": "CA", "street": "125 W 9TH ST", "postcode": "95376"}}},
{"geometry": {"type": "Point", "coordinates": [-121.4285938776, 37.7373352514]}, "type": "Feature", "properties": {"collection_times": [{"days": "Mon-Fri", "time": "5:00pm"}, {"days": "Sat", "time": "4:00pm"}, {"days": "Sun", "time": "Closed"}], "id": "9537600003", "name": "USPS COLLECTION BOX - BLUE BOX", "address": {"city": "TRACY", "state": "CA", "street": "125 W 9TH ST", "postcode": "95376"}}},
{"geometry": {"type": "Point", "coordinates": [-121.4212145796, 37.7534992027]}, "type": "Feature", "properties": {"collection_times": [{"days": "Mon-Sat", "time": "2:30pm"}, {"days": "Sun", "time": "Closed"}], "id": "9537600007", "name": "USPS COLLECTION BOX - BLUE BOX", "address": {"city": "TRACY", "state": "CA", "street": "2300 EAST ST", "postcode": "95376"}}},
{"geometry": {"type": "Point", "coordinates": [-121.4432755813, 37.7529361142]}, "type": "Feature", "properties": {"collection_times": [{"days": "Mon-Sat", "time": "2:30pm"}, {"days": "Sun", "time": "Closed"}], "id": "9537600010", "name": "USPS COLLECTION BOX - BLUE BOX", "address": {"city": "TRACY", "state": "CA", "street": "1443 DUNCAN DR", "postcode": "95376"}}},
{"geometry": {"type": "Point", "coordinates": [-121.4257819842, 37.748530775]}, "type": "Feature", "properties": {"collection_times": [{"days": "Mon-Sat", "time": "2:30pm"}, {"days": "Sun", "time": "Closed"}], "id": "9537600014", "name": "USPS COLLECTION BOX - BLUE BOX", "address": {"city": "TRACY", "state": "CA", "street": "1741 HOLLY DR", "postcode": "95376"}}},
{"geometry": {"type": "Point", "coordinates": [-121.4335434213, 37.7433734994]}, "type": "Feature", "properties": {"collection_times": [{"days": "Mon-Sat", "time": "2:30pm"}, {"days": "Sun", "time": "Closed"}], "id": "9537600019", "name": "USPS COLLECTION BOX - BLUE BOX", "address": {"city": "TRACY", "state": "CA", "street": "525 W EATON AVE", "postcode": "95376"}}},
{"geometry": {"type": "Point", "coordinates": [-121.4350445529, 37.7609814181]}, "type": "Feature", "properties": {"collection_times": [{"days": "Mon-Sat", "time": "2:30pm"}, {"days": "Sun", "time": "Closed"}], "id": "9537600020", "name": "USPS COLLECTION BOX - BLUE BOX", "address": {"city": "TRACY", "state": "CA", "street": "3320 N TRACY BLVD", "postcode": "95376"}}},
{"geometry": {"type": "Point", "coordinates": [-121.4348732086, 37.7238168635]}, "type": "Feature", "properties": {"collection_times": [{"days": "Mon-Sat", "time": "2:30pm"}, {"days": "Sun", "time": "Closed"}], "id": "9537600042", "name": "USPS COLLECTION BOX - BLUE BOX", "address": {"city": "TRACY", "state": "CA", "street": "875 S TRACY BLVD", "postcode": "95376"}}},
{"geometry": {"type": "Point", "coordinates": [-121.4285938776, 37.7373352514]}, "type": "Feature", "properties": {"collection_times": [{"days": "Mon-Fri", "time": "5:00pm"}, {"days": "Sat", "time": "4:00pm"}, {"days": "Sun", "time": "Closed"}], "id": "9537600046", "name": "USPS COLLECTION BOX - BLUE BOX", "address": {"city": "TRACY", "state": "CA", "street": "125 W 9TH ST", "postcode": "95376"}}},
{"geometry": {"type": "Point", "coordinates": [-121.4285938776, 37.7373352514]}, "type": "Feature", "properties": {"collection_times": [{"days": "Mon-Fri", "time": "5:00pm"}, {"days": "Sat", "time": "4:00pm"}, {"days": "Sun", "time": "Closed"}], "id": "9537600047", "name": "USPS COLLECTION BOX - BLUE BOX", "address": {"city": "TRACY", "state": "CA", "street": "125 W 9TH ST", "postcode": "95376"}}},
{"geometry": {"type": "Point", "coordinates": [-121.4285938776, 37.7373352514]}, "type": "Feature", "properties": {"collection_times": [{"days": "Mon-Fri", "time": "5:00pm"}, {"days": "Sat", "time": "4:00pm"}, {"days": "Sun", "time": "Closed"}], "id": "9537600048", "name": "USPS COLLECTION BOX - PO LOBBY", "address": {"city": "TRACY", "state": "CA", "street": "125 W 9TH ST", "postcode": "95376"}}},
{"geometry": {"type": "Point", "coordinates": [-121.4285938776, 37.7373352514]}, "type": "Feature", "properties": {"collection_times": [{"days": "Mon-Fri", "time": "5:00pm"}, {"days": "Sat", "time": "4:00pm"}, {"days": "Sun", "time": "Closed"}], "id": "9537600052", "name": "USPS COLLECTION BOX - APC", "address": {"city": "TRACY", "state": "CA", "street": "125 W 9TH ST", "postcode": "95376"}}},
{"geometry": {"type": "Point", "coordinates": [-121.4350940357, 37.7601800713]}, "type": "Feature", "properties": {"collection_times": [{"days": "Mon-Fri", "time": "5:00pm"}, {"days": "Sat", "time": "4:00pm"}, {"days": "Sun", "time": "Closed"}], "id": "9537600055", "name": "USPS COLLECTION BOX - BLUE BOX", "address": {"city": "TRACY", "state": "CA", "street": "3225 N TRACY BLVD", "postcode": "95376"}}},
{"geometry": {"type": "Point", "coordinates": [-121.4345610633, 37.6978734805]}, "type": "Feature", "properties": {"collection_times": [{"days": "Mon-Sat", "time": "12:15pm"}, {"days": "Sun", "time": "Closed"}], "id": "9537700000", "name": "USPS COLLECTION BOX - BLUE BOX", "address": {"city": "TRACY", "state": "CA", "street": "4600 S TRACY BLVD", "postcode": "95377"}}},
{"geometry": {"type": "Point", "coordinates": [-121.4707357196, 37.7207811963]}, "type": "Feature", "properties": {"collection_times": [{"days": "Mon-Sat", "time": "2:30pm"}, {"days": "Sun", "time": "Closed"}], "id": "9537700001", "name": "USPS COLLECTION BOX - BLUE BOX", "address": {"city": "TRACY", "state": "CA", "street": "2995 REDBRIDGE RD", "postcode": "95377"}}},
{"geometry": {"type": "Point", "coordinates": [-120.2361763648, 37.9633205515]}, "type": "Feature", "properties": {"collection_times": [{"days": "Mon-Fri", "time": "4:00pm"}, {"days": "Sat", "time": "11:00am"}, {"days": "Sun", "time": "Closed"}], "id": "9537900000", "name": "USPS COLLECTION BOX - BLUE BOX", "address": {"city": "TUOLUMNE", "state": "CA", "street": "18758 CARTER ST", "postcode": "95379"}}},
{"geometry": {"type": "Point", "coordinates": [-120.2361763648, 37.9633205515]}, "type": "Feature", "properties": {"collection_times": [{"days": "Mon-Fri", "time": "4:00pm"}, {"days": "Sat", "time": "11:00am"}, {"days": "Sun", "time": "Closed"}], "id": "9537900001", "name": "USPS COLLECTION BOX - PO LOBBY", "address": {"city": "TUOLUMNE", "state": "CA", "street": "18758 CARTER ST", "postcode": "95379"}}},
{"geometry": {"type": "Point", "coordinates": [-120.2361763648, 37.9633205515]}, "type": "Feature", "properties": {"collection_times": [{"days": "Mon-Fri", "time": "4:00pm"}, {"days": "Sat", "time": "11:00am"}, {"days": "Sun", "time": "Closed"}], "id": "9537900002", "name": "USPS COLLECTION BOX - PO LOBBY", "address": {"city": "TUOLUMNE", "state": "CA", "street": "18758 CARTER ST", "postcode": "95379"}}},
{"geometry": {"type": "Point", "coordinates": [-120.8541809441, 37.493747439]}, "type": "Feature", "properties": {"collection_times": [{"days": "Mon-Fri", "time": "5:30pm"}, {"days": "Sat", "time": "4:15pm"}, {"days": "Sun", "time": "Closed"}], "id": "9538000000", "name": "USPS COLLECTION BOX - BLUE BOX", "address": {"city": "TURLOCK", "state": "CA", "street": "500 E OLIVE AVE", "postcode": "95380"}}},
{"geometry": {"type": "Point", "coordinates": [-120.8541809441, 37.493747439]}, "type": "Feature", "properties": {"collection_times": [{"days": "Mon-Fri", "time": "5:30pm"}, {"days": "Sat", "time": "4:15pm"}, {"days": "Sun", "time": "Closed"}], "id": "9538000001", "name": "USPS COLLECTION BOX - BLUE BOX", "address": {"city": "TURLOCK", "state": "CA", "street": "500 E OLIVE AVE", "postcode": "95380"}}},
{"geometry": {"type": "Point", "coordinates": [-120.8423288782, 37.4972726568]}, "type": "Feature", "properties": {"collection_times": [{"days": "Mon-Fri", "time": "5:30pm"}, {"days": "Sat", "time": "4:15pm"}, {"days": "Sun", "time": "Closed"}], "id": "9538000002", "name": "USPS COLLECTION BOX - BLUE BOX", "address": {"city": "TURLOCK", "state": "CA", "street": "555 E MAIN ST", "postcode": "95380"}}},
{"geometry": {"type": "Point", "coordinates": [-120.8423288782, 37.4972726568]}, "type": "Feature", "properties": {"collection_times": [{"days": "Mon-Fri", "time": "5:30pm"}, {"days": "Sat", "time": "4:15pm"}, {"days": "Sun", "time": "Closed"}], "id": "9538000004", "name": "USPS COLLECTION BOX - BLUE BOX", "address": {"city": "TURLOCK", "state": "CA", "street": "555 E MAIN ST", "postcode": "95380"}}},
{"geometry": {"type": "Point", "coordinates": [-120.8519798393, 37.4918134662]}, "type": "Feature", "properties": {"collection_times": [{"days": "Mon-Fri", "time": "5:30pm"}, {"days": "Sat", "time": "4:15pm"}, {"days": "Sun", "time": "Closed"}], "id": "9538000005", "name": "USPS COLLECTION BOX - BLUE BOX", "address": {"city": "TURLOCK", "state": "CA", "street": "555 E MAIN ST", "postcode": "95380"}}},
{"geometry": {"type": "Point", "coordinates": [-120.8423288782, 37.4972726568]}, "type": "Feature", "properties": {"collection_times": [{"days": "Mon-Fri", "time": "5:30pm"}, {"days": "Sat", "time": "4:15pm"}, {"days": "Sun", "time": "Closed"}], "id": "9538000037", "name": "USPS COLLECTION BOX - PO LOBBY", "address": {"city": "TURLOCK", "state": "CA", "street": "555 E MAIN ST", "postcode": "95380"}}},
{"geometry": {"type": "Point", "coordinates": [-120.8423288782, 37.4972726568]}, "type": "Feature", "properties": {"collection_times": [{"days": "Mon-Fri", "time": "5:30pm"}, {"days": "Sat", "time": "4:15pm"}, {"days": "Sun", "time": "Closed"}], "id": "9538000038", "name": "USPS COLLECTION BOX - PO LOBBY", "address": {"city": "TURLOCK", "state": "CA", "street": "555 E MAIN ST", "postcode": "95380"}}},
{"geometry": {"type": "Point", "coordinates": [-120.8423288782, 37.4972726568]}, "type": "Feature", "properties": {"collection_times": [{"days": "Mon-Fri", "time": "5:30pm"}, {"days": "Sat", "time": "4:15pm"}, {"days": "Sun", "time": "Closed"}], "id": "9538000042", "name": "USPS COLLECTION BOX - PO LOBBY", "address": {"city": "TURLOCK", "state": "CA", "street": "555 E MAIN ST", "postcode": "95380"}}},
{"geometry": {"type": "Point", "coordinates": [-120.840578843, 37.504217951]}, "type": "Feature", "properties": {"collection_times": [{"days": "Mon-Sat", "time": "2:00pm"}, {"days": "Sun", "time": "Closed"}], "id": "9538000044", "name": "USPS COLLECTION BOX - BLUE BOX", "address": {"city": "TURLOCK", "state": "CA", "street": "735 WAYSIDE DR", "postcode": "95380"}}},
{"geometry": {"type": "Point", "coordinates": [-120.8490058519, 37.4829222114]}, "type": "Feature", "properties": {"collection_times": [{"days": "Mon-Sat", "time": "2:00pm"}, {"days": "Sun", "time": "Closed"}], "id": "9538000045", "name": "USPS COLLECTION BOX - BLUE BOX", "address": {"city": "TURLOCK", "state": "CA", "street": "1081 LANDER AVE", "postcode": "95380"}}},
{"geometry": {"type": "Point", "coordinates": [-120.8374858442, 37.5104874913]}, "type": "Feature", "properties": {"collection_times": [{"days": "Mon-Sat", "time": "2:00pm"}, {"days": "Sun", "time": "Closed"}], "id": "9538200001", "name": "USPS COLLECTION BOX - BLUE BOX", "address": {"city": "TURLOCK", "state": "CA", "street": "825 DELBON AVE", "postcode": "95382"}}},
{"geometry": {"type": "Point", "coordinates": [-120.8374858442, 37.5104874913]}, "type": "Feature", "properties": {"collection_times": [{"days": "Mon-Sat", "time": "2:00pm"}, {"days": "Sun", "time": "Closed"}], "id": "9538200002", "name": "USPS COLLECTION BOX - BLUE BOX", "address": {"city": "TURLOCK", "state": "CA", "street": "825 DELBON AVE", "postcode": "95382"}}},
{"geometry": {"type": "Point", "coordinates": [-120.8374858442, 37.5104874913]}, "type": "Feature", "properties": {"collection_times": [{"days": "Mon-Sat", "time": "2:00pm"}, {"days": "Sun", "time": "Closed"}], "id": "9538200003", "name": "USPS COLLECTION BOX - BLUE BOX", "address": {"city": "TURLOCK", "state": "CA", "street": "825 DELBON AVE", "postcode": "95382"}}},
{"geometry": {"type": "Point", "coordinates": [-120.8488163383, 37.5192863644]}, "type": "Feature", "properties": {"collection_times": [{"days": "Mon-Sat", "time": "2:00pm"}, {"days": "Sun", "time": "Closed"}], "id": "9538200006", "name": "USPS COLLECTION BOX - BLUE BOX", "address": {"city": "TURLOCK", "state": "CA", "street": "2930 GEER RD", "postcode": "95382"}}},
{"geometry": {"type": "Point", "coordinates": [-120.8488163383, 37.5192863644]}, "type": "Feature", "properties": {"collection_times": [{"days": "Mon-Sat", "time": "2:00pm"}, {"days": "Sun", "time": "Closed"}], "id": "9538200007", "name": "USPS COLLECTION BOX - BLUE BOX", "address": {"city": "TURLOCK", "state": "CA", "street": "2930 GEER RD", "postcode": "95382"}}},
{"geometry": {"type": "Point", "coordinates": [-120.2319881236, 38.0397235329]}, "type": "Feature", "properties": {"collection_times": [{"days": "Mon-Fri", "time": "3:30pm"}, {"days": "Sat", "time": "10:00am"}, {"days": "Sun", "time": "Closed"}], "id": "9538300000", "name": "USPS COLLECTION BOX - BLUE BOX", "address": {"city": "TWAIN HARTE", "state": "CA", "street": "23051 FULLER RD", "postcode": "95383"}}},
{"geometry": {"type": "Point", "coordinates": [-120.2216545052, 38.0408239696]}, "type": "Feature", "properties": {"collection_times": [{"days": "Mon-Fri", "time": "11:15am"}, {"days": "Sat-Sun", "time": "Closed"}], "id": "9538300001", "name": "USPS COLLECTION BOX - BLUE BOX", "address": {"city": "TWAIN HARTE", "state": "CA", "street": "18711 TIFFENI DR", "postcode": "95383"}}},
{"geometry": {"type": "Point", "coordinates": [-120.2319881236, 38.0397235329]}, "type": "Feature", "properties": {"collection_times": [{"days": "Mon-Fri", "time": "3:30pm"}, {"days": "Sat", "time": "10:00am"}, {"days": "Sun", "time": "Closed"}], "id": "9538300002", "name": "USPS COLLECTION BOX - PO LOBBY", "address": {"city": "TWAIN HARTE", "state": "CA", "street": "23051 FULLER RD", "postcode": "95383"}}},
{"geometry": {"type": "Point", "coordinates": [-120.2319881236, 38.0397235329]}, "type": "Feature", "properties": {"collection_times": [{"days": "Mon-Fri", "time": "3:30pm"}, {"days": "Sat", "time": "10:00am"}, {"days": "Sun", "time": "Closed"}], "id": "9538300003", "name": "USPS COLLECTION BOX - PO LOBBY", "address": {"city": "TWAIN HARTE", "state": "CA", "street": "23051 FULLER RD", "postcode": "95383"}}},
{"geometry": {"type": "Point", "coordinates": [-120.7691464143, 37.6381442716]}, "type": "Feature", "properties": {"collection_times": [{"days": "Mon-Fri", "time": "10:30am"}, {"days": "Sat-Sun", "time": "Closed"}], "id": "9538600000", "name": "USPS COLLECTION BOX - BLUE BOX", "address": {"city": "WATERFORD", "state": "CA", "street": "12138 YOSEMITE BLVD", "postcode": "95386"}}},
{"geometry": {"type": "Point", "coordinates": [-120.7616037585, 37.640511243]}, "type": "Feature", "properties": {"collection_times": [{"days": "Mon-Fri", "time": "4:30pm"}, {"days": "Sat", "time": "9:00am"}, {"days": "Sun", "time": "Closed"}], "id": "9538600002", "name": "USPS COLLECTION BOX - PO LOBBY", "address": {"city": "WATERFORD", "state": "CA", "street": "12525 BENTLEY ST", "postcode": "95386"}}},
{"geometry": {"type": "Point", "coordinates": [-120.7616037585, 37.640511243]}, "type": "Feature", "properties": {"collection_times": [{"days": "Mon-Fri", "time": "4:30pm"}, {"days": "Sat", "time": "9:00am"}, {"days": "Sun", "time": "Closed"}], "id": "9538600003", "name": "USPS COLLECTION BOX - PO LOBBY", "address": {"city": "WATERFORD", "state": "CA", "street": "12525 BENTLEY ST", "postcode": "95386"}}},
{"geometry": {"type": "Point", "coordinates": [-120.7616037585, 37.640511243]}, "type": "Feature", "properties": {"collection_times": [{"days": "Mon-Fri", "time": "4:30pm"}, {"days": "Sat", "time": "9:00am"}, {"days": "Sun", "time": "Closed"}], "id": "9538600004", "name": "USPS COLLECTION BOX - PO LOBBY", "address": {"city": "WATERFORD", "state": "CA", "street": "12525 BENTLEY ST", "postcode": "95386"}}},
{"geometry": {"type": "Point", "coordinates": [-120.7616037585, 37.640511243]}, "type": "Feature", "properties": {"collection_times": [{"days": "Mon-Fri", "time": "4:30pm"}, {"days": "Sat", "time": "9:00am"}, {"days": "Sun", "time": "Closed"}], "id": "9538600005", "name": "USPS COLLECTION BOX - PO LOBBY", "address": {"city": "WATERFORD", "state": "CA", "street": "12525 BENTLEY ST", "postcode": "95386"}}},
{"geometry": {"type": "Point", "coordinates": [-120.7616037585, 37.640511243]}, "type": "Feature", "properties": {"collection_times": [{"days": "Mon-Fri", "time": "4:00pm"}, {"days": "Sat", "time": "9:00am"}, {"days": "Sun", "time": "Closed"}], "id": "9538600006", "name": "USPS COLLECTION BOX - BLUE BOX", "address": {"city": "WATERFORD", "state": "CA", "street": "12525 BENTLEY ST", "postcode": "95386"}}},
{"geometry": {"type": "Point", "coordinates": [-120.7616037585, 37.640511243]}, "type": "Feature", "properties": {"collection_times": [{"days": "Mon-Fri", "time": "4:00pm"}, {"days": "Sat", "time": "9:00am"}, {"days": "Sun", "time": "Closed"}], "id": "9538600007", "name": "USPS COLLECTION BOX - BLUE BOX", "address": {"city": "WATERFORD", "state": "CA", "street": "12525 BENTLEY ST", "postcode": "95386"}}},
{"geometry": {"type": "Point", "coordinates": [-120.761879146, 37.638277874]}, "type": "Feature", "properties": {"collection_times": [{"days": "Mon-Sat", "time": "12:00pm"}, {"days": "Sun", "time": "Closed"}], "id": "9538600008", "name": "USPS COLLECTION BOX - BLUE BOX", "address": {"city": "WATERFORD", "state": "CA", "street": "12505 YOSEMITE BLVD", "postcode": "95386"}}},
{"geometry": {"type": "Point", "coordinates": [-121.200234184, 37.5499133752]}, "type": "Feature", "properties": {"collection_times": [{"days": "Mon-Fri", "time": "4:00pm"}, {"days": "Sat", "time": "8:15am"}, {"days": "Sun", "time": "Closed"}], "id": "9538700001", "name": "USPS COLLECTION BOX - PO LOBBY", "address": {"city": "WESTLEY", "state": "CA", "street": "8627 STATE HIGHWAY 33", "postcode": "95387"}}},
{"geometry": {"type": "Point", "coordinates": [-120.6135197723, 37.3823789502]}, "type": "Feature", "properties": {"collection_times": [{"days": "Mon-Fri", "time": "5:00pm"}, {"days": "Sat", "time": "9:30am"}, {"days": "Sun", "time": "Closed"}], "id": "9538800001", "name": "USPS COLLECTION BOX - BLUE BOX", "address": {"city": "WINTON", "state": "CA", "street": "6514 N WINTON WAY", "postcode": "95388"}}},
{"geometry": {"type": "Point", "coordinates": [-120.6135197723, 37.3823789502]}, "type": "Feature", "properties": {"collection_times": [{"days": "Mon-Fri", "time": "5:00pm"}, {"days": "Sat", "time": "9:30am"}, {"days": "Sun", "time": "Closed"}], "id": "9538800002", "name": "USPS COLLECTION BOX - PO LOBBY", "address": {"city": "WINTON", "state": "CA", "street": "6514 N WINTON WAY", "postcode": "95388"}}},
{"geometry": {"type": "Point", "coordinates": [-119.5868869166, 37.7481118828]}, "type": "Feature", "properties": {"collection_times": [{"days": "Mon-Fri", "time": "2:20pm"}, {"days": "Sat", "time": "11:45am"}, {"days": "Sun", "time": "Closed"}], "id": "9538900000", "name": "USPS COLLECTION BOX - BLUE BOX", "address": {"city": "YOSEMITE NTPK", "state": "CA", "street": "9017 VILLAGE DR", "postcode": "95389"}}},
{"geometry": {"type": "Point", "coordinates": [-119.5868869166, 37.7481118828]}, "type": "Feature", "properties": {"collection_times": [{"days": "Mon-Fri", "time": "2:20pm"}, {"days": "Sat", "time": "12:00pm"}, {"days": "Sun", "time": "Closed"}], "id": "9538900001", "name": "USPS COLLECTION BOX - PO LOBBY", "address": {"city": "YOSEMITE NTPK", "state": "CA", "street": "9017 VILLAGE DR", "postcode": "95389"}}},
{"geometry": {"type": "Point", "coordinates": [-119.5868869166, 37.7481118828]}, "type": "Feature", "properties": {"collection_times": [{"days": "Mon-Fri", "time": "2:20pm"}, {"days": "Sat", "time": "12:00pm"}, {"days": "Sun", "time": "Closed"}], "id": "9538900002", "name": "USPS COLLECTION BOX - PO LOBBY", "address": {"city": "YOSEMITE NTPK", "state": "CA", "street": "9017 VILLAGE DR", "postcode": "95389"}}},
{"geometry": {"type": "Point", "coordinates": [-119.5868869166, 37.7481118828]}, "type": "Feature", "properties": {"collection_times": [{"days": "Mon-Fri", "time": "2:20pm"}, {"days": "Sat", "time": "12:00pm"}, {"days": "Sun", "time": "Closed"}], "id": "9538900003", "name": "USPS COLLECTION BOX - PO LOBBY", "address": {"city": "YOSEMITE NTPK", "state": "CA", "street": "9017 VILLAGE DR", "postcode": "95389"}}},
{"geometry": {"type": "Point", "coordinates": [-119.6886705933, 37.6808630481]}, "type": "Feature", "properties": {"collection_times": [{"days": "Mon-Fri", "time": "2:20pm"}, {"days": "Sat", "time": "9:00am"}, {"days": "Sun", "time": "Closed"}], "id": "9538900007", "name": "USPS COLLECTION BOX - PO LOBBY", "address": {"city": "YOSEMITE NTPK", "state": "CA", "street": "9015 LODGE DR", "postcode": "95389"}}},
{"geometry": {"type": "Point", "coordinates": [-119.6886705933, 37.6808630481]}, "type": "Feature", "properties": {"collection_times": [{"days": "Mon-Fri", "time": "2:20pm"}, {"days": "Sat", "time": "9:00am"}, {"days": "Sun", "time": "Closed"}], "id": "9538900008", "name": "USPS COLLECTION BOX - PO LOBBY", "address": {"city": "YOSEMITE NTPK", "state": "CA", "street": "9015 LODGE DR", "postcode": "95389"}}},
{"geometry": {"type": "Point", "coordinates": [-119.6886705933, 37.6808630481]}, "type": "Feature", "properties": {"collection_times": [{"days": "Mon-Fri", "time": "12:50pm"}, {"days": "Sat", "time": "9:00am"}, {"days": "Sun", "time": "Closed"}], "id": "9538900009", "name": "USPS COLLECTION BOX - BLUE BOX", "address": {"city": "YOSEMITE NTPK", "state": "CA", "street": "9015 LODGE DR", "postcode": "95389"}}},
{"geometry": {"type": "Point", "coordinates": [-121.5350763035, 37.7719273495]}, "type": "Feature", "properties": {"collection_times": [{"days": "Mon-Sat", "time": "2:30pm"}, {"days": "Sun", "time": "Closed"}], "id": "9539100001", "name": "USPS COLLECTION BOX - BLUE BOX", "address": {"city": "TRACY", "state": "CA", "street": "561 WICKLUND CROSSING WAY", "postcode": "95391"}}}
]}
