{"type": "FeatureCollection", "features": [
{"geometry": {"type": "Point", "coordinates": [-122.7166349432, 38.4409403565]}, "type": "Feature", "properties": {"collection_times": [{"days": "Mon-Fri", "time": "5:00pm"}, {"days": "Sat", "time": "1:00pm"}, {"days": "Sun", "time": "Closed"}], "id": "9540100000", "name": "USPS COLLECTION BOX - BLUE BOX", "address": {"city": "SANTA ROSA", "state": "CA", "street": "419 B ST", "postcode": "95401"}}},
{"geometry": {"type": "Point", "coordinates": [-122.7156959917, 38.4428730529]}, "type": "Feature", "properties": {"collection_times": [{"days": "Mon-Fri", "time": "5:00pm"}, {"days": "Sat", "time": "1:00pm"}, {"days": "Sun", "time": "Closed"}], "id": "9540100004", "name": "USPS COLLECTION BOX - BLUE BOX", "address": {"city": "SANTA ROSA", "state": "CA", "street": "504 MENDOCINO AVE", "postcode": "95401"}}},
{"geometry": {"type": "Point", "coordinates": [-122.7191074717, 38.4438681398]}, "type": "Feature", "properties": {"collection_times": [{"days": "Mon-Fri", "time": "5:00pm"}, {"days": "Sat", "time": "1:00pm"}, {"days": "Sun", "time": "Closed"}], "id": "9540100005", "name": "USPS COLLECTION BOX - BLUE BOX", "address": {"city": "SANTA ROSA", "state": "CA", "street": "398 10TH ST", "postcode": "95401"}}},
{"geometry": {"type": "Point", "coordinates": [-122.7190388601, 38.4456733352]}, "type": "Feature", "properties": {"collection_times": [{"days": "Mon-Fri", "time": "4:00pm"}, {"days": "Sat-Sun", "time": "Closed"}], "id": "9540100007", "name": "USPS COLLECTION BOX - BLUE BOX", "address": {"city": "SANTA ROSA", "state": "CA", "street": "439 COLLEGE AVE", "postcode": "95401"}}},
{"geometry": {"type": "Point", "coordinates": [-122.7206382206, 38.4457147388]}, "type": "Feature", "properties": {"collection_times": [{"days": "Mon-Fri", "time": "5:00pm"}, {"days": "Sat-Sun", "time": "Closed"}], "id": "9540100008", "name": "USPS COLLECTION BOX - BLUE BOX", "address": {"city": "SANTA ROSA", "state": "CA", "street": "350 COLLEGE AVE", "postcode": "95401"}}},
{"geometry": {"type": "Point", "coordinates": [-122.7243886547, 38.4492631737]}, "type": "Feature", "properties": {"collection_times": [{"days": "Mon-Fri", "time": "4:00pm"}, {"days": "Sat", "time": "1:00pm"}, {"days": "Sun", "time": "Closed"}], "id": "9540100009", "name": "USPS COLLECTION BOX - BLUE BOX", "address": {"city": "SANTA ROSA", "state": "CA", "street": "1326 RIPLEY ST", "postcode": "95401"}}},
{"geometry": {"type": "Point", "coordinates": [-122.7172351401, 38.4597340867]}, "type": "Feature", "properties": {"collection_times": [{"days": "Mon-Fri", "time": "5:00pm"}, {"days": "Sat", "time": "1:00pm"}, {"days": "Sun", "time": "Closed"}], "id": "9540100011", "name": "USPS COLLECTION BOX - BLUE BOX", "address": {"city": "SANTA ROSA", "state": "CA", "street": "1995 MENDOCINO AVE", "postcode": "95401"}}},
{"geometry": {"type": "Point", "coordinates": [-122.7325790084, 38.4563246977]}, "type": "Feature", "properties": {"collection_times": [{"days": "Mon-Fri", "time": "2:00pm"}, {"days": "Sat", "time": "1:00pm"}, {"days": "Sun", "time": "Closed"}], "id": "9540100013", "name": "USPS COLLECTION BOX - BLUE BOX", "address": {"city": "SANTA ROSA", "state": "CA", "street": "2055 RANGE AVE", "postcode": "95401"}}},
{"geometry": {"type": "Point", "coordinates": [-122.728944798, 38.4562519878]}, "type": "Feature", "properties": {"collection_times": [{"days": "Mon-Fri", "time": "5:00pm"}, {"days": "Sat-Sun", "time": "Closed"}], "id": "9540100019", "name": "USPS COLLECTION BOX - PO LOBBY", "address": {"city": "SANTA ROSA", "state": "CA", "street": "1200 CODDINGTOWN CNT", "postcode": "95401"}}},
{"geometry": {"type": "Point", "coordinates": [-122.7312110429, 38.458868548]}, "type": "Feature", "properties": {"collection_times": [{"days": "Mon-Fri", "time": "5:00pm"}, {"days": "Sat", "time": "1:00pm"}, {"days": "Sun", "time": "Closed"}], "id": "9540100021", "name": "USPS COLLECTION BOX - BLUE BOX", "address": {"city": "SANTA ROSA", "state": "CA", "street": "1200 CODDINGTOWN CTR", "postcode": "95401"}}},
{"geometry": {"type": "Point", "coordinates": [-122.7333100771, 38.4479469823]}, "type": "Feature", "properties": {"collection_times": [{"days": "Mon-Fri", "time": "5:00pm"}, {"days": "Sat", "time": "1:00pm"}, {"days": "Sun", "time": "Closed"}], "id": "9540100025", "name": "USPS COLLECTION BOX - BLUE BOX", "address": {"city": "SANTA ROSA", "state": "CA", "street": "320 TESCONI CIR", "postcode": "95401"}}},
{"geometry": {"type": "Point", "coordinates": [-122.7333100771, 38.4479469823]}, "type": "Feature", "properties": {"collection_times": [{"days": "Mon-Fri", "time": "5:00pm"}, {"days": "Sat", "time": "1:00pm"}, {"days": "Sun", "time": "Closed"}], "id": "9540100026", "name": "USPS COLLECTION BOX - BLUE BOX", "address": {"city": "SANTA ROSA", "state": "CA", "street": "320 TESCONI CIR", "postcode": "95401"}}},
{"geometry": {"type": "Point", "coordinates": [-122.7333100771, 38.4479469823]}, "type": "Feature", "properties": {"collection_times": [{"days": "Mon-Fri", "time": "5:00pm"}, {"days": "Sat", "time": "1:00pm"}, {"days": "Sun", "time": "Closed"}], "id": "9540100027", "name": "USPS COLLECTION BOX - BLUE BOX", "address": {"city": "SANTA ROSA", "state": "CA", "street": "320 TESCONI CIR", "postcode": "95401"}}},
{"geometry": {"type": "Point", "coordinates": [-122.732590838, 38.4488282868]}, "type": "Feature", "properties": {"collection_times": [{"days": "Mon-Fri", "time": "5:00pm"}, {"days": "Sat", "time": "1:00pm"}, {"days": "Sun", "time": "Closed"}], "id": "9540100029", "name": "USPS COLLECTION BOX - BLUE BOX", "address": {"city": "SANTA ROSA", "state": "CA", "street": "1260 N DUTTON AVE", "postcode": "95401"}}},
{"geometry": {"type": "Point", "coordinates": [-122.732590838, 38.4488282868]}, "type": "Feature", "properties": {"collection_times": [{"days": "Mon-Fri", "time": "5:00pm"}, {"days": "Sat", "time": "1:00pm"}, {"days": "Sun", "time": "Closed"}], "id": "9540100030", "name": "USPS COLLECTION BOX - BLUE BOX", "address": {"city": "SANTA ROSA", "state": "CA", "street": "1260 N DUTTON AVE", "postcode": "95401"}}},
{"geometry": {"type": "Point", "coordinates": [-122.7286787927, 38.4430400686]}, "type": "Feature", "properties": {"collection_times": [{"days": "Mon-Fri", "time": "5:00pm"}, {"days": "Sat", "time": "1:00pm"}, {"days": "Sun", "time": "Closed"}], "id": "9540100032", "name": "USPS COLLECTION BOX - BLUE BOX", "address": {"city": "SANTA ROSA", "state": "CA", "street": "103 MAXWELL CT", "postcode": "95401"}}},
{"geometry": {"type": "Point", "coordinates": [-122.7094438799, 38.4454119013]}, "type": "Feature", "properties": {"collection_times": [{"days": "Mon-Fri", "time": "2:30pm"}, {"days": "Sat", "time": "1:00pm"}, {"days": "Sun", "time": "Closed"}], "id": "9540100034", "name": "USPS COLLECTION BOX - BLUE BOX", "address": {"city": "SANTA ROSA", "state": "CA", "street": "1000 W COLLEGE AVE", "postcode": "95401"}}},
{"geometry": {"type": "Point", "coordinates": [-122.7276543502, 38.4339312845]}, "type": "Feature", "properties": {"collection_times": [{"days": "Mon-Fri", "time": "3:30pm"}, {"days": "Sat-Sun", "time": "Closed"}], "id": "9540100035", "name": "USPS COLLECTION BOX - BLUE BOX", "address": {"city": "SANTA ROSA", "state": "CA", "street": "400 W 3RD ST", "postcode": "95401"}}},
{"geometry": {"type": "Point", "coordinates": [-122.769370152, 38.4378635454]}, "type": "Feature", "properties": {"collection_times": [{"days": "Mon-Fri", "time": "4:30pm"}, {"days": "Sat", "time": "1:00pm"}, {"days": "Sun", "time": "Closed"}], "id": "9540100037", "name": "USPS COLLECTION BOX - BLUE BOX", "address": {"city": "SANTA ROSA", "state": "CA", "street": "2466 W 3RD ST", "postcode": "95401"}}},
{"geometry": {"type": "Point", "coordinates": [-122.7699501819, 38.4327501903]}, "type": "Feature", "properties": {"collection_times": [{"days": "Mon-Fri", "time": "4:30pm"}, {"days": "Sat", "time": "1:00pm"}, {"days": "Sun", "time": "Closed"}], "id": "9540100038", "name": "USPS COLLECTION BOX - BLUE BOX", "address": {"city": "SANTA ROSA", "state": "CA", "street": "433 FULTON RD", "postcode": "95401"}}},
{"geometry": {"type": "Point", "coordinates": [-122.7419807871, 38.4323059856]}, "type": "Feature", "properties": {"collection_times": [{"days": "Mon-Fri", "time": "4:30pm"}, {"days": "Sat", "time": "1:00pm"}, {"days": "Sun", "time": "Closed"}], "id": "9540100041", "name": "USPS COLLECTION BOX - BLUE BOX", "address": {"city": "SANTA ROSA", "state": "CA", "street": "451 STONY POINT RD", "postcode": "95401"}}},
{"geometry": {"type": "Point", "coordinates": [-122.7461936831, 38.4412135799]}, "type": "Feature", "properties": {"collection_times": [{"days": "Mon-Fri", "time": "4:15pm"}, {"days": "Sat", "time": "1:00pm"}, {"days": "Sun", "time": "Closed"}], "id": "9540100047", "name": "USPS COLLECTION BOX - BLUE BOX", "address": {"city": "SANTA ROSA", "state": "CA", "street": "100 STONY POINT RD", "postcode": "95401"}}},
{"geometry": {"type": "Point", "coordinates": [-122.7461936831, 38.4412135799]}, "type": "Feature", "properties": {"collection_times": [{"days": "Mon-Fri", "time": "4:15pm"}, {"days": "Sat", "time": "1:00pm"}, {"days": "Sun", "time": "Closed"}], "id": "9540100048", "name": "USPS COLLECTION BOX - BLUE BOX", "address": {"city": "SANTA ROSA", "state": "CA", "street": "100 STONY POINT RD", "postcode": "95401"}}},
{"geometry": {"type": "Point", "coordinates": [-122.7155390188, 38.4405662085]}, "type": "Feature", "properties": {"collection_times": [{"days": "Mon-Fri", "time": "4:45pm"}, {"days": "Sat", "time": "1:00pm"}, {"days": "Sun", "time": "Closed"}], "id": "9540100058", "name": "USPS COLLECTION BOX - BLUE BOX", "address": {"city": "SANTA ROSA", "state": "CA", "street": "532 5TH ST", "postcode": "95401"}}},
{"geometry": {"type": "Point", "coordinates": [-122.7450911654, 38.4399040443]}, "type": "Feature", "properties": {"collection_times": [{"days": "Mon-Fri", "time": "4:15pm"}, {"days": "Sat", "time": "1:00pm"}, {"days": "Sun", "time": "Closed"}], "id": "9540100059", "name": "USPS COLLECTION BOX - BLUE BOX", "address": {"city": "SANTA ROSA", "state": "CA", "street": "141 STONY CIR", "postcode": "95401"}}},
{"geometry": {"type": "Point", "coordinates": [-122.728944798, 38.4562519878]}, "type": "Feature", "properties": {"collection_times": [{"days": "Mon-Fri", "time": "5:00pm"}, {"days": "Sat", "time": "1:00pm"}, {"days": "Sun", "time": "Closed"}], "id": "9540100064", "name": "USPS COLLECTION BOX - BLUE BOX", "address": {"city": "SANTA ROSA", "state": "CA", "street": "1200 CODDINGTOWN CNT", "postcode": "95401"}}},
{"geometry": {"type": "Point", "coordinates": [-122.7177468288, 38.4441918235]}, "type": "Feature", "properties": {"collection_times": [{"days": "Mon-Fri", "time": "5:00pm"}, {"days": "Sat", "time": "1:00pm"}, {"days": "Sun", "time": "Closed"}], "id": "9540100067", "name": "USPS COLLECTION BOX - BLUE BOX", "address": {"city": "SANTA ROSA", "state": "CA", "street": "620 HEALDSBURG AVE", "postcode": "95401"}}},
{"geometry": {"type": "Point", "coordinates": [-122.728944798, 38.4562519878]}, "type": "Feature", "properties": {"collection_times": [{"days": "Mon-Fri", "time": "5:00pm"}, {"days": "Sat", "time": "1:00pm"}, {"days": "Sun", "time": "Closed"}], "id": "9540100069", "name": "USPS COLLECTION BOX - BLUE BOX", "address": {"city": "SANTA ROSA", "state": "CA", "street": "1200 CODDINGTOWN CNT", "postcode": "95401"}}},
{"geometry": {"type": "Point", "coordinates": [-122.728944798, 38.4562519878]}, "type": "Feature", "properties": {"collection_times": [{"days": "Mon-Fri", "time": "5:00pm"}, {"days": "Sat", "time": "1:00pm"}, {"days": "Sun", "time": "Closed"}], "id": "9540100070", "name": "USPS COLLECTION BOX - BLUE BOX", "address": {"city": "SANTA ROSA", "state": "CA", "street": "1200 CODDINGTOWN CNT", "postcode": "95401"}}},
{"geometry": {"type": "Point", "coordinates": [-122.728944798, 38.4562519878]}, "type": "Feature", "properties": {"collection_times": [{"days": "Mon-Fri", "time": "5:00pm"}, {"days": "Sat", "time": "1:00pm"}, {"days": "Sun", "time": "Closed"}], "id": "9540100071", "name": "USPS COLLECTION BOX - BLUE BOX", "address": {"city": "SANTA ROSA", "state": "CA", "street": "1200 CODDINGTOWN CNT", "postcode": "95401"}}},
{"geometry": {"type": "Point", "coordinates": [-122.7210983917, 38.4372944369]}, "type": "Feature", "properties": {"collection_times": [{"days": "Mon-Fri", "time": "2:15pm"}, {"days": "Sat", "time": "1:00pm"}, {"days": "Sun", "time": "Closed"}], "id": "9540100073", "name": "USPS COLLECTION BOX - BLUE BOX", "address": {"city": "SANTA ROSA", "state": "CA", "street": "9 4TH ST", "postcode": "95401"}}},
{"geometry": {"type": "Point", "coordinates": [-122.7172242011, 38.4583404598]}, "type": "Feature", "properties": {"collection_times": [{"days": "Mon-Fri", "time": "5:00pm"}, {"days": "Sat", "time": "1:00pm"}, {"days": "Sun", "time": "Closed"}], "id": "9540100076", "name": "USPS COLLECTION BOX - BLUE BOX", "address": {"city": "SANTA ROSA", "state": "CA", "street": "1880 MENDOCINO AVE", "postcode": "95401"}}},
{"geometry": {"type": "Point", "coordinates": [-122.7450911654, 38.4399040443]}, "type": "Feature", "properties": {"collection_times": [{"days": "Mon-Fri", "time": "4:15pm"}, {"days": "Sat", "time": "1:00pm"}, {"days": "Sun", "time": "Closed"}], "id": "9540100079", "name": "USPS COLLECTION BOX - BLUE BOX", "address": {"city": "SANTA ROSA", "state": "CA", "street": "141 STONY CIR", "postcode": "95401"}}},
{"geometry": {"type": "Point", "coordinates": [-122.7107688472, 38.4399631863]}, "type": "Feature", "properties": {"collection_times": [{"days": "Mon-Sat", "time": "12:00pm"}, {"days": "Sun", "time": "Closed"}], "id": "9540200004", "name": "USPS COLLECTION BOX - EXPRESS", "address": {"city": "SANTA ROSA", "state": "CA", "street": "730 2ND ST", "postcode": "95402"}}},
{"geometry": {"type": "Point", "coordinates": [-122.7103784175, 38.4402045159]}, "type": "Feature", "properties": {"collection_times": [{"days": "Mon-Fri", "time": "6:15pm"}, {"days": "Sat", "time": "6:00pm"}, {"days": "Sun", "time": "Closed"}], "id": "9540200005", "name": "USPS COLLECTION BOX - BLUE BOX", "address": {"city": "SANTA ROSA", "state": "CA", "street": "730 2ND ST", "postcode": "95402"}}},
{"geometry": {"type": "Point", "coordinates": [-122.7103784175, 38.4402045159]}, "type": "Feature", "properties": {"collection_times": [{"days": "Mon-Fri", "time": "6:15pm"}, {"days": "Sat", "time": "6:00pm"}, {"days": "Sun", "time": "Closed"}], "id": "9540200006", "name": "USPS COLLECTION BOX - BLUE BOX", "address": {"city": "SANTA ROSA", "state": "CA", "street": "730 2ND ST", "postcode": "95402"}}},
{"geometry": {"type": "Point", "coordinates": [-122.7103784175, 38.4402045159]}, "type": "Feature", "properties": {"collection_times": [{"days": "Mon-Sat", "time": "6:00pm"}, {"days": "Sun", "time": "Closed"}], "id": "9540200007", "name": "USPS COLLECTION BOX - PO LOBBY", "address": {"city": "SANTA ROSA", "state": "CA", "street": "730 2ND ST", "postcode": "95402"}}},
{"geometry": {"type": "Point", "coordinates": [-122.7103784175, 38.4402045159]}, "type": "Feature", "properties": {"collection_times": [{"days": "Mon-Sat", "time": "6:00pm"}, {"days": "Sun", "time": "Closed"}], "id": "9540200009", "name": "USPS COLLECTION BOX - APC", "address": {"city": "SANTA ROSA", "state": "CA", "street": "730 2ND ST", "postcode": "95402"}}},
{"geometry": {"type": "Point", "coordinates": [-122.7262212954, 38.4654752811]}, "type": "Feature", "properties": {"collection_times": [{"days": "Mon-Fri", "time": "4:30pm"}, {"days": "Sat", "time": "1:00pm"}, {"days": "Sun", "time": "Closed"}], "id": "9540300003", "name": "USPS COLLECTION BOX - BLUE BOX", "address": {"city": "SANTA ROSA", "state": "CA", "street": "600 ADMINISTRATION DR", "postcode": "95403"}}},
{"geometry": {"type": "Point", "coordinates": [-122.7292684453, 38.4824941055]}, "type": "Feature", "properties": {"collection_times": [{"days": "Mon-Sat", "time": "3:00pm"}, {"days": "Sun", "time": "Closed"}], "id": "9540300004", "name": "USPS COLLECTION BOX - BLUE BOX", "address": {"city": "SANTA ROSA", "state": "CA", "street": "5286 AIRPORT BLVD", "postcode": "95403"}}},
{"geometry": {"type": "Point", "coordinates": [-122.7824714383, 38.513033441]}, "type": "Feature", "properties": {"collection_times": [{"days": "Mon-Fri", "time": "3:45pm"}, {"days": "Sat", "time": "1:00pm"}, {"days": "Sun", "time": "Closed"}], "id": "9540300007", "name": "USPS COLLECTION BOX - BLUE BOX", "address": {"city": "SANTA ROSA", "state": "CA", "street": "418 AVIATION BLVD", "postcode": "95403"}}},
{"geometry": {"type": "Point", "coordinates": [-122.7225957585, 38.47905746]}, "type": "Feature", "properties": {"collection_times": [{"days": "Mon-Fri", "time": "5:00pm"}, {"days": "Sat", "time": "1:00pm"}, {"days": "Sun", "time": "Closed"}], "id": "9540300008", "name": "USPS COLLECTION BOX - BLUE BOX", "address": {"city": "SANTA ROSA", "state": "CA", "street": "3515 UNOCAL PL", "postcode": "95403"}}},
{"geometry": {"type": "Point", "coordinates": [-122.7618127109, 38.5099556325]}, "type": "Feature", "properties": {"collection_times": [{"days": "Mon-Fri", "time": "3:00pm"}, {"days": "Sat-Sun", "time": "Closed"}], "id": "9540300009", "name": "USPS COLLECTION BOX - BLUE BOX", "address": {"city": "SANTA ROSA", "state": "CA", "street": "5200 OLD REDWOOD HWY", "postcode": "95403"}}},
{"geometry": {"type": "Point", "coordinates": [-122.726248995, 38.475890839]}, "type": "Feature", "properties": {"collection_times": [{"days": "Mon-Fri", "time": "5:00pm"}, {"days": "Sat", "time": "1:00pm"}, {"days": "Sun", "time": "Closed"}], "id": "9540300010", "name": "USPS COLLECTION BOX - BLUE BOX", "address": {"city": "SANTA ROSA", "state": "CA", "street": "3550 ROUND BARN BLVD", "postcode": "95403"}}},
{"geometry": {"type": "Point", "coordinates": [-122.726248995, 38.475890839]}, "type": "Feature", "properties": {"collection_times": [{"days": "Mon-Fri", "time": "5:00pm"}, {"days": "Sat", "time": "1:00pm"}, {"days": "Sun", "time": "Closed"}], "id": "9540300011", "name": "USPS COLLECTION BOX - BLUE BOX", "address": {"city": "SANTA ROSA", "state": "CA", "street": "3550 ROUND BARN BLVD", "postcode": "95403"}}},
{"geometry": {"type": "Point", "coordinates": [-122.7996703517, 38.5122318469]}, "type": "Feature", "properties": {"collection_times": [{"days": "Mon-Fri", "time": "3:30pm"}, {"days": "Sat", "time": "1:00pm"}, {"days": "Sun", "time": "Closed"}], "id": "9540300012", "name": "USPS COLLECTION BOX - BLUE BOX", "address": {"city": "SANTA ROSA", "state": "CA", "street": "5348 SKYLANE BLVD", "postcode": "95403"}}},
{"geometry": {"type": "Point", "coordinates": [-122.8001835974, 38.507452211]}, "type": "Feature", "properties": {"collection_times": [{"days": "Mon-Fri", "time": "3:45pm"}, {"days": "Sat", "time": "1:00pm"}, {"days": "Sun", "time": "Closed"}], "id": "9540300020", "name": "USPS COLLECTION BOX - BLUE BOX", "address": {"city": "SANTA ROSA", "state": "CA", "street": "3650 N LAUGHLIN RD", "postcode": "95403"}}},
{"geometry": {"type": "Point", "coordinates": [-122.717946989, 38.4625281345]}, "type": "Feature", "properties": {"collection_times": [{"days": "Mon-Fri", "time": "5:00pm"}, {"days": "Sat", "time": "1:00pm"}, {"days": "Sun", "time": "Closed"}], "id": "9540300026", "name": "USPS COLLECTION BOX - BLUE BOX", "address": {"city": "SANTA ROSA", "state": "CA", "street": "2245 MENDOCINO AVE", "postcode": "95403"}}},
{"geometry": {"type": "Point", "coordinates": [-122.7265293563, 38.4732469257]}, "type": "Feature", "properties": {"collection_times": [{"days": "Mon-Fri", "time": "4:15pm"}, {"days": "Sat", "time": "1:00pm"}, {"days": "Sun", "time": "Closed"}], "id": "9540300027", "name": "USPS COLLECTION BOX - BLUE BOX", "address": {"city": "SANTA ROSA", "state": "CA", "street": "3536 MENDOCINO AVE", "postcode": "95403"}}},
{"geometry": {"type": "Point", "coordinates": [-122.7265293563, 38.4732469257]}, "type": "Feature", "properties": {"collection_times": [{"days": "Mon-Fri", "time": "4:15pm"}, {"days": "Sat", "time": "1:00pm"}, {"days": "Sun", "time": "Closed"}], "id": "9540300028", "name": "USPS COLLECTION BOX - BLUE BOX", "address": {"city": "SANTA ROSA", "state": "CA", "street": "3536 MENDOCINO AVE", "postcode": "95403"}}},
{"geometry": {"type": "Point", "coordinates": [-122.750153076, 38.5003901379]}, "type": "Feature", "properties": {"collection_times": [{"days": "Mon-Fri", "time": "4:45pm"}, {"days": "Sat", "time": "1:00pm"}, {"days": "Sun", "time": "Closed"}], "id": "9540300030", "name": "USPS COLLECTION BOX - BLUE BOX", "address": {"city": "SANTA ROSA", "state": "CA", "street": "4754 OLD REDWOOD HWY", "postcode": "95403"}}},
{"geometry": {"type": "Point", "coordinates": [-122.750153076, 38.5003901379]}, "type": "Feature", "properties": {"collection_times": [{"days": "Mon-Fri", "time": "4:45pm"}, {"days": "Sat", "time": "1:00pm"}, {"days": "Sun", "time": "Closed"}], "id": "9540300031", "name": "USPS COLLECTION BOX - BLUE BOX", "address": {"city": "SANTA ROSA", "state": "CA", "street": "4754 OLD REDWOOD HWY", "postcode": "95403"}}},
{"geometry": {"type": "Point", "coordinates": [-122.769700579, 38.4531696374]}, "type": "Feature", "properties": {"collection_times": [{"days": "Mon-Fri", "time": "4:45pm"}, {"days": "Sat", "time": "1:00pm"}, {"days": "Sun", "time": "Closed"}], "id": "9540300035", "name": "USPS COLLECTION BOX - BLUE BOX", "address": {"city": "SANTA ROSA", "state": "CA", "street": "1407 FULTON RD", "postcode": "95403"}}},
{"geometry": {"type": "Point", "coordinates": [-122.7261271502, 38.4702280144]}, "type": "Feature", "properties": {"collection_times": [{"days": "Mon-Fri", "time": "3:00pm"}, {"days": "Sat", "time": "1:00pm"}, {"days": "Sun", "time": "Closed"}], "id": "9540300036", "name": "USPS COLLECTION BOX - BLUE BOX", "address": {"city": "SANTA ROSA", "state": "CA", "street": "401 BICENTENNIAL WAY", "postcode": "95403"}}},
{"geometry": {"type": "Point", "coordinates": [-122.7251640266, 38.4610749784]}, "type": "Feature", "properties": {"collection_times": [{"days": "Mon-Fri", "time": "5:00pm"}, {"days": "Sat", "time": "1:00pm"}, {"days": "Sun", "time": "Closed"}], "id": "9540300038", "name": "USPS COLLECTION BOX - BLUE BOX", "address": {"city": "SANTA ROSA", "state": "CA", "street": "2200 COUNTY CENTER DR", "postcode": "95403"}}},
{"geometry": {"type": "Point", "coordinates": [-122.7250727438, 38.4720982575]}, "type": "Feature", "properties": {"collection_times": [{"days": "Mon-Fri", "time": "5:00pm"}, {"days": "Sat-Sun", "time": "Closed"}], "id": "9540300044", "name": "USPS COLLECTION BOX - BLUE BOX", "address": {"city": "SANTA ROSA", "state": "CA", "street": "3469 MENDOCINO AVE", "postcode": "95403"}}},
{"geometry": {"type": "Point", "coordinates": [-122.7361120202, 38.4768126256]}, "type": "Feature", "properties": {"collection_times": [{"days": "Mon-Fri", "time": "5:00pm"}, {"days": "Sat", "time": "1:00pm"}, {"days": "Sun", "time": "Closed"}], "id": "9540300050", "name": "USPS COLLECTION BOX - BLUE BOX", "address": {"city": "SANTA ROSA", "state": "CA", "street": "3550 INDUSTRIAL DR", "postcode": "95403"}}},
{"geometry": {"type": "Point", "coordinates": [-122.7599749748, 38.4674167448]}, "type": "Feature", "properties": {"collection_times": [{"days": "Mon-Sat", "time": "3:00pm"}, {"days": "Sun", "time": "Closed"}], "id": "9540300052", "name": "USPS COLLECTION BOX - BLUE BOX", "address": {"city": "SANTA ROSA", "state": "CA", "street": "2010 PIONEER WAY", "postcode": "95403"}}},
{"geometry": {"type": "Point", "coordinates": [-122.7118393718, 38.4843182387]}, "type": "Feature", "properties": {"collection_times": [{"days": "Mon-Fri", "time": "3:45pm"}, {"days": "Sat-Sun", "time": "Closed"}], "id": "9540300057", "name": "USPS COLLECTION BOX - BLUE BOX", "address": {"city": "SANTA ROSA", "state": "CA", "street": "1400 FOUNTAIN GROVE PKWY", "postcode": "95403"}}},
{"geometry": {"type": "Point", "coordinates": [-122.7259871595, 38.4654956359]}, "type": "Feature", "properties": {"collection_times": [{"days": "Mon-Fri", "time": "4:45pm"}, {"days": "Sat", "time": "1:00pm"}, {"days": "Sun", "time": "Closed"}], "id": "9540300058", "name": "USPS COLLECTION BOX - BLUE BOX", "address": {"city": "SANTA ROSA", "state": "CA", "street": "585 FISCAL DR", "postcode": "95403"}}},
{"geometry": {"type": "Point", "coordinates": [-122.7439850341, 38.4674176171]}, "type": "Feature", "properties": {"collection_times": [{"days": "Mon-Fri", "time": "3:00pm"}, {"days": "Sat", "time": "1:00pm"}, {"days": "Sun", "time": "Closed"}], "id": "9540300060", "name": "USPS COLLECTION BOX - BLUE BOX", "address": {"city": "SANTA ROSA", "state": "CA", "street": "3196 COFFEY LN", "postcode": "95403"}}},
{"geometry": {"type": "Point", "coordinates": [-122.7300807825, 38.4654207463]}, "type": "Feature", "properties": {"collection_times": [{"days": "Mon-Fri", "time": "5:00pm"}, {"days": "Sat", "time": "4:30pm"}, {"days": "Sun", "time": "Closed"}], "id": "9540300067", "name": "USPS COLLECTION BOX - BLUE BOX", "address": {"city": "SANTA ROSA", "state": "CA", "street": "2850 MCBRIDE LN", "postcode": "95403"}}},
{"geometry": {"type": "Point", "coordinates": [-122.7300807825, 38.4654207463]}, "type": "Feature", "properties": {"collection_times": [{"days": "Mon-Fri", "time": "5:00pm"}, {"days": "Sat", "time": "4:30pm"}, {"days": "Sun", "time": "Closed"}], "id": "9540300068", "name": "USPS COLLECTION BOX - BLUE BOX", "address": {"city": "SANTA ROSA", "state": "CA", "street": "2850 MCBRIDE LN", "postcode": "95403"}}},
{"geometry": {"type": "Point", "coordinates": [-122.7512886874, 38.4520589477]}, "type": "Feature", "properties": {"collection_times": [{"days": "Mon-Fri", "time": "4:45pm"}, {"days": "Sat", "time": "1:00pm"}, {"days": "Sun", "time": "Closed"}], "id": "9540300073", "name": "USPS COLLECTION BOX - BLUE BOX", "address": {"city": "SANTA ROSA", "state": "CA", "street": "1799 MARLOW RD", "postcode": "95403"}}},
{"geometry": {"type": "Point", "coordinates": [-122.7510653556, 38.4656656698]}, "type": "Feature", "properties": {"collection_times": [{"days": "Mon-Fri", "time": "4:45pm"}, {"days": "Sat", "time": "1:00pm"}, {"days": "Sun", "time": "Closed"}], "id": "9540300091", "name": "USPS COLLECTION BOX - BLUE BOX", "address": {"city": "SANTA ROSA", "state": "CA", "street": "3080 MARLOW RD", "postcode": "95403"}}},
{"geometry": {"type": "Point", "coordinates": [-122.7290218508, 38.468538749]}, "type": "Feature", "properties": {"collection_times": [{"days": "Mon-Fri", "time": "3:30pm"}, {"days": "Sat", "time": "1:00pm"}, {"days": "Sun", "time": "Closed"}], "id": "9540300093", "name": "USPS COLLECTION BOX - BLUE BOX", "address": {"city": "SANTA ROSA", "state": "CA", "street": "3035 CLEVELAND AVE", "postcode": "95403"}}},
{"geometry": {"type": "Point", "coordinates": [-122.7381916163, 38.4747419207]}, "type": "Feature", "properties": {"collection_times": [{"days": "Mon-Fri", "time": "5:00pm"}, {"days": "Sat", "time": "1:00pm"}, {"days": "Sun", "time": "Closed"}], "id": "9540300096", "name": "USPS COLLECTION BOX - BLUE BOX", "address": {"city": "SANTA ROSA", "state": "CA", "street": "3315 AIRWAY DR", "postcode": "95403"}}},
{"geometry": {"type": "Point", "coordinates": [-122.7700049415, 38.5161903883]}, "type": "Feature", "properties": {"collection_times": [{"days": "Mon-Sat", "time": "1:00pm"}, {"days": "Sun", "time": "Closed"}], "id": "9540300098", "name": "USPS COLLECTION BOX - BLUE BOX", "address": {"city": "SANTA ROSA", "state": "CA", "street": "5505 OLD REDWOOD HWY", "postcode": "95403"}}},
{"geometry": {"type": "Point", "coordinates": [-122.6918710245, 38.4335551036]}, "type": "Feature", "properties": {"collection_times": [{"days": "Mon-Fri", "time": "5:00pm"}, {"days": "Sat", "time": "1:00pm"}, {"days": "Sun", "time": "Closed"}], "id": "9540400002", "name": "USPS COLLECTION BOX - BLUE BOX", "address": {"city": "SANTA ROSA", "state": "CA", "street": "2455 BENNETT VALLEY RD", "postcode": "95404"}}},
{"geometry": {"type": "Point", "coordinates": [-122.6918710245, 38.4335551036]}, "type": "Feature", "properties": {"collection_times": [{"days": "Mon-Fri", "time": "5:00pm"}, {"days": "Sat", "time": "1:00pm"}, {"days": "Sun", "time": "Closed"}], "id": "9540400003", "name": "USPS COLLECTION BOX - BLUE BOX", "address": {"city": "SANTA ROSA", "state": "CA", "street": "2455 BENNETT VALLEY RD", "postcode": "95404"}}},
{"geometry": {"type": "Point", "coordinates": [-122.7111600304, 38.4426579352]}, "type": "Feature", "properties": {"collection_times": [{"days": "Mon-Fri", "time": "5:00pm"}, {"days": "Sat", "time": "1:00pm"}, {"days": "Sun", "time": "Closed"}], "id": "9540400005", "name": "USPS COLLECTION BOX - BLUE BOX", "address": {"city": "SANTA ROSA", "state": "CA", "street": "400 E ST", "postcode": "95404"}}},
{"geometry": {"type": "Point", "coordinates": [-122.6439602508, 38.3811622976]}, "type": "Feature", "properties": {"collection_times": [{"days": "Mon-Fri", "time": "5:00pm"}, {"days": "Sat", "time": "1:00pm"}, {"days": "Sun", "time": "Closed"}], "id": "9540400007", "name": "USPS COLLECTION BOX - BLUE BOX", "address": {"city": "SANTA ROSA", "state": "CA", "street": "1425 TOWN & COUNTRY DR", "postcode": "95404"}}},
{"geometry": {"type": "Point", "coordinates": [-122.7092652531, 38.4384395411]}, "type": "Feature", "properties": {"collection_times": [{"days": "Mon-Fri", "time": "5:00pm"}, {"days": "Sat", "time": "1:00pm"}, {"days": "Sun", "time": "Closed"}], "id": "9540400009", "name": "USPS COLLECTION BOX - BLUE BOX", "address": {"city": "SANTA ROSA", "state": "CA", "street": "777 SONOMA AVE", "postcode": "95404"}}},
{"geometry": {"type": "Point", "coordinates": [-122.7092652531, 38.4384395411]}, "type": "Feature", "properties": {"collection_times": [{"days": "Mon-Fri", "time": "5:00pm"}, {"days": "Sat", "time": "1:00pm"}, {"days": "Sun", "time": "Closed"}], "id": "9540400010", "name": "USPS COLLECTION BOX - BLUE BOX", "address": {"city": "SANTA ROSA", "state": "CA", "street": "777 SONOMA AVE", "postcode": "95404"}}},
{"geometry": {"type": "Point", "coordinates": [-122.7079734619, 38.4432151465]}, "type": "Feature", "properties": {"collection_times": [{"days": "Mon-Fri", "time": "4:45pm"}, {"days": "Sat-Sun", "time": "Closed"}], "id": "9540400016", "name": "USPS COLLECTION BOX - BLUE BOX", "address": {"city": "SANTA ROSA", "state": "CA", "street": "888 4TH ST", "postcode": "95404"}}},
{"geometry": {"type": "Point", "coordinates": [-122.7023591387, 38.4465392612]}, "type": "Feature", "properties": {"collection_times": [{"days": "Mon-Fri", "time": "5:00pm"}, {"days": "Sat", "time": "1:00pm"}, {"days": "Sun", "time": "Closed"}], "id": "9540400017", "name": "USPS COLLECTION BOX - BLUE BOX", "address": {"city": "SANTA ROSA", "state": "CA", "street": "1300 4TH ST", "postcode": "95404"}}},
{"geometry": {"type": "Point", "coordinates": [-122.5870361255, 38.3787507489]}, "type": "Feature", "properties": {"collection_times": [{"days": "Mon-Fri", "time": "5:00pm"}, {"days": "Sat", "time": "1:00pm"}, {"days": "Sun", "time": "Closed"}], "id": "9540400019", "name": "USPS COLLECTION BOX - BLUE BOX", "address": {"city": "SANTA ROSA", "state": "CA", "street": "1333 4TH ST", "postcode": "95404"}}},
{"geometry": {"type": "Point", "coordinates": [-122.6994634843, 38.448490149]}, "type": "Feature", "properties": {"collection_times": [{"days": "Mon-Fri", "time": "5:00pm"}, {"days": "Sat", "time": "1:00pm"}, {"days": "Sun", "time": "Closed"}], "id": "9540400020", "name": "USPS COLLECTION BOX - BLUE BOX", "address": {"city": "SANTA ROSA", "state": "CA", "street": "1701 4TH ST", "postcode": "95404"}}},
{"geometry": {"type": "Point", "coordinates": [-122.6994634843, 38.448490149]}, "type": "Feature", "properties": {"collection_times": [{"days": "Mon-Fri", "time": "5:00pm"}, {"days": "Sat", "time": "1:00pm"}, {"days": "Sun", "time": "Closed"}], "id": "9540400021", "name": "USPS COLLECTION BOX - BLUE BOX", "address": {"city": "SANTA ROSA", "state": "CA", "street": "1701 4TH ST", "postcode": "95404"}}},
{"geometry": {"type": "Point", "coordinates": [-122.7019261757, 38.440605539]}, "type": "Feature", "properties": {"collection_times": [{"days": "Mon-Fri", "time": "4:30pm"}, {"days": "Sat", "time": "1:00pm"}, {"days": "Sun", "time": "Closed"}], "id": "9540400023", "name": "USPS COLLECTION BOX - BLUE BOX", "address": {"city": "SANTA ROSA", "state": "CA", "street": "990 SONOMA AVE", "postcode": "95404"}}},
{"geometry": {"type": "Point", "coordinates": [-122.7111600304, 38.4426579352]}, "type": "Feature", "properties": {"collection_times": [{"days": "Mon-Fri", "time": "5:00pm"}, {"days": "Sat", "time": "1:00pm"}, {"days": "Sun", "time": "Closed"}], "id": "9540400028", "name": "USPS COLLECTION BOX - BLUE BOX", "address": {"city": "SANTA ROSA", "state": "CA", "street": "400 E ST", "postcode": "95404"}}},
{"geometry": {"type": "Point", "coordinates": [-122.7104044426, 38.4420842377]}, "type": "Feature", "properties": {"collection_times": [{"days": "Mon-Fri", "time": "5:00pm"}, {"days": "Sat", "time": "1:00pm"}, {"days": "Sun", "time": "Closed"}], "id": "9540400029", "name": "USPS COLLECTION BOX - BLUE BOX", "address": {"city": "SANTA ROSA", "state": "CA", "street": "801 4TH ST", "postcode": "95404"}}},
{"geometry": {"type": "Point", "coordinates": [-122.6439602508, 38.3811622976]}, "type": "Feature", "properties": {"collection_times": [{"days": "Mon-Fri", "time": "5:00pm"}, {"days": "Sat", "time": "1:00pm"}, {"days": "Sun", "time": "Closed"}], "id": "9540400030", "name": "USPS COLLECTION BOX - BLUE BOX", "address": {"city": "SANTA ROSA", "state": "CA", "street": "1425 TOWN & COUNTRY DR", "postcode": "95404"}}},
{"geometry": {"type": "Point", "coordinates": [-122.7125004508, 38.440098838]}, "type": "Feature", "properties": {"collection_times": [{"days": "Mon-Fri", "time": "5:00pm"}, {"days": "Sat-Sun", "time": "Closed"}], "id": "9540400035", "name": "USPS COLLECTION BOX - BLUE BOX", "address": {"city": "SANTA ROSA", "state": "CA", "street": "635 3RD ST", "postcode": "95404"}}},
{"geometry": {"type": "Point", "coordinates": [-122.7125004508, 38.440098838]}, "type": "Feature", "properties": {"collection_times": [{"days": "Mon-Fri", "time": "5:00pm"}, {"days": "Sat-Sun", "time": "Closed"}], "id": "9540400036", "name": "USPS COLLECTION BOX - BLUE BOX", "address": {"city": "SANTA ROSA", "state": "CA", "street": "635 3RD ST", "postcode": "95404"}}},
{"geometry": {"type": "Point", "coordinates": [-122.7054168404, 38.4432750002]}, "type": "Feature", "properties": {"collection_times": [{"days": "Mon-Fri", "time": "4:45pm"}, {"days": "Sat", "time": "1:00pm"}, {"days": "Sun", "time": "Closed"}], "id": "9540400037", "name": "USPS COLLECTION BOX - BLUE BOX", "address": {"city": "SANTA ROSA", "state": "CA", "street": "1050 3RD ST", "postcode": "95404"}}},
{"geometry": {"type": "Point", "coordinates": [-122.708142445, 38.4459597079]}, "type": "Feature", "properties": {"collection_times": [{"days": "Mon-Fri", "time": "5:00pm"}, {"days": "Sat-Sun", "time": "Closed"}], "id": "9540400038", "name": "USPS COLLECTION BOX - BLUE BOX", "address": {"city": "SANTA ROSA", "state": "CA", "street": "700 NORTH ST", "postcode": "95404"}}},
{"geometry": {"type": "Point", "coordinates": [-122.708142445, 38.4459597079]}, "type": "Feature", "properties": {"collection_times": [{"days": "Mon-Fri", "time": "5:00pm"}, {"days": "Sat-Sun", "time": "Closed"}], "id": "9540400039", "name": "USPS COLLECTION BOX - BLUE BOX", "address": {"city": "SANTA ROSA", "state": "CA", "street": "700 NORTH ST", "postcode": "95404"}}},
{"geometry": {"type": "Point", "coordinates": [-122.7039301082, 38.4514509068]}, "type": "Feature", "properties": {"collection_times": [{"days": "Mon-Sat", "time": "1:00pm"}, {"days": "Sun", "time": "Closed"}], "id": "9540400040", "name": "USPS COLLECTION BOX - BLUE BOX", "address": {"city": "SANTA ROSA", "state": "CA", "street": "1205 MCDONALD AVE", "postcode": "95404"}}},
{"geometry": {"type": "Point", "coordinates": [-122.7143590744, 38.4549288062]}, "type": "Feature", "properties": {"collection_times": [{"days": "Mon-Sat", "time": "1:00pm"}, {"days": "Sun", "time": "Closed"}], "id": "9540400041", "name": "USPS COLLECTION BOX - BLUE BOX", "address": {"city": "SANTA ROSA", "state": "CA", "street": "1500 HUMBOLDT ST", "postcode": "95404"}}},
{"geometry": {"type": "Point", "coordinates": [-122.7130388711, 38.441786986]}, "type": "Feature", "properties": {"collection_times": [{"days": "Mon-Fri", "time": "5:00pm"}, {"days": "Sat", "time": "1:00pm"}, {"days": "Sun", "time": "Closed"}], "id": "9540400042", "name": "USPS COLLECTION BOX - BLUE BOX", "address": {"city": "SANTA ROSA", "state": "CA", "street": "400 HUMBOLDT ST", "postcode": "95404"}}},
{"geometry": {"type": "Point", "coordinates": [-122.7131299801, 38.4393291263]}, "type": "Feature", "properties": {"collection_times": [{"days": "Mon-Fri", "time": "5:00pm"}, {"days": "Sat", "time": "1:00pm"}, {"days": "Sun", "time": "Closed"}], "id": "9540400049", "name": "USPS COLLECTION BOX - BLUE BOX", "address": {"city": "SANTA ROSA", "state": "CA", "street": "10 SANTA ROSA AVE", "postcode": "95404"}}},
{"geometry": {"type": "Point", "coordinates": [-122.7104044426, 38.4420842377]}, "type": "Feature", "properties": {"collection_times": [{"days": "Mon-Fri", "time": "5:00pm"}, {"days": "Sat", "time": "1:00pm"}, {"days": "Sun", "time": "Closed"}], "id": "9540400053", "name": "USPS COLLECTION BOX - BLUE BOX", "address": {"city": "SANTA ROSA", "state": "CA", "street": "801 4TH ST", "postcode": "95404"}}},
{"geometry": {"type": "Point", "coordinates": [-122.7118651292, 38.445534107]}, "type": "Feature", "properties": {"collection_times": [{"days": "Mon-Fri", "time": "5:00pm"}, {"days": "Sat-Sun", "time": "Closed"}], "id": "9540400055", "name": "USPS COLLECTION BOX - BLUE BOX", "address": {"city": "SANTA ROSA", "state": "CA", "street": "931 COLLEGE AVE", "postcode": "95404"}}},
{"geometry": {"type": "Point", "coordinates": [-122.7124178388, 38.4378196706]}, "type": "Feature", "properties": {"collection_times": [{"days": "Mon-Fri", "time": "4:45pm"}, {"days": "Sat-Sun", "time": "Closed"}], "id": "9540400058", "name": "USPS COLLECTION BOX - BLUE BOX", "address": {"city": "SANTA ROSA", "state": "CA", "street": "100 SANTA ROSA AVE", "postcode": "95404"}}},
{"geometry": {"type": "Point", "coordinates": [-122.7001399077, 38.4714015097]}, "type": "Feature", "properties": {"collection_times": [{"days": "Mon-Fri", "time": "1:15pm"}, {"days": "Sat", "time": "1:00pm"}, {"days": "Sun", "time": "Closed"}], "id": "9540400060", "name": "USPS COLLECTION BOX - BLUE BOX", "address": {"city": "SANTA ROSA", "state": "CA", "street": "3573 CHANATE RD", "postcode": "95404"}}},
{"geometry": {"type": "Point", "coordinates": [-122.7169887922, 38.4506784346]}, "type": "Feature", "properties": {"collection_times": [{"days": "Mon-Fri", "time": "5:00pm"}, {"days": "Sat-Sun", "time": "Closed"}], "id": "9540400066", "name": "USPS COLLECTION BOX - BLUE BOX", "address": {"city": "SANTA ROSA", "state": "CA", "street": "517 SPENCER AVE", "postcode": "95404"}}},
{"geometry": {"type": "Point", "coordinates": [-122.7047813395, 38.416538117]}, "type": "Feature", "properties": {"collection_times": [{"days": "Mon-Fri", "time": "1:15pm"}, {"days": "Sat", "time": "1:00pm"}, {"days": "Sun", "time": "Closed"}], "id": "9540400067", "name": "USPS COLLECTION BOX - BLUE BOX", "address": {"city": "SANTA ROSA", "state": "CA", "street": "787 KAWANA SPRINGS RD", "postcode": "95404"}}},
{"geometry": {"type": "Point", "coordinates": [-122.7125004508, 38.440098838]}, "type": "Feature", "properties": {"collection_times": [{"days": "Mon-Fri", "time": "5:00pm"}, {"days": "Sat-Sun", "time": "Closed"}], "id": "9540400068", "name": "USPS COLLECTION BOX - BLUE BOX", "address": {"city": "SANTA ROSA", "state": "CA", "street": "635 3RD ST", "postcode": "95404"}}},
{"geometry": {"type": "Point", "coordinates": [-122.6439602508, 38.3811622976]}, "type": "Feature", "properties": {"collection_times": [{"days": "Mon-Fri", "time": "5:00pm"}, {"days": "Sat", "time": "1:00pm"}, {"days": "Sun", "time": "Closed"}], "id": "9540400071", "name": "USPS COLLECTION BOX - BLUE BOX", "address": {"city": "SANTA ROSA", "state": "CA", "street": "1 ROCKY POINT WAY", "postcode": "95404"}}},
{"geometry": {"type": "Point", "coordinates": [-122.699783837, 38.4411982014]}, "type": "Feature", "properties": {"collection_times": [{"days": "Mon-Fri", "time": "5:00pm"}, {"days": "Sat", "time": "1:00pm"}, {"days": "Sun", "time": "Closed"}], "id": "9540500002", "name": "USPS COLLECTION BOX - BLUE BOX", "address": {"city": "SANTA ROSA", "state": "CA", "street": "1111 SONOMA AVE", "postcode": "95405"}}},
{"geometry": {"type": "Point", "coordinates": [-122.6674113051, 38.4264820902]}, "type": "Feature", "properties": {"collection_times": [{"days": "Mon-Fri", "time": "5:00pm"}, {"days": "Sat", "time": "1:00pm"}, {"days": "Sun", "time": "Closed"}], "id": "9540500005", "name": "USPS COLLECTION BOX - BLUE BOX", "address": {"city": "SANTA ROSA", "state": "CA", "street": "2781 YULUPA AVE", "postcode": "95405"}}},
{"geometry": {"type": "Point", "coordinates": [-122.6854751866, 38.4443203516]}, "type": "Feature", "properties": {"collection_times": [{"days": "Mon-Fri", "time": "5:00pm"}, {"days": "Sat-Sun", "time": "Closed"}], "id": "9540500009", "name": "USPS COLLECTION BOX - PO LOBBY", "address": {"city": "SANTA ROSA", "state": "CA", "street": "707 HAHMAN DR", "postcode": "95405"}}},
{"geometry": {"type": "Point", "coordinates": [-122.6989854685, 38.4434662318]}, "type": "Feature", "properties": {"collection_times": [{"days": "Mon-Fri", "time": "5:00pm"}, {"days": "Sat-Sun", "time": "Closed"}], "id": "9540500011", "name": "USPS COLLECTION BOX - BLUE BOX", "address": {"city": "SANTA ROSA", "state": "CA", "street": "1400 MONTGOMERY DR", "postcode": "95405"}}},
{"geometry": {"type": "Point", "coordinates": [-122.6735694664, 38.4531389892]}, "type": "Feature", "properties": {"collection_times": [{"days": "Mon-Fri", "time": "4:15pm"}, {"days": "Sat-Sun", "time": "Closed"}], "id": "9540500013", "name": "USPS COLLECTION BOX - BLUE BOX", "address": {"city": "SANTA ROSA", "state": "CA", "street": "4000 MONTGOMERY DR", "postcode": "95405"}}},
{"geometry": {"type": "Point", "coordinates": [-122.7037940679, 38.4429004794]}, "type": "Feature", "properties": {"collection_times": [{"days": "Mon-Fri", "time": "5:00pm"}, {"days": "Sat-Sun", "time": "Closed"}], "id": "9540500015", "name": "USPS COLLECTION BOX - BLUE BOX", "address": {"city": "SANTA ROSA", "state": "CA", "street": "95 MONTGOMERY DR", "postcode": "95405"}}},
{"geometry": {"type": "Point", "coordinates": [-122.6876047093, 38.4451985321]}, "type": "Feature", "properties": {"collection_times": [{"days": "Mon-Fri", "time": "5:00pm"}, {"days": "Sat-Sun", "time": "Closed"}], "id": "9540500017", "name": "USPS COLLECTION BOX - BLUE BOX", "address": {"city": "SANTA ROSA", "state": "CA", "street": "2308 MAGOWAN DR", "postcode": "95405"}}},
{"geometry": {"type": "Point", "coordinates": [-122.6765635355, 38.429708121]}, "type": "Feature", "properties": {"collection_times": [{"days": "Mon-Fri", "time": "3:30pm"}, {"days": "Sat", "time": "1:00pm"}, {"days": "Sun", "time": "Closed"}], "id": "9540500018", "name": "USPS COLLECTION BOX - BLUE BOX", "address": {"city": "SANTA ROSA", "state": "CA", "street": "2180 KNOLLS DR", "postcode": "95405"}}},
{"geometry": {"type": "Point", "coordinates": [-122.6632256732, 38.4428436974]}, "type": "Feature", "properties": {"collection_times": [{"days": "Mon-Fri", "time": "3:15pm"}, {"days": "Sat", "time": "1:00pm"}, {"days": "Sun", "time": "Closed"}], "id": "9540500020", "name": "USPS COLLECTION BOX - BLUE BOX", "address": {"city": "SANTA ROSA", "state": "CA", "street": "4781 HOEN AVE", "postcode": "95405"}}},
{"geometry": {"type": "Point", "coordinates": [-122.6684560052, 38.4395196212]}, "type": "Feature", "properties": {"collection_times": [{"days": "Mon-Fri", "time": "5:00pm"}, {"days": "Sat", "time": "1:00pm"}, {"days": "Sun", "time": "Closed"}], "id": "9540500024", "name": "USPS COLLECTION BOX - BLUE BOX", "address": {"city": "SANTA ROSA", "state": "CA", "street": "1700 HAHMAN DR", "postcode": "95405"}}},
{"geometry": {"type": "Point", "coordinates": [-122.6684560052, 38.4395196212]}, "type": "Feature", "properties": {"collection_times": [{"days": "Mon-Fri", "time": "5:00pm"}, {"days": "Sat", "time": "1:00pm"}, {"days": "Sun", "time": "Closed"}], "id": "9540500025", "name": "USPS COLLECTION BOX - BLUE BOX", "address": {"city": "SANTA ROSA", "state": "CA", "street": "1700 HAHMAN DR", "postcode": "95405"}}},
{"geometry": {"type": "Point", "coordinates": [-122.6682094793, 38.4276190155]}, "type": "Feature", "properties": {"collection_times": [{"days": "Mon-Fri", "time": "5:00pm"}, {"days": "Sat", "time": "1:00pm"}, {"days": "Sun", "time": "Closed"}], "id": "9540500026", "name": "USPS COLLECTION BOX - BLUE BOX", "address": {"city": "SANTA ROSA", "state": "CA", "street": "2700 YULUPA AVE", "postcode": "95405"}}},
{"geometry": {"type": "Point", "coordinates": [-122.691425049, 38.4500479175]}, "type": "Feature", "properties": {"collection_times": [{"days": "Mon-Fri", "time": "5:00pm"}, {"days": "Sat", "time": "1:00pm"}, {"days": "Sun", "time": "Closed"}], "id": "9540500028", "name": "USPS COLLECTION BOX - BLUE BOX", "address": {"city": "SANTA ROSA", "state": "CA", "street": "2751 4TH ST", "postcode": "95405"}}},
{"geometry": {"type": "Point", "coordinates": [-122.6754562859, 38.443402054]}, "type": "Feature", "properties": {"collection_times": [{"days": "Mon-Fri", "time": "3:15pm"}, {"days": "Sat", "time": "1:00pm"}, {"days": "Sun", "time": "Closed"}], "id": "9540500030", "name": "USPS COLLECTION BOX - BLUE BOX", "address": {"city": "SANTA ROSA", "state": "CA", "street": "3895 PRINCETON DR", "postcode": "95405"}}},
{"geometry": {"type": "Point", "coordinates": [-122.6927380392, 38.4430698359]}, "type": "Feature", "properties": {"collection_times": [{"days": "Mon-Fri", "time": "4:30pm"}, {"days": "Sat", "time": "1:00pm"}, {"days": "Sun", "time": "Closed"}], "id": "9540500032", "name": "USPS COLLECTION BOX - BLUE BOX", "address": {"city": "SANTA ROSA", "state": "CA", "street": "1820 SONOMA AVE", "postcode": "95405"}}},
{"geometry": {"type": "Point", "coordinates": [-122.6989854685, 38.4434662318]}, "type": "Feature", "properties": {"collection_times": [{"days": "Mon-Fri", "time": "5:00pm"}, {"days": "Sat-Sun", "time": "Closed"}], "id": "9540500034", "name": "USPS COLLECTION BOX - BLUE BOX", "address": {"city": "SANTA ROSA", "state": "CA", "street": "1400 MONTGOMERY DR", "postcode": "95405"}}},
{"geometry": {"type": "Point", "coordinates": [-122.6684560052, 38.4395196212]}, "type": "Feature", "properties": {"collection_times": [{"days": "Mon-Fri", "time": "5:00pm"}, {"days": "Sat", "time": "1:00pm"}, {"days": "Sun", "time": "Closed"}], "id": "9540500037", "name": "USPS COLLECTION BOX - BLUE BOX", "address": {"city": "SANTA ROSA", "state": "CA", "street": "1700 HAHMAN DR", "postcode": "95405"}}},
{"geometry": {"type": "Point", "coordinates": [-122.6956943479, 38.4423172806]}, "type": "Feature", "properties": {"collection_times": [{"days": "Mon-Fri", "time": "4:30pm"}, {"days": "Sat", "time": "1:00pm"}, {"days": "Sun", "time": "Closed"}], "id": "9540500039", "name": "USPS COLLECTION BOX - BLUE BOX", "address": {"city": "SANTA ROSA", "state": "CA", "street": "1540 SONOMA AVE", "postcode": "95405"}}},
{"geometry": {"type": "Point", "coordinates": [-122.7014198693, 38.442221461]}, "type": "Feature", "properties": {"collection_times": [{"days": "Mon-Fri", "time": "5:00pm"}, {"days": "Sat-Sun", "time": "Closed"}], "id": "9540500040", "name": "USPS COLLECTION BOX - BLUE BOX", "address": {"city": "SANTA ROSA", "state": "CA", "street": "121 SOTOYOME ST", "postcode": "95405"}}},
{"geometry": {"type": "Point", "coordinates": [-122.7014198693, 38.442221461]}, "type": "Feature", "properties": {"collection_times": [{"days": "Mon-Fri", "time": "5:00pm"}, {"days": "Sat-Sun", "time": "Closed"}], "id": "9540500041", "name": "USPS COLLECTION BOX - BLUE BOX", "address": {"city": "SANTA ROSA", "state": "CA", "street": "121 SOTOYOME ST", "postcode": "95405"}}},
{"geometry": {"type": "Point", "coordinates": [-122.6854751866, 38.4443203516]}, "type": "Feature", "properties": {"collection_times": [{"days": "Mon-Sat", "time": "5:00pm"}, {"days": "Sun", "time": "Closed"}], "id": "9540500043", "name": "USPS COLLECTION BOX - BLUE BOX", "address": {"city": "SANTA ROSA", "state": "CA", "street": "707 HAHMAN DR", "postcode": "95405"}}},
{"geometry": {"type": "Point", "coordinates": [-122.6854751866, 38.4443203516]}, "type": "Feature", "properties": {"collection_times": [{"days": "Mon-Sat", "time": "5:00pm"}, {"days": "Sun", "time": "Closed"}], "id": "9540500044", "name": "USPS COLLECTION BOX - BLUE BOX", "address": {"city": "SANTA ROSA", "state": "CA", "street": "707 HAHMAN DR", "postcode": "95405"}}},
{"geometry": {"type": "Point", "coordinates": [-122.7531969338, 38.4156081077]}, "type": "Feature", "properties": {"collection_times": [{"days": "Mon-Fri", "time": "3:00pm"}, {"days": "Sat", "time": "1:00pm"}, {"days": "Sun", "time": "Closed"}], "id": "9540700012", "name": "USPS COLLECTION BOX - BLUE BOX", "address": {"city": "SANTA ROSA", "state": "CA", "street": "2250 NORTHPOINT PKWY", "postcode": "95407"}}},
{"geometry": {"type": "Point", "coordinates": [-122.723482054, 38.4146620659]}, "type": "Feature", "properties": {"collection_times": [{"days": "Mon-Sat", "time": "2:00pm"}, {"days": "Sun", "time": "Closed"}], "id": "9540700013", "name": "USPS COLLECTION BOX - BLUE BOX", "address": {"city": "SANTA ROSA", "state": "CA", "street": "2455 DUTTON AVE", "postcode": "95407"}}},
{"geometry": {"type": "Point", "coordinates": [-122.7478947781, 38.4263662619]}, "type": "Feature", "properties": {"collection_times": [{"days": "Mon-Fri", "time": "5:00pm"}, {"days": "Sat", "time": "2:15pm"}, {"days": "Sun", "time": "Closed"}], "id": "9540700014", "name": "USPS COLLECTION BOX - BLUE BOX", "address": {"city": "SANTA ROSA", "state": "CA", "street": "2585 SEBASTOPOL RD", "postcode": "95407"}}},
{"geometry": {"type": "Point", "coordinates": [-122.7478947781, 38.4263662619]}, "type": "Feature", "properties": {"collection_times": [{"days": "Mon-Fri", "time": "5:00pm"}, {"days": "Sat-Sun", "time": "Closed"}], "id": "9540700015", "name": "USPS COLLECTION BOX - PO LOBBY", "address": {"city": "SANTA ROSA", "state": "CA", "street": "2585 SEBASTOPOL RD", "postcode": "95407"}}},
{"geometry": {"type": "Point", "coordinates": [-122.7478947781, 38.4263662619]}, "type": "Feature", "properties": {"collection_times": [{"days": "Mon-Fri", "time": "5:00pm"}, {"days": "Sat", "time": "2:15pm"}, {"days": "Sun", "time": "Closed"}], "id": "9540700016", "name": "USPS COLLECTION BOX - BLUE BOX", "address": {"city": "SANTA ROSA", "state": "CA", "street": "2585 SEBASTOPOL RD", "postcode": "95407"}}},
{"geometry": {"type": "Point", "coordinates": [-122.7509325046, 38.424502145]}, "type": "Feature", "properties": {"collection_times": [{"days": "Mon-Fri", "time": "2:00pm"}, {"days": "Sat-Sun", "time": "Closed"}], "id": "9540700019", "name": "USPS COLLECTION BOX - BLUE BOX", "address": {"city": "SANTA ROSA", "state": "CA", "street": "2255 CAPRICORN WAY", "postcode": "95407"}}},
{"geometry": {"type": "Point", "coordinates": [-122.7478947781, 38.4263662619]}, "type": "Feature", "properties": {"collection_times": [{"days": "Mon-Fri", "time": "5:00pm"}, {"days": "Sat", "time": "2:15pm"}, {"days": "Sun", "time": "Closed"}], "id": "9540700025", "name": "USPS COLLECTION BOX - BLUE BOX", "address": {"city": "SANTA ROSA", "state": "CA", "street": "2585 SEBASTOPOL RD", "postcode": "95407"}}},
{"geometry": {"type": "Point", "coordinates": [-122.7207281255, 38.4018245953]}, "type": "Feature", "properties": {"collection_times": [{"days": "Mon-Sat", "time": "12:00pm"}, {"days": "Sun", "time": "Closed"}], "id": "9540700026", "name": "USPS COLLECTION BOX - BLUE BOX", "address": {"city": "SANTA ROSA", "state": "CA", "street": "200 BELLEVUE AVE", "postcode": "95407"}}},
{"geometry": {"type": "Point", "coordinates": [-122.7232738532, 38.3987027665]}, "type": "Feature", "properties": {"collection_times": [{"days": "Mon-Sat", "time": "12:00pm"}, {"days": "Sun", "time": "Closed"}], "id": "9540700027", "name": "USPS COLLECTION BOX - BLUE BOX", "address": {"city": "SANTA ROSA", "state": "CA", "street": "3200 DUTTON AVE", "postcode": "95407"}}},
{"geometry": {"type": "Point", "coordinates": [-122.7546956092, 38.4210500444]}, "type": "Feature", "properties": {"collection_times": [{"days": "Mon-Fri", "time": "2:00pm"}, {"days": "Sat-Sun", "time": "Closed"}], "id": "9540700030", "name": "USPS COLLECTION BOX - BLUE BOX", "address": {"city": "SANTA ROSA", "state": "CA", "street": "2331 CIRCADIAN WAY", "postcode": "95407"}}},
{"geometry": {"type": "Point", "coordinates": [-122.7509325046, 38.424502145]}, "type": "Feature", "properties": {"collection_times": [{"days": "Mon-Fri", "time": "2:00pm"}, {"days": "Sat-Sun", "time": "Closed"}], "id": "9540700038", "name": "USPS COLLECTION BOX - BLUE BOX", "address": {"city": "SANTA ROSA", "state": "CA", "street": "2255 CAPRICORN WAY", "postcode": "95407"}}},
{"geometry": {"type": "Point", "coordinates": [-122.7231674843, 38.3898890333]}, "type": "Feature", "properties": {"collection_times": [{"days": "Mon-Sat", "time": "12:00pm"}, {"days": "Sun", "time": "Closed"}], "id": "9540700039", "name": "USPS COLLECTION BOX - BLUE BOX", "address": {"city": "SANTA ROSA", "state": "CA", "street": "3550 STANDISH AVE", "postcode": "95407"}}},
{"geometry": {"type": "Point", "coordinates": [-122.7135712238, 38.3887020315]}, "type": "Feature", "properties": {"collection_times": [{"days": "Mon-Sat", "time": "11:50am"}, {"days": "Sun", "time": "Closed"}], "id": "9540700043", "name": "USPS COLLECTION BOX - BLUE BOX", "address": {"city": "SANTA ROSA", "state": "CA", "street": "3715 SANTA ROSA AVE", "postcode": "95407"}}},
{"geometry": {"type": "Point", "coordinates": [-122.764361331, 38.425222653]}, "type": "Feature", "properties": {"collection_times": [{"days": "Mon-Sat", "time": "1:00pm"}, {"days": "Sun", "time": "Closed"}], "id": "9540700047", "name": "USPS COLLECTION BOX - BLUE BOX", "address": {"city": "SANTA ROSA", "state": "CA", "street": "3931 SEBASTOPOL RD", "postcode": "95407"}}},
{"geometry": {"type": "Point", "coordinates": [-122.6022145646, 38.4421812403]}, "type": "Feature", "properties": {"collection_times": [{"days": "Mon-Fri", "time": "2:30pm"}, {"days": "Sat", "time": "1:00pm"}, {"days": "Sun", "time": "Closed"}], "id": "9540900002", "name": "USPS COLLECTION BOX - BLUE BOX", "address": {"city": "SANTA ROSA", "state": "CA", "street": "301 WHITE OAK DR", "postcode": "95409"}}},
{"geometry": {"type": "Point", "coordinates": [-122.673564188, 38.4751371976]}, "type": "Feature", "properties": {"collection_times": [{"days": "Mon-Fri", "time": "5:00pm"}, {"days": "Sat", "time": "1:00pm"}, {"days": "Sun", "time": "Closed"}], "id": "9540900005", "name": "USPS COLLECTION BOX - BLUE BOX", "address": {"city": "SANTA ROSA", "state": "CA", "street": "748 MONTECITO CNT", "postcode": "95409"}}},
{"geometry": {"type": "Point", "coordinates": [-122.5771725062, 38.4308508594]}, "type": "Feature", "properties": {"collection_times": [{"days": "Mon-Fri", "time": "2:15pm"}, {"days": "Sat", "time": "1:00pm"}, {"days": "Sun", "time": "Closed"}], "id": "9540900008", "name": "USPS COLLECTION BOX - BLUE BOX", "address": {"city": "SANTA ROSA", "state": "CA", "street": "8900 OAKMONT DR", "postcode": "95409"}}},
{"geometry": {"type": "Point", "coordinates": [-122.6888217449, 38.4497372812]}, "type": "Feature", "properties": {"collection_times": [{"days": "Mon-Fri", "time": "5:00pm"}, {"days": "Sat", "time": "1:00pm"}, {"days": "Sun", "time": "Closed"}], "id": "9540900009", "name": "USPS COLLECTION BOX - BLUE BOX", "address": {"city": "SANTA ROSA", "state": "CA", "street": "2777 4TH ST", "postcode": "95409"}}},
{"geometry": {"type": "Point", "coordinates": [-122.6741337378, 38.4574828146]}, "type": "Feature", "properties": {"collection_times": [{"days": "Mon-Fri", "time": "5:00pm"}, {"days": "Sat", "time": "1:00pm"}, {"days": "Sun", "time": "Closed"}], "id": "9540900010", "name": "USPS COLLECTION BOX - BLUE BOX", "address": {"city": "SANTA ROSA", "state": "CA", "street": "52 MISSION PLZ", "postcode": "95409"}}},
{"geometry": {"type": "Point", "coordinates": [-122.6533123806, 38.4650150872]}, "type": "Feature", "properties": {"collection_times": [{"days": "Mon-Fri", "time": "5:00pm"}, {"days": "Sat", "time": "1:00pm"}, {"days": "Sun", "time": "Closed"}], "id": "9540900013", "name": "USPS COLLECTION BOX - BLUE BOX", "address": {"city": "SANTA ROSA", "state": "CA", "street": "102 CALISTOGA RD", "postcode": "95409"}}},
{"geometry": {"type": "Point", "coordinates": [-122.5868396469, 38.4349308849]}, "type": "Feature", "properties": {"collection_times": [{"days": "Mon-Fri", "time": "2:30pm"}, {"days": "Sat", "time": "1:00pm"}, {"days": "Sun", "time": "Closed"}], "id": "9540900014", "name": "USPS COLLECTION BOX - BLUE BOX", "address": {"city": "SANTA ROSA", "state": "CA", "street": "206 VALLEY OAKS DR", "postcode": "95409"}}},
{"geometry": {"type": "Point", "coordinates": [-122.6435648952, 38.457526584]}, "type": "Feature", "properties": {"collection_times": [{"days": "Mon-Fri", "time": "2:15pm"}, {"days": "Sat", "time": "1:00pm"}, {"days": "Sun", "time": "Closed"}], "id": "9540900016", "name": "USPS COLLECTION BOX - BLUE BOX", "address": {"city": "SANTA ROSA", "state": "CA", "street": "5555 MONTGOMERY DR", "postcode": "95409"}}},
{"geometry": {"type": "Point", "coordinates": [-122.6042719123, 38.4408449796]}, "type": "Feature", "properties": {"collection_times": [{"days": "Mon-Fri", "time": "4:30pm"}, {"days": "Sat", "time": "1:00pm"}, {"days": "Sun", "time": "Closed"}], "id": "9540900017", "name": "USPS COLLECTION BOX - BLUE BOX", "address": {"city": "SANTA ROSA", "state": "CA", "street": "300 WHITE OAK DR", "postcode": "95409"}}},
{"geometry": {"type": "Point", "coordinates": [-122.6284056284, 38.45621636]}, "type": "Feature", "properties": {"collection_times": [{"days": "Mon-Fri", "time": "4:30pm"}, {"days": "Sat", "time": "1:00pm"}, {"days": "Sun", "time": "Closed"}], "id": "9540900019", "name": "USPS COLLECTION BOX - BLUE BOX", "address": {"city": "SANTA ROSA", "state": "CA", "street": "5875 SONOMA HWY", "postcode": "95409"}}},
{"geometry": {"type": "Point", "coordinates": [-122.6533123806, 38.4650150872]}, "type": "Feature", "properties": {"collection_times": [{"days": "Mon-Fri", "time": "5:00pm"}, {"days": "Sat", "time": "1:00pm"}, {"days": "Sun", "time": "Closed"}], "id": "9540900020", "name": "USPS COLLECTION BOX - BLUE BOX", "address": {"city": "SANTA ROSA", "state": "CA", "street": "102 CALISTOGA RD", "postcode": "95409"}}},
{"geometry": {"type": "Point", "coordinates": [-122.6722413322, 38.4755166835]}, "type": "Feature", "properties": {"collection_times": [{"days": "Mon-Fri", "time": "5:00pm"}, {"days": "Sat", "time": "1:00pm"}, {"days": "Sun", "time": "Closed"}], "id": "9540900021", "name": "USPS COLLECTION BOX - BLUE BOX", "address": {"city": "SANTA ROSA", "state": "CA", "street": "775 MIDDLE RINCON RD", "postcode": "95409"}}},
{"geometry": {"type": "Point", "coordinates": [-123.682236, 39.233974]}, "type": "Feature", "properties": {"collection_times": [{"days": "Mon-Fri", "time": "2:00pm"}, {"days": "Sat", "time": "10:30am"}, {"days": "Sun", "time": "Closed"}], "id": "9541000003", "name": "USPS COLLECTION BOX - PO LOBBY", "address": {"city": "ALBION", "state": "CA", "street": "3350 ALBION RIDGE RD", "postcode": "95410"}}},
{"geometry": {"type": "Point", "coordinates": [-123.682236, 39.233974]}, "type": "Feature", "properties": {"collection_times": [{"days": "Mon-Fri", "time": "2:00pm"}, {"days": "Sat", "time": "10:30am"}, {"days": "Sun", "time": "Closed"}], "id": "9541000004", "name": "USPS COLLECTION BOX - BLUE BOX", "address": {"city": "ALBION", "state": "CA", "street": "3350 ALBION RIDGE RD", "postcode": "95410"}}},
{"geometry": {"type": "Point", "coordinates": [-123.4121180259, 39.0471614623]}, "type": "Feature", "properties": {"collection_times": [{"days": "Mon-Fri", "time": "3:00pm"}, {"days": "Sat", "time": "10:00am"}, {"days": "Sun", "time": "Closed"}], "id": "9541500003", "name": "USPS COLLECTION BOX - BLUE BOX", "address": {"city": "BOONVILLE", "state": "CA", "street": "14170 HIGHWAY 128", "postcode": "95415"}}},
{"geometry": {"type": "Point", "coordinates": [-123.4121180259, 39.0471614623]}, "type": "Feature", "properties": {"collection_times": [{"days": "Mon-Fri", "time": "3:00pm"}, {"days": "Sat", "time": "10:00am"}, {"days": "Sun", "time": "Closed"}], "id": "9541500004", "name": "USPS COLLECTION BOX - PO LOBBY", "address": {"city": "BOONVILLE", "state": "CA", "street": "14170 HIGHWAY 128", "postcode": "95415"}}},
{"geometry": {"type": "Point", "coordinates": [-122.4583758916, 38.2881193495]}, "type": "Feature", "properties": {"collection_times": [{"days": "Mon-Fri", "time": "5:00pm"}, {"days": "Sat-Sun", "time": "Closed"}], "id": "9541600005", "name": "USPS COLLECTION BOX - PO LOBBY", "address": {"city": "BOYES HOT SPG", "state": "CA", "street": "18092 SONOMA HWY", "postcode": "95416"}}},
{"geometry": {"type": "Point", "coordinates": [-123.2095065666, 39.150311368]}, "type": "Feature", "properties": {"collection_times": [{"days": "Mon-Fri", "time": "4:00pm"}, {"days": "Sat", "time": "12:00pm"}, {"days": "Sun", "time": "Closed"}], "id": "9541800001", "name": "USPS COLLECTION BOX - BLUE BOX", "address": {"city": "CALPELLA", "state": "CA", "street": "6260 N STATE ST", "postcode": "95418"}}},
{"geometry": {"type": "Point", "coordinates": [-122.956948169, 38.4244602527]}, "type": "Feature", "properties": {"collection_times": [{"days": "Mon-Fri", "time": "4:15pm"}, {"days": "Sat", "time": "11:45am"}, {"days": "Sun", "time": "Closed"}], "id": "9541900003", "name": "USPS COLLECTION BOX - BLUE BOX", "address": {"city": "CAMP MEEKER", "state": "CA", "street": "5240 BOHEMIAN HWY", "postcode": "95419"}}},
{"geometry": {"type": "Point", "coordinates": [-123.0880734503, 38.5358249801]}, "type": "Feature", "properties": {"collection_times": [{"days": "Mon-Fri", "time": "4:15pm"}, {"days": "Sat", "time": "10:30am"}, {"days": "Sun", "time": "Closed"}], "id": "9542100003", "name": "USPS COLLECTION BOX - BLUE BOX", "address": {"city": "CAZADERO", "state": "CA", "street": "6145 CAZADERO HWY", "postcode": "95421"}}},
{"geometry": {"type": "Point", "coordinates": [-123.0880734503, 38.5358249801]}, "type": "Feature", "properties": {"collection_times": [{"days": "Mon-Fri", "time": "4:15pm"}, {"days": "Sat", "time": "10:30am"}, {"days": "Sun", "time": "Closed"}], "id": "9542100004", "name": "USPS COLLECTION BOX - PO LOBBY", "address": {"city": "CAZADERO", "state": "CA", "street": "6145 CAZADERO HWY", "postcode": "95421"}}},
{"geometry": {"type": "Point", "coordinates": [-122.6344105199, 38.961879433]}, "type": "Feature", "properties": {"collection_times": [{"days": "Mon-Sat", "time": "11:00am"}, {"days": "Sun", "time": "Closed"}], "id": "9542200011", "name": "USPS COLLECTION BOX - BLUE BOX", "address": {"city": "CLEARLAKE", "state": "CA", "street": "14822 OLYMPIC DR", "postcode": "95422"}}},
{"geometry": {"type": "Point", "coordinates": [-122.6124918856, 38.9261307886]}, "type": "Feature", "properties": {"collection_times": [{"days": "Mon-Sat", "time": "11:00am"}, {"days": "Sun", "time": "Closed"}], "id": "9542200012", "name": "USPS COLLECTION BOX - BLUE BOX", "address": {"city": "CLEARLAKE", "state": "CA", "street": "15960 DAM RD", "postcode": "95422"}}},
{"geometry": {"type": "Point", "coordinates": [-122.626416626, 38.9500172861]}, "type": "Feature", "properties": {"collection_times": [{"days": "Mon-Sat", "time": "9:30am"}, {"days": "Sun", "time": "Closed"}], "id": "9542200013", "name": "USPS COLLECTION BOX - BLUE BOX", "address": {"city": "CLEARLAKE", "state": "CA", "street": "15292 LAKESHORE DR", "postcode": "95422"}}},
{"geometry": {"type": "Point", "coordinates": [-122.6388328171, 38.9618892892]}, "type": "Feature", "properties": {"collection_times": [{"days": "Mon-Fri", "time": "4:00pm"}, {"days": "Sat", "time": "11:00am"}, {"days": "Sun", "time": "Closed"}], "id": "9542200016", "name": "USPS COLLECTION BOX - BLUE BOX", "address": {"city": "CLEARLAKE", "state": "CA", "street": "14500 OLYMPIC DR", "postcode": "95422"}}},
{"geometry": {"type": "Point", "coordinates": [-122.6388328171, 38.9618892892]}, "type": "Feature", "properties": {"collection_times": [{"days": "Mon-Fri", "time": "4:00pm"}, {"days": "Sat", "time": "11:00am"}, {"days": "Sun", "time": "Closed"}], "id": "9542200017", "name": "USPS COLLECTION BOX - BLUE BOX", "address": {"city": "CLEARLAKE", "state": "CA", "street": "14500 OLYMPIC DR", "postcode": "95422"}}},
{"geometry": {"type": "Point", "coordinates": [-122.6388328171, 38.9618892892]}, "type": "Feature", "properties": {"collection_times": [{"days": "Mon-Fri", "time": "4:00pm"}, {"days": "Sat", "time": "11:00am"}, {"days": "Sun", "time": "Closed"}], "id": "9542200019", "name": "USPS COLLECTION BOX - BLUE BOX", "address": {"city": "CLEARLAKE", "state": "CA", "street": "14500 OLYMPIC DR", "postcode": "95422"}}},
{"geometry": {"type": "Point", "coordinates": [-122.6388328171, 38.9618892892]}, "type": "Feature", "properties": {"collection_times": [{"days": "Mon-Fri", "time": "4:15pm"}, {"days": "Sat", "time": "11:00am"}, {"days": "Sun", "time": "Closed"}], "id": "9542200020", "name": "USPS COLLECTION BOX - PO LOBBY", "address": {"city": "CLEARLAKE", "state": "CA", "street": "14500 OLYMPIC DR", "postcode": "95422"}}},
{"geometry": {"type": "Point", "coordinates": [-122.6215943238, 38.9507299863]}, "type": "Feature", "properties": {"collection_times": [{"days": "Mon-Fri", "time": "10:00am"}, {"days": "Sat", "time": "11:00am"}, {"days": "Sun", "time": "Closed"}], "id": "9542200021", "name": "USPS COLLECTION BOX - BLUE BOX", "address": {"city": "CLEARLAKE", "state": "CA", "street": "15896 40TH AVE", "postcode": "95422"}}},
{"geometry": {"type": "Point", "coordinates": [-122.6317946661, 39.0130060436]}, "type": "Feature", "properties": {"collection_times": [{"days": "Mon-Fri", "time": "3:30pm"}, {"days": "Sat", "time": "9:00am"}, {"days": "Sun", "time": "Closed"}], "id": "9542300005", "name": "USPS COLLECTION BOX - PO LOBBY", "address": {"city": "CLEARLAKE OAKS", "state": "CA", "street": "13280 E HIGHWAY 20", "postcode": "95423"}}},
{"geometry": {"type": "Point", "coordinates": [-122.6317946661, 39.0130060436]}, "type": "Feature", "properties": {"collection_times": [{"days": "Mon-Fri", "time": "3:30pm"}, {"days": "Sat", "time": "9:00am"}, {"days": "Sun", "time": "Closed"}], "id": "9542300006", "name": "USPS COLLECTION BOX - BLUE BOX", "address": {"city": "CLEARLAKE OAKS", "state": "CA", "street": "13280 E HIGHWAY 20", "postcode": "95423"}}},
{"geometry": {"type": "Point", "coordinates": [-122.6317946661, 39.0130060436]}, "type": "Feature", "properties": {"collection_times": [{"days": "Mon-Fri", "time": "3:30pm"}, {"days": "Sat", "time": "9:00am"}, {"days": "Sun", "time": "Closed"}], "id": "9542300007", "name": "USPS COLLECTION BOX - BLUE BOX", "address": {"city": "CLEARLAKE OAKS", "state": "CA", "street": "13280 E HIGHWAY 20", "postcode": "95423"}}},
{"geometry": {"type": "Point", "coordinates": [-122.5742355462, 39.0339456979]}, "type": "Feature", "properties": {"collection_times": [{"days": "Mon-Sat", "time": "10:00am"}, {"days": "Sun", "time": "Closed"}], "id": "9542300009", "name": "USPS COLLECTION BOX - BLUE BOX", "address": {"city": "CLEARLAKE OAKS", "state": "CA", "street": "1578 NEW LONG VALLEY RD", "postcode": "95423"}}},
{"geometry": {"type": "Point", "coordinates": [-122.6530646411, 38.9666067075]}, "type": "Feature", "properties": {"collection_times": [{"days": "Mon-Fri", "time": "4:15pm"}, {"days": "Sat", "time": "8:30am"}, {"days": "Sun", "time": "Closed"}], "id": "9542400004", "name": "USPS COLLECTION BOX - BLUE BOX", "address": {"city": "CLEARLAKE PARK", "state": "CA", "street": "13417 LAKESHORE BLVD", "postcode": "95424"}}},
{"geometry": {"type": "Point", "coordinates": [-122.6530646411, 38.9666067075]}, "type": "Feature", "properties": {"collection_times": [{"days": "Mon-Fri", "time": "3:00pm"}, {"days": "Sat-Sun", "time": "Closed"}], "id": "9542400005", "name": "USPS COLLECTION BOX - PO LOBBY", "address": {"city": "CLEARLAKE PARK", "state": "CA", "street": "13417 LAKESHORE BLVD", "postcode": "95424"}}},
{"geometry": {"type": "Point", "coordinates": [-123.0174394595, 38.8055226329]}, "type": "Feature", "properties": {"collection_times": [{"days": "Mon-Sat", "time": "1:00pm"}, {"days": "Sun", "time": "Closed"}], "id": "9542500015", "name": "USPS COLLECTION BOX - BLUE BOX", "address": {"city": "CLOVERDALE", "state": "CA", "street": "129 N CLOVERDALE BLVD", "postcode": "95425"}}},
{"geometry": {"type": "Point", "coordinates": [-123.0164229818, 38.8091212515]}, "type": "Feature", "properties": {"collection_times": [{"days": "Mon-Sat", "time": "9:00am"}, {"days": "Sun", "time": "Closed"}], "id": "9542500020", "name": "USPS COLLECTION BOX - BLUE BOX", "address": {"city": "CLOVERDALE", "state": "CA", "street": "103 KINGS CIR", "postcode": "95425"}}},
{"geometry": {"type": "Point", "coordinates": [-123.0168976892, 38.8061111546]}, "type": "Feature", "properties": {"collection_times": [{"days": "Mon-Fri", "time": "5:00pm"}, {"days": "Sat", "time": "2:00pm"}, {"days": "Sun", "time": "Closed"}], "id": "9542500022", "name": "USPS COLLECTION BOX - BLUE BOX", "address": {"city": "CLOVERDALE", "state": "CA", "street": "115 BROAD ST", "postcode": "95425"}}},
{"geometry": {"type": "Point", "coordinates": [-123.0138400876, 38.7855497728]}, "type": "Feature", "properties": {"collection_times": [{"days": "Mon-Sat", "time": "10:00am"}, {"days": "Sun", "time": "Closed"}], "id": "9542500023", "name": "USPS COLLECTION BOX - BLUE BOX", "address": {"city": "CLOVERDALE", "state": "CA", "street": "1139 S CLOVERDALE BLVD", "postcode": "95425"}}},
{"geometry": {"type": "Point", "coordinates": [-123.0144189608, 38.7991669503]}, "type": "Feature", "properties": {"collection_times": [{"days": "Mon-Sat", "time": "10:00am"}, {"days": "Sun", "time": "Closed"}], "id": "9542500024", "name": "USPS COLLECTION BOX - BLUE BOX", "address": {"city": "CLOVERDALE", "state": "CA", "street": "19 CLARK AVE", "postcode": "95425"}}},
{"geometry": {"type": "Point", "coordinates": [-123.0211418018, 38.7900532814]}, "type": "Feature", "properties": {"collection_times": [{"days": "Mon-Sat", "time": "11:00am"}, {"days": "Sun", "time": "Closed"}], "id": "9542500025", "name": "USPS COLLECTION BOX - BLUE BOX", "address": {"city": "CLOVERDALE", "state": "CA", "street": "210 RED MOUNTAIN DR", "postcode": "95425"}}},
{"geometry": {"type": "Point", "coordinates": [-123.0168976892, 38.8061111546]}, "type": "Feature", "properties": {"collection_times": [{"days": "Mon-Fri", "time": "5:00pm"}, {"days": "Sat", "time": "2:00pm"}, {"days": "Sun", "time": "Closed"}], "id": "9542500026", "name": "USPS COLLECTION BOX - PO LOBBY", "address": {"city": "CLOVERDALE", "state": "CA", "street": "115 BROAD ST", "postcode": "95425"}}},
{"geometry": {"type": "Point", "coordinates": [-123.017574565, 38.791866092]}, "type": "Feature", "properties": {"collection_times": [{"days": "Mon-Fri", "time": "4:00pm"}, {"days": "Sat-Sun", "time": "Closed"}], "id": "9542500033", "name": "USPS COLLECTION BOX - BLUE BOX", "address": {"city": "CLOVERDALE", "state": "CA", "street": "790 S CLOVERDALE BLVD", "postcode": "95425"}}},
{"geometry": {"type": "Point", "coordinates": [-119.2702268805, 36.3741071704]}, "type": "Feature", "properties": {"collection_times": [{"days": "Mon-Fri", "time": "4:00pm"}, {"days": "Sat", "time": "10:00am"}, {"days": "Sun", "time": "Closed"}], "id": "9542600003", "name": "USPS COLLECTION BOX - BLUE BOX", "address": {"city": "COBB", "state": "CA", "street": "16595 HIGHWAY 175", "postcode": "95426"}}},
{"geometry": {"type": "Point", "coordinates": [-119.2702268805, 36.3741071704]}, "type": "Feature", "properties": {"collection_times": [{"days": "Mon-Fri", "time": "4:30pm"}, {"days": "Sat", "time": "10:00am"}, {"days": "Sun", "time": "Closed"}], "id": "9542600004", "name": "USPS COLLECTION BOX - PO LOBBY", "address": {"city": "COBB", "state": "CA", "street": "16595 HIGHWAY 175", "postcode": "95426"}}},
{"geometry": {"type": "Point", "coordinates": [-123.5932028167, 39.2649961914]}, "type": "Feature", "properties": {"collection_times": [{"days": "Mon-Sat", "time": "11:00am"}, {"days": "Sun", "time": "Closed"}], "id": "9542700003", "name": "USPS COLLECTION BOX - BLUE BOX", "address": {"city": "COMPTCHE", "state": "CA", "street": "31101 COMPTCHE UKIAH RD", "postcode": "95427"}}},
{"geometry": {"type": "Point", "coordinates": [-123.5932028167, 39.2649961914]}, "type": "Feature", "properties": {"collection_times": [{"days": "Mon-Sat", "time": "11:00am"}, {"days": "Sun", "time": "Closed"}], "id": "9542700004", "name": "USPS COLLECTION BOX - PO LOBBY", "address": {"city": "COMPTCHE", "state": "CA", "street": "31101 COMPTCHE UKIAH RD", "postcode": "95427"}}},
{"geometry": {"type": "Point", "coordinates": [-123.2524183966, 39.7940973178]}, "type": "Feature", "properties": {"collection_times": [{"days": "Mon-Fri", "time": "2:00pm"}, {"days": "Sat", "time": "1:00pm"}, {"days": "Sun", "time": "Closed"}], "id": "9542800003", "name": "USPS COLLECTION BOX - BLUE BOX", "address": {"city": "COVELO", "state": "CA", "street": "23951 HOWARD ST", "postcode": "95428"}}},
{"geometry": {"type": "Point", "coordinates": [-123.2524183966, 39.7940973178]}, "type": "Feature", "properties": {"collection_times": [{"days": "Mon-Fri", "time": "2:00pm"}, {"days": "Sat", "time": "1:00pm"}, {"days": "Sun", "time": "Closed"}], "id": "9542800004", "name": "USPS COLLECTION BOX - PO LOBBY", "address": {"city": "COVELO", "state": "CA", "street": "23951 HOWARD ST", "postcode": "95428"}}},
{"geometry": {"type": "Point", "coordinates": [-122.9405945872, 38.3983438507]}, "type": "Feature", "properties": {"collection_times": [{"days": "Mon-Fri", "time": "3:45pm"}, {"days": "Sat", "time": "8:45am"}, {"days": "Sun", "time": "Closed"}], "id": "9543000002", "name": "USPS COLLECTION BOX - BLUE BOX", "address": {"city": "DUNCANS MILLS", "state": "CA", "street": "25375 STEELHEAD BLVD", "postcode": "95430"}}},
{"geometry": {"type": "Point", "coordinates": [-122.9405945872, 38.3983438507]}, "type": "Feature", "properties": {"collection_times": [{"days": "Mon-Fri", "time": "3:45pm"}, {"days": "Sat", "time": "8:45am"}, {"days": "Sun", "time": "Closed"}], "id": "9543000003", "name": "USPS COLLECTION BOX - BLUE BOX", "address": {"city": "DUNCANS MILLS", "state": "CA", "street": "25375 STEELHEAD BLVD", "postcode": "95430"}}},
{"geometry": {"type": "Point", "coordinates": [-122.5254028454, 38.3587877752]}, "type": "Feature", "properties": {"collection_times": [{"days": "Mon-Fri", "time": "3:30pm"}, {"days": "Sat-Sun", "time": "Closed"}], "id": "9543100003", "name": "USPS COLLECTION BOX - BLUE BOX", "address": {"city": "ELDRIDGE", "state": "CA", "street": "15000 ARNOLD DR", "postcode": "95431"}}},
{"geometry": {"type": "Point", "coordinates": [-122.5254028454, 38.3587877752]}, "type": "Feature", "properties": {"collection_times": [{"days": "Mon-Fri", "time": "3:30pm"}, {"days": "Sat-Sun", "time": "Closed"}], "id": "9543100004", "name": "USPS COLLECTION BOX - PO LOBBY", "address": {"city": "ELDRIDGE", "state": "CA", "street": "15000 ARNOLD DR", "postcode": "95431"}}},
{"geometry": {"type": "Point", "coordinates": [-123.7413758976, 39.1660053633]}, "type": "Feature", "properties": {"collection_times": [{"days": "Mon-Fri", "time": "2:15pm"}, {"days": "Sat", "time": "11:00am"}, {"days": "Sun", "time": "Closed"}], "id": "9543200003", "name": "USPS COLLECTION BOX - BLUE BOX", "address": {"city": "ELK", "state": "CA", "street": "5995 S HIGHWAY 1", "postcode": "95432"}}},
{"geometry": {"type": "Point", "coordinates": [-123.7413758976, 39.1660053633]}, "type": "Feature", "properties": {"collection_times": [{"days": "Mon-Fri", "time": "2:15pm"}, {"days": "Sat", "time": "10:30am"}, {"days": "Sun", "time": "Closed"}], "id": "9543200004", "name": "USPS COLLECTION BOX - PO LOBBY", "address": {"city": "ELK", "state": "CA", "street": "5995 S HIGHWAY 1", "postcode": "95432"}}},
{"geometry": {"type": "Point", "coordinates": [-122.4875018217, 38.3007094853]}, "type": "Feature", "properties": {"collection_times": [{"days": "Mon-Fri", "time": "5:00pm"}, {"days": "Sat-Sun", "time": "Closed"}], "id": "9543300003", "name": "USPS COLLECTION BOX - PO LOBBY", "address": {"city": "EL VERANO", "state": "CA", "street": "19050 BAY ST", "postcode": "95433"}}},
{"geometry": {"type": "Point", "coordinates": [-122.9245127217, 39.0490363916]}, "type": "Feature", "properties": {"collection_times": [{"days": "Mon-Fri", "time": "12:00pm"}, {"days": "Sat", "time": "8:30am"}, {"days": "Sun", "time": "Closed"}], "id": "9543500002", "name": "USPS COLLECTION BOX - BLUE BOX", "address": {"city": "FINLEY", "state": "CA", "street": "1904 BIG VALLEY RD", "postcode": "95435"}}},
{"geometry": {"type": "Point", "coordinates": [-122.9245127217, 39.0490363916]}, "type": "Feature", "properties": {"collection_times": [{"days": "Mon-Fri", "time": "12:00pm"}, {"days": "Sat", "time": "8:30am"}, {"days": "Sun", "time": "Closed"}], "id": "9543500003", "name": "USPS COLLECTION BOX - PO LOBBY", "address": {"city": "FINLEY", "state": "CA", "street": "1904 BIG VALLEY RD", "postcode": "95435"}}},
{"geometry": {"type": "Point", "coordinates": [-122.8949356832, 38.4746636805]}, "type": "Feature", "properties": {"collection_times": [{"days": "Mon-Fri", "time": "5:00pm"}, {"days": "Sat", "time": "2:00pm"}, {"days": "Sun", "time": "Closed"}], "id": "9543600006", "name": "USPS COLLECTION BOX - BLUE BOX", "address": {"city": "FORESTVILLE", "state": "CA", "street": "6484 MIRABEL RD", "postcode": "95436"}}},
{"geometry": {"type": "Point", "coordinates": [-122.8949356832, 38.4746636805]}, "type": "Feature", "properties": {"collection_times": [{"days": "Mon-Fri", "time": "5:00pm"}, {"days": "Sat", "time": "2:00pm"}, {"days": "Sun", "time": "Closed"}], "id": "9543600007", "name": "USPS COLLECTION BOX - PO LOBBY", "address": {"city": "FORESTVILLE", "state": "CA", "street": "6484 MIRABEL RD", "postcode": "95436"}}},
{"geometry": {"type": "Point", "coordinates": [-122.8931638326, 38.473569838]}, "type": "Feature", "properties": {"collection_times": [{"days": "Mon-Sat", "time": "2:00pm"}, {"days": "Sun", "time": "Closed"}], "id": "9543600008", "name": "USPS COLLECTION BOX - BLUE BOX", "address": {"city": "FORESTVILLE", "state": "CA", "street": "6652 FRONT ST", "postcode": "95436"}}},
{"geometry": {"type": "Point", "coordinates": [-123.8059829607, 39.4369172385]}, "type": "Feature", "properties": {"collection_times": [{"days": "Mon-Fri", "time": "2:00pm"}, {"days": "Sat", "time": "1:00pm"}, {"days": "Sun", "time": "Closed"}], "id": "9543700011", "name": "USPS COLLECTION BOX - BLUE BOX", "address": {"city": "FORT BRAGG", "state": "CA", "street": "490 S MAIN ST", "postcode": "95437"}}},
{"geometry": {"type": "Point", "coordinates": [-123.8045503974, 39.4431845551]}, "type": "Feature", "properties": {"collection_times": [{"days": "Mon-Fri", "time": "5:00pm"}, {"days": "Sat", "time": "3:30pm"}, {"days": "Sun", "time": "Closed"}], "id": "9543700012", "name": "USPS COLLECTION BOX - BLUE BOX", "address": {"city": "FORT BRAGG", "state": "CA", "street": "203 N FRANKLIN ST", "postcode": "95437"}}},
{"geometry": {"type": "Point", "coordinates": [-123.8045503974, 39.4431845551]}, "type": "Feature", "properties": {"collection_times": [{"days": "Mon-Sat", "time": "3:30pm"}, {"days": "Sun", "time": "Closed"}], "id": "9543700013", "name": "USPS COLLECTION BOX - PO LOBBY", "address": {"city": "FORT BRAGG", "state": "CA", "street": "203 N FRANKLIN ST", "postcode": "95437"}}},
{"geometry": {"type": "Point", "coordinates": [-123.8061308306, 39.4337634699]}, "type": "Feature", "properties": {"collection_times": [{"days": "Mon-Fri", "time": "12:30pm"}, {"days": "Sat", "time": "12:00pm"}, {"days": "Sun", "time": "Closed"}], "id": "9543700014", "name": "USPS COLLECTION BOX - BLUE BOX", "address": {"city": "FORT BRAGG", "state": "CA", "street": "660 S MAIN ST", "postcode": "95437"}}},
{"geometry": {"type": "Point", "coordinates": [-123.8060087664, 39.4232952271]}, "type": "Feature", "properties": {"collection_times": [{"days": "Mon-Sat", "time": "11:00am"}, {"days": "Sun", "time": "Closed"}], "id": "9543700015", "name": "USPS COLLECTION BOX - BLUE BOX", "address": {"city": "FORT BRAGG", "state": "CA", "street": "171 BOATYARD DR", "postcode": "95437"}}},
{"geometry": {"type": "Point", "coordinates": [-122.7699909906, 38.4946194418]}, "type": "Feature", "properties": {"collection_times": [{"days": "Mon-Fri", "time": "4:00pm"}, {"days": "Sat", "time": "10:00am"}, {"days": "Sun", "time": "Closed"}], "id": "9543900003", "name": "USPS COLLECTION BOX - PO LOBBY", "address": {"city": "FULTON", "state": "CA", "street": "3340 FULTON RD", "postcode": "95439"}}},
{"geometry": {"type": "Point", "coordinates": [-122.7699909906, 38.4946194418]}, "type": "Feature", "properties": {"collection_times": [{"days": "Mon-Fri", "time": "4:00pm"}, {"days": "Sat", "time": "10:00am"}, {"days": "Sun", "time": "Closed"}], "id": "9543900004", "name": "USPS COLLECTION BOX - BLUE BOX", "address": {"city": "FULTON", "state": "CA", "street": "3340 FULTON RD", "postcode": "95439"}}},
{"geometry": {"type": "Point", "coordinates": [-122.9174086191, 38.7065901502]}, "type": "Feature", "properties": {"collection_times": [{"days": "Mon-Fri", "time": "4:30pm"}, {"days": "Sat", "time": "9:00am"}, {"days": "Sun", "time": "Closed"}], "id": "9544100004", "name": "USPS COLLECTION BOX - PO LOBBY", "address": {"city": "GEYSERVILLE", "state": "CA", "street": "116 SCHOOL HOUSE LN", "postcode": "95441"}}},
{"geometry": {"type": "Point", "coordinates": [-122.5244917651, 38.3630431604]}, "type": "Feature", "properties": {"collection_times": [{"days": "Mon-Fri", "time": "5:00pm"}, {"days": "Sat", "time": "10:00am"}, {"days": "Sun", "time": "Closed"}], "id": "9544200004", "name": "USPS COLLECTION BOX - BLUE BOX", "address": {"city": "GLEN ELLEN", "state": "CA", "street": "13720 ARNOLD DR", "postcode": "95442"}}},
{"geometry": {"type": "Point", "coordinates": [-122.5244917651, 38.3630431604]}, "type": "Feature", "properties": {"collection_times": [{"days": "Mon-Fri", "time": "5:00pm"}, {"days": "Sat", "time": "10:00am"}, {"days": "Sun", "time": "Closed"}], "id": "9544200005", "name": "USPS COLLECTION BOX - PO LOBBY", "address": {"city": "GLEN ELLEN", "state": "CA", "street": "13720 ARNOLD DR", "postcode": "95442"}}},
{"geometry": {"type": "Point", "coordinates": [-122.5167886259, 38.3737898442]}, "type": "Feature", "properties": {"collection_times": [{"days": "Mon-Fri", "time": "5:00pm"}, {"days": "Sat", "time": "10:00am"}, {"days": "Sun", "time": "Closed"}], "id": "9544200006", "name": "USPS COLLECTION BOX - BLUE BOX", "address": {"city": "GLEN ELLEN", "state": "CA", "street": "5470 O'DONNELL LN", "postcode": "95442"}}},
{"geometry": {"type": "Point", "coordinates": [-122.5102393015, 38.3395540104]}, "type": "Feature", "properties": {"collection_times": [{"days": "Mon-Sat", "time": "9:00am"}, {"days": "Sun", "time": "Closed"}], "id": "9544200007", "name": "USPS COLLECTION BOX - BLUE BOX", "address": {"city": "GLEN ELLEN", "state": "CA", "street": "913 MADRONE RD", "postcode": "95442"}}},
{"geometry": {"type": "Point", "coordinates": [-122.7379352338, 39.0303715388]}, "type": "Feature", "properties": {"collection_times": [{"days": "Mon-Fri", "time": "3:15pm"}, {"days": "Sat", "time": "9:00am"}, {"days": "Sun", "time": "Closed"}], "id": "9544300001", "name": "USPS COLLECTION BOX - BLUE BOX", "address": {"city": "GLENHAVEN", "state": "CA", "street": "9530 HIGHWAY 20", "postcode": "95443"}}},
{"geometry": {"type": "Point", "coordinates": [-122.8697421693, 38.4366645162]}, "type": "Feature", "properties": {"collection_times": [{"days": "Mon-Fri", "time": "4:30pm"}, {"days": "Sat", "time": "9:00am"}, {"days": "Sun", "time": "Closed"}], "id": "9544400003", "name": "USPS COLLECTION BOX - BLUE BOX", "address": {"city": "GRATON", "state": "CA", "street": "3171 ROSS RD", "postcode": "95444"}}},
{"geometry": {"type": "Point", "coordinates": [-122.8697421693, 38.4366645162]}, "type": "Feature", "properties": {"collection_times": [{"days": "Mon-Fri", "time": "5:00pm"}, {"days": "Sat", "time": "9:00am"}, {"days": "Sun", "time": "Closed"}], "id": "9544400004", "name": "USPS COLLECTION BOX - PO LOBBY", "address": {"city": "GRATON", "state": "CA", "street": "3171 ROSS RD", "postcode": "95444"}}},
{"geometry": {"type": "Point", "coordinates": [-123.5512018047, 38.7834452846]}, "type": "Feature", "properties": {"collection_times": [{"days": "Mon-Fri", "time": "2:00pm"}, {"days": "Sat", "time": "11:00am"}, {"days": "Sun", "time": "Closed"}], "id": "9544500002", "name": "USPS COLLECTION BOX - BLUE BOX", "address": {"city": "GUALALA", "state": "CA", "street": "39225 S HIGHWAY 1", "postcode": "95445"}}},
{"geometry": {"type": "Point", "coordinates": [-123.5512018047, 38.7834452846]}, "type": "Feature", "properties": {"collection_times": [{"days": "Mon-Fri", "time": "2:00pm"}, {"days": "Sat", "time": "10:45am"}, {"days": "Sun", "time": "Closed"}], "id": "9544500003", "name": "USPS COLLECTION BOX - PO LOBBY", "address": {"city": "GUALALA", "state": "CA", "street": "39225 S HIGHWAY 1", "postcode": "95445"}}},
{"geometry": {"type": "Point", "coordinates": [-123.0003504584, 38.5016546995]}, "type": "Feature", "properties": {"collection_times": [{"days": "Mon-Fri", "time": "5:00pm"}, {"days": "Sat", "time": "11:30am"}, {"days": "Sun", "time": "Closed"}], "id": "9544600005", "name": "USPS COLLECTION BOX - PO LOBBY", "address": {"city": "GUERNEVILLE", "state": "CA", "street": "14060 MILL ST", "postcode": "95446"}}},
{"geometry": {"type": "Point", "coordinates": [-123.0003504584, 38.5016546995]}, "type": "Feature", "properties": {"collection_times": [{"days": "Mon-Fri", "time": "4:30pm"}, {"days": "Sat", "time": "11:30am"}, {"days": "Sun", "time": "Closed"}], "id": "9544600006", "name": "USPS COLLECTION BOX - BLUE BOX", "address": {"city": "GUERNEVILLE", "state": "CA", "street": "14060 MILL ST", "postcode": "95446"}}},
{"geometry": {"type": "Point", "coordinates": [-123.0018150842, 38.5019476925]}, "type": "Feature", "properties": {"collection_times": [{"days": "Mon-Fri", "time": "3:15pm"}, {"days": "Sat-Sun", "time": "Closed"}], "id": "9544600007", "name": "USPS COLLECTION BOX - BLUE BOX", "address": {"city": "GUERNEVILLE", "state": "CA", "street": "16265 HWY 116", "postcode": "95446"}}},
{"geometry": {"type": "Point", "coordinates": [-122.8771864997, 38.6139238869]}, "type": "Feature", "properties": {"collection_times": [{"days": "Mon-Fri", "time": "5:00pm"}, {"days": "Sat", "time": "2:45pm"}, {"days": "Sun", "time": "Closed"}], "id": "9544800023", "name": "USPS COLLECTION BOX - BLUE BOX", "address": {"city": "HEALDSBURG", "state": "CA", "street": "160 FOSS CREEK CIR", "postcode": "95448"}}},
{"geometry": {"type": "Point", "coordinates": [-122.8771864997, 38.6139238869]}, "type": "Feature", "properties": {"collection_times": [{"days": "Mon-Fri", "time": "5:00pm"}, {"days": "Sat", "time": "2:45pm"}, {"days": "Sun", "time": "Closed"}], "id": "9544800024", "name": "USPS COLLECTION BOX - BLUE BOX", "address": {"city": "HEALDSBURG", "state": "CA", "street": "160 FOSS CREEK CIR", "postcode": "95448"}}},
{"geometry": {"type": "Point", "coordinates": [-122.8671586301, 38.6171612007]}, "type": "Feature", "properties": {"collection_times": [{"days": "Mon-Fri", "time": "12:30pm"}, {"days": "Sat", "time": "9:30am"}, {"days": "Sun", "time": "Closed"}], "id": "9544800025", "name": "USPS COLLECTION BOX - EXPRESS", "address": {"city": "HEALDSBURG", "state": "CA", "street": "160 FOSS CREEK CIR", "postcode": "95448"}}},
{"geometry": {"type": "Point", "coordinates": [-122.8689749341, 38.6105655259]}, "type": "Feature", "properties": {"collection_times": [{"days": "Mon-Sat", "time": "10:00am"}, {"days": "Sun", "time": "Closed"}], "id": "9544800026", "name": "USPS COLLECTION BOX - BLUE BOX", "address": {"city": "HEALDSBURG", "state": "CA", "street": "150 MATHESON ST", "postcode": "95448"}}},
{"geometry": {"type": "Point", "coordinates": [-122.870229267, 38.6094693483]}, "type": "Feature", "properties": {"collection_times": [{"days": "Mon-Sat", "time": "9:30am"}, {"days": "Sun", "time": "Closed"}], "id": "9544800027", "name": "USPS COLLECTION BOX - BLUE BOX", "address": {"city": "HEALDSBURG", "state": "CA", "street": "250 HEALDSBURG AVE", "postcode": "95448"}}},
{"geometry": {"type": "Point", "coordinates": [-122.8771864997, 38.6139238869]}, "type": "Feature", "properties": {"collection_times": [{"days": "Mon-Fri", "time": "5:00pm"}, {"days": "Sat", "time": "2:45pm"}, {"days": "Sun", "time": "Closed"}], "id": "9544800031", "name": "USPS COLLECTION BOX - BLUE BOX", "address": {"city": "HEALDSBURG", "state": "CA", "street": "160 FOSS CREEK CIR", "postcode": "95448"}}},
{"geometry": {"type": "Point", "coordinates": [-122.8720819391, 38.6093628311]}, "type": "Feature", "properties": {"collection_times": [{"days": "Mon-Sat", "time": "9:15am"}, {"days": "Sun", "time": "Closed"}], "id": "9544800032", "name": "USPS COLLECTION BOX - BLUE BOX", "address": {"city": "HEALDSBURG", "state": "CA", "street": "1101 VINE ST", "postcode": "95448"}}},
{"geometry": {"type": "Point", "coordinates": [-122.8619001545, 38.6065986907]}, "type": "Feature", "properties": {"collection_times": [{"days": "Mon-Sat", "time": "9:30am"}, {"days": "Sun", "time": "Closed"}], "id": "9544800040", "name": "USPS COLLECTION BOX - BLUE BOX", "address": {"city": "HEALDSBURG", "state": "CA", "street": "73 FRONT ST", "postcode": "95448"}}},
{"geometry": {"type": "Point", "coordinates": [-122.8699154479, 38.6122134682]}, "type": "Feature", "properties": {"collection_times": [{"days": "Mon-Fri", "time": "3:00pm"}, {"days": "Sat-Sun", "time": "Closed"}], "id": "9544800044", "name": "USPS COLLECTION BOX - BLUE BOX", "address": {"city": "HEALDSBURG", "state": "CA", "street": "401 CENTER ST", "postcode": "95448"}}},
{"geometry": {"type": "Point", "coordinates": [-122.8771864997, 38.6139238869]}, "type": "Feature", "properties": {"collection_times": [{"days": "Mon-Fri", "time": "5:00pm"}, {"days": "Sat", "time": "3:00pm"}, {"days": "Sun", "time": "Closed"}], "id": "9544800045", "name": "USPS COLLECTION BOX - PO LOBBY", "address": {"city": "HEALDSBURG", "state": "CA", "street": "160 FOSS CREEK CIR", "postcode": "95448"}}},
{"geometry": {"type": "Point", "coordinates": [-123.1187659899, 38.9925524605]}, "type": "Feature", "properties": {"collection_times": [{"days": "Mon-Fri", "time": "4:30pm"}, {"days": "Sat", "time": "8:00am"}, {"days": "Sun", "time": "Closed"}], "id": "9544900005", "name": "USPS COLLECTION BOX - BLUE BOX", "address": {"city": "HOPLAND", "state": "CA", "street": "13400 S HIGHWAY 101", "postcode": "95449"}}},
{"geometry": {"type": "Point", "coordinates": [-123.1187659899, 38.9925524605]}, "type": "Feature", "properties": {"collection_times": [{"days": "Mon-Fri", "time": "4:30pm"}, {"days": "Sat-Sun", "time": "Closed"}], "id": "9544900006", "name": "USPS COLLECTION BOX - PO LOBBY", "address": {"city": "HOPLAND", "state": "CA", "street": "13400 S HIGHWAY 101", "postcode": "95449"}}},
{"geometry": {"type": "Point", "coordinates": [-123.1148193096, 38.4493784962]}, "type": "Feature", "properties": {"collection_times": [{"days": "Mon-Fri", "time": "3:30pm"}, {"days": "Sat", "time": "12:00pm"}, {"days": "Sun", "time": "Closed"}], "id": "9545000002", "name": "USPS COLLECTION BOX - BLUE BOX", "address": {"city": "JENNER", "state": "CA", "street": "10439 HIGHWAY 1", "postcode": "95450"}}},
{"geometry": {"type": "Point", "coordinates": [-123.2702332856, 38.5319194787]}, "type": "Feature", "properties": {"collection_times": [{"days": "Mon-Sat", "time": "9:20am"}, {"days": "Sun", "time": "Closed"}], "id": "9545000003", "name": "USPS COLLECTION BOX - BLUE BOX", "address": {"city": "JENNER", "state": "CA", "street": "21350 HIGHWAY 1", "postcode": "95450"}}},
{"geometry": {"type": "Point", "coordinates": [-122.7708527618, 38.9429144936]}, "type": "Feature", "properties": {"collection_times": [{"days": "Mon-Sat", "time": "12:00pm"}, {"days": "Sun", "time": "Closed"}], "id": "9545100013", "name": "USPS COLLECTION BOX - BLUE BOX", "address": {"city": "KELSEYVILLE", "state": "CA", "street": "7990 HIGHWAY 29", "postcode": "95451"}}},
{"geometry": {"type": "Point", "coordinates": [-122.728802419, 38.952926477]}, "type": "Feature", "properties": {"collection_times": [{"days": "Mon-Sat", "time": "12:00pm"}, {"days": "Sun", "time": "Closed"}], "id": "9545100015", "name": "USPS COLLECTION BOX - BLUE BOX", "address": {"city": "KELSEYVILLE", "state": "CA", "street": "9730 STATE HIGHWAY 281", "postcode": "95451"}}},
{"geometry": {"type": "Point", "coordinates": [-122.8327567054, 38.9709366896]}, "type": "Feature", "properties": {"collection_times": [{"days": "Mon-Sat", "time": "12:00pm"}, {"days": "Sun", "time": "Closed"}], "id": "9545100016", "name": "USPS COLLECTION BOX - BLUE BOX", "address": {"city": "KELSEYVILLE", "state": "CA", "street": "5725 LIVE OAK DR", "postcode": "95451"}}},
{"geometry": {"type": "Point", "coordinates": [-122.8353793254, 38.9820908097]}, "type": "Feature", "properties": {"collection_times": [{"days": "Mon-Fri", "time": "4:30pm"}, {"days": "Sat", "time": "1:00pm"}, {"days": "Sun", "time": "Closed"}], "id": "9545100017", "name": "USPS COLLECTION BOX - PO LOBBY", "address": {"city": "KELSEYVILLE", "state": "CA", "street": "5500 GADDY LN", "postcode": "95451"}}},
{"geometry": {"type": "Point", "coordinates": [-122.8353793254, 38.9820908097]}, "type": "Feature", "properties": {"collection_times": [{"days": "Mon-Fri", "time": "4:30pm"}, {"days": "Sat", "time": "1:00pm"}, {"days": "Sun", "time": "Closed"}], "id": "9545100018", "name": "USPS COLLECTION BOX - PO LOBBY", "address": {"city": "KELSEYVILLE", "state": "CA", "street": "5500 GADDY LN", "postcode": "95451"}}},
{"geometry": {"type": "Point", "coordinates": [-122.8353793254, 38.9820908097]}, "type": "Feature", "properties": {"collection_times": [{"days": "Mon-Fri", "time": "4:00pm"}, {"days": "Sat", "time": "1:00pm"}, {"days": "Sun", "time": "Closed"}], "id": "9545100019", "name": "USPS COLLECTION BOX - BLUE BOX", "address": {"city": "KELSEYVILLE", "state": "CA", "street": "5500 GADDY LN", "postcode": "95451"}}},
{"geometry": {"type": "Point", "coordinates": [-122.8389281093, 38.9780302345]}, "type": "Feature", "properties": {"collection_times": [{"days": "Mon-Sat", "time": "12:00pm"}, {"days": "Sun", "time": "Closed"}], "id": "9545100020", "name": "USPS COLLECTION BOX - BLUE BOX", "address": {"city": "KELSEYVILLE", "state": "CA", "street": "3924 MAIN ST", "postcode": "95451"}}},
{"geometry": {"type": "Point", "coordinates": [-122.5504010368, 38.4184676231]}, "type": "Feature", "properties": {"collection_times": [{"days": "Mon-Fri", "time": "4:30pm"}, {"days": "Sat", "time": "11:00am"}, {"days": "Sun", "time": "Closed"}], "id": "9545200003", "name": "USPS COLLECTION BOX - BLUE BOX", "address": {"city": "KENWOOD", "state": "CA", "street": "8930 SONOMA HWY", "postcode": "95452"}}},
{"geometry": {"type": "Point", "coordinates": [-122.5504010368, 38.4184676231]}, "type": "Feature", "properties": {"collection_times": [{"days": "Mon-Fri", "time": "4:30pm"}, {"days": "Sat", "time": "11:00am"}, {"days": "Sun", "time": "Closed"}], "id": "9545200004", "name": "USPS COLLECTION BOX - PO LOBBY", "address": {"city": "KENWOOD", "state": "CA", "street": "8930 SONOMA HWY", "postcode": "95452"}}},
{"geometry": {"type": "Point", "coordinates": [-122.9151130615, 39.0422255746]}, "type": "Feature", "properties": {"collection_times": [{"days": "Mon-Fri", "time": "2:00pm"}, {"days": "Sat", "time": "1:00pm"}, {"days": "Sun", "time": "Closed"}], "id": "9545300003", "name": "USPS COLLECTION BOX - BLUE BOX", "address": {"city": "LAKEPORT", "state": "CA", "street": "198 N MAIN ST", "postcode": "95453"}}},
{"geometry": {"type": "Point", "coordinates": [-122.9210461858, 39.0477848349]}, "type": "Feature", "properties": {"collection_times": [{"days": "Mon-Fri", "time": "2:00pm"}, {"days": "Sat", "time": "1:00pm"}, {"days": "Sun", "time": "Closed"}], "id": "9545300004", "name": "USPS COLLECTION BOX - BLUE BOX", "address": {"city": "LAKEPORT", "state": "CA", "street": "912 9TH ST", "postcode": "95453"}}},
{"geometry": {"type": "Point", "coordinates": [-122.9228881955, 39.0489810956]}, "type": "Feature", "properties": {"collection_times": [{"days": "Mon-Fri", "time": "2:00pm"}, {"days": "Sat", "time": "1:00pm"}, {"days": "Sun", "time": "Closed"}], "id": "9545300008", "name": "USPS COLLECTION BOX - BLUE BOX", "address": {"city": "LAKEPORT", "state": "CA", "street": "945 11TH ST", "postcode": "95453"}}},
{"geometry": {"type": "Point", "coordinates": [-122.9161186407, 39.0402793783]}, "type": "Feature", "properties": {"collection_times": [{"days": "Mon-Fri", "time": "2:00pm"}, {"days": "Sat", "time": "1:00pm"}, {"days": "Sun", "time": "Closed"}], "id": "9545300010", "name": "USPS COLLECTION BOX - BLUE BOX", "address": {"city": "LAKEPORT", "state": "CA", "street": "301 FORBES ST", "postcode": "95453"}}},
{"geometry": {"type": "Point", "coordinates": [-122.9250344343, 39.0489958884]}, "type": "Feature", "properties": {"collection_times": [{"days": "Mon-Fri", "time": "5:00pm"}, {"days": "Sat", "time": "3:15pm"}, {"days": "Sun", "time": "Closed"}], "id": "9545300011", "name": "USPS COLLECTION BOX - BLUE BOX", "address": {"city": "LAKEPORT", "state": "CA", "street": "1151 11TH ST", "postcode": "95453"}}},
{"geometry": {"type": "Point", "coordinates": [-122.9250344343, 39.0489958884]}, "type": "Feature", "properties": {"collection_times": [{"days": "Mon-Fri", "time": "3:45pm"}, {"days": "Sat", "time": "3:15pm"}, {"days": "Sun", "time": "Closed"}], "id": "9545300012", "name": "USPS COLLECTION BOX - PO LOBBY", "address": {"city": "LAKEPORT", "state": "CA", "street": "1151 11TH ST", "postcode": "95453"}}},
{"geometry": {"type": "Point", "coordinates": [-122.9185295111, 39.0346425788]}, "type": "Feature", "properties": {"collection_times": [{"days": "Mon-Fri", "time": "2:00pm"}, {"days": "Sat", "time": "1:00pm"}, {"days": "Sun", "time": "Closed"}], "id": "9545300013", "name": "USPS COLLECTION BOX - BLUE BOX", "address": {"city": "LAKEPORT", "state": "CA", "street": "355 LAKEPORT BLVD", "postcode": "95453"}}},
{"geometry": {"type": "Point", "coordinates": [-122.9150793415, 39.0448236387]}, "type": "Feature", "properties": {"collection_times": [{"days": "Mon-Fri", "time": "2:00pm"}, {"days": "Sat", "time": "1:00pm"}, {"days": "Sun", "time": "Closed"}], "id": "9545300014", "name": "USPS COLLECTION BOX - BLUE BOX", "address": {"city": "LAKEPORT", "state": "CA", "street": "450 N MAIN ST", "postcode": "95453"}}},
{"geometry": {"type": "Point", "coordinates": [-123.4835700384, 39.685334128]}, "type": "Feature", "properties": {"collection_times": [{"days": "Mon-Fri", "time": "3:15pm"}, {"days": "Sat", "time": "12:00pm"}, {"days": "Sun", "time": "Closed"}], "id": "9545400001", "name": "USPS COLLECTION BOX - PO LOBBY", "address": {"city": "LAYTONVILLE", "state": "CA", "street": "50 RAMSEY RD", "postcode": "95454"}}},
{"geometry": {"type": "Point", "coordinates": [-123.7915260126, 39.2774933635]}, "type": "Feature", "properties": {"collection_times": [{"days": "Mon-Fri", "time": "2:45pm"}, {"days": "Sat", "time": "12:00pm"}, {"days": "Sun", "time": "Closed"}], "id": "9545600003", "name": "USPS COLLECTION BOX - BLUE BOX", "address": {"city": "LITTLERIVER", "state": "CA", "street": "7748 N HIGHWAY 1", "postcode": "95456"}}},
{"geometry": {"type": "Point", "coordinates": [-123.7915260126, 39.2774933635]}, "type": "Feature", "properties": {"collection_times": [{"days": "Mon-Fri", "time": "2:45pm"}, {"days": "Sat", "time": "12:00pm"}, {"days": "Sun", "time": "Closed"}], "id": "9545600004", "name": "USPS COLLECTION BOX - PO LOBBY", "address": {"city": "LITTLERIVER", "state": "CA", "street": "7748 N HIGHWAY 1", "postcode": "95456"}}},
{"geometry": {"type": "Point", "coordinates": [-122.6104562397, 38.9103254212]}, "type": "Feature", "properties": {"collection_times": [{"days": "Mon-Fri", "time": "4:30pm"}, {"days": "Sat", "time": "10:00am"}, {"days": "Sun", "time": "Closed"}], "id": "9545700002", "name": "USPS COLLECTION BOX - BLUE BOX", "address": {"city": "LOWER LAKE", "state": "CA", "street": "16165 MAIN ST", "postcode": "95457"}}},
{"geometry": {"type": "Point", "coordinates": [-122.6104562397, 38.9103254212]}, "type": "Feature", "properties": {"collection_times": [{"days": "Mon-Fri", "time": "4:30pm"}, {"days": "Sat", "time": "10:00am"}, {"days": "Sun", "time": "Closed"}], "id": "9545700003", "name": "USPS COLLECTION BOX - PO LOBBY", "address": {"city": "LOWER LAKE", "state": "CA", "street": "16165 MAIN ST", "postcode": "95457"}}},
{"geometry": {"type": "Point", "coordinates": [-122.8003024176, 39.0946869388]}, "type": "Feature", "properties": {"collection_times": [{"days": "Mon-Fri", "time": "4:30pm"}, {"days": "Sat", "time": "10:00am"}, {"days": "Sun", "time": "Closed"}], "id": "9545800003", "name": "USPS COLLECTION BOX - BLUE BOX", "address": {"city": "LUCERNE", "state": "CA", "street": "6054 E HIGHWAY 20", "postcode": "95458"}}},
{"geometry": {"type": "Point", "coordinates": [-122.8003024176, 39.0946869388]}, "type": "Feature", "properties": {"collection_times": [{"days": "Mon-Fri", "time": "4:30pm"}, {"days": "Sat", "time": "10:00am"}, {"days": "Sun", "time": "Closed"}], "id": "9545800004", "name": "USPS COLLECTION BOX - PO LOBBY", "address": {"city": "LUCERNE", "state": "CA", "street": "6054 E HIGHWAY 20", "postcode": "95458"}}},
{"geometry": {"type": "Point", "coordinates": [-123.6851731746, 38.9899029067]}, "type": "Feature", "properties": {"collection_times": [{"days": "Mon-Fri", "time": "1:30pm"}, {"days": "Sat", "time": "10:30am"}, {"days": "Sun", "time": "Closed"}], "id": "9545900002", "name": "USPS COLLECTION BOX - PO LOBBY", "address": {"city": "MANCHESTER", "state": "CA", "street": "19391 S HIGHWAY 1", "postcode": "95459"}}},
{"geometry": {"type": "Point", "coordinates": [-123.8002042062, 39.3063516916]}, "type": "Feature", "properties": {"collection_times": [{"days": "Mon-Fri", "time": "3:30pm"}, {"days": "Sat", "time": "10:30am"}, {"days": "Sun", "time": "Closed"}], "id": "9546000004", "name": "USPS COLLECTION BOX - BLUE BOX", "address": {"city": "MENDOCINO", "state": "CA", "street": "10500 FORD ST", "postcode": "95460"}}},
{"geometry": {"type": "Point", "coordinates": [-123.8002042062, 39.3063516916]}, "type": "Feature", "properties": {"collection_times": [{"days": "Mon-Fri", "time": "4:00pm"}, {"days": "Sat", "time": "10:30am"}, {"days": "Sun", "time": "Closed"}], "id": "9546000005", "name": "USPS COLLECTION BOX - PO LOBBY", "address": {"city": "MENDOCINO", "state": "CA", "street": "10500 FORD ST", "postcode": "95460"}}},
{"geometry": {"type": "Point", "coordinates": [-122.5911766668, 38.7397414398]}, "type": "Feature", "properties": {"collection_times": [{"days": "Mon-Fri", "time": "4:00pm"}, {"days": "Sat", "time": "11:00am"}, {"days": "Sun", "time": "Closed"}], "id": "9546100006", "name": "USPS COLLECTION BOX - BLUE BOX", "address": {"city": "HIDDEN VL LK", "state": "CA", "street": "1 BUSH & ARMSTRONG", "postcode": "95461"}}},
{"geometry": {"type": "Point", "coordinates": [-122.6172561922, 38.7482125811]}, "type": "Feature", "properties": {"collection_times": [{"days": "Mon-Fri", "time": "4:00pm"}, {"days": "Sat", "time": "11:00am"}, {"days": "Sun", "time": "Closed"}], "id": "9546100007", "name": "USPS COLLECTION BOX - BLUE BOX", "address": {"city": "HIDDEN VL LK", "state": "CA", "street": "21177 CALISTOGA RD", "postcode": "95461"}}},
{"geometry": {"type": "Point", "coordinates": [-122.6172561922, 38.7482125811]}, "type": "Feature", "properties": {"collection_times": [{"days": "Mon-Fri", "time": "5:00pm"}, {"days": "Sat", "time": "11:00am"}, {"days": "Sun", "time": "Closed"}], "id": "9546100008", "name": "USPS COLLECTION BOX - PO LOBBY", "address": {"city": "HIDDEN VL LK", "state": "CA", "street": "21177 CALISTOGA RD", "postcode": "95461"}}},
{"geometry": {"type": "Point", "coordinates": [-122.6172561922, 38.7482125811]}, "type": "Feature", "properties": {"collection_times": [{"days": "Mon-Fri", "time": "5:00pm"}, {"days": "Sat", "time": "11:00am"}, {"days": "Sun", "time": "Closed"}], "id": "9546100009", "name": "USPS COLLECTION BOX - BLUE BOX", "address": {"city": "HIDDEN VL LK", "state": "CA", "street": "21177 CALISTOGA RD", "postcode": "95461"}}},
{"geometry": {"type": "Point", "coordinates": [-122.5554575744, 38.7940877172]}, "type": "Feature", "properties": {"collection_times": [{"days": "Mon-Sat", "time": "10:00am"}, {"days": "Sun", "time": "Closed"}], "id": "9546100010", "name": "USPS COLLECTION BOX - BLUE BOX", "address": {"city": "HIDDEN VL LK", "state": "CA", "street": "19172 HARTMAN RD", "postcode": "95461"}}},
{"geometry": {"type": "Point", "coordinates": [-122.5697861104, 38.8076942673]}, "type": "Feature", "properties": {"collection_times": [{"days": "Mon-Sat", "time": "10:00am"}, {"days": "Sun", "time": "Closed"}], "id": "9546100011", "name": "USPS COLLECTION BOX - BLUE BOX", "address": {"city": "HIDDEN VL LK", "state": "CA", "street": "18174 HIDDEN VALLEY RD", "postcode": "95461"}}},
{"geometry": {"type": "Point", "coordinates": [-122.5911766668, 38.7397414398]}, "type": "Feature", "properties": {"collection_times": [{"days": "Mon-Fri", "time": "2:00pm"}, {"days": "Sat", "time": "12:00pm"}, {"days": "Sun", "time": "Closed"}], "id": "9546100012", "name": "USPS COLLECTION BOX - BLUE BOX", "address": {"city": "HIDDEN VL LK", "state": "CA", "street": "10336 LOCK LOMOND RD", "postcode": "95461"}}},
{"geometry": {"type": "Point", "coordinates": [-123.0073056898, 38.4703205975]}, "type": "Feature", "properties": {"collection_times": [{"days": "Mon-Fri", "time": "4:30pm"}, {"days": "Sat", "time": "3:30pm"}, {"days": "Sun", "time": "Closed"}], "id": "9546200002", "name": "USPS COLLECTION BOX - BLUE BOX", "address": {"city": "MONTE RIO", "state": "CA", "street": "19420 HIGHWAY 116", "postcode": "95462"}}},
{"geometry": {"type": "Point", "coordinates": [-123.0245416697, 38.4646348379]}, "type": "Feature", "properties": {"collection_times": [{"days": "Mon-Fri", "time": "1:15pm"}, {"days": "Sat", "time": "11:30am"}, {"days": "Sun", "time": "Closed"}], "id": "9546200006", "name": "USPS COLLECTION BOX - BLUE BOX", "address": {"city": "MONTE RIO", "state": "CA", "street": "9870 MAIN ST", "postcode": "95462"}}},
{"geometry": {"type": "Point", "coordinates": [-122.8249925551, 39.1154092967]}, "type": "Feature", "properties": {"collection_times": [{"days": "Mon-Fri", "time": "2:30pm"}, {"days": "Sat", "time": "10:00am"}, {"days": "Sun", "time": "Closed"}], "id": "9546400003", "name": "USPS COLLECTION BOX - PO LOBBY", "address": {"city": "NICE", "state": "CA", "street": "3964 E STATE HWY 20", "postcode": "95464"}}},
{"geometry": {"type": "Point", "coordinates": [-122.8249925551, 39.1154092967]}, "type": "Feature", "properties": {"collection_times": [{"days": "Mon-Fri", "time": "2:30pm"}, {"days": "Sat", "time": "10:00am"}, {"days": "Sun", "time": "Closed"}], "id": "9546400004", "name": "USPS COLLECTION BOX - BLUE BOX", "address": {"city": "NICE", "state": "CA", "street": "3964 E STATE HWY 20", "postcode": "95464"}}},
{"geometry": {"type": "Point", "coordinates": [-122.9480993608, 38.4084755643]}, "type": "Feature", "properties": {"collection_times": [{"days": "Mon-Fri", "time": "3:00pm"}, {"days": "Sat", "time": "10:00am"}, {"days": "Sun", "time": "Closed"}], "id": "9546500002", "name": "USPS COLLECTION BOX - BLUE BOX", "address": {"city": "OCCIDENTAL", "state": "CA", "street": "3805 BOHEMIAN HWY", "postcode": "95465"}}},
{"geometry": {"type": "Point", "coordinates": [-122.9480993608, 38.4084755643]}, "type": "Feature", "properties": {"collection_times": [{"days": "Mon-Fri", "time": "4:30pm"}, {"days": "Sat", "time": "10:00am"}, {"days": "Sun", "time": "Closed"}], "id": "9546500003", "name": "USPS COLLECTION BOX - PO LOBBY", "address": {"city": "OCCIDENTAL", "state": "CA", "street": "3805 BOHEMIAN HWY", "postcode": "95465"}}},
{"geometry": {"type": "Point", "coordinates": [-123.5588620571, 39.1608772164]}, "type": "Feature", "properties": {"collection_times": [{"days": "Mon-Fri", "time": "3:15pm"}, {"days": "Sat", "time": "12:00pm"}, {"days": "Sun", "time": "Closed"}], "id": "9546600003", "name": "USPS COLLECTION BOX - PO LOBBY", "address": {"city": "PHILO", "state": "CA", "street": "8651 HIGHWAY 128", "postcode": "95466"}}},
{"geometry": {"type": "Point", "coordinates": [-123.6925556288, 38.9079061401]}, "type": "Feature", "properties": {"collection_times": [{"days": "Mon-Fri", "time": "1:30pm"}, {"days": "Sat", "time": "10:30am"}, {"days": "Sun", "time": "Closed"}], "id": "9546800001", "name": "USPS COLLECTION BOX - PO LOBBY", "address": {"city": "POINT ARENA", "state": "CA", "street": "264 MAIN ST", "postcode": "95468"}}},
{"geometry": {"type": "Point", "coordinates": [-123.1252795504, 39.3216403502]}, "type": "Feature", "properties": {"collection_times": [{"days": "Mon-Fri", "time": "3:30pm"}, {"days": "Sat", "time": "9:30am"}, {"days": "Sun", "time": "Closed"}], "id": "9546900002", "name": "USPS COLLECTION BOX - PO LOBBY", "address": {"city": "POTTER VALLEY", "state": "CA", "street": "10210 MAIN ST", "postcode": "95469"}}},
{"geometry": {"type": "Point", "coordinates": [-123.2042246566, 39.2651666938]}, "type": "Feature", "properties": {"collection_times": [{"days": "Mon-Fri", "time": "3:45pm"}, {"days": "Sat-Sun", "time": "Closed"}], "id": "9547000004", "name": "USPS COLLECTION BOX - BLUE BOX", "address": {"city": "REDWOOD VALLEY", "state": "CA", "street": "993 E SCHOOL WAY", "postcode": "95470"}}},
{"geometry": {"type": "Point", "coordinates": [-123.2042246566, 39.2651666938]}, "type": "Feature", "properties": {"collection_times": [{"days": "Mon-Fri", "time": "3:45pm"}, {"days": "Sat", "time": "11:00am"}, {"days": "Sun", "time": "Closed"}], "id": "9547000005", "name": "USPS COLLECTION BOX - PO LOBBY", "address": {"city": "REDWOOD VALLEY", "state": "CA", "street": "993 E SCHOOL WAY", "postcode": "95470"}}},
{"geometry": {"type": "Point", "coordinates": [-123.2042246566, 39.2651666938]}, "type": "Feature", "properties": {"collection_times": [{"days": "Mon-Fri", "time": "3:45pm"}, {"days": "Sat", "time": "11:00am"}, {"days": "Sun", "time": "Closed"}], "id": "9547000006", "name": "USPS COLLECTION BOX - BLUE BOX", "address": {"city": "REDWOOD VALLEY", "state": "CA", "street": "993 E SCHOOL WAY", "postcode": "95470"}}},
{"geometry": {"type": "Point", "coordinates": [-122.9805669528, 38.5262130811]}, "type": "Feature", "properties": {"collection_times": [{"days": "Mon-Sat", "time": "3:30pm"}, {"days": "Sun", "time": "Closed"}], "id": "9547100001", "name": "USPS COLLECTION BOX - BLUE BOX", "address": {"city": "RIO NIDO", "state": "CA", "street": "14770 CANYON 7 RD", "postcode": "95471"}}},
{"geometry": {"type": "Point", "coordinates": [-122.867682742, 38.3969699516]}, "type": "Feature", "properties": {"collection_times": [{"days": "Mon-Fri", "time": "3:00pm"}, {"days": "Sat", "time": "1:00pm"}, {"days": "Sun", "time": "Closed"}], "id": "9547200002", "name": "USPS COLLECTION BOX - BLUE BOX", "address": {"city": "SEBASTOPOL", "state": "CA", "street": "10 JEWELL AVE", "postcode": "95472"}}},
{"geometry": {"type": "Point", "coordinates": [-122.839261681, 38.408192738]}, "type": "Feature", "properties": {"collection_times": [{"days": "Mon-Fri", "time": "3:00pm"}, {"days": "Sat", "time": "1:00pm"}, {"days": "Sun", "time": "Closed"}], "id": "9547200006", "name": "USPS COLLECTION BOX - BLUE BOX", "address": {"city": "SEBASTOPOL", "state": "CA", "street": "788 GRAVENSTEIN HWY N", "postcode": "95472"}}},
{"geometry": {"type": "Point", "coordinates": [-122.8243011011, 38.4021461702]}, "type": "Feature", "properties": {"collection_times": [{"days": "Mon-Fri", "time": "2:45pm"}, {"days": "Sat", "time": "1:00pm"}, {"days": "Sun", "time": "Closed"}], "id": "9547200009", "name": "USPS COLLECTION BOX - BLUE BOX", "address": {"city": "SEBASTOPOL", "state": "CA", "street": "104 N MAIN ST", "postcode": "95472"}}},
{"geometry": {"type": "Point", "coordinates": [-122.823323871, 38.4003597293]}, "type": "Feature", "properties": {"collection_times": [{"days": "Mon-Fri", "time": "5:00pm"}, {"days": "Sat", "time": "12:00pm"}, {"days": "Sun", "time": "Closed"}], "id": "9547200015", "name": "USPS COLLECTION BOX - PO LOBBY", "address": {"city": "SEBASTOPOL", "state": "CA", "street": "290 S MAIN ST", "postcode": "95472"}}},
{"geometry": {"type": "Point", "coordinates": [-122.8181023122, 38.3961155672]}, "type": "Feature", "properties": {"collection_times": [{"days": "Mon-Fri", "time": "3:00pm"}, {"days": "Sat", "time": "1:00pm"}, {"days": "Sun", "time": "Closed"}], "id": "9547200019", "name": "USPS COLLECTION BOX - BLUE BOX", "address": {"city": "SEBASTOPOL", "state": "CA", "street": "6800 PALM AVE", "postcode": "95472"}}},
{"geometry": {"type": "Point", "coordinates": [-122.8224020421, 38.4009114731]}, "type": "Feature", "properties": {"collection_times": [{"days": "Mon-Fri", "time": "2:45pm"}, {"days": "Sat", "time": "1:00pm"}, {"days": "Sun", "time": "Closed"}], "id": "9547200020", "name": "USPS COLLECTION BOX - BLUE BOX", "address": {"city": "SEBASTOPOL", "state": "CA", "street": "276 PETALUMA AVE", "postcode": "95472"}}},
{"geometry": {"type": "Point", "coordinates": [-122.8394213099, 38.3981749204]}, "type": "Feature", "properties": {"collection_times": [{"days": "Mon-Sat", "time": "10:00am"}, {"days": "Sun", "time": "Closed"}], "id": "9547200022", "name": "USPS COLLECTION BOX - BLUE BOX", "address": {"city": "SEBASTOPOL", "state": "CA", "street": "100 PLEASANT HILL RD", "postcode": "95472"}}},
{"geometry": {"type": "Point", "coordinates": [-122.8430481946, 38.3948837543]}, "type": "Feature", "properties": {"collection_times": [{"days": "Mon-Sat", "time": "9:00am"}, {"days": "Sun", "time": "Closed"}], "id": "9547200027", "name": "USPS COLLECTION BOX - BLUE BOX", "address": {"city": "SEBASTOPOL", "state": "CA", "street": "171 N HIGH ST", "postcode": "95472"}}},
{"geometry": {"type": "Point", "coordinates": [-122.8260509114, 38.4048921849]}, "type": "Feature", "properties": {"collection_times": [{"days": "Mon-Fri", "time": "2:15pm"}, {"days": "Sat", "time": "1:00pm"}, {"days": "Sun", "time": "Closed"}], "id": "9547200029", "name": "USPS COLLECTION BOX - BLUE BOX", "address": {"city": "SEBASTOPOL", "state": "CA", "street": "406 N MAIN ST", "postcode": "95472"}}},
{"geometry": {"type": "Point", "coordinates": [-122.81659412, 38.3907660737]}, "type": "Feature", "properties": {"collection_times": [{"days": "Mon-Fri", "time": "3:00pm"}, {"days": "Sat", "time": "1:00pm"}, {"days": "Sun", "time": "Closed"}], "id": "9547200030", "name": "USPS COLLECTION BOX - BLUE BOX", "address": {"city": "SEBASTOPOL", "state": "CA", "street": "998 GRAVENSTEIN AVE", "postcode": "95472"}}},
{"geometry": {"type": "Point", "coordinates": [-122.8377130927, 38.4062942525]}, "type": "Feature", "properties": {"collection_times": [{"days": "Mon-Fri", "time": "2:45pm"}, {"days": "Sat", "time": "1:00pm"}, {"days": "Sun", "time": "Closed"}], "id": "9547200031", "name": "USPS COLLECTION BOX - BLUE BOX", "address": {"city": "SEBASTOPOL", "state": "CA", "street": "550 GRAVENSTEIN HWY N", "postcode": "95472"}}},
{"geometry": {"type": "Point", "coordinates": [-122.8224020421, 38.4009114731]}, "type": "Feature", "properties": {"collection_times": [{"days": "Mon-Fri", "time": "2:45pm"}, {"days": "Sat", "time": "1:00pm"}, {"days": "Sun", "time": "Closed"}], "id": "9547200032", "name": "USPS COLLECTION BOX - BLUE BOX", "address": {"city": "SEBASTOPOL", "state": "CA", "street": "276 PETALUMA AVE", "postcode": "95472"}}},
{"geometry": {"type": "Point", "coordinates": [-122.8234940714, 38.4009921651]}, "type": "Feature", "properties": {"collection_times": [{"days": "Mon-Fri", "time": "3:00pm"}, {"days": "Sat", "time": "1:00pm"}, {"days": "Sun", "time": "Closed"}], "id": "9547200033", "name": "USPS COLLECTION BOX - BLUE BOX", "address": {"city": "SEBASTOPOL", "state": "CA", "street": "241 S MAIN ST", "postcode": "95472"}}},
{"geometry": {"type": "Point", "coordinates": [-122.8234940714, 38.4009921651]}, "type": "Feature", "properties": {"collection_times": [{"days": "Mon-Fri", "time": "3:00pm"}, {"days": "Sat", "time": "1:00pm"}, {"days": "Sun", "time": "Closed"}], "id": "9547200034", "name": "USPS COLLECTION BOX - BLUE BOX", "address": {"city": "SEBASTOPOL", "state": "CA", "street": "241 S MAIN ST", "postcode": "95472"}}},
{"geometry": {"type": "Point", "coordinates": [-122.823323871, 38.4003597293]}, "type": "Feature", "properties": {"collection_times": [{"days": "Mon-Fri", "time": "5:00pm"}, {"days": "Sat", "time": "12:00pm"}, {"days": "Sun", "time": "Closed"}], "id": "9547200035", "name": "USPS COLLECTION BOX - APC", "address": {"city": "SEBASTOPOL", "state": "CA", "street": "290 S MAIN ST", "postcode": "95472"}}},
{"geometry": {"type": "Point", "coordinates": [-122.8222501372, 38.4009045882]}, "type": "Feature", "properties": {"collection_times": [{"days": "Mon-Fri", "time": "5:00pm"}, {"days": "Sat", "time": "1:00pm"}, {"days": "Sun", "time": "Closed"}], "id": "9547200036", "name": "USPS COLLECTION BOX - BLUE BOX", "address": {"city": "SEBASTOPOL", "state": "CA", "street": "275 PETALUMA AVE", "postcode": "95472"}}},
{"geometry": {"type": "Point", "coordinates": [-122.4582853944, 38.2898613576]}, "type": "Feature", "properties": {"collection_times": [{"days": "Mon-Fri", "time": "5:30pm"}, {"days": "Sat", "time": "3:30pm"}, {"days": "Sun", "time": "Closed"}], "id": "9547600001", "name": "USPS COLLECTION BOX - BLUE BOX", "address": {"city": "SONOMA", "state": "CA", "street": "617 BROADWAY", "postcode": "95476"}}},
{"geometry": {"type": "Point", "coordinates": [-122.4582853944, 38.2898613576]}, "type": "Feature", "properties": {"collection_times": [{"days": "Mon-Fri", "time": "5:30pm"}, {"days": "Sat", "time": "3:30pm"}, {"days": "Sun", "time": "Closed"}], "id": "9547600002", "name": "USPS COLLECTION BOX - BLUE BOX", "address": {"city": "SONOMA", "state": "CA", "street": "617 BROADWAY", "postcode": "95476"}}},
{"geometry": {"type": "Point", "coordinates": [-122.4582853944, 38.2898613576]}, "type": "Feature", "properties": {"collection_times": [{"days": "Mon-Fri", "time": "5:30pm"}, {"days": "Sat", "time": "3:30pm"}, {"days": "Sun", "time": "Closed"}], "id": "9547600003", "name": "USPS COLLECTION BOX - BLUE BOX", "address": {"city": "SONOMA", "state": "CA", "street": "617 BROADWAY", "postcode": "95476"}}},
{"geometry": {"type": "Point", "coordinates": [-122.4582853944, 38.2898613576]}, "type": "Feature", "properties": {"collection_times": [{"days": "Mon-Fri", "time": "5:30pm"}, {"days": "Sat", "time": "3:30pm"}, {"days": "Sun", "time": "Closed"}], "id": "9547600004", "name": "USPS COLLECTION BOX - BLUE BOX", "address": {"city": "SONOMA", "state": "CA", "street": "617 BROADWAY", "postcode": "95476"}}},
{"geometry": {"type": "Point", "coordinates": [-122.4582853944, 38.2898613576]}, "type": "Feature", "properties": {"collection_times": [{"days": "Mon-Fri", "time": "5:30pm"}, {"days": "Sat", "time": "4:30pm"}, {"days": "Sun", "time": "Closed"}], "id": "9547600005", "name": "USPS COLLECTION BOX - PO LOBBY", "address": {"city": "SONOMA", "state": "CA", "street": "617 BROADWAY", "postcode": "95476"}}},
{"geometry": {"type": "Point", "coordinates": [-122.4540785269, 38.286043953]}, "type": "Feature", "properties": {"collection_times": [{"days": "Mon-Sat", "time": "1:00pm"}, {"days": "Sun", "time": "Closed"}], "id": "9547600007", "name": "USPS COLLECTION BOX - BLUE BOX", "address": {"city": "SONOMA", "state": "CA", "street": "800 DONNER AVE", "postcode": "95476"}}},
{"geometry": {"type": "Point", "coordinates": [-122.4486251495, 38.2855921397]}, "type": "Feature", "properties": {"collection_times": [{"days": "Mon-Sat", "time": "1:00pm"}, {"days": "Sun", "time": "Closed"}], "id": "9547600008", "name": "USPS COLLECTION BOX - BLUE BOX", "address": {"city": "SONOMA", "state": "CA", "street": "494 CHASE ST", "postcode": "95476"}}},
{"geometry": {"type": "Point", "coordinates": [-122.4496917526, 38.2929402357]}, "type": "Feature", "properties": {"collection_times": [{"days": "Mon-Fri", "time": "4:15pm"}, {"days": "Sat", "time": "1:00pm"}, {"days": "Sun", "time": "Closed"}], "id": "9547600009", "name": "USPS COLLECTION BOX - BLUE BOX", "address": {"city": "SONOMA", "state": "CA", "street": "399 4TH ST E", "postcode": "95476"}}},
{"geometry": {"type": "Point", "coordinates": [-122.4520550431, 38.2914239794]}, "type": "Feature", "properties": {"collection_times": [{"days": "Mon-Fri", "time": "4:15pm"}, {"days": "Sat", "time": "1:00pm"}, {"days": "Sun", "time": "Closed"}], "id": "9547600010", "name": "USPS COLLECTION BOX - BLUE BOX", "address": {"city": "SONOMA", "state": "CA", "street": "300 E NAPA ST", "postcode": "95476"}}},
{"geometry": {"type": "Point", "coordinates": [-122.461098735, 38.2921893449]}, "type": "Feature", "properties": {"collection_times": [{"days": "Mon-Fri", "time": "5:00pm"}, {"days": "Sat", "time": "1:00pm"}, {"days": "Sun", "time": "Closed"}], "id": "9547600011", "name": "USPS COLLECTION BOX - BLUE BOX", "address": {"city": "SONOMA", "state": "CA", "street": "195 W NAPA ST", "postcode": "95476"}}},
{"geometry": {"type": "Point", "coordinates": [-122.4566614039, 38.2918766307]}, "type": "Feature", "properties": {"collection_times": [{"days": "Mon-Fri", "time": "4:30pm"}, {"days": "Sat", "time": "1:00pm"}, {"days": "Sun", "time": "Closed"}], "id": "9547600012", "name": "USPS COLLECTION BOX - BLUE BOX", "address": {"city": "SONOMA", "state": "CA", "street": "498 1ST ST E", "postcode": "95476"}}},
{"geometry": {"type": "Point", "coordinates": [-122.456420654, 38.2936319722]}, "type": "Feature", "properties": {"collection_times": [{"days": "Mon-Fri", "time": "4:30pm"}, {"days": "Sat", "time": "1:00pm"}, {"days": "Sun", "time": "Closed"}], "id": "9547600013", "name": "USPS COLLECTION BOX - BLUE BOX", "address": {"city": "SONOMA", "state": "CA", "street": "98 E SPAIN ST", "postcode": "95476"}}},
{"geometry": {"type": "Point", "coordinates": [-122.4597436017, 38.2939861506]}, "type": "Feature", "properties": {"collection_times": [{"days": "Mon-Fri", "time": "4:30pm"}, {"days": "Sat", "time": "1:00pm"}, {"days": "Sun", "time": "Closed"}], "id": "9547600014", "name": "USPS COLLECTION BOX - BLUE BOX", "address": {"city": "SONOMA", "state": "CA", "street": "100 W SPAIN ST", "postcode": "95476"}}},
{"geometry": {"type": "Point", "coordinates": [-122.4624540876, 38.2851311357]}, "type": "Feature", "properties": {"collection_times": [{"days": "Mon-Sat", "time": "1:00pm"}, {"days": "Sun", "time": "Closed"}], "id": "9547600015", "name": "USPS COLLECTION BOX - BLUE BOX", "address": {"city": "SONOMA", "state": "CA", "street": "899 2ND ST W", "postcode": "95476"}}},
{"geometry": {"type": "Point", "coordinates": [-122.4615435807, 38.2880653984]}, "type": "Feature", "properties": {"collection_times": [{"days": "Mon-Fri", "time": "5:00pm"}, {"days": "Sat", "time": "1:00pm"}, {"days": "Sun", "time": "Closed"}], "id": "9547600017", "name": "USPS COLLECTION BOX - BLUE BOX", "address": {"city": "SONOMA", "state": "CA", "street": "181 ANDRIEUX ST", "postcode": "95476"}}},
{"geometry": {"type": "Point", "coordinates": [-122.4652426532, 38.2884577061]}, "type": "Feature", "properties": {"collection_times": [{"days": "Mon-Fri", "time": "5:00pm"}, {"days": "Sat-Sun", "time": "Closed"}], "id": "9547600019", "name": "USPS COLLECTION BOX - BLUE BOX", "address": {"city": "SONOMA", "state": "CA", "street": "349 ANDRIEUX ST", "postcode": "95476"}}},
{"geometry": {"type": "Point", "coordinates": [-122.4640104842, 38.2892606061]}, "type": "Feature", "properties": {"collection_times": [{"days": "Mon-Sat", "time": "1:00pm"}, {"days": "Sun", "time": "Closed"}], "id": "9547600020", "name": "USPS COLLECTION BOX - BLUE BOX", "address": {"city": "SONOMA", "state": "CA", "street": "300 PERKINS ST", "postcode": "95476"}}},
{"geometry": {"type": "Point", "coordinates": [-122.4613225539, 38.2922104214]}, "type": "Feature", "properties": {"collection_times": [{"days": "Mon-Fri", "time": "5:00pm"}, {"days": "Sat", "time": "1:00pm"}, {"days": "Sun", "time": "Closed"}], "id": "9547600021", "name": "USPS COLLECTION BOX - BLUE BOX", "address": {"city": "SONOMA", "state": "CA", "street": "201 W NAPA ST", "postcode": "95476"}}},
{"geometry": {"type": "Point", "coordinates": [-122.4682536346, 38.2920594869]}, "type": "Feature", "properties": {"collection_times": [{"days": "Mon-Fri", "time": "5:00pm"}, {"days": "Sat", "time": "1:00pm"}, {"days": "Sun", "time": "Closed"}], "id": "9547600024", "name": "USPS COLLECTION BOX - BLUE BOX", "address": {"city": "SONOMA", "state": "CA", "street": "545 5TH ST W", "postcode": "95476"}}},
{"geometry": {"type": "Point", "coordinates": [-122.4680189759, 38.2936612544]}, "type": "Feature", "properties": {"collection_times": [{"days": "Mon-Fri", "time": "5:00pm"}, {"days": "Sat", "time": "1:00pm"}, {"days": "Sun", "time": "Closed"}], "id": "9547600025", "name": "USPS COLLECTION BOX - BLUE BOX", "address": {"city": "SONOMA", "state": "CA", "street": "465 5TH ST W", "postcode": "95476"}}},
{"geometry": {"type": "Point", "coordinates": [-122.4692629507, 38.2857673447]}, "type": "Feature", "properties": {"collection_times": [{"days": "Mon-Sat", "time": "1:00pm"}, {"days": "Sun", "time": "Closed"}], "id": "9547600026", "name": "USPS COLLECTION BOX - BLUE BOX", "address": {"city": "SONOMA", "state": "CA", "street": "1001 5TH ST W", "postcode": "95476"}}},
{"geometry": {"type": "Point", "coordinates": [-122.4717810666, 38.2935444729]}, "type": "Feature", "properties": {"collection_times": [{"days": "Mon-Fri", "time": "4:30pm"}, {"days": "Sat", "time": "1:00pm"}, {"days": "Sun", "time": "Closed"}], "id": "9547600027", "name": "USPS COLLECTION BOX - BLUE BOX", "address": {"city": "SONOMA", "state": "CA", "street": "489 7TH ST W", "postcode": "95476"}}},
{"geometry": {"type": "Point", "coordinates": [-122.4753243219, 38.2983334593]}, "type": "Feature", "properties": {"collection_times": [{"days": "Mon-Fri", "time": "4:45pm"}, {"days": "Sat", "time": "1:00pm"}, {"days": "Sun", "time": "Closed"}], "id": "9547600029", "name": "USPS COLLECTION BOX - BLUE BOX", "address": {"city": "SONOMA", "state": "CA", "street": "19195 HIGHWAY 12", "postcode": "95476"}}},
{"geometry": {"type": "Point", "coordinates": [-122.4774306195, 38.3050245754]}, "type": "Feature", "properties": {"collection_times": [{"days": "Mon-Fri", "time": "5:00pm"}, {"days": "Sat", "time": "1:00pm"}, {"days": "Sun", "time": "Closed"}], "id": "9547600031", "name": "USPS COLLECTION BOX - BLUE BOX", "address": {"city": "SONOMA", "state": "CA", "street": "18913 HIGHWAY 12", "postcode": "95476"}}},
{"geometry": {"type": "Point", "coordinates": [-122.4841808513, 38.3174492366]}, "type": "Feature", "properties": {"collection_times": [{"days": "Mon-Sat", "time": "1:00pm"}, {"days": "Sun", "time": "Closed"}], "id": "9547600032", "name": "USPS COLLECTION BOX - BLUE BOX", "address": {"city": "SONOMA", "state": "CA", "street": "17474 HIGHWAY 12", "postcode": "95476"}}},
{"geometry": {"type": "Point", "coordinates": [-122.4926868091, 38.2680202871]}, "type": "Feature", "properties": {"collection_times": [{"days": "Mon-Sat", "time": "1:00pm"}, {"days": "Sun", "time": "Closed"}], "id": "9547600036", "name": "USPS COLLECTION BOX - BLUE BOX", "address": {"city": "SONOMA", "state": "CA", "street": "101 TEMELEC CIR", "postcode": "95476"}}},
{"geometry": {"type": "Point", "coordinates": [-122.4868556269, 38.2603694356]}, "type": "Feature", "properties": {"collection_times": [{"days": "Mon-Sat", "time": "1:00pm"}, {"days": "Sun", "time": "Closed"}], "id": "9547600037", "name": "USPS COLLECTION BOX - BLUE BOX", "address": {"city": "SONOMA", "state": "CA", "street": "160 SEVEN FLAGS CIR", "postcode": "95476"}}},
{"geometry": {"type": "Point", "coordinates": [-122.4936640687, 38.2618660307]}, "type": "Feature", "properties": {"collection_times": [{"days": "Mon-Sat", "time": "1:00pm"}, {"days": "Sun", "time": "Closed"}], "id": "9547600038", "name": "USPS COLLECTION BOX - BLUE BOX", "address": {"city": "SONOMA", "state": "CA", "street": "9 INTERNATIONAL BLVD", "postcode": "95476"}}},
{"geometry": {"type": "Point", "coordinates": [-122.4917648769, 38.2636436211]}, "type": "Feature", "properties": {"collection_times": [{"days": "Mon-Sat", "time": "1:00pm"}, {"days": "Sun", "time": "Closed"}], "id": "9547600041", "name": "USPS COLLECTION BOX - BLUE BOX", "address": {"city": "SONOMA", "state": "CA", "street": "1200 AVENIDA SEBASTIANI", "postcode": "95476"}}},
{"geometry": {"type": "Point", "coordinates": [-122.4715893294, 38.2932236606]}, "type": "Feature", "properties": {"collection_times": [{"days": "Mon-Fri", "time": "3:00pm"}, {"days": "Sat-Sun", "time": "Closed"}], "id": "9547600043", "name": "USPS COLLECTION BOX - EXPRESS", "address": {"city": "SONOMA", "state": "CA", "street": "617 BROADWAY", "postcode": "95476"}}},
{"geometry": {"type": "Point", "coordinates": [-122.4582853944, 38.2898613576]}, "type": "Feature", "properties": {"collection_times": [{"days": "Mon-Fri", "time": "5:00pm"}, {"days": "Sat", "time": "3:30pm"}, {"days": "Sun", "time": "Closed"}], "id": "9547600044", "name": "USPS COLLECTION BOX - BLUE BOX", "address": {"city": "SONOMA", "state": "CA", "street": "617 BROADWAY", "postcode": "95476"}}},
{"geometry": {"type": "Point", "coordinates": [-122.4582853944, 38.2898613576]}, "type": "Feature", "properties": {"collection_times": [{"days": "Mon-Fri", "time": "5:30pm"}, {"days": "Sat", "time": "4:00pm"}, {"days": "Sun", "time": "Closed"}], "id": "9547600051", "name": "USPS COLLECTION BOX - APC", "address": {"city": "SONOMA", "state": "CA", "street": "617 BROADWAY", "postcode": "95476"}}},
{"geometry": {"type": "Point", "coordinates": [-122.4875018217, 38.3007094853]}, "type": "Feature", "properties": {"collection_times": [{"days": "Mon-Fri", "time": "5:00pm"}, {"days": "Sat", "time": "2:45pm"}, {"days": "Sun", "time": "Closed"}], "id": "9547600052", "name": "USPS COLLECTION BOX - BLUE BOX", "address": {"city": "SONOMA", "state": "CA", "street": "19050 BAY ST", "postcode": "95476"}}},
{"geometry": {"type": "Point", "coordinates": [-123.3543896974, 38.7011316071]}, "type": "Feature", "properties": {"collection_times": [{"days": "Mon-Fri", "time": "2:30pm"}, {"days": "Sat", "time": "9:00am"}, {"days": "Sun", "time": "Closed"}], "id": "9548000002", "name": "USPS COLLECTION BOX - BLUE BOX", "address": {"city": "STEWARTS POINT", "state": "CA", "street": "32049 HIGHWAY 1", "postcode": "95480"}}},
{"geometry": {"type": "Point", "coordinates": [-123.2086669182, 39.1498525802]}, "type": "Feature", "properties": {"collection_times": [{"days": "Mon-Fri", "time": "3:00pm"}, {"days": "Sat", "time": "1:00pm"}, {"days": "Sun", "time": "Closed"}], "id": "9548200002", "name": "USPS COLLECTION BOX - BLUE BOX", "address": {"city": "UKIAH", "state": "CA", "street": "100 N SCHOOL ST", "postcode": "95482"}}},
{"geometry": {"type": "Point", "coordinates": [-123.2039621309, 39.1537511681]}, "type": "Feature", "properties": {"collection_times": [{"days": "Mon-Fri", "time": "3:00pm"}, {"days": "Sat", "time": "1:00pm"}, {"days": "Sun", "time": "Closed"}], "id": "9548200009", "name": "USPS COLLECTION BOX - BLUE BOX", "address": {"city": "UKIAH", "state": "CA", "street": "275 HOSPITAL DR", "postcode": "95482"}}},
{"geometry": {"type": "Point", "coordinates": [-123.2005507554, 39.1512156655]}, "type": "Feature", "properties": {"collection_times": [{"days": "Mon-Fri", "time": "3:00pm"}, {"days": "Sat", "time": "1:00pm"}, {"days": "Sun", "time": "Closed"}], "id": "9548200010", "name": "USPS COLLECTION BOX - BLUE BOX", "address": {"city": "UKIAH", "state": "CA", "street": "530 E PERKINS ST", "postcode": "95482"}}},
{"geometry": {"type": "Point", "coordinates": [-123.1987961491, 39.1337887356]}, "type": "Feature", "properties": {"collection_times": [{"days": "Mon-Sat", "time": "12:00pm"}, {"days": "Sun", "time": "Closed"}], "id": "9548200012", "name": "USPS COLLECTION BOX - BLUE BOX", "address": {"city": "UKIAH", "state": "CA", "street": "1155 AIRPORT PARK BLVD", "postcode": "95482"}}},
{"geometry": {"type": "Point", "coordinates": [-123.1986206838, 39.1465817849]}, "type": "Feature", "properties": {"collection_times": [{"days": "Mon-Fri", "time": "5:00pm"}, {"days": "Sat", "time": "2:15pm"}, {"days": "Sun", "time": "Closed"}], "id": "9548200018", "name": "USPS COLLECTION BOX - PO LOBBY", "address": {"city": "UKIAH", "state": "CA", "street": "671 S ORCHARD AVE", "postcode": "95482"}}},
{"geometry": {"type": "Point", "coordinates": [-123.2038096563, 39.150701806]}, "type": "Feature", "properties": {"collection_times": [{"days": "Mon-Fri", "time": "5:00pm"}, {"days": "Sat", "time": "2:15pm"}, {"days": "Sun", "time": "Closed"}], "id": "9548200020", "name": "USPS COLLECTION BOX - BLUE BOX", "address": {"city": "UKIAH", "state": "CA", "street": "300 W STANDLEY ST", "postcode": "95482"}}},
{"geometry": {"type": "Point", "coordinates": [-123.2038096563, 39.150701806]}, "type": "Feature", "properties": {"collection_times": [{"days": "Mon-Fri", "time": "5:00pm"}, {"days": "Sat", "time": "2:15pm"}, {"days": "Sun", "time": "Closed"}], "id": "9548200022", "name": "USPS COLLECTION BOX - BLUE BOX", "address": {"city": "UKIAH", "state": "CA", "street": "300 W STANDLEY ST", "postcode": "95482"}}},
{"geometry": {"type": "Point", "coordinates": [-123.1987784608, 39.1140311767]}, "type": "Feature", "properties": {"collection_times": [{"days": "Mon-Fri", "time": "3:00pm"}, {"days": "Sat", "time": "1:00pm"}, {"days": "Sun", "time": "Closed"}], "id": "9548200027", "name": "USPS COLLECTION BOX - BLUE BOX", "address": {"city": "UKIAH", "state": "CA", "street": "3001 S STATE ST", "postcode": "95482"}}},
{"geometry": {"type": "Point", "coordinates": [-123.2089049852, 39.1598504002]}, "type": "Feature", "properties": {"collection_times": [{"days": "Mon-Fri", "time": "3:00pm"}, {"days": "Sat", "time": "1:00pm"}, {"days": "Sun", "time": "Closed"}], "id": "9548200030", "name": "USPS COLLECTION BOX - BLUE BOX", "address": {"city": "UKIAH", "state": "CA", "street": "925 N STATE ST", "postcode": "95482"}}},
{"geometry": {"type": "Point", "coordinates": [-123.1993781649, 39.1445453814]}, "type": "Feature", "properties": {"collection_times": [{"days": "Mon-Sat", "time": "1:00pm"}, {"days": "Sun", "time": "Closed"}], "id": "9548200032", "name": "USPS COLLECTION BOX - BLUE BOX", "address": {"city": "UKIAH", "state": "CA", "street": "425 E GOBBI ST", "postcode": "95482"}}},
{"geometry": {"type": "Point", "coordinates": [-123.2095126419, 39.1359086552]}, "type": "Feature", "properties": {"collection_times": [{"days": "Mon-Fri", "time": "3:00pm"}, {"days": "Sat", "time": "1:00pm"}, {"days": "Sun", "time": "Closed"}], "id": "9548200034", "name": "USPS COLLECTION BOX - BLUE BOX", "address": {"city": "UKIAH", "state": "CA", "street": "1165 S DORA ST", "postcode": "95482"}}},
{"geometry": {"type": "Point", "coordinates": [-123.2112740002, 39.1684506162]}, "type": "Feature", "properties": {"collection_times": [{"days": "Mon-Fri", "time": "3:00pm"}, {"days": "Sat", "time": "1:00pm"}, {"days": "Sun", "time": "Closed"}], "id": "9548200040", "name": "USPS COLLECTION BOX - BLUE BOX", "address": {"city": "UKIAH", "state": "CA", "street": "1315 N STATE ST", "postcode": "95482"}}},
{"geometry": {"type": "Point", "coordinates": [-123.2038096563, 39.150701806]}, "type": "Feature", "properties": {"collection_times": [{"days": "Mon-Fri", "time": "3:15pm"}, {"days": "Sat", "time": "2:15pm"}, {"days": "Sun", "time": "Closed"}], "id": "9548200042", "name": "USPS COLLECTION BOX - EXPRESS", "address": {"city": "UKIAH", "state": "CA", "street": "671 S ORCHARD AVE", "postcode": "95482"}}},
{"geometry": {"type": "Point", "coordinates": [-123.1986206839, 39.1465817851]}, "type": "Feature", "properties": {"collection_times": [{"days": "Mon-Fri", "time": "5:15pm"}, {"days": "Sat", "time": "2:30pm"}, {"days": "Sun", "time": "Closed"}], "id": "9548200043", "name": "USPS COLLECTION BOX - BLUE BOX", "address": {"city": "UKIAH", "state": "CA", "street": "671 S ORCHARD AVE", "postcode": "95482"}}},
{"geometry": {"type": "Point", "coordinates": [-123.1665143819, 39.1331617673]}, "type": "Feature", "properties": {"collection_times": [{"days": "Mon-Fri", "time": "5:00pm"}, {"days": "Sat", "time": "2:00pm"}, {"days": "Sun", "time": "Closed"}], "id": "9548200044", "name": "USPS COLLECTION BOX - BLUE BOX", "address": {"city": "UKIAH", "state": "CA", "street": "1986 TALMAGE RD", "postcode": "95482"}}},
{"geometry": {"type": "Point", "coordinates": [-123.2067911386, 39.1461925429]}, "type": "Feature", "properties": {"collection_times": [{"days": "Mon-Fri", "time": "3:00pm"}, {"days": "Sat", "time": "1:00pm"}, {"days": "Sun", "time": "Closed"}], "id": "9548200046", "name": "USPS COLLECTION BOX - BLUE BOX", "address": {"city": "UKIAH", "state": "CA", "street": "653 S STATE ST", "postcode": "95482"}}},
{"geometry": {"type": "Point", "coordinates": [-123.1986206839, 39.1465817851]}, "type": "Feature", "properties": {"collection_times": [{"days": "Mon-Fri", "time": "5:15pm"}, {"days": "Sat", "time": "2:30pm"}, {"days": "Sun", "time": "Closed"}], "id": "9548200047", "name": "USPS COLLECTION BOX - BLUE BOX", "address": {"city": "UKIAH", "state": "CA", "street": "671 S ORCHARD AVE", "postcode": "95482"}}},
{"geometry": {"type": "Point", "coordinates": [-123.2069987865, 39.191692211]}, "type": "Feature", "properties": {"collection_times": [{"days": "Mon-Fri", "time": "3:00pm"}, {"days": "Sat", "time": "1:00pm"}, {"days": "Sun", "time": "Closed"}], "id": "9548200048", "name": "USPS COLLECTION BOX - BLUE BOX", "address": {"city": "UKIAH", "state": "CA", "street": "3152 N STATE ST", "postcode": "95482"}}},
{"geometry": {"type": "Point", "coordinates": [-123.1986206838, 39.1465817849]}, "type": "Feature", "properties": {"collection_times": [{"days": "Mon-Fri", "time": "5:00pm"}, {"days": "Sat", "time": "2:15pm"}, {"days": "Sun", "time": "Closed"}], "id": "9548200050", "name": "USPS COLLECTION BOX - APC", "address": {"city": "UKIAH", "state": "CA", "street": "671 S ORCHARD AVE", "postcode": "95482"}}},
{"geometry": {"type": "Point", "coordinates": [-122.9110549304, 39.1679791058]}, "type": "Feature", "properties": {"collection_times": [{"days": "Mon-Fri", "time": "4:00pm"}, {"days": "Sat", "time": "10:00am"}, {"days": "Sun", "time": "Closed"}], "id": "9548500002", "name": "USPS COLLECTION BOX - BLUE BOX", "address": {"city": "UPPER LAKE", "state": "CA", "street": "9435 MAIN ST", "postcode": "95485"}}},
{"geometry": {"type": "Point", "coordinates": [-122.9110549304, 39.1679791058]}, "type": "Feature", "properties": {"collection_times": [{"days": "Mon-Fri", "time": "4:00pm"}, {"days": "Sat-Sun", "time": "Closed"}], "id": "9548500003", "name": "USPS COLLECTION BOX - PO LOBBY", "address": {"city": "UPPER LAKE", "state": "CA", "street": "9435 MAIN ST", "postcode": "95485"}}},
{"geometry": {"type": "Point", "coordinates": [-122.9118572579, 39.1623076953]}, "type": "Feature", "properties": {"collection_times": [{"days": "Mon-Fri", "time": "2:30pm"}, {"days": "Sat-Sun", "time": "Closed"}], "id": "9548500004", "name": "USPS COLLECTION BOX - BLUE BOX", "address": {"city": "UPPER LAKE", "state": "CA", "street": "160 E STATE HIGHWAY 20", "postcode": "95485"}}},
{"geometry": {"type": "Point", "coordinates": [-123.0702497443, 38.506222636]}, "type": "Feature", "properties": {"collection_times": [{"days": "Mon-Fri", "time": "4:00pm"}, {"days": "Sat", "time": "12:00pm"}, {"days": "Sun", "time": "Closed"}], "id": "9548600002", "name": "USPS COLLECTION BOX - BLUE BOX", "address": {"city": "VILLA GRANDE", "state": "CA", "street": "21893 WEST ST", "postcode": "95486"}}},
{"geometry": {"type": "Point", "coordinates": [-123.0702497443, 38.506222636]}, "type": "Feature", "properties": {"collection_times": [{"days": "Mon-Fri", "time": "4:00pm"}, {"days": "Sat-Sun", "time": "Closed"}], "id": "9548600003", "name": "USPS COLLECTION BOX - PO LOBBY", "address": {"city": "VILLA GRANDE", "state": "CA", "street": "21893 WEST ST", "postcode": "95486"}}},
{"geometry": {"type": "Point", "coordinates": [-122.4583758916, 38.2881193495]}, "type": "Feature", "properties": {"collection_times": [{"days": "Mon-Fri", "time": "4:30pm"}, {"days": "Sat", "time": "2:30pm"}, {"days": "Sun", "time": "Closed"}], "id": "9548700002", "name": "USPS COLLECTION BOX - BLUE BOX", "address": {"city": "VINEBURG", "state": "CA", "street": "20579 8TH ST E", "postcode": "95487"}}},
{"geometry": {"type": "Point", "coordinates": [-122.4583758916, 38.2881193495]}, "type": "Feature", "properties": {"collection_times": [{"days": "Mon-Fri", "time": "4:30pm"}, {"days": "Sat-Sun", "time": "Closed"}], "id": "9548700003", "name": "USPS COLLECTION BOX - PO LOBBY", "address": {"city": "VINEBURG", "state": "CA", "street": "20579 8TH ST E", "postcode": "95487"}}},
{"geometry": {"type": "Point", "coordinates": [-123.3352728591, 39.3766678871]}, "type": "Feature", "properties": {"collection_times": [{"days": "Mon-Sat", "time": "12:00pm"}, {"days": "Sun", "time": "Closed"}], "id": "9549000003", "name": "USPS COLLECTION BOX - BLUE BOX", "address": {"city": "WILLITS", "state": "CA", "street": "16100 N HIGHWAY 101", "postcode": "95490"}}},
{"geometry": {"type": "Point", "coordinates": [-123.3464742717, 39.3898886626]}, "type": "Feature", "properties": {"collection_times": [{"days": "Mon-Fri", "time": "3:15pm"}, {"days": "Sat", "time": "1:00pm"}, {"days": "Sun", "time": "Closed"}], "id": "9549000004", "name": "USPS COLLECTION BOX - BLUE BOX", "address": {"city": "WILLITS", "state": "CA", "street": "1700 S MAIN ST", "postcode": "95490"}}},
{"geometry": {"type": "Point", "coordinates": [-123.353714023, 39.4090360761]}, "type": "Feature", "properties": {"collection_times": [{"days": "Mon-Fri", "time": "3:30pm"}, {"days": "Sat", "time": "1:00pm"}, {"days": "Sun", "time": "Closed"}], "id": "9549000007", "name": "USPS COLLECTION BOX - BLUE BOX", "address": {"city": "WILLITS", "state": "CA", "street": "10 W VALLEY ST", "postcode": "95490"}}},
{"geometry": {"type": "Point", "coordinates": [-123.3560377798, 39.410595686]}, "type": "Feature", "properties": {"collection_times": [{"days": "Mon-Fri", "time": "3:30pm"}, {"days": "Sat", "time": "1:00pm"}, {"days": "Sun", "time": "Closed"}], "id": "9549000009", "name": "USPS COLLECTION BOX - BLUE BOX", "address": {"city": "WILLITS", "state": "CA", "street": "99 WOOD ST", "postcode": "95490"}}},
{"geometry": {"type": "Point", "coordinates": [-123.354410823, 39.4123634068]}, "type": "Feature", "properties": {"collection_times": [{"days": "Mon-Fri", "time": "3:30pm"}, {"days": "Sat", "time": "1:00pm"}, {"days": "Sun", "time": "Closed"}], "id": "9549000010", "name": "USPS COLLECTION BOX - BLUE BOX", "address": {"city": "WILLITS", "state": "CA", "street": "1 S MAIN ST", "postcode": "95490"}}},
{"geometry": {"type": "Point", "coordinates": [-123.3535614875, 39.4090964096]}, "type": "Feature", "properties": {"collection_times": [{"days": "Mon-Sat", "time": "4:00pm"}, {"days": "Sun", "time": "Closed"}], "id": "9549000011", "name": "USPS COLLECTION BOX - PO LOBBY", "address": {"city": "WILLITS", "state": "CA", "street": "315 S MAIN ST", "postcode": "95490"}}},
{"geometry": {"type": "Point", "coordinates": [-123.3871871947, 39.4431566119]}, "type": "Feature", "properties": {"collection_times": [{"days": "Mon-Sat", "time": "12:00pm"}, {"days": "Sun", "time": "Closed"}], "id": "9549000012", "name": "USPS COLLECTION BOX - BLUE BOX", "address": {"city": "WILLITS", "state": "CA", "street": "24860 BIRCH ST", "postcode": "95490"}}},
{"geometry": {"type": "Point", "coordinates": [-123.3535614875, 39.4090964096]}, "type": "Feature", "properties": {"collection_times": [{"days": "Mon-Sat", "time": "4:00pm"}, {"days": "Sun", "time": "Closed"}], "id": "9549000013", "name": "USPS COLLECTION BOX - PO LOBBY", "address": {"city": "WILLITS", "state": "CA", "street": "315 S MAIN ST", "postcode": "95490"}}},
{"geometry": {"type": "Point", "coordinates": [-122.8060661296, 38.5480409]}, "type": "Feature", "properties": {"collection_times": [{"days": "Mon-Fri", "time": "5:00pm"}, {"days": "Sat", "time": "12:00pm"}, {"days": "Sun", "time": "Closed"}], "id": "9549200010", "name": "USPS COLLECTION BOX - BLUE BOX", "address": {"city": "WINDSOR", "state": "CA", "street": "8800 LAKEWOOD DR", "postcode": "95492"}}},
{"geometry": {"type": "Point", "coordinates": [-122.8063330904, 38.5476684594]}, "type": "Feature", "properties": {"collection_times": [{"days": "Mon-Fri", "time": "5:00pm"}, {"days": "Sat", "time": "12:00pm"}, {"days": "Sun", "time": "Closed"}], "id": "9549200011", "name": "USPS COLLECTION BOX - BLUE BOX", "address": {"city": "WINDSOR", "state": "CA", "street": "8776 LAKEWOOD DR", "postcode": "95492"}}},
{"geometry": {"type": "Point", "coordinates": [-122.8072961593, 38.5543744009]}, "type": "Feature", "properties": {"collection_times": [{"days": "Mon-Sat", "time": "11:30am"}, {"days": "Sun", "time": "Closed"}], "id": "9549200012", "name": "USPS COLLECTION BOX - BLUE BOX", "address": {"city": "WINDSOR", "state": "CA", "street": "9028 BROOKS RD S", "postcode": "95492"}}},
{"geometry": {"type": "Point", "coordinates": [-122.8045916354, 38.551076162]}, "type": "Feature", "properties": {"collection_times": [{"days": "Mon-Sat", "time": "11:30am"}, {"days": "Sun", "time": "Closed"}], "id": "9549200013", "name": "USPS COLLECTION BOX - BLUE BOX", "address": {"city": "WINDSOR", "state": "CA", "street": "911 MEDICAL CENTER PLZ", "postcode": "95492"}}},
{"geometry": {"type": "Point", "coordinates": [-122.8020490951, 38.5441452334]}, "type": "Feature", "properties": {"collection_times": [{"days": "Mon-Sat", "time": "11:00am"}, {"days": "Sun", "time": "Closed"}], "id": "9549200014", "name": "USPS COLLECTION BOX - BLUE BOX", "address": {"city": "WINDSOR", "state": "CA", "street": "8499 OLD REDWOOD HWY", "postcode": "95492"}}},
{"geometry": {"type": "Point", "coordinates": [-122.8112932056, 38.5430891655]}, "type": "Feature", "properties": {"collection_times": [{"days": "Mon-Sat", "time": "1:00pm"}, {"days": "Sun", "time": "Closed"}], "id": "9549200015", "name": "USPS COLLECTION BOX - BLUE BOX", "address": {"city": "WINDSOR", "state": "CA", "street": "9501 DUVANDER LN", "postcode": "95492"}}},
{"geometry": {"type": "Point", "coordinates": [-122.8021395169, 38.5368468345]}, "type": "Feature", "properties": {"collection_times": [{"days": "Mon-Sat", "time": "11:00am"}, {"days": "Sun", "time": "Closed"}], "id": "9549200016", "name": "USPS COLLECTION BOX - BLUE BOX", "address": {"city": "WINDSOR", "state": "CA", "street": "7646 BELL RD", "postcode": "95492"}}},
{"geometry": {"type": "Point", "coordinates": [-122.8060661296, 38.5480409]}, "type": "Feature", "properties": {"collection_times": [{"days": "Mon-Fri", "time": "5:00pm"}, {"days": "Sat", "time": "3:30pm"}, {"days": "Sun", "time": "Closed"}], "id": "9549200017", "name": "USPS COLLECTION BOX - PO LOBBY", "address": {"city": "WINDSOR", "state": "CA", "street": "8800 LAKEWOOD DR", "postcode": "95492"}}},
{"geometry": {"type": "Point", "coordinates": [-123.3016586825, 38.9291306612]}, "type": "Feature", "properties": {"collection_times": [{"days": "Mon-Fri", "time": "3:45pm"}, {"days": "Sat", "time": "10:00am"}, {"days": "Sun", "time": "Closed"}], "id": "9549400003", "name": "USPS COLLECTION BOX - PO LOBBY", "address": {"city": "YORKVILLE", "state": "CA", "street": "25400 HIGHWAY 128", "postcode": "95494"}}}
]}
