{"type": "FeatureCollection", "features": [
{"geometry": {"type": "Point", "coordinates": [-124.1582292194, 40.7928010446]}, "type": "Feature", "properties": {"collection_times": [{"days": "Mon-Fri", "time": "4:00pm"}, {"days": "Sat-Sun", "time": "Closed"}], "id": "9550100002", "name": "USPS COLLECTION BOX - EXPRESS", "address": {"city": "EUREKA", "state": "CA", "street": "337 W CLARK ST", "postcode": "95501"}}},
{"geometry": {"type": "Point", "coordinates": [-124.1682227402, 40.7999154602]}, "type": "Feature", "properties": {"collection_times": [{"days": "Mon-Sat", "time": "9:00am"}, {"days": "Sun", "time": "Closed"}], "id": "9550100003", "name": "USPS COLLECTION BOX - BLUE BOX", "address": {"city": "EUREKA", "state": "CA", "street": "212 7TH ST", "postcode": "95501"}}},
{"geometry": {"type": "Point", "coordinates": [-124.1664835758, 40.7989776504]}, "type": "Feature", "properties": {"collection_times": [{"days": "Mon-Sat", "time": "9:30am"}, {"days": "Sun", "time": "Closed"}], "id": "9550100007", "name": "USPS COLLECTION BOX - BLUE BOX", "address": {"city": "EUREKA", "state": "CA", "street": "840 E ST", "postcode": "95501"}}},
{"geometry": {"type": "Point", "coordinates": [-124.1720105678, 40.7905331552]}, "type": "Feature", "properties": {"collection_times": [{"days": "Mon-Fri", "time": "5:00pm"}, {"days": "Sat", "time": "9:00am"}, {"days": "Sun", "time": "Closed"}], "id": "9550100010", "name": "USPS COLLECTION BOX - BLUE BOX", "address": {"city": "EUREKA", "state": "CA", "street": "1910 CALIFORNIA ST", "postcode": "95501"}}},
{"geometry": {"type": "Point", "coordinates": [-124.1617176688, 40.8034318123]}, "type": "Feature", "properties": {"collection_times": [{"days": "Mon-Sat", "time": "10:15am"}, {"days": "Sun", "time": "Closed"}], "id": "9550100017", "name": "USPS COLLECTION BOX - BLUE BOX", "address": {"city": "EUREKA", "state": "CA", "street": "905 4TH ST", "postcode": "95501"}}},
{"geometry": {"type": "Point", "coordinates": [-124.1630870521, 40.8005990453]}, "type": "Feature", "properties": {"collection_times": [{"days": "Mon-Sat", "time": "9:00am"}, {"days": "Sun", "time": "Closed"}], "id": "9550100018", "name": "USPS COLLECTION BOX - BLUE BOX", "address": {"city": "EUREKA", "state": "CA", "street": "730 7TH ST", "postcode": "95501"}}},
{"geometry": {"type": "Point", "coordinates": [-124.1359627767, 40.794162638]}, "type": "Feature", "properties": {"collection_times": [{"days": "Mon-Sat", "time": "9:00am"}, {"days": "Sun", "time": "Closed"}], "id": "9550100022", "name": "USPS COLLECTION BOX - BLUE BOX", "address": {"city": "EUREKA", "state": "CA", "street": "1648 MYRTLE AVE", "postcode": "95501"}}},
{"geometry": {"type": "Point", "coordinates": [-124.1593056858, 40.8027651198]}, "type": "Feature", "properties": {"collection_times": [{"days": "Mon-Sat", "time": "9:00am"}, {"days": "Sun", "time": "Closed"}], "id": "9550100025", "name": "USPS COLLECTION BOX - BLUE BOX", "address": {"city": "EUREKA", "state": "CA", "street": "1106 5TH ST", "postcode": "95501"}}},
{"geometry": {"type": "Point", "coordinates": [-124.1311317739, 40.7855373768]}, "type": "Feature", "properties": {"collection_times": [{"days": "Mon-Sat", "time": "11:00am"}, {"days": "Sun", "time": "Closed"}], "id": "9550100026", "name": "USPS COLLECTION BOX - BLUE BOX", "address": {"city": "EUREKA", "state": "CA", "street": "2385 MYRTLE AVE", "postcode": "95501"}}},
{"geometry": {"type": "Point", "coordinates": [-119.2702268805, 36.3741071704]}, "type": "Feature", "properties": {"collection_times": [{"days": "Mon-Fri", "time": "5:00pm"}, {"days": "Sat", "time": "4:15pm"}, {"days": "Sun", "time": "Closed"}], "id": "9550100029", "name": "USPS COLLECTION BOX - BLUE BOX", "address": {"city": "EUREKA", "state": "CA", "street": "2521 H ST", "postcode": "95501"}}},
{"geometry": {"type": "Point", "coordinates": [-124.1612411665, 40.7851534044]}, "type": "Feature", "properties": {"collection_times": [{"days": "Mon-Fri", "time": "5:00pm"}, {"days": "Sat", "time": "4:15pm"}, {"days": "Sun", "time": "Closed"}], "id": "9550100031", "name": "USPS COLLECTION BOX - BLUE BOX", "address": {"city": "EUREKA", "state": "CA", "street": "2521 H ST", "postcode": "95501"}}},
{"geometry": {"type": "Point", "coordinates": [-124.1602365834, 40.7851333675]}, "type": "Feature", "properties": {"collection_times": [{"days": "Mon-Fri", "time": "5:00pm"}, {"days": "Sat", "time": "4:00pm"}, {"days": "Sun", "time": "Closed"}], "id": "9550100033", "name": "USPS COLLECTION BOX - BLUE BOX", "address": {"city": "EUREKA", "state": "CA", "street": "2522 I ST", "postcode": "95501"}}},
{"geometry": {"type": "Point", "coordinates": [-124.1602365834, 40.7851333675]}, "type": "Feature", "properties": {"collection_times": [{"days": "Mon-Fri", "time": "5:00pm"}, {"days": "Sat", "time": "4:00pm"}, {"days": "Sun", "time": "Closed"}], "id": "9550100034", "name": "USPS COLLECTION BOX - BLUE BOX", "address": {"city": "EUREKA", "state": "CA", "street": "2522 I ST", "postcode": "95501"}}},
{"geometry": {"type": "Point", "coordinates": [-124.1636547165, 40.781922405]}, "type": "Feature", "properties": {"collection_times": [{"days": "Mon-Fri", "time": "5:30pm"}, {"days": "Sat", "time": "4:30pm"}, {"days": "Sun", "time": "Closed"}], "id": "9550100036", "name": "USPS COLLECTION BOX - BLUE BOX", "address": {"city": "EUREKA", "state": "CA", "street": "411 HARRIS ST", "postcode": "95501"}}},
{"geometry": {"type": "Point", "coordinates": [-124.1636547165, 40.781922405]}, "type": "Feature", "properties": {"collection_times": [{"days": "Mon-Fri", "time": "5:30pm"}, {"days": "Sat", "time": "4:30pm"}, {"days": "Sun", "time": "Closed"}], "id": "9550100037", "name": "USPS COLLECTION BOX - PO LOBBY", "address": {"city": "EUREKA", "state": "CA", "street": "2906 F ST", "postcode": "95501"}}},
{"geometry": {"type": "Point", "coordinates": [-124.1591933008, 40.8020531249]}, "type": "Feature", "properties": {"collection_times": [{"days": "Mon-Fri", "time": "4:30pm"}, {"days": "Sat-Sun", "time": "Closed"}], "id": "9550100039", "name": "USPS COLLECTION BOX - BLUE BOX", "address": {"city": "EUREKA", "state": "CA", "street": "1105 6TH ST", "postcode": "95501"}}},
{"geometry": {"type": "Point", "coordinates": [-124.1397505291, 40.7862535048]}, "type": "Feature", "properties": {"collection_times": [{"days": "Mon-Fri", "time": "5:00pm"}, {"days": "Sat", "time": "3:45pm"}, {"days": "Sun", "time": "Closed"}], "id": "9550100044", "name": "USPS COLLECTION BOX - BLUE BOX", "address": {"city": "EUREKA", "state": "CA", "street": "2316 HARRISON AVE", "postcode": "95501"}}},
{"geometry": {"type": "Point", "coordinates": [-124.1636551961, 40.8017643707]}, "type": "Feature", "properties": {"collection_times": [{"days": "Mon-Fri", "time": "5:30pm"}, {"days": "Sat", "time": "4:15pm"}, {"days": "Sun", "time": "Closed"}], "id": "9550100045", "name": "USPS COLLECTION BOX - PO LOBBY", "address": {"city": "EUREKA", "state": "CA", "street": "555 H ST", "postcode": "95501"}}},
{"geometry": {"type": "Point", "coordinates": [-124.1636551961, 40.8017643707]}, "type": "Feature", "properties": {"collection_times": [{"days": "Mon-Fri", "time": "5:30pm"}, {"days": "Sat", "time": "4:15pm"}, {"days": "Sun", "time": "Closed"}], "id": "9550100046", "name": "USPS COLLECTION BOX - BLUE BOX", "address": {"city": "EUREKA", "state": "CA", "street": "555 H ST", "postcode": "95501"}}},
{"geometry": {"type": "Point", "coordinates": [-124.1636551961, 40.8017643707]}, "type": "Feature", "properties": {"collection_times": [{"days": "Mon-Fri", "time": "5:30pm"}, {"days": "Sat", "time": "4:15pm"}, {"days": "Sun", "time": "Closed"}], "id": "9550100047", "name": "USPS COLLECTION BOX - BLUE BOX", "address": {"city": "EUREKA", "state": "CA", "street": "555 H ST", "postcode": "95501"}}},
{"geometry": {"type": "Point", "coordinates": [-124.1636551961, 40.8017643707]}, "type": "Feature", "properties": {"collection_times": [{"days": "Mon-Fri", "time": "5:30pm"}, {"days": "Sat", "time": "4:15pm"}, {"days": "Sun", "time": "Closed"}], "id": "9550100048", "name": "USPS COLLECTION BOX - BLUE BOX", "address": {"city": "EUREKA", "state": "CA", "street": "555 H ST", "postcode": "95501"}}},
{"geometry": {"type": "Point", "coordinates": [-124.1750965835, 40.7917914438]}, "type": "Feature", "properties": {"collection_times": [{"days": "Mon-Fri", "time": "5:00pm"}, {"days": "Sat-Sun", "time": "Closed"}], "id": "9550100051", "name": "USPS COLLECTION BOX - BLUE BOX", "address": {"city": "EUREKA", "state": "CA", "street": "1656 UNION ST", "postcode": "95501"}}},
{"geometry": {"type": "Point", "coordinates": [-124.1682448756, 40.8025208849]}, "type": "Feature", "properties": {"collection_times": [{"days": "Mon-Fri", "time": "4:45pm"}, {"days": "Sat-Sun", "time": "Closed"}], "id": "9550100053", "name": "USPS COLLECTION BOX - BLUE BOX", "address": {"city": "EUREKA", "state": "CA", "street": "307 4TH ST", "postcode": "95501"}}},
{"geometry": {"type": "Point", "coordinates": [-124.166413123, 40.8032910359]}, "type": "Feature", "properties": {"collection_times": [{"days": "Mon-Fri", "time": "4:30pm"}, {"days": "Sat-Sun", "time": "Closed"}], "id": "9550100054", "name": "USPS COLLECTION BOX - BLUE BOX", "address": {"city": "EUREKA", "state": "CA", "street": "334 F ST", "postcode": "95501"}}},
{"geometry": {"type": "Point", "coordinates": [-124.1616550861, 40.8042120284]}, "type": "Feature", "properties": {"collection_times": [{"days": "Mon-Fri", "time": "5:00pm"}, {"days": "Sat-Sun", "time": "Closed"}], "id": "9550100057", "name": "USPS COLLECTION BOX - BLUE BOX", "address": {"city": "EUREKA", "state": "CA", "street": "930 3RD ST", "postcode": "95501"}}},
{"geometry": {"type": "Point", "coordinates": [-124.1653377973, 40.8046536263]}, "type": "Feature", "properties": {"collection_times": [{"days": "Mon-Fri", "time": "4:30pm"}, {"days": "Sat-Sun", "time": "Closed"}], "id": "9550100058", "name": "USPS COLLECTION BOX - BLUE BOX", "address": {"city": "EUREKA", "state": "CA", "street": "619 2ND ST", "postcode": "95501"}}},
{"geometry": {"type": "Point", "coordinates": [-124.1624394016, 40.8024465321]}, "type": "Feature", "properties": {"collection_times": [{"days": "Mon-Fri", "time": "5:00pm"}, {"days": "Sat", "time": "3:30pm"}, {"days": "Sun", "time": "Closed"}], "id": "9550100059", "name": "USPS COLLECTION BOX - BLUE BOX", "address": {"city": "EUREKA", "state": "CA", "street": "825 5TH ST", "postcode": "95501"}}},
{"geometry": {"type": "Point", "coordinates": [-124.1870421129, 40.779399206]}, "type": "Feature", "properties": {"collection_times": [{"days": "Mon-Fri", "time": "5:00pm"}, {"days": "Sat-Sun", "time": "Closed"}], "id": "9550100064", "name": "USPS COLLECTION BOX - BLUE BOX", "address": {"city": "EUREKA", "state": "CA", "street": "3240 BROADWAY", "postcode": "95501"}}},
{"geometry": {"type": "Point", "coordinates": [-124.1873985639, 40.779202073]}, "type": "Feature", "properties": {"collection_times": [{"days": "Mon-Fri", "time": "5:00pm"}, {"days": "Sat", "time": "4:45pm"}, {"days": "Sun", "time": "Closed"}], "id": "9550100065", "name": "USPS COLLECTION BOX - BLUE BOX", "address": {"city": "EUREKA", "state": "CA", "street": "3300 BROADWAY", "postcode": "95501"}}},
{"geometry": {"type": "Point", "coordinates": [-124.174549004, 40.796552831]}, "type": "Feature", "properties": {"collection_times": [{"days": "Mon-Sat", "time": "5:30pm"}, {"days": "Sun", "time": "Closed"}], "id": "9550100066", "name": "USPS COLLECTION BOX - BLUE BOX", "address": {"city": "EUREKA", "state": "CA", "street": "337 W CLARK ST", "postcode": "95501"}}},
{"geometry": {"type": "Point", "coordinates": [-124.1740287278, 40.7927929207]}, "type": "Feature", "properties": {"collection_times": [{"days": "Mon-Fri", "time": "5:00pm"}, {"days": "Sat-Sun", "time": "Closed"}], "id": "9550100070", "name": "USPS COLLECTION BOX - BLUE BOX", "address": {"city": "EUREKA", "state": "CA", "street": "322 W 15TH ST", "postcode": "95501"}}},
{"geometry": {"type": "Point", "coordinates": [-124.1636155613, 40.8016094856]}, "type": "Feature", "properties": {"collection_times": [{"days": "Mon-Fri", "time": "5:30pm"}, {"days": "Sat", "time": "4:15pm"}, {"days": "Sun", "time": "Closed"}], "id": "9550100071", "name": "USPS COLLECTION BOX - BLUE BOX", "address": {"city": "EUREKA", "state": "CA", "street": "555 H ST", "postcode": "95501"}}},
{"geometry": {"type": "Point", "coordinates": [-124.1636551961, 40.8017643707]}, "type": "Feature", "properties": {"collection_times": [{"days": "Mon-Fri", "time": "5:30pm"}, {"days": "Sat", "time": "4:15pm"}, {"days": "Sun", "time": "Closed"}], "id": "9550100072", "name": "USPS COLLECTION BOX - BLUE BOX", "address": {"city": "EUREKA", "state": "CA", "street": "555 H ST", "postcode": "95501"}}},
{"geometry": {"type": "Point", "coordinates": [-124.1636551961, 40.8017643707]}, "type": "Feature", "properties": {"collection_times": [{"days": "Mon-Fri", "time": "5:30pm"}, {"days": "Sat", "time": "4:15pm"}, {"days": "Sun", "time": "Closed"}], "id": "9550100073", "name": "USPS COLLECTION BOX - BLUE BOX", "address": {"city": "EUREKA", "state": "CA", "street": "555 H ST", "postcode": "95501"}}},
{"geometry": {"type": "Point", "coordinates": [-124.1636551961, 40.8017643707]}, "type": "Feature", "properties": {"collection_times": [{"days": "Mon-Fri", "time": "5:30pm"}, {"days": "Sat", "time": "4:15pm"}, {"days": "Sun", "time": "Closed"}], "id": "9550100074", "name": "USPS COLLECTION BOX - BLUE BOX", "address": {"city": "EUREKA", "state": "CA", "street": "555 H ST", "postcode": "95501"}}},
{"geometry": {"type": "Point", "coordinates": [-124.1421185271, 40.7831848965]}, "type": "Feature", "properties": {"collection_times": [{"days": "Mon-Fri", "time": "5:00pm"}, {"days": "Sat", "time": "4:00pm"}, {"days": "Sun", "time": "Closed"}], "id": "9550100077", "name": "USPS COLLECTION BOX - BLUE BOX", "address": {"city": "EUREKA", "state": "CA", "street": "2700 DOLBEER ST", "postcode": "95501"}}},
{"geometry": {"type": "Point", "coordinates": [-124.1491315953, 40.8002004566]}, "type": "Feature", "properties": {"collection_times": [{"days": "Mon-Fri", "time": "4:15pm"}, {"days": "Sat", "time": "3:45pm"}, {"days": "Sun", "time": "Closed"}], "id": "9550100082", "name": "USPS COLLECTION BOX - BLUE BOX", "address": {"city": "EUREKA", "state": "CA", "street": "977 MYRTLE AVE", "postcode": "95501"}}},
{"geometry": {"type": "Point", "coordinates": [-124.1745544974, 40.7966186421]}, "type": "Feature", "properties": {"collection_times": [{"days": "Mon-Sat", "time": "5:30pm"}, {"days": "Sun", "time": "Closed"}], "id": "9550100092", "name": "USPS COLLECTION BOX - PO LOBBY", "address": {"city": "EUREKA", "state": "CA", "street": "337 W CLARK ST", "postcode": "95501"}}},
{"geometry": {"type": "Point", "coordinates": [-124.1633159684, 40.8031535433]}, "type": "Feature", "properties": {"collection_times": [{"days": "Mon-Fri", "time": "5:00pm"}, {"days": "Sat", "time": "4:00pm"}, {"days": "Sun", "time": "Closed"}], "id": "9550100093", "name": "USPS COLLECTION BOX - BLUE BOX", "address": {"city": "EUREKA", "state": "CA", "street": "728 4TH ST", "postcode": "95501"}}},
{"geometry": {"type": "Point", "coordinates": [-124.1429020696, 40.7717450934]}, "type": "Feature", "properties": {"collection_times": [{"days": "Mon-Fri", "time": "5:00pm"}, {"days": "Sat", "time": "4:00pm"}, {"days": "Sun", "time": "Closed"}], "id": "9550300000", "name": "USPS COLLECTION BOX - PO LOBBY", "address": {"city": "EUREKA", "state": "CA", "street": "3901 WALNUT DR", "postcode": "95503"}}},
{"geometry": {"type": "Point", "coordinates": [-124.1429020696, 40.7717450934]}, "type": "Feature", "properties": {"collection_times": [{"days": "Mon-Fri", "time": "5:00pm"}, {"days": "Sat", "time": "4:00pm"}, {"days": "Sun", "time": "Closed"}], "id": "9550300001", "name": "USPS COLLECTION BOX - BLUE BOX", "address": {"city": "EUREKA", "state": "CA", "street": "3901 WALNUT DR", "postcode": "95503"}}},
{"geometry": {"type": "Point", "coordinates": [-124.1770318587, 40.7574759569]}, "type": "Feature", "properties": {"collection_times": [{"days": "Mon-Sat", "time": "12:00pm"}, {"days": "Sun", "time": "Closed"}], "id": "9550300002", "name": "USPS COLLECTION BOX - BLUE BOX", "address": {"city": "EUREKA", "state": "CA", "street": "590 HERRICK AVE", "postcode": "95503"}}},
{"geometry": {"type": "Point", "coordinates": [-124.2005846375, 40.7410786221]}, "type": "Feature", "properties": {"collection_times": [{"days": "Mon-Sat", "time": "1:30pm"}, {"days": "Sun", "time": "Closed"}], "id": "9550300003", "name": "USPS COLLECTION BOX - BLUE BOX", "address": {"city": "EUREKA", "state": "CA", "street": "5667 S BROADWAY ST", "postcode": "95503"}}},
{"geometry": {"type": "Point", "coordinates": [-123.6273935376, 40.1665136404]}, "type": "Feature", "properties": {"collection_times": [{"days": "Mon-Fri", "time": "1:00pm"}, {"days": "Sat", "time": "10:00am"}, {"days": "Sun", "time": "Closed"}], "id": "9551100003", "name": "USPS COLLECTION BOX - BLUE BOX", "address": {"city": "ALDERPOINT", "state": "CA", "street": "410 ALDER AVE", "postcode": "95511"}}},
{"geometry": {"type": "Point", "coordinates": [-123.6273935376, 40.1665136404]}, "type": "Feature", "properties": {"collection_times": [{"days": "Mon-Fri", "time": "1:20pm"}, {"days": "Sat-Sun", "time": "Closed"}], "id": "9551100004", "name": "USPS COLLECTION BOX - PO LOBBY", "address": {"city": "ALDERPOINT", "state": "CA", "street": "410 ALDER AVE", "postcode": "95511"}}},
{"geometry": {"type": "Point", "coordinates": [-123.653986394, 40.3008184712]}, "type": "Feature", "properties": {"collection_times": [{"days": "Mon-Fri", "time": "12:00pm"}, {"days": "Sat", "time": "12:15pm"}, {"days": "Sun", "time": "Closed"}], "id": "9551400001", "name": "USPS COLLECTION BOX - PO LOBBY", "address": {"city": "BLOCKSBURG", "state": "CA", "street": "27984 ALDERPOINT RD", "postcode": "95514"}}},
{"geometry": {"type": "Point", "coordinates": [-124.1017503683, 40.9430986051]}, "type": "Feature", "properties": {"collection_times": [{"days": "Mon-Fri", "time": "5:00pm"}, {"days": "Sat", "time": "12:00pm"}, {"days": "Sun", "time": "Closed"}], "id": "9551900001", "name": "USPS COLLECTION BOX - BLUE BOX", "address": {"city": "MCKINLEYVILLE", "state": "CA", "street": "1561 CITY CENTER RD", "postcode": "95519"}}},
{"geometry": {"type": "Point", "coordinates": [-124.1017503683, 40.9430986051]}, "type": "Feature", "properties": {"collection_times": [{"days": "Mon-Fri", "time": "5:00pm"}, {"days": "Sat", "time": "12:00pm"}, {"days": "Sun", "time": "Closed"}], "id": "9551900002", "name": "USPS COLLECTION BOX - BLUE BOX", "address": {"city": "MCKINLEYVILLE", "state": "CA", "street": "1561 CITY CENTER RD", "postcode": "95519"}}},
{"geometry": {"type": "Point", "coordinates": [-124.1017503683, 40.9430986051]}, "type": "Feature", "properties": {"collection_times": [{"days": "Mon-Sat", "time": "12:00pm"}, {"days": "Sun", "time": "Closed"}], "id": "9551900003", "name": "USPS COLLECTION BOX - BLUE BOX", "address": {"city": "MCKINLEYVILLE", "state": "CA", "street": "1561 CITY CENTER RD", "postcode": "95519"}}},
{"geometry": {"type": "Point", "coordinates": [-124.0856815702, 40.8704849525]}, "type": "Feature", "properties": {"collection_times": [{"days": "Mon-Sat", "time": "3:00pm"}, {"days": "Sun", "time": "Closed"}], "id": "9552100003", "name": "USPS COLLECTION BOX - BLUE BOX", "address": {"city": "ARCATA", "state": "CA", "street": "745 11TH ST", "postcode": "95521"}}},
{"geometry": {"type": "Point", "coordinates": [-124.0848339968, 40.8715776818]}, "type": "Feature", "properties": {"collection_times": [{"days": "Mon-Sat", "time": "3:00pm"}, {"days": "Sun", "time": "Closed"}], "id": "9552100004", "name": "USPS COLLECTION BOX - BLUE BOX", "address": {"city": "ARCATA", "state": "CA", "street": "1241 G ST", "postcode": "95521"}}},
{"geometry": {"type": "Point", "coordinates": [-124.0903320671, 40.9034991476]}, "type": "Feature", "properties": {"collection_times": [{"days": "Mon-Sat", "time": "2:30pm"}, {"days": "Sun", "time": "Closed"}], "id": "9552100005", "name": "USPS COLLECTION BOX - BLUE BOX", "address": {"city": "ARCATA", "state": "CA", "street": "3800 JANES RD", "postcode": "95521"}}},
{"geometry": {"type": "Point", "coordinates": [-124.0810184716, 40.8771419464]}, "type": "Feature", "properties": {"collection_times": [{"days": "Mon-Sat", "time": "4:00pm"}, {"days": "Sun", "time": "Closed"}], "id": "9552100008", "name": "USPS COLLECTION BOX - EXPRESS", "address": {"city": "ARCATA", "state": "CA", "street": "698 H ST", "postcode": "95521"}}},
{"geometry": {"type": "Point", "coordinates": [-124.0873679637, 40.8674486741]}, "type": "Feature", "properties": {"collection_times": [{"days": "Mon-Fri", "time": "5:00pm"}, {"days": "Sat", "time": "4:15pm"}, {"days": "Sun", "time": "Closed"}], "id": "9552100009", "name": "USPS COLLECTION BOX - BLUE BOX", "address": {"city": "ARCATA", "state": "CA", "street": "698 H ST", "postcode": "95521"}}},
{"geometry": {"type": "Point", "coordinates": [-124.0873679637, 40.8674486741]}, "type": "Feature", "properties": {"collection_times": [{"days": "Mon-Fri", "time": "5:00pm"}, {"days": "Sat", "time": "4:15pm"}, {"days": "Sun", "time": "Closed"}], "id": "9552100010", "name": "USPS COLLECTION BOX - BLUE BOX", "address": {"city": "ARCATA", "state": "CA", "street": "698 H ST", "postcode": "95521"}}},
{"geometry": {"type": "Point", "coordinates": [-124.0837153391, 40.876052976]}, "type": "Feature", "properties": {"collection_times": [{"days": "Mon-Sat", "time": "3:00pm"}, {"days": "Sun", "time": "Closed"}], "id": "9552100012", "name": "USPS COLLECTION BOX - BLUE BOX", "address": {"city": "ARCATA", "state": "CA", "street": "785 18TH ST", "postcode": "95521"}}},
{"geometry": {"type": "Point", "coordinates": [-124.0384351664, 40.8738812953]}, "type": "Feature", "properties": {"collection_times": [{"days": "Mon-Sat", "time": "2:30pm"}, {"days": "Sun", "time": "Closed"}], "id": "9552100013", "name": "USPS COLLECTION BOX - BLUE BOX", "address": {"city": "ARCATA", "state": "CA", "street": "100 WESTWOOD CNT", "postcode": "95521"}}},
{"geometry": {"type": "Point", "coordinates": [-124.0384351664, 40.8738812953]}, "type": "Feature", "properties": {"collection_times": [{"days": "Mon-Sat", "time": "2:15pm"}, {"days": "Sun", "time": "Closed"}], "id": "9552100014", "name": "USPS COLLECTION BOX - BLUE BOX", "address": {"city": "ARCATA", "state": "CA", "street": "100 ERICKSON CT", "postcode": "95521"}}},
{"geometry": {"type": "Point", "coordinates": [-124.0855576256, 40.866251957]}, "type": "Feature", "properties": {"collection_times": [{"days": "Mon-Sat", "time": "2:30pm"}, {"days": "Sun", "time": "Closed"}], "id": "9552100017", "name": "USPS COLLECTION BOX - BLUE BOX", "address": {"city": "ARCATA", "state": "CA", "street": "600 F ST", "postcode": "95521"}}},
{"geometry": {"type": "Point", "coordinates": [-124.0851539042, 40.8673234276]}, "type": "Feature", "properties": {"collection_times": [{"days": "Mon-Sat", "time": "2:30pm"}, {"days": "Sun", "time": "Closed"}], "id": "9552100018", "name": "USPS COLLECTION BOX - BLUE BOX", "address": {"city": "ARCATA", "state": "CA", "street": "736 F ST", "postcode": "95521"}}},
{"geometry": {"type": "Point", "coordinates": [-124.0829282233, 40.90395964]}, "type": "Feature", "properties": {"collection_times": [{"days": "Mon-Sat", "time": "2:15pm"}, {"days": "Sun", "time": "Closed"}], "id": "9552100020", "name": "USPS COLLECTION BOX - BLUE BOX", "address": {"city": "ARCATA", "state": "CA", "street": "5000 VALLEY WEST BLVD", "postcode": "95521"}}},
{"geometry": {"type": "Point", "coordinates": [-124.0384351664, 40.8738812953]}, "type": "Feature", "properties": {"collection_times": [{"days": "Mon-Sat", "time": "2:15pm"}, {"days": "Sun", "time": "Closed"}], "id": "9552100021", "name": "USPS COLLECTION BOX - BLUE BOX", "address": {"city": "ARCATA", "state": "CA", "street": "301 PLAZA AVE", "postcode": "95521"}}},
{"geometry": {"type": "Point", "coordinates": [-124.0853814822, 40.8697449286]}, "type": "Feature", "properties": {"collection_times": [{"days": "Mon-Sat", "time": "3:00pm"}, {"days": "Sun", "time": "Closed"}], "id": "9552100023", "name": "USPS COLLECTION BOX - BLUE BOX", "address": {"city": "ARCATA", "state": "CA", "street": "1010 G ST", "postcode": "95521"}}},
{"geometry": {"type": "Point", "coordinates": [-124.0836458368, 40.8743077318]}, "type": "Feature", "properties": {"collection_times": [{"days": "Mon-Sat", "time": "3:00pm"}, {"days": "Sun", "time": "Closed"}], "id": "9552100024", "name": "USPS COLLECTION BOX - BLUE BOX", "address": {"city": "ARCATA", "state": "CA", "street": "1590 G ST", "postcode": "95521"}}},
{"geometry": {"type": "Point", "coordinates": [-124.0815916265, 40.8741026448]}, "type": "Feature", "properties": {"collection_times": [{"days": "Mon-Sat", "time": "2:15pm"}, {"days": "Sun", "time": "Closed"}], "id": "9552100025", "name": "USPS COLLECTION BOX - BLUE BOX", "address": {"city": "ARCATA", "state": "CA", "street": "1 HARPST ST", "postcode": "95521"}}},
{"geometry": {"type": "Point", "coordinates": [-124.0857394951, 40.8688185052]}, "type": "Feature", "properties": {"collection_times": [{"days": "Mon-Sat", "time": "3:00pm"}, {"days": "Sun", "time": "Closed"}], "id": "9552100026", "name": "USPS COLLECTION BOX - BLUE BOX", "address": {"city": "ARCATA", "state": "CA", "street": "898 G ST", "postcode": "95521"}}},
{"geometry": {"type": "Point", "coordinates": [-124.0874733228, 40.8645653155]}, "type": "Feature", "properties": {"collection_times": [{"days": "Mon-Sat", "time": "2:15pm"}, {"days": "Sun", "time": "Closed"}], "id": "9552100028", "name": "USPS COLLECTION BOX - BLUE BOX", "address": {"city": "ARCATA", "state": "CA", "street": "359 G ST", "postcode": "95521"}}},
{"geometry": {"type": "Point", "coordinates": [-124.0912431327, 40.8661519455]}, "type": "Feature", "properties": {"collection_times": [{"days": "Mon-Sat", "time": "2:30pm"}, {"days": "Sun", "time": "Closed"}], "id": "9552100030", "name": "USPS COLLECTION BOX - BLUE BOX", "address": {"city": "ARCATA", "state": "CA", "street": "440 K ST", "postcode": "95521"}}},
{"geometry": {"type": "Point", "coordinates": [-124.0915710085, 40.871774425]}, "type": "Feature", "properties": {"collection_times": [{"days": "Mon-Sat", "time": "2:30pm"}, {"days": "Sun", "time": "Closed"}], "id": "9552100032", "name": "USPS COLLECTION BOX - BLUE BOX", "address": {"city": "ARCATA", "state": "CA", "street": "1309 11TH ST", "postcode": "95521"}}},
{"geometry": {"type": "Point", "coordinates": [-124.0666450795, 40.8464991527]}, "type": "Feature", "properties": {"collection_times": [{"days": "Mon-Fri", "time": "5:00pm"}, {"days": "Sat", "time": "11:00am"}, {"days": "Sun", "time": "Closed"}], "id": "9552400003", "name": "USPS COLLECTION BOX - BLUE BOX", "address": {"city": "BAYSIDE", "state": "CA", "street": "1836 OLD ARCATA RD", "postcode": "95524"}}},
{"geometry": {"type": "Point", "coordinates": [-124.0666450795, 40.8464991527]}, "type": "Feature", "properties": {"collection_times": [{"days": "Mon-Fri", "time": "5:15pm"}, {"days": "Sat", "time": "11:00am"}, {"days": "Sun", "time": "Closed"}], "id": "9552400004", "name": "USPS COLLECTION BOX - PO LOBBY", "address": {"city": "BAYSIDE", "state": "CA", "street": "1836 OLD ARCATA RD", "postcode": "95524"}}},
{"geometry": {"type": "Point", "coordinates": [-123.9890806764, 40.8814981811]}, "type": "Feature", "properties": {"collection_times": [{"days": "Mon-Fri", "time": "4:30pm"}, {"days": "Sat", "time": "9:00am"}, {"days": "Sun", "time": "Closed"}], "id": "9552500002", "name": "USPS COLLECTION BOX - BLUE BOX", "address": {"city": "BLUE LAKE", "state": "CA", "street": "411 1ST ST", "postcode": "95525"}}},
{"geometry": {"type": "Point", "coordinates": [-123.9890806764, 40.8814981811]}, "type": "Feature", "properties": {"collection_times": [{"days": "Mon-Fri", "time": "5:00pm"}, {"days": "Sat", "time": "9:00am"}, {"days": "Sun", "time": "Closed"}], "id": "9552500003", "name": "USPS COLLECTION BOX - PO LOBBY", "address": {"city": "BLUE LAKE", "state": "CA", "street": "411 1ST ST", "postcode": "95525"}}},
{"geometry": {"type": "Point", "coordinates": [-123.6177762438, 40.4740482395]}, "type": "Feature", "properties": {"collection_times": [{"days": "Mon-Fri", "time": "3:45pm"}, {"days": "Sat", "time": "8:45am"}, {"days": "Sun", "time": "Closed"}], "id": "9552600004", "name": "USPS COLLECTION BOX - PO LOBBY", "address": {"city": "RUTH", "state": "CA", "street": "24878 STATE HIGHWAY 36", "postcode": "95526"}}},
{"geometry": {"type": "Point", "coordinates": [-123.6177762438, 40.4740482395]}, "type": "Feature", "properties": {"collection_times": [{"days": "Mon-Fri", "time": "3:45pm"}, {"days": "Sat", "time": "8:45am"}, {"days": "Sun", "time": "Closed"}], "id": "9552600005", "name": "USPS COLLECTION BOX - BLUE BOX", "address": {"city": "RUTH", "state": "CA", "street": "24878 STATE HIGHWAY 36", "postcode": "95526"}}},
{"geometry": {"type": "Point", "coordinates": [-123.5954246401, 40.4921932558]}, "type": "Feature", "properties": {"collection_times": [{"days": "Mon-Fri", "time": "3:30pm"}, {"days": "Sat", "time": "10:30am"}, {"days": "Sun", "time": "Closed"}], "id": "9552600006", "name": "USPS COLLECTION BOX - BLUE BOX", "address": {"city": "RUTH", "state": "CA", "street": "43819 STATE HIGHWAY 36", "postcode": "95526"}}},
{"geometry": {"type": "Point", "coordinates": [-123.4081877219, 40.7884153937]}, "type": "Feature", "properties": {"collection_times": [{"days": "Mon-Fri", "time": "8:30am"}, {"days": "Sat-Sun", "time": "Closed"}], "id": "9552700003", "name": "USPS COLLECTION BOX - PO LOBBY", "address": {"city": "BURNT RANCH", "state": "CA", "street": "1 STATE HIGHWAY 299 W", "postcode": "95527"}}},
{"geometry": {"type": "Point", "coordinates": [-124.0589743888, 40.5372792758]}, "type": "Feature", "properties": {"collection_times": [{"days": "Mon-Fri", "time": "12:00pm"}, {"days": "Sat", "time": "9:00am"}, {"days": "Sun", "time": "Closed"}], "id": "9552800002", "name": "USPS COLLECTION BOX - PO LOBBY", "address": {"city": "CARLOTTA", "state": "CA", "street": "5429 STATE HIGHWAY 36", "postcode": "95528"}}},
{"geometry": {"type": "Point", "coordinates": [-124.1862522384, 41.7716802656]}, "type": "Feature", "properties": {"collection_times": [{"days": "Mon-Sat", "time": "12:00pm"}, {"days": "Sun", "time": "Closed"}], "id": "9553100001", "name": "USPS COLLECTION BOX - BLUE BOX", "address": {"city": "CRESCENT CITY", "state": "CA", "street": "1440 PARKWAY DR", "postcode": "95531"}}},
{"geometry": {"type": "Point", "coordinates": [-124.2002876865, 41.7677981095]}, "type": "Feature", "properties": {"collection_times": [{"days": "Mon-Sat", "time": "1:00pm"}, {"days": "Sun", "time": "Closed"}], "id": "9553100004", "name": "USPS COLLECTION BOX - BLUE BOX", "address": {"city": "CRESCENT CITY", "state": "CA", "street": "1225 MARSHALL ST", "postcode": "95531"}}},
{"geometry": {"type": "Point", "coordinates": [-124.1988969288, 41.753181817]}, "type": "Feature", "properties": {"collection_times": [{"days": "Mon-Sat", "time": "1:00pm"}, {"days": "Sun", "time": "Closed"}], "id": "9553100005", "name": "USPS COLLECTION BOX - BLUE BOX", "address": {"city": "CRESCENT CITY", "state": "CA", "street": "450 H ST", "postcode": "95531"}}},
{"geometry": {"type": "Point", "coordinates": [-124.2051747479, 41.7544197786]}, "type": "Feature", "properties": {"collection_times": [{"days": "Mon-Sat", "time": "12:00pm"}, {"days": "Sun", "time": "Closed"}], "id": "9553100006", "name": "USPS COLLECTION BOX - BLUE BOX", "address": {"city": "CRESCENT CITY", "state": "CA", "street": "414 9TH ST", "postcode": "95531"}}},
{"geometry": {"type": "Point", "coordinates": [-124.2002637953, 41.7530003438]}, "type": "Feature", "properties": {"collection_times": [{"days": "Mon-Sat", "time": "1:00pm"}, {"days": "Sun", "time": "Closed"}], "id": "9553100012", "name": "USPS COLLECTION BOX - BLUE BOX", "address": {"city": "CRESCENT CITY", "state": "CA", "street": "680 5TH ST", "postcode": "95531"}}},
{"geometry": {"type": "Point", "coordinates": [-124.1940854082, 41.7726464948]}, "type": "Feature", "properties": {"collection_times": [{"days": "Mon-Fri", "time": "12:00pm"}, {"days": "Sat-Sun", "time": "Closed"}], "id": "9553100015", "name": "USPS COLLECTION BOX - BLUE BOX", "address": {"city": "CRESCENT CITY", "state": "CA", "street": "785 E WASHINGTON BLVD", "postcode": "95531"}}},
{"geometry": {"type": "Point", "coordinates": [-124.197638101, 41.7512459416]}, "type": "Feature", "properties": {"collection_times": [{"days": "Mon-Fri", "time": "5:00pm"}, {"days": "Sat", "time": "3:00pm"}, {"days": "Sun", "time": "Closed"}], "id": "9553100016", "name": "USPS COLLECTION BOX - PO LOBBY", "address": {"city": "CRESCENT CITY", "state": "CA", "street": "751 2ND ST", "postcode": "95531"}}},
{"geometry": {"type": "Point", "coordinates": [-124.197638101, 41.7512459416]}, "type": "Feature", "properties": {"collection_times": [{"days": "Mon-Fri", "time": "5:00pm"}, {"days": "Sat", "time": "3:00pm"}, {"days": "Sun", "time": "Closed"}], "id": "9553100017", "name": "USPS COLLECTION BOX - PO LOBBY", "address": {"city": "CRESCENT CITY", "state": "CA", "street": "751 2ND ST", "postcode": "95531"}}},
{"geometry": {"type": "Point", "coordinates": [-124.197638101, 41.7512459416]}, "type": "Feature", "properties": {"collection_times": [{"days": "Mon-Fri", "time": "5:00pm"}, {"days": "Sat", "time": "3:00pm"}, {"days": "Sun", "time": "Closed"}], "id": "9553100018", "name": "USPS COLLECTION BOX - PO LOBBY", "address": {"city": "CRESCENT CITY", "state": "CA", "street": "751 2ND ST", "postcode": "95531"}}},
{"geometry": {"type": "Point", "coordinates": [-124.197638101, 41.7512459416]}, "type": "Feature", "properties": {"collection_times": [{"days": "Mon-Fri", "time": "5:00pm"}, {"days": "Sat", "time": "3:00pm"}, {"days": "Sun", "time": "Closed"}], "id": "9553100019", "name": "USPS COLLECTION BOX - PO LOBBY", "address": {"city": "CRESCENT CITY", "state": "CA", "street": "751 2ND ST", "postcode": "95531"}}},
{"geometry": {"type": "Point", "coordinates": [-124.1814489288, 41.7779006916]}, "type": "Feature", "properties": {"collection_times": [{"days": "Mon-Fri", "time": "4:00pm"}, {"days": "Sat", "time": "3:00pm"}, {"days": "Sun", "time": "Closed"}], "id": "9553100021", "name": "USPS COLLECTION BOX - EXPRESS", "address": {"city": "CRESCENT CITY", "state": "CA", "street": "751 2ND ST", "postcode": "95531"}}},
{"geometry": {"type": "Point", "coordinates": [-124.1579281161, 41.7547169538]}, "type": "Feature", "properties": {"collection_times": [{"days": "Mon-Sat", "time": "12:00pm"}, {"days": "Sun", "time": "Closed"}], "id": "9553100022", "name": "USPS COLLECTION BOX - BLUE BOX", "address": {"city": "CRESCENT CITY", "state": "CA", "street": "2100 STATE HIGHWAY 199", "postcode": "95531"}}},
{"geometry": {"type": "Point", "coordinates": [-124.197638101, 41.7512459416]}, "type": "Feature", "properties": {"collection_times": [{"days": "Mon-Fri", "time": "5:00pm"}, {"days": "Sat", "time": "3:00pm"}, {"days": "Sun", "time": "Closed"}], "id": "9553100023", "name": "USPS COLLECTION BOX - BLUE BOX", "address": {"city": "CRESCENT CITY", "state": "CA", "street": "751 2ND ST", "postcode": "95531"}}},
{"geometry": {"type": "Point", "coordinates": [-124.197638101, 41.7512459416]}, "type": "Feature", "properties": {"collection_times": [{"days": "Mon-Fri", "time": "5:00pm"}, {"days": "Sat", "time": "3:00pm"}, {"days": "Sun", "time": "Closed"}], "id": "9553100024", "name": "USPS COLLECTION BOX - BLUE BOX", "address": {"city": "CRESCENT CITY", "state": "CA", "street": "751 2ND ST", "postcode": "95531"}}},
{"geometry": {"type": "Point", "coordinates": [-124.2626904975, 40.5773545013]}, "type": "Feature", "properties": {"collection_times": [{"days": "Mon-Fri", "time": "4:30pm"}, {"days": "Sat", "time": "12:00pm"}, {"days": "Sun", "time": "Closed"}], "id": "9553600002", "name": "USPS COLLECTION BOX - PO LOBBY", "address": {"city": "FERNDALE", "state": "CA", "street": "536 MAIN ST", "postcode": "95536"}}},
{"geometry": {"type": "Point", "coordinates": [-124.2156484671, 40.7245105932]}, "type": "Feature", "properties": {"collection_times": [{"days": "Mon-Fri", "time": "4:15pm"}, {"days": "Sat", "time": "9:00am"}, {"days": "Sun", "time": "Closed"}], "id": "9553700003", "name": "USPS COLLECTION BOX - BLUE BOX", "address": {"city": "FIELDS LANDING", "state": "CA", "street": "6710 FIELDS LANDING DR", "postcode": "95537"}}},
{"geometry": {"type": "Point", "coordinates": [-124.1465941153, 40.5846253412]}, "type": "Feature", "properties": {"collection_times": [{"days": "Mon-Sat", "time": "10:00am"}, {"days": "Sun", "time": "Closed"}], "id": "9554000006", "name": "USPS COLLECTION BOX - BLUE BOX", "address": {"city": "FORTUNA", "state": "CA", "street": "705 S FORTUNA BLVD", "postcode": "95540"}}},
{"geometry": {"type": "Point", "coordinates": [-124.1533136951, 40.5979406224]}, "type": "Feature", "properties": {"collection_times": [{"days": "Mon-Fri", "time": "5:15pm"}, {"days": "Sat", "time": "3:15pm"}, {"days": "Sun", "time": "Closed"}], "id": "9554000009", "name": "USPS COLLECTION BOX - BLUE BOX", "address": {"city": "FORTUNA", "state": "CA", "street": "699 13TH ST", "postcode": "95540"}}},
{"geometry": {"type": "Point", "coordinates": [-124.1533136951, 40.5979406224]}, "type": "Feature", "properties": {"collection_times": [{"days": "Mon-Fri", "time": "5:15pm"}, {"days": "Sat", "time": "3:15pm"}, {"days": "Sun", "time": "Closed"}], "id": "9554000010", "name": "USPS COLLECTION BOX - BLUE BOX", "address": {"city": "FORTUNA", "state": "CA", "street": "699 13TH ST", "postcode": "95540"}}},
{"geometry": {"type": "Point", "coordinates": [-124.1430477702, 40.5844927909]}, "type": "Feature", "properties": {"collection_times": [{"days": "Mon-Fri", "time": "4:00pm"}, {"days": "Sat", "time": "3:00pm"}, {"days": "Sun", "time": "Closed"}], "id": "9554000011", "name": "USPS COLLECTION BOX - EXPRESS", "address": {"city": "FORTUNA", "state": "CA", "street": "699 13TH ST", "postcode": "95540"}}},
{"geometry": {"type": "Point", "coordinates": [-124.1353943813, 40.5826414275]}, "type": "Feature", "properties": {"collection_times": [{"days": "Mon-Fri", "time": "10:00am"}, {"days": "Sat-Sun", "time": "Closed"}], "id": "9554000012", "name": "USPS COLLECTION BOX - BLUE BOX", "address": {"city": "FORTUNA", "state": "CA", "street": "3300 RENNER DR", "postcode": "95540"}}},
{"geometry": {"type": "Point", "coordinates": [-124.1533136951, 40.5979406224]}, "type": "Feature", "properties": {"collection_times": [{"days": "Mon-Fri", "time": "5:15pm"}, {"days": "Sat", "time": "3:15pm"}, {"days": "Sun", "time": "Closed"}], "id": "9554000013", "name": "USPS COLLECTION BOX - PO LOBBY", "address": {"city": "FORTUNA", "state": "CA", "street": "699 13TH ST", "postcode": "95540"}}},
{"geometry": {"type": "Point", "coordinates": [-124.1478182668, 40.5921297267]}, "type": "Feature", "properties": {"collection_times": [{"days": "Mon-Sat", "time": "11:00am"}, {"days": "Sun", "time": "Closed"}], "id": "9554000014", "name": "USPS COLLECTION BOX - BLUE BOX", "address": {"city": "FORTUNA", "state": "CA", "street": "2130 SMITH LN", "postcode": "95540"}}},
{"geometry": {"type": "Point", "coordinates": [-124.1471298932, 40.5968774746]}, "type": "Feature", "properties": {"collection_times": [{"days": "Mon-Sat", "time": "10:00am"}, {"days": "Sun", "time": "Closed"}], "id": "9554000015", "name": "USPS COLLECTION BOX - BLUE BOX", "address": {"city": "FORTUNA", "state": "CA", "street": "2039 MAIN ST", "postcode": "95540"}}},
{"geometry": {"type": "Point", "coordinates": [-124.1554923973, 40.5973548307]}, "type": "Feature", "properties": {"collection_times": [{"days": "Mon-Sat", "time": "10:00am"}, {"days": "Sun", "time": "Closed"}], "id": "9554000016", "name": "USPS COLLECTION BOX - BLUE BOX", "address": {"city": "FORTUNA", "state": "CA", "street": "621 11TH ST", "postcode": "95540"}}},
{"geometry": {"type": "Point", "coordinates": [-123.7949884749, 40.1012192841]}, "type": "Feature", "properties": {"collection_times": [{"days": "Mon-Sat", "time": "2:30pm"}, {"days": "Sun", "time": "Closed"}], "id": "9554200006", "name": "USPS COLLECTION BOX - BLUE BOX", "address": {"city": "GARBERVILLE", "state": "CA", "street": "875 REDWOOD DR", "postcode": "95542"}}},
{"geometry": {"type": "Point", "coordinates": [-123.7951645423, 40.1033055733]}, "type": "Feature", "properties": {"collection_times": [{"days": "Mon-Sat", "time": "2:30pm"}, {"days": "Sun", "time": "Closed"}], "id": "9554200007", "name": "USPS COLLECTION BOX - BLUE BOX", "address": {"city": "GARBERVILLE", "state": "CA", "street": "817 REDWOOD DR", "postcode": "95542"}}},
{"geometry": {"type": "Point", "coordinates": [-123.796372382, 40.1051872298]}, "type": "Feature", "properties": {"collection_times": [{"days": "Mon-Sat", "time": "2:30pm"}, {"days": "Sun", "time": "Closed"}], "id": "9554200008", "name": "USPS COLLECTION BOX - BLUE BOX", "address": {"city": "GARBERVILLE", "state": "CA", "street": "773 REDWOOD DR", "postcode": "95542"}}},
{"geometry": {"type": "Point", "coordinates": [-123.6898299349, 40.0523279905]}, "type": "Feature", "properties": {"collection_times": [{"days": "Mon-Sat", "time": "10:30am"}, {"days": "Sun", "time": "Closed"}], "id": "9554200009", "name": "USPS COLLECTION BOX - BLUE BOX", "address": {"city": "GARBERVILLE", "state": "CA", "street": "764 CIDER DR", "postcode": "95542"}}},
{"geometry": {"type": "Point", "coordinates": [-123.9686378068, 41.8454027989]}, "type": "Feature", "properties": {"collection_times": [{"days": "Mon-Fri", "time": "11:00am"}, {"days": "Sat", "time": "10:30am"}, {"days": "Sun", "time": "Closed"}], "id": "9554300002", "name": "USPS COLLECTION BOX - PO LOBBY", "address": {"city": "GASQUET", "state": "CA", "street": "10360 US HIGHWAY 199", "postcode": "95543"}}},
{"geometry": {"type": "Point", "coordinates": [-123.7770644452, 41.8959867084]}, "type": "Feature", "properties": {"collection_times": [{"days": "Mon-Fri", "time": "3:00pm"}, {"days": "Sat", "time": "10:30am"}, {"days": "Sun", "time": "Closed"}], "id": "9554300003", "name": "USPS COLLECTION BOX - BLUE BOX", "address": {"city": "GASQUET", "state": "CA", "street": "10360 STATE HIGHWAY 199", "postcode": "95543"}}},
{"geometry": {"type": "Point", "coordinates": [-123.7979999811, 40.0962913411]}, "type": "Feature", "properties": {"collection_times": [{"days": "Mon-Fri", "time": "12:00pm"}, {"days": "Sat", "time": "11:30am"}, {"days": "Sun", "time": "Closed"}], "id": "9554500001", "name": "USPS COLLECTION BOX - PO LOBBY", "address": {"city": "HONEYDEW", "state": "CA", "street": "44670 MATTOLE RD", "postcode": "95545"}}},
{"geometry": {"type": "Point", "coordinates": [-123.645875109, 41.1083761785]}, "type": "Feature", "properties": {"collection_times": [{"days": "Mon-Fri", "time": "3:15pm"}, {"days": "Sat", "time": "10:30am"}, {"days": "Sun", "time": "Closed"}], "id": "9554600003", "name": "USPS COLLECTION BOX - BLUE BOX", "address": {"city": "HOOPA", "state": "CA", "street": "1 STATE HIGHWAY 96", "postcode": "95546"}}},
{"geometry": {"type": "Point", "coordinates": [-123.645875109, 41.1083761785]}, "type": "Feature", "properties": {"collection_times": [{"days": "Mon-Fri", "time": "3:15pm"}, {"days": "Sat", "time": "10:30am"}, {"days": "Sun", "time": "Closed"}], "id": "9554600004", "name": "USPS COLLECTION BOX - PO LOBBY", "address": {"city": "HOOPA", "state": "CA", "street": "1 STATE HIGHWAY 96", "postcode": "95546"}}},
{"geometry": {"type": "Point", "coordinates": [-123.645875109, 41.1083761785]}, "type": "Feature", "properties": {"collection_times": [{"days": "Mon-Fri", "time": "12:45pm"}, {"days": "Sat", "time": "10:30am"}, {"days": "Sun", "time": "Closed"}], "id": "9554600005", "name": "USPS COLLECTION BOX - BLUE BOX", "address": {"city": "HOOPA", "state": "CA", "street": "1 STATE HIGHWAY 96", "postcode": "95546"}}},
{"geometry": {"type": "Point", "coordinates": [-124.0962313417, 40.5474102048]}, "type": "Feature", "properties": {"collection_times": [{"days": "Mon-Fri", "time": "4:30pm"}, {"days": "Sat", "time": "9:00am"}, {"days": "Sun", "time": "Closed"}], "id": "9554700002", "name": "USPS COLLECTION BOX - BLUE BOX", "address": {"city": "HYDESVILLE", "state": "CA", "street": "3390 STATE HIGHWAY 36", "postcode": "95547"}}},
{"geometry": {"type": "Point", "coordinates": [-124.0962313417, 40.5474102048]}, "type": "Feature", "properties": {"collection_times": [{"days": "Mon-Fri", "time": "4:30pm"}, {"days": "Sat", "time": "9:00am"}, {"days": "Sun", "time": "Closed"}], "id": "9554700003", "name": "USPS COLLECTION BOX - PO LOBBY", "address": {"city": "HYDESVILLE", "state": "CA", "street": "3390 STATE HIGHWAY 36", "postcode": "95547"}}},
{"geometry": {"type": "Point", "coordinates": [-124.0420510003, 41.5343568806]}, "type": "Feature", "properties": {"collection_times": [{"days": "Mon-Fri", "time": "3:30pm"}, {"days": "Sat", "time": "9:45am"}, {"days": "Sun", "time": "Closed"}], "id": "9554800002", "name": "USPS COLLECTION BOX - PO LOBBY", "address": {"city": "KLAMATH", "state": "CA", "street": "141 KLAMATH BLVD", "postcode": "95548"}}},
{"geometry": {"type": "Point", "coordinates": [-124.2249191018, 40.6393647414]}, "type": "Feature", "properties": {"collection_times": [{"days": "Mon-Fri", "time": "4:45pm"}, {"days": "Sat", "time": "9:00am"}, {"days": "Sun", "time": "Closed"}], "id": "9555100002", "name": "USPS COLLECTION BOX - PO LOBBY", "address": {"city": "LOLETA", "state": "CA", "street": "338 MAIN ST", "postcode": "95551"}}},
{"geometry": {"type": "Point", "coordinates": [-123.4003464094, 40.33358375]}, "type": "Feature", "properties": {"collection_times": [{"days": "Mon-Fri", "time": "3:15pm"}, {"days": "Sat", "time": "11:00am"}, {"days": "Sun", "time": "Closed"}], "id": "9555200002", "name": "USPS COLLECTION BOX - PO LOBBY", "address": {"city": "MAD RIVER", "state": "CA", "street": "2515B STATE HIGHWAY 36", "postcode": "95552"}}},
{"geometry": {"type": "Point", "coordinates": [-123.4003464094, 40.33358375]}, "type": "Feature", "properties": {"collection_times": [{"days": "Mon-Fri", "time": "3:15pm"}, {"days": "Sat", "time": "11:00am"}, {"days": "Sun", "time": "Closed"}], "id": "9555200003", "name": "USPS COLLECTION BOX - BLUE BOX", "address": {"city": "MAD RIVER", "state": "CA", "street": "2515B STATE HIGHWAY 36", "postcode": "95552"}}},
{"geometry": {"type": "Point", "coordinates": [-123.8243796964, 40.2369817354]}, "type": "Feature", "properties": {"collection_times": [{"days": "Mon-Fri", "time": "2:45pm"}, {"days": "Sat", "time": "9:30am"}, {"days": "Sun", "time": "Closed"}], "id": "9555300002", "name": "USPS COLLECTION BOX - PO LOBBY", "address": {"city": "MIRANDA", "state": "CA", "street": "6723 STATE HIGHWAY 254", "postcode": "95553"}}},
{"geometry": {"type": "Point", "coordinates": [-123.8243796964, 40.2369817354]}, "type": "Feature", "properties": {"collection_times": [{"days": "Mon-Fri", "time": "2:45pm"}, {"days": "Sat", "time": "9:15am"}, {"days": "Sun", "time": "Closed"}], "id": "9555300003", "name": "USPS COLLECTION BOX - BLUE BOX", "address": {"city": "MIRANDA", "state": "CA", "street": "6723 STATE HIGHWAY 254", "postcode": "95553"}}},
{"geometry": {"type": "Point", "coordinates": [-123.8229347326, 40.2556217302]}, "type": "Feature", "properties": {"collection_times": [{"days": "Mon-Fri", "time": "12:00pm"}, {"days": "Sat", "time": "9:00am"}, {"days": "Sun", "time": "Closed"}], "id": "9555400002", "name": "USPS COLLECTION BOX - PO LOBBY", "address": {"city": "MYERS FLAT", "state": "CA", "street": "12848 HIGHWAY 254", "postcode": "95554"}}},
{"geometry": {"type": "Point", "coordinates": [-123.8229347326, 40.2556217302]}, "type": "Feature", "properties": {"collection_times": [{"days": "Mon-Fri", "time": "3:30pm"}, {"days": "Sat", "time": "9:00am"}, {"days": "Sun", "time": "Closed"}], "id": "9555400003", "name": "USPS COLLECTION BOX - BLUE BOX", "address": {"city": "MYERS FLAT", "state": "CA", "street": "12848 HIGHWAY 254", "postcode": "95554"}}},
{"geometry": {"type": "Point", "coordinates": [-124.0154227115, 41.3623642321]}, "type": "Feature", "properties": {"collection_times": [{"days": "Mon-Fri", "time": "3:30pm"}, {"days": "Sat", "time": "9:00am"}, {"days": "Sun", "time": "Closed"}], "id": "9555500002", "name": "USPS COLLECTION BOX - BLUE BOX", "address": {"city": "ORICK", "state": "CA", "street": "121147 HIGHWAY 101", "postcode": "95555"}}},
{"geometry": {"type": "Point", "coordinates": [-124.0154227115, 41.3623642321]}, "type": "Feature", "properties": {"collection_times": [{"days": "Mon-Fri", "time": "1:30pm"}, {"days": "Sat", "time": "9:00am"}, {"days": "Sun", "time": "Closed"}], "id": "9555500003", "name": "USPS COLLECTION BOX - PO LOBBY", "address": {"city": "ORICK", "state": "CA", "street": "121147 HIGHWAY 101", "postcode": "95555"}}},
{"geometry": {"type": "Point", "coordinates": [-123.5420455611, 41.2830318593]}, "type": "Feature", "properties": {"collection_times": [{"days": "Mon-Fri", "time": "2:15pm"}, {"days": "Sat", "time": "9:45am"}, {"days": "Sun", "time": "Closed"}], "id": "9555600005", "name": "USPS COLLECTION BOX - PO LOBBY", "address": {"city": "ORLEANS", "state": "CA", "street": "1 N HIGHWAY 96", "postcode": "95556"}}},
{"geometry": {"type": "Point", "coordinates": [-124.2087546113, 40.284117699]}, "type": "Feature", "properties": {"collection_times": [{"days": "Mon-Fri", "time": "1:15pm"}, {"days": "Sat", "time": "11:30am"}, {"days": "Sun", "time": "Closed"}], "id": "9555800002", "name": "USPS COLLECTION BOX - BLUE BOX", "address": {"city": "PETROLIA", "state": "CA", "street": "89 SHERMAN ST", "postcode": "95558"}}},
{"geometry": {"type": "Point", "coordinates": [-124.2087546113, 40.284117699]}, "type": "Feature", "properties": {"collection_times": [{"days": "Mon-Fri", "time": "1:15pm"}, {"days": "Sat", "time": "11:30am"}, {"days": "Sun", "time": "Closed"}], "id": "9555800003", "name": "USPS COLLECTION BOX - PO LOBBY", "address": {"city": "PETROLIA", "state": "CA", "street": "89 SHERMAN ST", "postcode": "95558"}}},
{"geometry": {"type": "Point", "coordinates": [-123.7862330396, 40.2091073543]}, "type": "Feature", "properties": {"collection_times": [{"days": "Mon-Fri", "time": "3:00pm"}, {"days": "Sat", "time": "9:30am"}, {"days": "Sun", "time": "Closed"}], "id": "9555900002", "name": "USPS COLLECTION BOX - PO LOBBY", "address": {"city": "PHILLIPSVILLE", "state": "CA", "street": "2788 HIGHWAY 254", "postcode": "95559"}}},
{"geometry": {"type": "Point", "coordinates": [-123.7862330396, 40.2091073543]}, "type": "Feature", "properties": {"collection_times": [{"days": "Mon-Fri", "time": "3:00pm"}, {"days": "Sat", "time": "9:30am"}, {"days": "Sun", "time": "Closed"}], "id": "9555900003", "name": "USPS COLLECTION BOX - BLUE BOX", "address": {"city": "PHILLIPSVILLE", "state": "CA", "street": "2788 HIGHWAY 254", "postcode": "95559"}}},
{"geometry": {"type": "Point", "coordinates": [-123.8930163996, 40.1292649197]}, "type": "Feature", "properties": {"collection_times": [{"days": "Mon-Fri", "time": "4:30pm"}, {"days": "Sat", "time": "9:30am"}, {"days": "Sun", "time": "Closed"}], "id": "9556000002", "name": "USPS COLLECTION BOX - BLUE BOX", "address": {"city": "REDWAY", "state": "CA", "street": "3400 REDWOOD DR", "postcode": "95560"}}},
{"geometry": {"type": "Point", "coordinates": [-123.8930163996, 40.1292649197]}, "type": "Feature", "properties": {"collection_times": [{"days": "Mon-Fri", "time": "4:30pm"}, {"days": "Sat", "time": "9:30am"}, {"days": "Sun", "time": "Closed"}], "id": "9556000003", "name": "USPS COLLECTION BOX - PO LOBBY", "address": {"city": "REDWAY", "state": "CA", "street": "3400 REDWOOD DR", "postcode": "95560"}}},
{"geometry": {"type": "Point", "coordinates": [-124.1032237312, 40.4947964252]}, "type": "Feature", "properties": {"collection_times": [{"days": "Mon-Fri", "time": "4:00pm"}, {"days": "Sat", "time": "8:00am"}, {"days": "Sun", "time": "Closed"}], "id": "9556200003", "name": "USPS COLLECTION BOX - PO LOBBY", "address": {"city": "RIO DELL", "state": "CA", "street": "315 WILDWOOD AVE", "postcode": "95562"}}},
{"geometry": {"type": "Point", "coordinates": [-124.1032237312, 40.4947964252]}, "type": "Feature", "properties": {"collection_times": [{"days": "Mon-Fri", "time": "4:00pm"}, {"days": "Sat", "time": "8:00am"}, {"days": "Sun", "time": "Closed"}], "id": "9556200004", "name": "USPS COLLECTION BOX - BLUE BOX", "address": {"city": "RIO DELL", "state": "CA", "street": "315 WILDWOOD AVE", "postcode": "95562"}}},
{"geometry": {"type": "Point", "coordinates": [-124.1126673306, 40.5070615811]}, "type": "Feature", "properties": {"collection_times": [{"days": "Mon-Fri", "time": "12:00pm"}, {"days": "Sat-Sun", "time": "Closed"}], "id": "9556200005", "name": "USPS COLLECTION BOX - BLUE BOX", "address": {"city": "RIO DELL", "state": "CA", "street": "1330 EELOA AVE", "postcode": "95562"}}},
{"geometry": {"type": "Point", "coordinates": [-123.6053514789, 40.8310076868]}, "type": "Feature", "properties": {"collection_times": [{"days": "Mon-Fri", "time": "12:30pm"}, {"days": "Sat", "time": "10:00am"}, {"days": "Sun", "time": "Closed"}], "id": "9556300001", "name": "USPS COLLECTION BOX - BLUE BOX", "address": {"city": "SALYER", "state": "CA", "street": "1080 HIGHWAY 299", "postcode": "95563"}}},
{"geometry": {"type": "Point", "coordinates": [-124.2030217438, 40.7918508519]}, "type": "Feature", "properties": {"collection_times": [{"days": "Mon-Fri", "time": "2:00pm"}, {"days": "Sat", "time": "9:30am"}, {"days": "Sun", "time": "Closed"}], "id": "9556400002", "name": "USPS COLLECTION BOX - PO LOBBY", "address": {"city": "SAMOA", "state": "CA", "street": "244 N BAYVIEW AVE", "postcode": "95564"}}},
{"geometry": {"type": "Point", "coordinates": [-124.2030217438, 40.7918508519]}, "type": "Feature", "properties": {"collection_times": [{"days": "Mon-Fri", "time": "2:00pm"}, {"days": "Sat", "time": "9:30am"}, {"days": "Sun", "time": "Closed"}], "id": "9556400003", "name": "USPS COLLECTION BOX - BLUE BOX", "address": {"city": "SAMOA", "state": "CA", "street": "244 N BAYVIEW AVE", "postcode": "95564"}}},
{"geometry": {"type": "Point", "coordinates": [-124.1026064404, 40.4783113171]}, "type": "Feature", "properties": {"collection_times": [{"days": "Mon-Fri", "time": "4:00pm"}, {"days": "Sat", "time": "8:45am"}, {"days": "Sun", "time": "Closed"}], "id": "9556500002", "name": "USPS COLLECTION BOX - PO LOBBY", "address": {"city": "SCOTIA", "state": "CA", "street": "116 MAIN ST", "postcode": "95565"}}},
{"geometry": {"type": "Point", "coordinates": [-124.1026064404, 40.4783113171]}, "type": "Feature", "properties": {"collection_times": [{"days": "Mon-Fri", "time": "4:00pm"}, {"days": "Sat", "time": "8:45am"}, {"days": "Sun", "time": "Closed"}], "id": "9556500003", "name": "USPS COLLECTION BOX - BLUE BOX", "address": {"city": "SCOTIA", "state": "CA", "street": "116 MAIN ST", "postcode": "95565"}}},
{"geometry": {"type": "Point", "coordinates": [-124.1460839542, 41.9297070137]}, "type": "Feature", "properties": {"collection_times": [{"days": "Mon-Fri", "time": "4:00pm"}, {"days": "Sat", "time": "11:00am"}, {"days": "Sun", "time": "Closed"}], "id": "9556700004", "name": "USPS COLLECTION BOX - PO LOBBY", "address": {"city": "SMITH RIVER", "state": "CA", "street": "291 N FRED D HAIGHT DR", "postcode": "95567"}}},
{"geometry": {"type": "Point", "coordinates": [-124.1460839542, 41.9297070137]}, "type": "Feature", "properties": {"collection_times": [{"days": "Mon-Fri", "time": "4:00pm"}, {"days": "Sat", "time": "11:00am"}, {"days": "Sun", "time": "Closed"}], "id": "9556700005", "name": "USPS COLLECTION BOX - BLUE BOX", "address": {"city": "SMITH RIVER", "state": "CA", "street": "291 N FRED D HAIGHT DR", "postcode": "95567"}}},
{"geometry": {"type": "Point", "coordinates": [-124.1694407523, 41.9346748338]}, "type": "Feature", "properties": {"collection_times": [{"days": "Mon-Sat", "time": "2:00pm"}, {"days": "Sun", "time": "Closed"}], "id": "9556700006", "name": "USPS COLLECTION BOX - BLUE BOX", "address": {"city": "SMITH RIVER", "state": "CA", "street": "12400 US HIGHWAY 101 N", "postcode": "95567"}}},
{"geometry": {"type": "Point", "coordinates": [-123.9483514704, 40.3994652015]}, "type": "Feature", "properties": {"collection_times": [{"days": "Mon-Fri", "time": "3:30pm"}, {"days": "Sat", "time": "8:30am"}, {"days": "Sun", "time": "Closed"}], "id": "9556900003", "name": "USPS COLLECTION BOX - PO LOBBY", "address": {"city": "REDCREST", "state": "CA", "street": "26406 HIGHWAY 254", "postcode": "95569"}}},
{"geometry": {"type": "Point", "coordinates": [-123.9483514704, 40.3994652015]}, "type": "Feature", "properties": {"collection_times": [{"days": "Mon-Fri", "time": "3:30pm"}, {"days": "Sat", "time": "8:30am"}, {"days": "Sun", "time": "Closed"}], "id": "9556900004", "name": "USPS COLLECTION BOX - BLUE BOX", "address": {"city": "REDCREST", "state": "CA", "street": "26406 HIGHWAY 254", "postcode": "95569"}}},
{"geometry": {"type": "Point", "coordinates": [-124.1293696928, 41.0645203086]}, "type": "Feature", "properties": {"collection_times": [{"days": "Mon-Fri", "time": "5:00pm"}, {"days": "Sat", "time": "10:00am"}, {"days": "Sun", "time": "Closed"}], "id": "9557000003", "name": "USPS COLLECTION BOX - PO LOBBY", "address": {"city": "TRINIDAD", "state": "CA", "street": "357 MAIN ST", "postcode": "95570"}}},
{"geometry": {"type": "Point", "coordinates": [-124.1293696928, 41.0645203086]}, "type": "Feature", "properties": {"collection_times": [{"days": "Mon-Fri", "time": "4:00pm"}, {"days": "Sat", "time": "10:00am"}, {"days": "Sun", "time": "Closed"}], "id": "9557000004", "name": "USPS COLLECTION BOX - BLUE BOX", "address": {"city": "TRINIDAD", "state": "CA", "street": "357 MAIN ST", "postcode": "95570"}}},
{"geometry": {"type": "Point", "coordinates": [-123.9222675214, 40.3215141813]}, "type": "Feature", "properties": {"collection_times": [{"days": "Mon-Fri", "time": "12:00pm"}, {"days": "Sat", "time": "8:30am"}, {"days": "Sun", "time": "Closed"}], "id": "9557100002", "name": "USPS COLLECTION BOX - PO LOBBY", "address": {"city": "WEOTT", "state": "CA", "street": "11 LUM ST", "postcode": "95571"}}},
{"geometry": {"type": "Point", "coordinates": [-123.9222675214, 40.3215141813]}, "type": "Feature", "properties": {"collection_times": [{"days": "Mon-Fri", "time": "12:00pm"}, {"days": "Sat", "time": "8:30am"}, {"days": "Sun", "time": "Closed"}], "id": "9557100003", "name": "USPS COLLECTION BOX - BLUE BOX", "address": {"city": "WEOTT", "state": "CA", "street": "11 LUM ST", "postcode": "95571"}}},
{"geometry": {"type": "Point", "coordinates": [-123.6298827135, 40.9390053565]}, "type": "Feature", "properties": {"collection_times": [{"days": "Mon-Fri", "time": "3:00pm"}, {"days": "Sat", "time": "11:00am"}, {"days": "Sun", "time": "Closed"}], "id": "9557300003", "name": "USPS COLLECTION BOX - PO LOBBY", "address": {"city": "WILLOW CREEK", "state": "CA", "street": "100 COUNTRY CLUB DR", "postcode": "95573"}}},
{"geometry": {"type": "Point", "coordinates": [-123.7147649219, 39.8651465973]}, "type": "Feature", "properties": {"collection_times": [{"days": "Mon-Fri", "time": "4:00pm"}, {"days": "Sat", "time": "11:30am"}, {"days": "Sun", "time": "Closed"}], "id": "9558500002", "name": "USPS COLLECTION BOX - PO LOBBY", "address": {"city": "LEGGETT", "state": "CA", "street": "67674 DRIVE THRU TREE RD", "postcode": "95585"}}},
{"geometry": {"type": "Point", "coordinates": [-123.69871427, 39.8537071705]}, "type": "Feature", "properties": {"collection_times": [{"days": "Mon-Fri", "time": "3:45pm"}, {"days": "Sat", "time": "11:30am"}, {"days": "Sun", "time": "Closed"}], "id": "9558500003", "name": "USPS COLLECTION BOX - BLUE BOX", "address": {"city": "LEGGETT", "state": "CA", "street": "67674 DRIVE THRU TREE RD", "postcode": "95585"}}},
{"geometry": {"type": "Point", "coordinates": [-123.968590423, 40.0602095771]}, "type": "Feature", "properties": {"collection_times": [{"days": "Mon-Fri", "time": "3:15pm"}, {"days": "Sat", "time": "12:30pm"}, {"days": "Sun", "time": "Closed"}], "id": "9558900003", "name": "USPS COLLECTION BOX - PO LOBBY", "address": {"city": "WHITETHORN", "state": "CA", "street": "498 SHELTER COVE RD", "postcode": "95589"}}},
{"geometry": {"type": "Point", "coordinates": [-123.968590423, 40.0602095771]}, "type": "Feature", "properties": {"collection_times": [{"days": "Mon-Fri", "time": "3:00pm"}, {"days": "Sat", "time": "12:15pm"}, {"days": "Sun", "time": "Closed"}], "id": "9558900004", "name": "USPS COLLECTION BOX - BLUE BOX", "address": {"city": "WHITETHORN", "state": "CA", "street": "498 SHELTER COVE RD", "postcode": "95589"}}},
{"geometry": {"type": "Point", "coordinates": [-124.0666609391, 40.0288194277]}, "type": "Feature", "properties": {"collection_times": [{"days": "Mon-Fri", "time": "1:00pm"}, {"days": "Sat-Sun", "time": "Closed"}], "id": "9558900005", "name": "USPS COLLECTION BOX - BLUE BOX", "address": {"city": "WHITETHORN", "state": "CA", "street": "492 MACHI RD", "postcode": "95589"}}},
{"geometry": {"type": "Point", "coordinates": [-123.3972391526, 40.194265834]}, "type": "Feature", "properties": {"collection_times": [{"days": "Mon-Fri", "time": "1:00pm"}, {"days": "Sat", "time": "11:30am"}, {"days": "Sun", "time": "Closed"}], "id": "9559500002", "name": "USPS COLLECTION BOX - BLUE BOX", "address": {"city": "ZENIA", "state": "CA", "street": "26530 RUTH-ZENIA RD", "postcode": "95595"}}}
]}
