{"type": "FeatureCollection", "features": [
{"geometry": {"type": "Point", "coordinates": [-120.8154804416, 39.2087197223]}, "type": "Feature", "properties": {"collection_times": [{"days": "Mon-Fri", "time": "4:15pm"}, {"days": "Sat", "time": "10:00am"}, {"days": "Sun", "time": "Closed"}], "id": "9570100000", "name": "USPS COLLECTION BOX - BLUE BOX", "address": {"city": "ALTA", "state": "CA", "street": "33735 NARY RED RD", "postcode": "95701"}}},
{"geometry": {"type": "Point", "coordinates": [-120.8154804416, 39.2087197223]}, "type": "Feature", "properties": {"collection_times": [{"days": "Mon-Fri", "time": "4:15pm"}, {"days": "Sat", "time": "10:00am"}, {"days": "Sun", "time": "Closed"}], "id": "9570100001", "name": "USPS COLLECTION BOX - PO LOBBY", "address": {"city": "ALTA", "state": "CA", "street": "33735 NARY RED RD", "postcode": "95701"}}},
{"geometry": {"type": "Point", "coordinates": [-120.9938037488, 38.9994455806]}, "type": "Feature", "properties": {"collection_times": [{"days": "Mon-Fri", "time": "4:45pm"}, {"days": "Sat", "time": "9:30am"}, {"days": "Sun", "time": "Closed"}], "id": "9570300000", "name": "USPS COLLECTION BOX - BLUE BOX", "address": {"city": "APPLEGATE", "state": "CA", "street": "17880 APPLEGATE RD", "postcode": "95703"}}},
{"geometry": {"type": "Point", "coordinates": [-120.9938037488, 38.9994455806]}, "type": "Feature", "properties": {"collection_times": [{"days": "Mon-Fri", "time": "4:45pm"}, {"days": "Sat", "time": "9:30am"}, {"days": "Sun", "time": "Closed"}], "id": "9570300001", "name": "USPS COLLECTION BOX - PO LOBBY", "address": {"city": "APPLEGATE", "state": "CA", "street": "17880 APPLEGATE RD", "postcode": "95703"}}},
{"geometry": {"type": "Point", "coordinates": [-120.674447274, 38.7380019133]}, "type": "Feature", "properties": {"collection_times": [{"days": "Mon-Fri", "time": "5:00pm"}, {"days": "Sat", "time": "11:00am"}, {"days": "Sun", "time": "Closed"}], "id": "9570900000", "name": "USPS COLLECTION BOX - BLUE BOX", "address": {"city": "CAMINO", "state": "CA", "street": "4120 CARSON RD", "postcode": "95709"}}},
{"geometry": {"type": "Point", "coordinates": [-120.674447274, 38.7380019133]}, "type": "Feature", "properties": {"collection_times": [{"days": "Mon-Fri", "time": "5:00pm"}, {"days": "Sat", "time": "11:00am"}, {"days": "Sun", "time": "Closed"}], "id": "9570900002", "name": "USPS COLLECTION BOX - PO LOBBY", "address": {"city": "CAMINO", "state": "CA", "street": "4120 CARSON RD", "postcode": "95709"}}},
{"geometry": {"type": "Point", "coordinates": [-120.674447274, 38.7380019133]}, "type": "Feature", "properties": {"collection_times": [{"days": "Mon-Fri", "time": "5:00pm"}, {"days": "Sat", "time": "11:00am"}, {"days": "Sun", "time": "Closed"}], "id": "9570900003", "name": "USPS COLLECTION BOX - PO LOBBY", "address": {"city": "CAMINO", "state": "CA", "street": "4120 CARSON RD", "postcode": "95709"}}},
{"geometry": {"type": "Point", "coordinates": [-120.9760012696, 39.1569421717]}, "type": "Feature", "properties": {"collection_times": [{"days": "Mon-Fri", "time": "4:30pm"}, {"days": "Sat", "time": "9:50am"}, {"days": "Sun", "time": "Closed"}], "id": "9571200000", "name": "USPS COLLECTION BOX - BLUE BOX", "address": {"city": "CHICAGO PARK", "state": "CA", "street": "17748 LOWER COLFAX RD", "postcode": "95712"}}},
{"geometry": {"type": "Point", "coordinates": [-120.9760012696, 39.1569421717]}, "type": "Feature", "properties": {"collection_times": [{"days": "Mon-Fri", "time": "4:30pm"}, {"days": "Sat", "time": "9:50am"}, {"days": "Sun", "time": "Closed"}], "id": "9571200001", "name": "USPS COLLECTION BOX - PO LOBBY", "address": {"city": "CHICAGO PARK", "state": "CA", "street": "17748 LOWER COLFAX RD", "postcode": "95712"}}},
{"geometry": {"type": "Point", "coordinates": [-120.9760012696, 39.1569421717]}, "type": "Feature", "properties": {"collection_times": [{"days": "Mon-Fri", "time": "4:30pm"}, {"days": "Sat", "time": "9:50am"}, {"days": "Sun", "time": "Closed"}], "id": "9571200002", "name": "USPS COLLECTION BOX - PO LOBBY", "address": {"city": "CHICAGO PARK", "state": "CA", "street": "17748 LOWER COLFAX RD", "postcode": "95712"}}},
{"geometry": {"type": "Point", "coordinates": [-120.9508937543, 39.0934356394]}, "type": "Feature", "properties": {"collection_times": [{"days": "Mon-Fri", "time": "10:00am"}, {"days": "Sat-Sun", "time": "Closed"}], "id": "9571300001", "name": "USPS COLLECTION BOX - BLUE BOX", "address": {"city": "COLFAX", "state": "CA", "street": "555 S AUBURN ST", "postcode": "95713"}}},
{"geometry": {"type": "Point", "coordinates": [-120.954853118, 39.0996189659]}, "type": "Feature", "properties": {"collection_times": [{"days": "Mon-Fri", "time": "5:00pm"}, {"days": "Sat", "time": "12:00pm"}, {"days": "Sun", "time": "Closed"}], "id": "9571300004", "name": "USPS COLLECTION BOX - BLUE BOX", "address": {"city": "COLFAX", "state": "CA", "street": "40 W CHURCH ST", "postcode": "95713"}}},
{"geometry": {"type": "Point", "coordinates": [-120.954853118, 39.0996189659]}, "type": "Feature", "properties": {"collection_times": [{"days": "Mon-Fri", "time": "5:00pm"}, {"days": "Sat", "time": "12:00pm"}, {"days": "Sun", "time": "Closed"}], "id": "9571300006", "name": "USPS COLLECTION BOX - PO LOBBY", "address": {"city": "COLFAX", "state": "CA", "street": "40 W CHURCH ST", "postcode": "95713"}}},
{"geometry": {"type": "Point", "coordinates": [-120.954853118, 39.0996189659]}, "type": "Feature", "properties": {"collection_times": [{"days": "Mon-Fri", "time": "5:00pm"}, {"days": "Sat", "time": "12:00pm"}, {"days": "Sun", "time": "Closed"}], "id": "9571300007", "name": "USPS COLLECTION BOX - PO LOBBY", "address": {"city": "COLFAX", "state": "CA", "street": "40 W CHURCH ST", "postcode": "95713"}}},
{"geometry": {"type": "Point", "coordinates": [-120.954853118, 39.0996189659]}, "type": "Feature", "properties": {"collection_times": [{"days": "Mon-Fri", "time": "5:00pm"}, {"days": "Sat", "time": "12:00pm"}, {"days": "Sun", "time": "Closed"}], "id": "9571300008", "name": "USPS COLLECTION BOX - PO LOBBY", "address": {"city": "COLFAX", "state": "CA", "street": "40 W CHURCH ST", "postcode": "95713"}}},
{"geometry": {"type": "Point", "coordinates": [-120.8381692704, 39.2068766155]}, "type": "Feature", "properties": {"collection_times": [{"days": "Mon-Fri", "time": "12:00pm"}, {"days": "Sat", "time": "10:00am"}, {"days": "Sun", "time": "Closed"}], "id": "9571400001", "name": "USPS COLLECTION BOX - PO LOBBY", "address": {"city": "DUTCH FLAT", "state": "CA", "street": "32805 MAIN ST", "postcode": "95714"}}},
{"geometry": {"type": "Point", "coordinates": [-120.8385190122, 39.2065916583]}, "type": "Feature", "properties": {"collection_times": [{"days": "Mon-Fri", "time": "4:00pm"}, {"days": "Sat-Sun", "time": "Closed"}], "id": "9571400002", "name": "USPS COLLECTION BOX - BLUE BOX", "address": {"city": "DUTCH FLAT", "state": "CA", "street": "32795 MAIN ST", "postcode": "95714"}}},
{"geometry": {"type": "Point", "coordinates": [-119.2702268805, 36.3741071704]}, "type": "Feature", "properties": {"collection_times": [{"days": "Mon-Fri", "time": "3:00pm"}, {"days": "Sat", "time": "10:00am"}, {"days": "Sun", "time": "Closed"}], "id": "9571500000", "name": "USPS COLLECTION BOX - BLUE BOX", "address": {"city": "EMIGRANT GAP", "state": "CA", "street": "1 NYACK RD", "postcode": "95715"}}},
{"geometry": {"type": "Point", "coordinates": [-120.6349163996, 39.2450101961]}, "type": "Feature", "properties": {"collection_times": [{"days": "Mon-Fri", "time": "3:00pm"}, {"days": "Sat", "time": "10:00am"}, {"days": "Sun", "time": "Closed"}], "id": "9571500001", "name": "USPS COLLECTION BOX - BLUE BOX", "address": {"city": "EMIGRANT GAP", "state": "CA", "street": "43440 LAING RD", "postcode": "95715"}}},
{"geometry": {"type": "Point", "coordinates": [-120.8543215624, 39.1812253748]}, "type": "Feature", "properties": {"collection_times": [{"days": "Mon-Fri", "time": "4:15pm"}, {"days": "Sat", "time": "9:15am"}, {"days": "Sun", "time": "Closed"}], "id": "9571700000", "name": "USPS COLLECTION BOX - BLUE BOX", "address": {"city": "GOLD RUN", "state": "CA", "street": "31194 GOLD RUN RD", "postcode": "95717"}}},
{"geometry": {"type": "Point", "coordinates": [-120.8543215624, 39.1812253748]}, "type": "Feature", "properties": {"collection_times": [{"days": "Mon-Fri", "time": "4:15pm"}, {"days": "Sat", "time": "9:15am"}, {"days": "Sun", "time": "Closed"}], "id": "9571700001", "name": "USPS COLLECTION BOX - PO LOBBY", "address": {"city": "GOLD RUN", "state": "CA", "street": "31194 GOLD RUN RD", "postcode": "95717"}}},
{"geometry": {"type": "Point", "coordinates": [-120.8543215624, 39.1812253748]}, "type": "Feature", "properties": {"collection_times": [{"days": "Mon-Fri", "time": "4:15pm"}, {"days": "Sat", "time": "9:15am"}, {"days": "Sun", "time": "Closed"}], "id": "9571700002", "name": "USPS COLLECTION BOX - PO LOBBY", "address": {"city": "GOLD RUN", "state": "CA", "street": "31194 GOLD RUN RD", "postcode": "95717"}}},
{"geometry": {"type": "Point", "coordinates": [-120.296534088, 38.7746293812]}, "type": "Feature", "properties": {"collection_times": [{"days": "Mon-Fri", "time": "1:30pm"}, {"days": "Sat", "time": "10:30am"}, {"days": "Sun", "time": "Closed"}], "id": "9572000000", "name": "USPS COLLECTION BOX - BLUE BOX", "address": {"city": "KYBURZ", "state": "CA", "street": "13672 HIGHWAY 50", "postcode": "95720"}}},
{"geometry": {"type": "Point", "coordinates": [-120.296534088, 38.7746293812]}, "type": "Feature", "properties": {"collection_times": [{"days": "Mon-Fri", "time": "1:30pm"}, {"days": "Sat", "time": "10:30am"}, {"days": "Sun", "time": "Closed"}], "id": "9572000001", "name": "USPS COLLECTION BOX - PO LOBBY", "address": {"city": "KYBURZ", "state": "CA", "street": "13672 HIGHWAY 50", "postcode": "95720"}}},
{"geometry": {"type": "Point", "coordinates": [-121.0226047268, 38.9983517637]}, "type": "Feature", "properties": {"collection_times": [{"days": "Mon-Fri", "time": "5:00pm"}, {"days": "Sat", "time": "10:00am"}, {"days": "Sun", "time": "Closed"}], "id": "9572200000", "name": "USPS COLLECTION BOX - BLUE BOX", "address": {"city": "MEADOW VISTA", "state": "CA", "street": "16930 PLACER HILLS RD", "postcode": "95722"}}},
{"geometry": {"type": "Point", "coordinates": [-121.0222687664, 38.9999795152]}, "type": "Feature", "properties": {"collection_times": [{"days": "Mon-Fri", "time": "12:00pm"}, {"days": "Sat-Sun", "time": "Closed"}], "id": "9572200001", "name": "USPS COLLECTION BOX - BLUE BOX", "address": {"city": "MEADOW VISTA", "state": "CA", "street": "16981 PLACER HILLS RD", "postcode": "95722"}}},
{"geometry": {"type": "Point", "coordinates": [-121.0226047268, 38.9983517637]}, "type": "Feature", "properties": {"collection_times": [{"days": "Mon-Fri", "time": "5:00pm"}, {"days": "Sat-Sun", "time": "Closed"}], "id": "9572200002", "name": "USPS COLLECTION BOX - PO LOBBY", "address": {"city": "MEADOW VISTA", "state": "CA", "street": "16930 PLACER HILLS RD", "postcode": "95722"}}},
{"geometry": {"type": "Point", "coordinates": [-121.0226047268, 38.9983517637]}, "type": "Feature", "properties": {"collection_times": [{"days": "Mon-Fri", "time": "5:00pm"}, {"days": "Sat-Sun", "time": "Closed"}], "id": "9572200003", "name": "USPS COLLECTION BOX - PO LOBBY", "address": {"city": "MEADOW VISTA", "state": "CA", "street": "16930 PLACER HILLS RD", "postcode": "95722"}}},
{"geometry": {"type": "Point", "coordinates": [-120.5793795765, 38.7629311]}, "type": "Feature", "properties": {"collection_times": [{"days": "Mon-Sat", "time": "1:00pm"}, {"days": "Sun", "time": "Closed"}], "id": "9572600000", "name": "USPS COLLECTION BOX - BLUE BOX", "address": {"city": "POLLOCK PINES", "state": "CA", "street": "6450 PONY EXPRESS TRL", "postcode": "95726"}}},
{"geometry": {"type": "Point", "coordinates": [-120.5770053779, 38.7630789699]}, "type": "Feature", "properties": {"collection_times": [{"days": "Mon-Sat", "time": "1:00pm"}, {"days": "Sun", "time": "Closed"}], "id": "9572600001", "name": "USPS COLLECTION BOX - BLUE BOX", "address": {"city": "POLLOCK PINES", "state": "CA", "street": "6498 PONY EXPRESS TRL", "postcode": "95726"}}},
{"geometry": {"type": "Point", "coordinates": [-120.5920460889, 38.7595133438]}, "type": "Feature", "properties": {"collection_times": [{"days": "Mon-Fri", "time": "5:00pm"}, {"days": "Sat", "time": "1:30pm"}, {"days": "Sun", "time": "Closed"}], "id": "9572600002", "name": "USPS COLLECTION BOX - BLUE BOX", "address": {"city": "POLLOCK PINES", "state": "CA", "street": "2669 SANDERS DR", "postcode": "95726"}}},
{"geometry": {"type": "Point", "coordinates": [-120.5920460889, 38.7595133438]}, "type": "Feature", "properties": {"collection_times": [{"days": "Mon-Fri", "time": "5:00pm"}, {"days": "Sat", "time": "1:30pm"}, {"days": "Sun", "time": "Closed"}], "id": "9572600003", "name": "USPS COLLECTION BOX - PO LOBBY", "address": {"city": "POLLOCK PINES", "state": "CA", "street": "2669 SANDERS DR", "postcode": "95726"}}},
{"geometry": {"type": "Point", "coordinates": [-120.4168724053, 39.3252405198]}, "type": "Feature", "properties": {"collection_times": [{"days": "Mon-Fri", "time": "3:00pm"}, {"days": "Sat", "time": "10:00am"}, {"days": "Sun", "time": "Closed"}], "id": "9572800000", "name": "USPS COLLECTION BOX - PO LOBBY", "address": {"city": "SODA SPRINGS", "state": "CA", "street": "21719 DONNER PASS RD", "postcode": "95728"}}},
{"geometry": {"type": "Point", "coordinates": [-120.4168724053, 39.3252405198]}, "type": "Feature", "properties": {"collection_times": [{"days": "Mon-Fri", "time": "3:00pm"}, {"days": "Sat", "time": "10:00am"}, {"days": "Sun", "time": "Closed"}], "id": "9572800001", "name": "USPS COLLECTION BOX - PO LOBBY", "address": {"city": "SODA SPRINGS", "state": "CA", "street": "21719 DONNER PASS RD", "postcode": "95728"}}},
{"geometry": {"type": "Point", "coordinates": [-120.1199393222, 38.8104827921]}, "type": "Feature", "properties": {"collection_times": [{"days": "Mon-Fri", "time": "12:55pm"}, {"days": "Sat", "time": "11:55am"}, {"days": "Sun", "time": "Closed"}], "id": "9573500000", "name": "USPS COLLECTION BOX - PO LOBBY", "address": {"city": "TWIN BRIDGES", "state": "CA", "street": "17481 HIGHWAY 50", "postcode": "95735"}}},
{"geometry": {"type": "Point", "coordinates": [-120.9731710659, 39.0431358714]}, "type": "Feature", "properties": {"collection_times": [{"days": "Mon-Fri", "time": "4:30pm"}, {"days": "Sat", "time": "10:30am"}, {"days": "Sun", "time": "Closed"}], "id": "9573600000", "name": "USPS COLLECTION BOX - BLUE BOX", "address": {"city": "WEIMAR", "state": "CA", "street": "21050 CANYON WAY", "postcode": "95736"}}},
{"geometry": {"type": "Point", "coordinates": [-120.9731710659, 39.0431358714]}, "type": "Feature", "properties": {"collection_times": [{"days": "Mon-Fri", "time": "5:00pm"}, {"days": "Sat", "time": "10:30am"}, {"days": "Sun", "time": "Closed"}], "id": "9573600001", "name": "USPS COLLECTION BOX - PO LOBBY", "address": {"city": "WEIMAR", "state": "CA", "street": "21050 CANYON WAY", "postcode": "95736"}}},
{"geometry": {"type": "Point", "coordinates": [-121.2645316647, 38.5978834823]}, "type": "Feature", "properties": {"collection_times": [{"days": "Mon-Fri", "time": "2:30pm"}, {"days": "Sat-Sun", "time": "Closed"}], "id": "9574200001", "name": "USPS COLLECTION BOX - BLUE BOX", "address": {"city": "RANCHO CORDOVA", "state": "CA", "street": "11492 SUNRISE GOLD CIR", "postcode": "95742"}}},
{"geometry": {"type": "Point", "coordinates": [-121.172963669, 38.7436042481]}, "type": "Feature", "properties": {"collection_times": [{"days": "Mon-Fri", "time": "3:00pm"}, {"days": "Sat", "time": "2:00pm"}, {"days": "Sun", "time": "Closed"}], "id": "9574600000", "name": "USPS COLLECTION BOX - BLUE BOX", "address": {"city": "GRANITE BAY", "state": "CA", "street": "6845 DOUGLAS BLVD", "postcode": "95746"}}},
{"geometry": {"type": "Point", "coordinates": [-121.1705130689, 38.7399131131]}, "type": "Feature", "properties": {"collection_times": [{"days": "Mon-Fri", "time": "5:00pm"}, {"days": "Sat", "time": "2:00pm"}, {"days": "Sun", "time": "Closed"}], "id": "9574600007", "name": "USPS COLLECTION BOX - PO LOBBY", "address": {"city": "GRANITE BAY", "state": "CA", "street": "8757 AUBURN FOLSOM RD", "postcode": "95746"}}},
{"geometry": {"type": "Point", "coordinates": [-121.1705130689, 38.7399131131]}, "type": "Feature", "properties": {"collection_times": [{"days": "Mon-Fri", "time": "5:00pm"}, {"days": "Sat", "time": "2:00pm"}, {"days": "Sun", "time": "Closed"}], "id": "9574600011", "name": "USPS COLLECTION BOX - BLUE BOX", "address": {"city": "GRANITE BAY", "state": "CA", "street": "8757 AUBURN FOLSOM RD", "postcode": "95746"}}},
{"geometry": {"type": "Point", "coordinates": [-121.3095494591, 38.7528228878]}, "type": "Feature", "properties": {"collection_times": [{"days": "Mon-Fri", "time": "3:00pm"}, {"days": "Sat", "time": "3:45pm"}, {"days": "Sun", "time": "Closed"}], "id": "9574700001", "name": "USPS COLLECTION BOX - BLUE BOX", "address": {"city": "ROSEVILLE", "state": "CA", "street": "4008 FOOTHILLS BLVD", "postcode": "95747"}}},
{"geometry": {"type": "Point", "coordinates": [-121.3554015824, 38.777037868]}, "type": "Feature", "properties": {"collection_times": [{"days": "Mon-Fri", "time": "3:00pm"}, {"days": "Sat-Sun", "time": "Closed"}], "id": "9574700003", "name": "USPS COLLECTION BOX - BLUE BOX", "address": {"city": "ROSEVILLE", "state": "CA", "street": "7050 DEL WEBB BLVD", "postcode": "95747"}}},
{"geometry": {"type": "Point", "coordinates": [-121.3301298878, 38.7695439832]}, "type": "Feature", "properties": {"collection_times": [{"days": "Mon-Fri", "time": "3:00pm"}, {"days": "Sat", "time": "4:00pm"}, {"days": "Sun", "time": "Closed"}], "id": "9574700007", "name": "USPS COLLECTION BOX - BLUE BOX", "address": {"city": "ROSEVILLE", "state": "CA", "street": "4021 WOODCREEK OAKS BLVD", "postcode": "95747"}}},
{"geometry": {"type": "Point", "coordinates": [-121.3110398574, 38.7955019508]}, "type": "Feature", "properties": {"collection_times": [{"days": "Mon-Fri", "time": "3:00pm"}, {"days": "Sat", "time": "12:00pm"}, {"days": "Sun", "time": "Closed"}], "id": "9574700012", "name": "USPS COLLECTION BOX - BLUE BOX", "address": {"city": "ROSEVILLE", "state": "CA", "street": "1352 BLUE OAKS BLVD", "postcode": "95747"}}},
{"geometry": {"type": "Point", "coordinates": [-121.4178715376, 38.4264455202]}, "type": "Feature", "properties": {"collection_times": [{"days": "Mon-Fri", "time": "5:00pm"}, {"days": "Sat", "time": "3:00pm"}, {"days": "Sun", "time": "Closed"}], "id": "9575800011", "name": "USPS COLLECTION BOX - BLUE BOX", "address": {"city": "ELK GROVE", "state": "CA", "street": "9105 BRUCEVILLE RD", "postcode": "95758"}}},
{"geometry": {"type": "Point", "coordinates": [-121.4178715376, 38.4264455202]}, "type": "Feature", "properties": {"collection_times": [{"days": "Mon-Fri", "time": "5:00pm"}, {"days": "Sat", "time": "3:00pm"}, {"days": "Sun", "time": "Closed"}], "id": "9575800012", "name": "USPS COLLECTION BOX - PO LOBBY", "address": {"city": "ELK GROVE", "state": "CA", "street": "9105 BRUCEVILLE RD", "postcode": "95758"}}},
{"geometry": {"type": "Point", "coordinates": [-121.4178715376, 38.4264455202]}, "type": "Feature", "properties": {"collection_times": [{"days": "Mon-Fri", "time": "5:00pm"}, {"days": "Sat", "time": "3:00pm"}, {"days": "Sun", "time": "Closed"}], "id": "9575800014", "name": "USPS COLLECTION BOX - APC", "address": {"city": "ELK GROVE", "state": "CA", "street": "9105 BRUCEVILLE RD", "postcode": "95758"}}},
{"geometry": {"type": "Point", "coordinates": [-121.0856647203, 38.710436113]}, "type": "Feature", "properties": {"collection_times": [{"days": "Mon-Fri", "time": "3:00pm"}, {"days": "Sat", "time": "2:30pm"}, {"days": "Sun", "time": "Closed"}], "id": "9576200002", "name": "USPS COLLECTION BOX - BLUE BOX", "address": {"city": "EL DORADO HILLS", "state": "CA", "street": "2222 FRANCISCO DR", "postcode": "95762"}}},
{"geometry": {"type": "Point", "coordinates": [-121.0830458602, 38.7086665695]}, "type": "Feature", "properties": {"collection_times": [{"days": "Mon-Fri", "time": "3:00pm"}, {"days": "Sat", "time": "2:30pm"}, {"days": "Sun", "time": "Closed"}], "id": "9576200003", "name": "USPS COLLECTION BOX - BLUE BOX", "address": {"city": "EL DORADO HILLS", "state": "CA", "street": "895 EMBARCADERO DR", "postcode": "95762"}}},
{"geometry": {"type": "Point", "coordinates": [-121.0700580705, 38.6556032901]}, "type": "Feature", "properties": {"collection_times": [{"days": "Mon-Sat", "time": "2:00pm"}, {"days": "Sun", "time": "Closed"}], "id": "9576200006", "name": "USPS COLLECTION BOX - BLUE BOX", "address": {"city": "EL DORADO HILLS", "state": "CA", "street": "3935 PARK DR", "postcode": "95762"}}},
{"geometry": {"type": "Point", "coordinates": [-121.0700580705, 38.6556032901]}, "type": "Feature", "properties": {"collection_times": [{"days": "Mon-Sat", "time": "2:00pm"}, {"days": "Sun", "time": "Closed"}], "id": "9576200007", "name": "USPS COLLECTION BOX - BLUE BOX", "address": {"city": "EL DORADO HILLS", "state": "CA", "street": "3935 PARK DR", "postcode": "95762"}}},
{"geometry": {"type": "Point", "coordinates": [-121.0699166251, 38.6823623532]}, "type": "Feature", "properties": {"collection_times": [{"days": "Mon-Fri", "time": "5:00pm"}, {"days": "Sat", "time": "3:30pm"}, {"days": "Sun", "time": "Closed"}], "id": "9576200009", "name": "USPS COLLECTION BOX - EXPRESS", "address": {"city": "EL DORADO HILLS", "state": "CA", "street": "4641 POST ST", "postcode": "95762"}}},
{"geometry": {"type": "Point", "coordinates": [-121.0669668709, 38.6483035593]}, "type": "Feature", "properties": {"collection_times": [{"days": "Mon-Fri", "time": "5:00pm"}, {"days": "Sat", "time": "3:30pm"}, {"days": "Sun", "time": "Closed"}], "id": "9576200010", "name": "USPS COLLECTION BOX - BLUE BOX", "address": {"city": "EL DORADO HILLS", "state": "CA", "street": "4641 POST ST", "postcode": "95762"}}},
{"geometry": {"type": "Point", "coordinates": [-121.0669668709, 38.6483035593]}, "type": "Feature", "properties": {"collection_times": [{"days": "Mon-Fri", "time": "5:00pm"}, {"days": "Sat", "time": "3:30pm"}, {"days": "Sun", "time": "Closed"}], "id": "9576200011", "name": "USPS COLLECTION BOX - PO LOBBY", "address": {"city": "EL DORADO HILLS", "state": "CA", "street": "4641 POST ST", "postcode": "95762"}}},
{"geometry": {"type": "Point", "coordinates": [-121.0669668709, 38.6483035593]}, "type": "Feature", "properties": {"collection_times": [{"days": "Mon-Fri", "time": "5:00pm"}, {"days": "Sat", "time": "3:30pm"}, {"days": "Sun", "time": "Closed"}], "id": "9576200014", "name": "USPS COLLECTION BOX - PO LOBBY", "address": {"city": "EL DORADO HILLS", "state": "CA", "street": "4641 POST ST", "postcode": "95762"}}},
{"geometry": {"type": "Point", "coordinates": [-121.0669668709, 38.6483035593]}, "type": "Feature", "properties": {"collection_times": [{"days": "Mon-Fri", "time": "5:00pm"}, {"days": "Sat", "time": "3:30pm"}, {"days": "Sun", "time": "Closed"}], "id": "9576200015", "name": "USPS COLLECTION BOX - PO LOBBY", "address": {"city": "EL DORADO HILLS", "state": "CA", "street": "4641 POST ST", "postcode": "95762"}}},
{"geometry": {"type": "Point", "coordinates": [-121.0669668709, 38.6483035593]}, "type": "Feature", "properties": {"collection_times": [{"days": "Mon-Fri", "time": "5:00pm"}, {"days": "Sat", "time": "3:30pm"}, {"days": "Sun", "time": "Closed"}], "id": "9576200016", "name": "USPS COLLECTION BOX - PO LOBBY", "address": {"city": "EL DORADO HILLS", "state": "CA", "street": "4641 POST ST", "postcode": "95762"}}},
{"geometry": {"type": "Point", "coordinates": [-121.0669668709, 38.6483035593]}, "type": "Feature", "properties": {"collection_times": [{"days": "Mon-Fri", "time": "5:00pm"}, {"days": "Sat", "time": "3:30pm"}, {"days": "Sun", "time": "Closed"}], "id": "9576200017", "name": "USPS COLLECTION BOX - BLUE BOX", "address": {"city": "EL DORADO HILLS", "state": "CA", "street": "4641 POST ST", "postcode": "95762"}}},
{"geometry": {"type": "Point", "coordinates": [-121.0811588296, 38.6833049491]}, "type": "Feature", "properties": {"collection_times": [{"days": "Mon-Fri", "time": "3:00pm"}, {"days": "Sat", "time": "2:30pm"}, {"days": "Sun", "time": "Closed"}], "id": "9576200018", "name": "USPS COLLECTION BOX - BLUE BOX", "address": {"city": "EL DORADO HILLS", "state": "CA", "street": "900 GOVERNOR DR", "postcode": "95762"}}},
{"geometry": {"type": "Point", "coordinates": [-121.0717614036, 38.6592932481]}, "type": "Feature", "properties": {"collection_times": [{"days": "Mon-Fri", "time": "3:00pm"}, {"days": "Sat", "time": "2:15pm"}, {"days": "Sun", "time": "Closed"}], "id": "9576200019", "name": "USPS COLLECTION BOX - BLUE BOX", "address": {"city": "EL DORADO HILLS", "state": "CA", "street": "3820 EL DORADO HILLS BLVD", "postcode": "95762"}}},
{"geometry": {"type": "Point", "coordinates": [-121.0669668709, 38.6483035593]}, "type": "Feature", "properties": {"collection_times": [{"days": "Mon-Fri", "time": "5:00pm"}, {"days": "Sat", "time": "3:30pm"}, {"days": "Sun", "time": "Closed"}], "id": "9576200020", "name": "USPS COLLECTION BOX - APC", "address": {"city": "EL DORADO HILLS", "state": "CA", "street": "4641 POST ST", "postcode": "95762"}}},
{"geometry": {"type": "Point", "coordinates": [-121.7628886175, 38.6627640497]}, "type": "Feature", "properties": {"collection_times": [{"days": "Mon-Fri", "time": "4:00pm"}, {"days": "Sat", "time": "3:00pm"}, {"days": "Sun", "time": "Closed"}], "id": "9577600005", "name": "USPS COLLECTION BOX - BLUE BOX", "address": {"city": "WOODLAND", "state": "CA", "street": "1264 E GIBSON RD", "postcode": "95776"}}},
{"geometry": {"type": "Point", "coordinates": [-121.571772133, 38.5713177728]}, "type": "Feature", "properties": {"collection_times": [{"days": "Mon-Sat", "time": "8:00pm"}, {"days": "Sun", "time": "Closed"}], "id": "9579800001", "name": "USPS COLLECTION BOX - BLUE BOX", "address": {"city": "WEST SACRAMENTO", "state": "CA", "street": "3775 INDUSTRIAL BLVD", "postcode": "95798"}}},
{"geometry": {"type": "Point", "coordinates": [-121.571772133, 38.5713177728]}, "type": "Feature", "properties": {"collection_times": [{"days": "Mon-Sat", "time": "8:00pm"}, {"days": "Sun", "time": "Closed"}], "id": "9579800002", "name": "USPS COLLECTION BOX - BLUE BOX", "address": {"city": "WEST SACRAMENTO", "state": "CA", "street": "3775 INDUSTRIAL BLVD", "postcode": "95798"}}},
{"geometry": {"type": "Point", "coordinates": [-121.5687884316, 38.5721817037]}, "type": "Feature", "properties": {"collection_times": [{"days": "Mon-Fri", "time": "8:00pm"}, {"days": "Sat", "time": "4:30pm"}, {"days": "Sun", "time": "Closed"}], "id": "9579800003", "name": "USPS COLLECTION BOX - EXPRESS", "address": {"city": "WEST SACRAMENTO", "state": "CA", "street": "3775 INDUSTRIAL BLVD", "postcode": "95798"}}},
{"geometry": {"type": "Point", "coordinates": [-121.571772133, 38.5713177728]}, "type": "Feature", "properties": {"collection_times": [{"days": "Mon-Fri", "time": "5:00pm"}, {"days": "Sat-Sun", "time": "Closed"}], "id": "9579800004", "name": "USPS COLLECTION BOX - PO LOBBY", "address": {"city": "WEST SACRAMENTO", "state": "CA", "street": "3775 INDUSTRIAL BLVD", "postcode": "95798"}}},
{"geometry": {"type": "Point", "coordinates": [-121.571772133, 38.5713177728]}, "type": "Feature", "properties": {"collection_times": [{"days": "Mon-Fri", "time": "5:00pm"}, {"days": "Sat-Sun", "time": "Closed"}], "id": "9579800005", "name": "USPS COLLECTION BOX - PO LOBBY", "address": {"city": "WEST SACRAMENTO", "state": "CA", "street": "3775 INDUSTRIAL BLVD", "postcode": "95798"}}},
{"geometry": {"type": "Point", "coordinates": [-121.571772133, 38.5713177728]}, "type": "Feature", "properties": {"collection_times": [{"days": "Mon-Fri", "time": "5:00pm"}, {"days": "Sat-Sun", "time": "Closed"}], "id": "9579800006", "name": "USPS COLLECTION BOX - PO LOBBY", "address": {"city": "WEST SACRAMENTO", "state": "CA", "street": "3775 INDUSTRIAL BLVD", "postcode": "95798"}}}
]}
