{"type": "FeatureCollection", "features": [
{"geometry": {"type": "Point", "coordinates": [-121.4977461098, 38.5738670494]}, "type": "Feature", "properties": {"collection_times": [{"days": "Mon-Fri", "time": "1:55pm"}, {"days": "Sat", "time": "10:30am"}, {"days": "Sun", "time": "Closed"}], "id": "9581400020", "name": "USPS COLLECTION BOX - BLUE BOX", "address": {"city": "SACRAMENTO", "state": "CA", "street": "1600 9TH ST", "postcode": "95814"}}},
{"geometry": {"type": "Point", "coordinates": [-121.4919496109, 38.580393434]}, "type": "Feature", "properties": {"collection_times": [{"days": "Mon-Fri", "time": "1:00pm"}, {"days": "Sat-Sun", "time": "Closed"}], "id": "9581400029", "name": "USPS COLLECTION BOX - BLUE BOX", "address": {"city": "SACRAMENTO", "state": "CA", "street": "915 11TH ST", "postcode": "95814"}}},
{"geometry": {"type": "Point", "coordinates": [-121.480476924, 38.5717251006]}, "type": "Feature", "properties": {"collection_times": [{"days": "Mon-Fri", "time": "3:00pm"}, {"days": "Sat", "time": "10:30am"}, {"days": "Sun", "time": "Closed"}], "id": "9581400041", "name": "USPS COLLECTION BOX - BLUE BOX", "address": {"city": "SACRAMENTO", "state": "CA", "street": "1405 21ST ST", "postcode": "95814"}}},
{"geometry": {"type": "Point", "coordinates": [-121.4917507337, 38.5773352694]}, "type": "Feature", "properties": {"collection_times": [{"days": "Mon-Fri", "time": "4:30pm"}, {"days": "Sat-Sun", "time": "Closed"}], "id": "9581400055", "name": "USPS COLLECTION BOX - BLUE BOX", "address": {"city": "SACRAMENTO", "state": "CA", "street": "1200 L ST", "postcode": "95814"}}},
{"geometry": {"type": "Point", "coordinates": [-121.5035414258, 38.5791868158]}, "type": "Feature", "properties": {"collection_times": [{"days": "Mon-Fri", "time": "4:20pm"}, {"days": "Sat-Sun", "time": "Closed"}], "id": "9581400064", "name": "USPS COLLECTION BOX - BLUE BOX", "address": {"city": "SACRAMENTO", "state": "CA", "street": "300 CAPITOL MALL", "postcode": "95814"}}},
{"geometry": {"type": "Point", "coordinates": [-121.5008123395, 38.5786734116]}, "type": "Feature", "properties": {"collection_times": [{"days": "Mon-Fri", "time": "4:45pm"}, {"days": "Sat", "time": "10:30am"}, {"days": "Sun", "time": "Closed"}], "id": "9581400070", "name": "USPS COLLECTION BOX - BLUE BOX", "address": {"city": "SACRAMENTO", "state": "CA", "street": "555 CAPITOL MALL", "postcode": "95814"}}},
{"geometry": {"type": "Point", "coordinates": [-121.4995970453, 38.5780466569]}, "type": "Feature", "properties": {"collection_times": [{"days": "Mon-Fri", "time": "3:15pm"}, {"days": "Sat-Sun", "time": "Closed"}], "id": "9581400073", "name": "USPS COLLECTION BOX - BLUE BOX", "address": {"city": "SACRAMENTO", "state": "CA", "street": "650 CAPITOL MALL", "postcode": "95814"}}},
{"geometry": {"type": "Point", "coordinates": [-121.4995970453, 38.5780466569]}, "type": "Feature", "properties": {"collection_times": [{"days": "Mon-Fri", "time": "3:15pm"}, {"days": "Sat-Sun", "time": "Closed"}], "id": "9581400074", "name": "USPS COLLECTION BOX - BLUE BOX", "address": {"city": "SACRAMENTO", "state": "CA", "street": "650 CAPITOL MALL", "postcode": "95814"}}},
{"geometry": {"type": "Point", "coordinates": [-121.4928115997, 38.5850530418]}, "type": "Feature", "properties": {"collection_times": [{"days": "Mon-Fri", "time": "3:00pm"}, {"days": "Sat-Sun", "time": "Closed"}], "id": "9581400098", "name": "USPS COLLECTION BOX - BLUE BOX", "address": {"city": "SACRAMENTO", "state": "CA", "street": "601 9TH ST", "postcode": "95814"}}},
{"geometry": {"type": "Point", "coordinates": [-121.4916798963, 38.5835282752]}, "type": "Feature", "properties": {"collection_times": [{"days": "Mon-Fri", "time": "3:55pm"}, {"days": "Sat", "time": "10:30am"}, {"days": "Sun", "time": "Closed"}], "id": "9581400104", "name": "USPS COLLECTION BOX - BLUE BOX", "address": {"city": "SACRAMENTO", "state": "CA", "street": "1001 G ST", "postcode": "95814"}}},
{"geometry": {"type": "Point", "coordinates": [-121.4937641097, 38.5828664021]}, "type": "Feature", "properties": {"collection_times": [{"days": "Mon-Fri", "time": "1:00pm"}, {"days": "Sat-Sun", "time": "Closed"}], "id": "9581400111", "name": "USPS COLLECTION BOX - BLUE BOX", "address": {"city": "SACRAMENTO", "state": "CA", "street": "799 9TH ST", "postcode": "95814"}}},
{"geometry": {"type": "Point", "coordinates": [-121.4899066454, 38.581734747]}, "type": "Feature", "properties": {"collection_times": [{"days": "Mon-Fri", "time": "3:50pm"}, {"days": "Sat-Sun", "time": "Closed"}], "id": "9581400114", "name": "USPS COLLECTION BOX - BLUE BOX", "address": {"city": "SACRAMENTO", "state": "CA", "street": "1200 H ST", "postcode": "95814"}}},
{"geometry": {"type": "Point", "coordinates": [-121.4807474351, 38.5782352988]}, "type": "Feature", "properties": {"collection_times": [{"days": "Mon-Fri", "time": "4:00pm"}, {"days": "Sat-Sun", "time": "Closed"}], "id": "9581400126", "name": "USPS COLLECTION BOX - BLUE BOX", "address": {"city": "SACRAMENTO", "state": "CA", "street": "1899 I ST", "postcode": "95814"}}},
{"geometry": {"type": "Point", "coordinates": [-121.4935676964, 38.5798419484]}, "type": "Feature", "properties": {"collection_times": [{"days": "Mon-Fri", "time": "4:45pm"}, {"days": "Sat", "time": "2:00pm"}, {"days": "Sun", "time": "Closed"}], "id": "9581400131", "name": "USPS COLLECTION BOX - BLUE BOX", "address": {"city": "SACRAMENTO", "state": "CA", "street": "801 I ST", "postcode": "95814"}}},
{"geometry": {"type": "Point", "coordinates": [-121.4935676964, 38.5798419484]}, "type": "Feature", "properties": {"collection_times": [{"days": "Mon-Fri", "time": "4:45pm"}, {"days": "Sat", "time": "2:00pm"}, {"days": "Sun", "time": "Closed"}], "id": "9581400132", "name": "USPS COLLECTION BOX - BLUE BOX", "address": {"city": "SACRAMENTO", "state": "CA", "street": "801 I ST", "postcode": "95814"}}},
{"geometry": {"type": "Point", "coordinates": [-121.4935676964, 38.5798419484]}, "type": "Feature", "properties": {"collection_times": [{"days": "Mon-Fri", "time": "4:45pm"}, {"days": "Sat", "time": "2:00pm"}, {"days": "Sun", "time": "Closed"}], "id": "9581400133", "name": "USPS COLLECTION BOX - EXPRESS", "address": {"city": "SACRAMENTO", "state": "CA", "street": "801 I ST", "postcode": "95814"}}},
{"geometry": {"type": "Point", "coordinates": [-121.4910221711, 38.5808689835]}, "type": "Feature", "properties": {"collection_times": [{"days": "Mon-Fri", "time": "4:00pm"}, {"days": "Sat-Sun", "time": "Closed"}], "id": "9581400136", "name": "USPS COLLECTION BOX - BLUE BOX", "address": {"city": "SACRAMENTO", "state": "CA", "street": "1112 I ST", "postcode": "95814"}}},
{"geometry": {"type": "Point", "coordinates": [-121.4891431137, 38.5791712194]}, "type": "Feature", "properties": {"collection_times": [{"days": "Mon-Fri", "time": "4:00pm"}, {"days": "Sat-Sun", "time": "Closed"}], "id": "9581400143", "name": "USPS COLLECTION BOX - BLUE BOX", "address": {"city": "SACRAMENTO", "state": "CA", "street": "999 13TH ST", "postcode": "95814"}}},
{"geometry": {"type": "Point", "coordinates": [-121.4834993901, 38.5775872231]}, "type": "Feature", "properties": {"collection_times": [{"days": "Mon-Fri", "time": "3:20pm"}, {"days": "Sat-Sun", "time": "Closed"}], "id": "9581400144", "name": "USPS COLLECTION BOX - BLUE BOX", "address": {"city": "SACRAMENTO", "state": "CA", "street": "1730 J ST", "postcode": "95814"}}},
{"geometry": {"type": "Point", "coordinates": [-121.4798631424, 38.5766257577]}, "type": "Feature", "properties": {"collection_times": [{"days": "Mon-Fri", "time": "3:30pm"}, {"days": "Sat-Sun", "time": "Closed"}], "id": "9581400145", "name": "USPS COLLECTION BOX - BLUE BOX", "address": {"city": "SACRAMENTO", "state": "CA", "street": "2000 J ST", "postcode": "95814"}}},
{"geometry": {"type": "Point", "coordinates": [-121.4994460219, 38.5819088044]}, "type": "Feature", "properties": {"collection_times": [{"days": "Mon-Fri", "time": "4:25pm"}, {"days": "Sat", "time": "10:30am"}, {"days": "Sun", "time": "Closed"}], "id": "9581400146", "name": "USPS COLLECTION BOX - BLUE BOX", "address": {"city": "SACRAMENTO", "state": "CA", "street": "501 J ST", "postcode": "95814"}}},
{"geometry": {"type": "Point", "coordinates": [-121.4983371369, 38.5815443745]}, "type": "Feature", "properties": {"collection_times": [{"days": "Mon-Fri", "time": "4:20pm"}, {"days": "Sat", "time": "10:30am"}, {"days": "Sun", "time": "Closed"}], "id": "9581400153", "name": "USPS COLLECTION BOX - BLUE BOX", "address": {"city": "SACRAMENTO", "state": "CA", "street": "630 J ST", "postcode": "95814"}}},
{"geometry": {"type": "Point", "coordinates": [-121.4860272108, 38.5783141496]}, "type": "Feature", "properties": {"collection_times": [{"days": "Mon-Fri", "time": "11:30am"}, {"days": "Sat-Sun", "time": "Closed"}], "id": "9581400169", "name": "USPS COLLECTION BOX - BLUE BOX", "address": {"city": "SACRAMENTO", "state": "CA", "street": "1510 J ST", "postcode": "95814"}}},
{"geometry": {"type": "Point", "coordinates": [-121.4853416021, 38.5769131687]}, "type": "Feature", "properties": {"collection_times": [{"days": "Mon-Fri", "time": "11:00am"}, {"days": "Sat-Sun", "time": "Closed"}], "id": "9581400173", "name": "USPS COLLECTION BOX - BLUE BOX", "address": {"city": "SACRAMENTO", "state": "CA", "street": "1600 K ST", "postcode": "95814"}}},
{"geometry": {"type": "Point", "coordinates": [-121.4789763047, 38.5752380049]}, "type": "Feature", "properties": {"collection_times": [{"days": "Mon-Fri", "time": "1:30pm"}, {"days": "Sat", "time": "11:00am"}, {"days": "Sun", "time": "Closed"}], "id": "9581400177", "name": "USPS COLLECTION BOX - BLUE BOX", "address": {"city": "SACRAMENTO", "state": "CA", "street": "1099 21ST ST", "postcode": "95814"}}},
{"geometry": {"type": "Point", "coordinates": [-121.4878482922, 38.5775649791]}, "type": "Feature", "properties": {"collection_times": [{"days": "Mon-Fri", "time": "10:30am"}, {"days": "Sat-Sun", "time": "Closed"}], "id": "9581400188", "name": "USPS COLLECTION BOX - BLUE BOX", "address": {"city": "SACRAMENTO", "state": "CA", "street": "1414 K ST", "postcode": "95814"}}},
{"geometry": {"type": "Point", "coordinates": [-121.4956340781, 38.5784863154]}, "type": "Feature", "properties": {"collection_times": [{"days": "Mon-Fri", "time": "11:00am"}, {"days": "Sat-Sun", "time": "Closed"}], "id": "9581400201", "name": "USPS COLLECTION BOX - BLUE BOX", "address": {"city": "SACRAMENTO", "state": "CA", "street": "901 L ST", "postcode": "95814"}}},
{"geometry": {"type": "Point", "coordinates": [-121.4929897356, 38.5777817519]}, "type": "Feature", "properties": {"collection_times": [{"days": "Mon-Fri", "time": "10:30am"}, {"days": "Sat-Sun", "time": "Closed"}], "id": "9581400205", "name": "USPS COLLECTION BOX - BLUE BOX", "address": {"city": "SACRAMENTO", "state": "CA", "street": "1101 L ST", "postcode": "95814"}}},
{"geometry": {"type": "Point", "coordinates": [-121.487623216, 38.5763397114]}, "type": "Feature", "properties": {"collection_times": [{"days": "Mon-Fri", "time": "1:00pm"}, {"days": "Sat", "time": "10:30am"}, {"days": "Sun", "time": "Closed"}], "id": "9581400210", "name": "USPS COLLECTION BOX - BLUE BOX", "address": {"city": "SACRAMENTO", "state": "CA", "street": "1499 L ST", "postcode": "95814"}}},
{"geometry": {"type": "Point", "coordinates": [-121.4947768828, 38.5781966792]}, "type": "Feature", "properties": {"collection_times": [{"days": "Mon-Fri", "time": "11:00am"}, {"days": "Sat-Sun", "time": "Closed"}], "id": "9581400222", "name": "USPS COLLECTION BOX - BLUE BOX", "address": {"city": "SACRAMENTO", "state": "CA", "street": "925 L ST", "postcode": "95814"}}},
{"geometry": {"type": "Point", "coordinates": [-121.5034053009, 38.5780615077]}, "type": "Feature", "properties": {"collection_times": [{"days": "Mon-Fri", "time": "12:20pm"}, {"days": "Sat-Sun", "time": "Closed"}], "id": "9581400226", "name": "USPS COLLECTION BOX - BLUE BOX", "address": {"city": "SACRAMENTO", "state": "CA", "street": "399 N ST", "postcode": "95814"}}},
{"geometry": {"type": "Point", "coordinates": [-121.4953995405, 38.5758168085]}, "type": "Feature", "properties": {"collection_times": [{"days": "Mon-Fri", "time": "3:00pm"}, {"days": "Sat", "time": "10:30am"}, {"days": "Sun", "time": "Closed"}], "id": "9581400228", "name": "USPS COLLECTION BOX - BLUE BOX", "address": {"city": "SACRAMENTO", "state": "CA", "street": "1000 N ST", "postcode": "95814"}}},
{"geometry": {"type": "Point", "coordinates": [-121.4937654529, 38.5754309211]}, "type": "Feature", "properties": {"collection_times": [{"days": "Mon-Fri", "time": "10:30am"}, {"days": "Sat-Sun", "time": "Closed"}], "id": "9581400230", "name": "USPS COLLECTION BOX - BLUE BOX", "address": {"city": "SACRAMENTO", "state": "CA", "street": "1100 N ST", "postcode": "95814"}}},
{"geometry": {"type": "Point", "coordinates": [-121.4907536394, 38.5745744588]}, "type": "Feature", "properties": {"collection_times": [{"days": "Mon-Fri", "time": "1:45pm"}, {"days": "Sat", "time": "10:30am"}, {"days": "Sun", "time": "Closed"}], "id": "9581400231", "name": "USPS COLLECTION BOX - BLUE BOX", "address": {"city": "SACRAMENTO", "state": "CA", "street": "1300 N ST", "postcode": "95814"}}},
{"geometry": {"type": "Point", "coordinates": [-121.4935676964, 38.5798419484]}, "type": "Feature", "properties": {"collection_times": [{"days": "Mon-Fri", "time": "1:35pm"}, {"days": "Sat-Sun", "time": "Closed"}], "id": "9581400238", "name": "USPS COLLECTION BOX - BLUE BOX", "address": {"city": "SACRAMENTO", "state": "CA", "street": "450 N ST", "postcode": "95814"}}},
{"geometry": {"type": "Point", "coordinates": [-121.4987023384, 38.5767165678]}, "type": "Feature", "properties": {"collection_times": [{"days": "Mon-Fri", "time": "12:00pm"}, {"days": "Sat", "time": "10:30am"}, {"days": "Sun", "time": "Closed"}], "id": "9581400240", "name": "USPS COLLECTION BOX - BLUE BOX", "address": {"city": "SACRAMENTO", "state": "CA", "street": "750 N ST", "postcode": "95814"}}},
{"geometry": {"type": "Point", "coordinates": [-121.4911578434, 38.5735997602]}, "type": "Feature", "properties": {"collection_times": [{"days": "Mon-Fri", "time": "11:30am"}, {"days": "Sat-Sun", "time": "Closed"}], "id": "9581400252", "name": "USPS COLLECTION BOX - BLUE BOX", "address": {"city": "SACRAMENTO", "state": "CA", "street": "1329 O ST", "postcode": "95814"}}},
{"geometry": {"type": "Point", "coordinates": [-121.4875491843, 38.5726219629]}, "type": "Feature", "properties": {"collection_times": [{"days": "Mon-Fri", "time": "2:00pm"}, {"days": "Sat-Sun", "time": "Closed"}], "id": "9581400254", "name": "USPS COLLECTION BOX - BLUE BOX", "address": {"city": "SACRAMENTO", "state": "CA", "street": "1601 O ST", "postcode": "95814"}}},
{"geometry": {"type": "Point", "coordinates": [-121.4822417618, 38.5711949251]}, "type": "Feature", "properties": {"collection_times": [{"days": "Mon-Fri", "time": "11:30am"}, {"days": "Sat-Sun", "time": "Closed"}], "id": "9581400255", "name": "USPS COLLECTION BOX - BLUE BOX", "address": {"city": "SACRAMENTO", "state": "CA", "street": "2001 O ST", "postcode": "95814"}}},
{"geometry": {"type": "Point", "coordinates": [-121.5070820043, 38.5729435877]}, "type": "Feature", "properties": {"collection_times": [{"days": "Mon-Fri", "time": "4:10pm"}, {"days": "Sat-Sun", "time": "Closed"}], "id": "9581400281", "name": "USPS COLLECTION BOX - BLUE BOX", "address": {"city": "SACRAMENTO", "state": "CA", "street": "297 S ST", "postcode": "95814"}}},
{"geometry": {"type": "Point", "coordinates": [-121.492660293, 38.5678680676]}, "type": "Feature", "properties": {"collection_times": [{"days": "Mon-Fri", "time": "1:00pm"}, {"days": "Sat-Sun", "time": "Closed"}], "id": "9581400297", "name": "USPS COLLECTION BOX - BLUE BOX", "address": {"city": "SACRAMENTO", "state": "CA", "street": "1399 T ST", "postcode": "95814"}}},
{"geometry": {"type": "Point", "coordinates": [-121.4859206006, 38.5660047674]}, "type": "Feature", "properties": {"collection_times": [{"days": "Mon-Fri", "time": "2:45pm"}, {"days": "Sat", "time": "10:30am"}, {"days": "Sun", "time": "Closed"}], "id": "9581400313", "name": "USPS COLLECTION BOX - BLUE BOX", "address": {"city": "SACRAMENTO", "state": "CA", "street": "2001 19TH ST", "postcode": "95814"}}},
{"geometry": {"type": "Point", "coordinates": [-121.5040106791, 38.583248843]}, "type": "Feature", "properties": {"collection_times": [{"days": "Mon-Fri", "time": "4:00pm"}, {"days": "Sat", "time": "10:30am"}, {"days": "Sun", "time": "Closed"}], "id": "9581400348", "name": "USPS COLLECTION BOX - BLUE BOX", "address": {"city": "SACRAMENTO", "state": "CA", "street": "991 2ND ST", "postcode": "95814"}}},
{"geometry": {"type": "Point", "coordinates": [-121.4955726865, 38.5821389861]}, "type": "Feature", "properties": {"collection_times": [{"days": "Mon-Fri", "time": "5:30pm"}, {"days": "Sat", "time": "2:00pm"}, {"days": "Sun", "time": "Closed"}], "id": "9581400354", "name": "USPS COLLECTION BOX - PO LOBBY", "address": {"city": "SACRAMENTO", "state": "CA", "street": "660 J ST STE 170", "postcode": "95814"}}},
{"geometry": {"type": "Point", "coordinates": [-121.5052280789, 38.5821920185]}, "type": "Feature", "properties": {"collection_times": [{"days": "Mon-Fri", "time": "4:00pm"}, {"days": "Sat-Sun", "time": "Closed"}], "id": "9581400357", "name": "USPS COLLECTION BOX - BLUE BOX", "address": {"city": "SACRAMENTO", "state": "CA", "street": "118 K ST", "postcode": "95814"}}},
{"geometry": {"type": "Point", "coordinates": [-121.4995573324, 38.5832078205]}, "type": "Feature", "properties": {"collection_times": [{"days": "Mon-Fri", "time": "4:40pm"}, {"days": "Sat-Sun", "time": "Closed"}], "id": "9581400371", "name": "USPS COLLECTION BOX - BLUE BOX", "address": {"city": "SACRAMENTO", "state": "CA", "street": "501 I ST", "postcode": "95814"}}},
{"geometry": {"type": "Point", "coordinates": [-121.4971676429, 38.5717412721]}, "type": "Feature", "properties": {"collection_times": [{"days": "Mon-Fri", "time": "12:30pm"}, {"days": "Sat-Sun", "time": "Closed"}], "id": "9581400394", "name": "USPS COLLECTION BOX - BLUE BOX", "address": {"city": "SACRAMENTO", "state": "CA", "street": "1724 10TH ST", "postcode": "95814"}}},
{"geometry": {"type": "Point", "coordinates": [-121.4855983042, 38.5732803017]}, "type": "Feature", "properties": {"collection_times": [{"days": "Mon-Fri", "time": "2:00pm"}, {"days": "Sat-Sun", "time": "Closed"}], "id": "9581400398", "name": "USPS COLLECTION BOX - BLUE BOX", "address": {"city": "SACRAMENTO", "state": "CA", "street": "1700 N ST", "postcode": "95814"}}},
{"geometry": {"type": "Point", "coordinates": [-121.4839126411, 38.5741094869]}, "type": "Feature", "properties": {"collection_times": [{"days": "Mon-Fri", "time": "12:30pm"}, {"days": "Sat-Sun", "time": "Closed"}], "id": "9581400400", "name": "USPS COLLECTION BOX - BLUE BOX", "address": {"city": "SACRAMENTO", "state": "CA", "street": "1299 18TH ST", "postcode": "95814"}}},
{"geometry": {"type": "Point", "coordinates": [-121.5010347358, 38.5997844973]}, "type": "Feature", "properties": {"collection_times": [{"days": "Mon-Fri", "time": "4:40pm"}, {"days": "Sat-Sun", "time": "Closed"}], "id": "9581400402", "name": "USPS COLLECTION BOX - BLUE BOX", "address": {"city": "SACRAMENTO", "state": "CA", "street": "530 BERCUT DR", "postcode": "95814"}}},
{"geometry": {"type": "Point", "coordinates": [-121.4860328071, 38.5796034445]}, "type": "Feature", "properties": {"collection_times": [{"days": "Mon-Fri", "time": "2:50pm"}, {"days": "Sat", "time": "10:30am"}, {"days": "Sun", "time": "Closed"}], "id": "9581400410", "name": "USPS COLLECTION BOX - BLUE BOX", "address": {"city": "SACRAMENTO", "state": "CA", "street": "1501 I ST", "postcode": "95814"}}},
{"geometry": {"type": "Point", "coordinates": [-121.4949908835, 38.5803988461]}, "type": "Feature", "properties": {"collection_times": [{"days": "Mon-Fri", "time": "4:05pm"}, {"days": "Sat-Sun", "time": "Closed"}], "id": "9581400432", "name": "USPS COLLECTION BOX - BLUE BOX", "address": {"city": "SACRAMENTO", "state": "CA", "street": "1024 9 TH ST", "postcode": "95814"}}},
{"geometry": {"type": "Point", "coordinates": [-121.5016207816, 38.5996497873]}, "type": "Feature", "properties": {"collection_times": [{"days": "Mon-Fri", "time": "4:40pm"}, {"days": "Sat-Sun", "time": "Closed"}], "id": "9581400441", "name": "USPS COLLECTION BOX - BLUE BOX", "address": {"city": "SACRAMENTO", "state": "CA", "street": "530 BERCUT", "postcode": "95814"}}},
{"geometry": {"type": "Point", "coordinates": [-121.4935484534, 38.5693059425]}, "type": "Feature", "properties": {"collection_times": [{"days": "Mon-Fri", "time": "2:10pm"}, {"days": "Sat-Sun", "time": "Closed"}], "id": "9581400444", "name": "USPS COLLECTION BOX - BLUE BOX", "address": {"city": "SACRAMENTO", "state": "CA", "street": "1898 13TH ST", "postcode": "95814"}}},
{"geometry": {"type": "Point", "coordinates": [-121.4935676964, 38.5798419484]}, "type": "Feature", "properties": {"collection_times": [{"days": "Mon-Fri", "time": "3:00pm"}, {"days": "Sat-Sun", "time": "Closed"}], "id": "9581400445", "name": "USPS COLLECTION BOX - BLUE BOX", "address": {"city": "SACRAMENTO", "state": "CA", "street": "801 I ST", "postcode": "95814"}}},
{"geometry": {"type": "Point", "coordinates": [-121.4935676964, 38.5798419484]}, "type": "Feature", "properties": {"collection_times": [{"days": "Mon-Fri", "time": "3:00pm"}, {"days": "Sat-Sun", "time": "Closed"}], "id": "9581400446", "name": "USPS COLLECTION BOX - BLUE BOX", "address": {"city": "SACRAMENTO", "state": "CA", "street": "801 I ST", "postcode": "95814"}}},
{"geometry": {"type": "Point", "coordinates": [-121.4591923938, 38.5958088976]}, "type": "Feature", "properties": {"collection_times": [{"days": "Mon-Fri", "time": "4:10pm"}, {"days": "Sat-Sun", "time": "Closed"}], "id": "9581500035", "name": "USPS COLLECTION BOX - BLUE BOX", "address": {"city": "SACRAMENTO", "state": "CA", "street": "240 LATHROP WAY", "postcode": "95815"}}},
{"geometry": {"type": "Point", "coordinates": [-121.4309315941, 38.5986712492]}, "type": "Feature", "properties": {"collection_times": [{"days": "Mon-Fri", "time": "4:00pm"}, {"days": "Sat", "time": "11:10am"}, {"days": "Sun", "time": "Closed"}], "id": "9581500040", "name": "USPS COLLECTION BOX - BLUE BOX", "address": {"city": "SACRAMENTO", "state": "CA", "street": "1591 RESPONSE RD", "postcode": "95815"}}},
{"geometry": {"type": "Point", "coordinates": [-121.4351226282, 38.5996070535]}, "type": "Feature", "properties": {"collection_times": [{"days": "Mon-Fri", "time": "3:40pm"}, {"days": "Sat-Sun", "time": "Closed"}], "id": "9581500053", "name": "USPS COLLECTION BOX - BLUE BOX", "address": {"city": "SACRAMENTO", "state": "CA", "street": "1540 RIVER PARK DR", "postcode": "95815"}}},
{"geometry": {"type": "Point", "coordinates": [-121.44913459, 38.603130681]}, "type": "Feature", "properties": {"collection_times": [{"days": "Mon-Fri", "time": "6:00pm"}, {"days": "Sat", "time": "4:30pm"}, {"days": "Sun", "time": "Closed"}], "id": "9581500061", "name": "USPS COLLECTION BOX - BLUE BOX", "address": {"city": "SACRAMENTO", "state": "CA", "street": "2000 ROYAL OAKS DR", "postcode": "95815"}}},
{"geometry": {"type": "Point", "coordinates": [-121.44913459, 38.603130681]}, "type": "Feature", "properties": {"collection_times": [{"days": "Mon-Fri", "time": "6:00pm"}, {"days": "Sat", "time": "4:30pm"}, {"days": "Sun", "time": "Closed"}], "id": "9581500062", "name": "USPS COLLECTION BOX - BLUE BOX", "address": {"city": "SACRAMENTO", "state": "CA", "street": "2000 ROYAL OAKS DR", "postcode": "95815"}}},
{"geometry": {"type": "Point", "coordinates": [-121.44913459, 38.603130681]}, "type": "Feature", "properties": {"collection_times": [{"days": "Mon-Fri", "time": "6:00pm"}, {"days": "Sat", "time": "4:30pm"}, {"days": "Sun", "time": "Closed"}], "id": "9581500063", "name": "USPS COLLECTION BOX - BLUE BOX", "address": {"city": "SACRAMENTO", "state": "CA", "street": "2000 ROYAL OAKS DR", "postcode": "95815"}}},
{"geometry": {"type": "Point", "coordinates": [-121.4475604476, 38.5955858366]}, "type": "Feature", "properties": {"collection_times": [{"days": "Mon-Fri", "time": "10:30am"}, {"days": "Sat-Sun", "time": "Closed"}], "id": "9581500071", "name": "USPS COLLECTION BOX - BLUE BOX", "address": {"city": "SACRAMENTO", "state": "CA", "street": "1771 TRIBUTE RD", "postcode": "95815"}}},
{"geometry": {"type": "Point", "coordinates": [-121.4465977938, 38.5981823198]}, "type": "Feature", "properties": {"collection_times": [{"days": "Mon-Fri", "time": "2:00pm"}, {"days": "Sat-Sun", "time": "Closed"}], "id": "9581500074", "name": "USPS COLLECTION BOX - BLUE BOX", "address": {"city": "SACRAMENTO", "state": "CA", "street": "1816 TRIBUTE RD", "postcode": "95815"}}},
{"geometry": {"type": "Point", "coordinates": [-121.4397645591, 38.597431592]}, "type": "Feature", "properties": {"collection_times": [{"days": "Mon-Fri", "time": "3:55pm"}, {"days": "Sat-Sun", "time": "Closed"}], "id": "9581500084", "name": "USPS COLLECTION BOX - BLUE BOX", "address": {"city": "SACRAMENTO", "state": "CA", "street": "1425 RIVER PARK DR", "postcode": "95815"}}},
{"geometry": {"type": "Point", "coordinates": [-121.44913459, 38.603130681]}, "type": "Feature", "properties": {"collection_times": [{"days": "Mon-Fri", "time": "6:00pm"}, {"days": "Sat", "time": "4:00pm"}, {"days": "Sun", "time": "Closed"}], "id": "9581500088", "name": "USPS COLLECTION BOX - PO LOBBY", "address": {"city": "SACRAMENTO", "state": "CA", "street": "2000 ROYAL OAKS DR", "postcode": "95815"}}},
{"geometry": {"type": "Point", "coordinates": [-121.44913459, 38.603130681]}, "type": "Feature", "properties": {"collection_times": [{"days": "Mon-Fri", "time": "6:00pm"}, {"days": "Sat", "time": "4:00pm"}, {"days": "Sun", "time": "Closed"}], "id": "9581500090", "name": "USPS COLLECTION BOX - PO LOBBY", "address": {"city": "SACRAMENTO", "state": "CA", "street": "2000 ROYAL OAKS DR", "postcode": "95815"}}},
{"geometry": {"type": "Point", "coordinates": [-121.44913459, 38.603130681]}, "type": "Feature", "properties": {"collection_times": [{"days": "Mon-Fri", "time": "6:00pm"}, {"days": "Sat", "time": "4:00pm"}, {"days": "Sun", "time": "Closed"}], "id": "9581500115", "name": "USPS COLLECTION BOX - APC", "address": {"city": "SACRAMENTO", "state": "CA", "street": "2000 ROYAL OAKS DR", "postcode": "95815"}}},
{"geometry": {"type": "Point", "coordinates": [-121.4397645591, 38.597431592]}, "type": "Feature", "properties": {"collection_times": [{"days": "Mon-Fri", "time": "3:55pm"}, {"days": "Sat-Sun", "time": "Closed"}], "id": "9581500120", "name": "USPS COLLECTION BOX - BLUE BOX", "address": {"city": "SACRAMENTO", "state": "CA", "street": "1425 RIVER PARK DR", "postcode": "95815"}}},
{"geometry": {"type": "Point", "coordinates": [-121.4510612045, 38.6100858539]}, "type": "Feature", "properties": {"collection_times": [{"days": "Mon-Sat", "time": "11:00am"}, {"days": "Sun", "time": "Closed"}], "id": "9581500127", "name": "USPS COLLECTION BOX - BLUE BOX", "address": {"city": "SACRAMENTO", "state": "CA", "street": "2125 DEL PASO BLVD", "postcode": "95815"}}},
{"geometry": {"type": "Point", "coordinates": [-121.4701177017, 38.5717124431]}, "type": "Feature", "properties": {"collection_times": [{"days": "Mon-Fri", "time": "2:40pm"}, {"days": "Sat-Sun", "time": "Closed"}], "id": "9581600009", "name": "USPS COLLECTION BOX - BLUE BOX", "address": {"city": "SACRAMENTO", "state": "CA", "street": "3051 L ST", "postcode": "95816"}}},
{"geometry": {"type": "Point", "coordinates": [-121.4701177017, 38.5717124431]}, "type": "Feature", "properties": {"collection_times": [{"days": "Mon-Fri", "time": "3:30pm"}, {"days": "Sat-Sun", "time": "Closed"}], "id": "9581600013", "name": "USPS COLLECTION BOX - BLUE BOX", "address": {"city": "SACRAMENTO", "state": "CA", "street": "1201 ALHAMBRA BLVD", "postcode": "95816"}}},
{"geometry": {"type": "Point", "coordinates": [-121.4729938765, 38.5711462438]}, "type": "Feature", "properties": {"collection_times": [{"days": "Mon-Fri", "time": "2:45pm"}, {"days": "Sat", "time": "1:15pm"}, {"days": "Sun", "time": "Closed"}], "id": "9581600020", "name": "USPS COLLECTION BOX - BLUE BOX", "address": {"city": "SACRAMENTO", "state": "CA", "street": "2600 CAPITOL AVE", "postcode": "95816"}}},
{"geometry": {"type": "Point", "coordinates": [-121.4789559896, 38.5727349576]}, "type": "Feature", "properties": {"collection_times": [{"days": "Mon-Fri", "time": "3:10pm"}, {"days": "Sat-Sun", "time": "Closed"}], "id": "9581600023", "name": "USPS COLLECTION BOX - BLUE BOX", "address": {"city": "SACRAMENTO", "state": "CA", "street": "2131 CAPITOL AVE", "postcode": "95816"}}},
{"geometry": {"type": "Point", "coordinates": [-121.4656261132, 38.57894894]}, "type": "Feature", "properties": {"collection_times": [{"days": "Mon-Fri", "time": "2:00pm"}, {"days": "Sat", "time": "1:00pm"}, {"days": "Sun", "time": "Closed"}], "id": "9581600025", "name": "USPS COLLECTION BOX - BLUE BOX", "address": {"city": "SACRAMENTO", "state": "CA", "street": "502 29TH ST", "postcode": "95816"}}},
{"geometry": {"type": "Point", "coordinates": [-121.4643973137, 38.5746288749]}, "type": "Feature", "properties": {"collection_times": [{"days": "Mon-Fri", "time": "10:45am"}, {"days": "Sat-Sun", "time": "Closed"}], "id": "9581600035", "name": "USPS COLLECTION BOX - BLUE BOX", "address": {"city": "SACRAMENTO", "state": "CA", "street": "800 ALHAMBRA BLVD", "postcode": "95816"}}},
{"geometry": {"type": "Point", "coordinates": [-121.4767935407, 38.5758556034]}, "type": "Feature", "properties": {"collection_times": [{"days": "Mon-Fri", "time": "3:25pm"}, {"days": "Sat", "time": "10:30am"}, {"days": "Sun", "time": "Closed"}], "id": "9581600041", "name": "USPS COLLECTION BOX - BLUE BOX", "address": {"city": "SACRAMENTO", "state": "CA", "street": "2200 J ST", "postcode": "95816"}}},
{"geometry": {"type": "Point", "coordinates": [-121.475939948, 38.574372936]}, "type": "Feature", "properties": {"collection_times": [{"days": "Mon-Fri", "time": "2:25pm"}, {"days": "Sat-Sun", "time": "Closed"}], "id": "9581600056", "name": "USPS COLLECTION BOX - BLUE BOX", "address": {"city": "SACRAMENTO", "state": "CA", "street": "2330 K ST", "postcode": "95816"}}},
{"geometry": {"type": "Point", "coordinates": [-121.4730471096, 38.5736529338]}, "type": "Feature", "properties": {"collection_times": [{"days": "Mon-Fri", "time": "3:45pm"}, {"days": "Sat-Sun", "time": "Closed"}], "id": "9581600060", "name": "USPS COLLECTION BOX - BLUE BOX", "address": {"city": "SACRAMENTO", "state": "CA", "street": "2525 K ST", "postcode": "95816"}}},
{"geometry": {"type": "Point", "coordinates": [-121.4713105259, 38.5732022264]}, "type": "Feature", "properties": {"collection_times": [{"days": "Mon-Fri", "time": "3:45pm"}, {"days": "Sat-Sun", "time": "Closed"}], "id": "9581600061", "name": "USPS COLLECTION BOX - BLUE BOX", "address": {"city": "SACRAMENTO", "state": "CA", "street": "2627 K ST", "postcode": "95816"}}},
{"geometry": {"type": "Point", "coordinates": [-121.4692273351, 38.5726048322]}, "type": "Feature", "properties": {"collection_times": [{"days": "Mon-Fri", "time": "3:40pm"}, {"days": "Sat-Sun", "time": "Closed"}], "id": "9581600063", "name": "USPS COLLECTION BOX - BLUE BOX", "address": {"city": "SACRAMENTO", "state": "CA", "street": "2801 K ST", "postcode": "95816"}}},
{"geometry": {"type": "Point", "coordinates": [-121.4669087355, 38.568976697]}, "type": "Feature", "properties": {"collection_times": [{"days": "Mon-Fri", "time": "11:00am"}, {"days": "Sat-Sun", "time": "Closed"}], "id": "9581600071", "name": "USPS COLLECTION BOX - BLUE BOX", "address": {"city": "SACRAMENTO", "state": "CA", "street": "1315 ALHAMBRA BLVD", "postcode": "95816"}}},
{"geometry": {"type": "Point", "coordinates": [-121.4698570939, 38.5654634891]}, "type": "Feature", "properties": {"collection_times": [{"days": "Mon-Sat", "time": "5:00pm"}, {"days": "Sun", "time": "Closed"}], "id": "9581600076", "name": "USPS COLLECTION BOX - BLUE BOX", "address": {"city": "SACRAMENTO", "state": "CA", "street": "3001 Q ST", "postcode": "95816"}}},
{"geometry": {"type": "Point", "coordinates": [-121.4698570939, 38.5654634891]}, "type": "Feature", "properties": {"collection_times": [{"days": "Mon-Sat", "time": "5:00pm"}, {"days": "Sun", "time": "Closed"}], "id": "9581600077", "name": "USPS COLLECTION BOX - BLUE BOX", "address": {"city": "SACRAMENTO", "state": "CA", "street": "3001 Q ST", "postcode": "95816"}}},
{"geometry": {"type": "Point", "coordinates": [-121.4687882225, 38.5737813879]}, "type": "Feature", "properties": {"collection_times": [{"days": "Mon-Fri", "time": "3:10pm"}, {"days": "Sat-Sun", "time": "Closed"}], "id": "9581600087", "name": "USPS COLLECTION BOX - BLUE BOX", "address": {"city": "SACRAMENTO", "state": "CA", "street": "2831 J ST", "postcode": "95816"}}},
{"geometry": {"type": "Point", "coordinates": [-121.4636816235, 38.5772526779]}, "type": "Feature", "properties": {"collection_times": [{"days": "Mon-Fri", "time": "4:10pm"}, {"days": "Sat-Sun", "time": "Closed"}], "id": "9581600100", "name": "USPS COLLECTION BOX - BLUE BOX", "address": {"city": "SACRAMENTO", "state": "CA", "street": "3031 F ST", "postcode": "95816"}}},
{"geometry": {"type": "Point", "coordinates": [-121.4682540052, 38.5659336492]}, "type": "Feature", "properties": {"collection_times": [{"days": "Mon-Sat", "time": "5:00pm"}, {"days": "Sun", "time": "Closed"}], "id": "9581600105", "name": "USPS COLLECTION BOX - PO LOBBY", "address": {"city": "SACRAMENTO", "state": "CA", "street": "1618 ALHAMBRA BLVD", "postcode": "95816"}}},
{"geometry": {"type": "Point", "coordinates": [-121.4682540052, 38.5659336492]}, "type": "Feature", "properties": {"collection_times": [{"days": "Mon-Sat", "time": "5:00pm"}, {"days": "Sun", "time": "Closed"}], "id": "9581600106", "name": "USPS COLLECTION BOX - PO LOBBY", "address": {"city": "SACRAMENTO", "state": "CA", "street": "1618 ALHAMBRA BLVD", "postcode": "95816"}}},
{"geometry": {"type": "Point", "coordinates": [-121.4716725113, 38.5831083248]}, "type": "Feature", "properties": {"collection_times": [{"days": "Mon-Fri", "time": "2:05pm"}, {"days": "Sat-Sun", "time": "Closed"}], "id": "9581600120", "name": "USPS COLLECTION BOX - BLUE BOX", "address": {"city": "SACRAMENTO", "state": "CA", "street": "2322 C ST", "postcode": "95816"}}},
{"geometry": {"type": "Point", "coordinates": [-121.4707533522, 38.576673028]}, "type": "Feature", "properties": {"collection_times": [{"days": "Mon-Fri", "time": "2:15pm"}, {"days": "Sat-Sun", "time": "Closed"}], "id": "9581600122", "name": "USPS COLLECTION BOX - BLUE BOX", "address": {"city": "SACRAMENTO", "state": "CA", "street": "2600 H ST", "postcode": "95816"}}},
{"geometry": {"type": "Point", "coordinates": [-121.4706350563, 38.5637385547]}, "type": "Feature", "properties": {"collection_times": [{"days": "Mon-Fri", "time": "2:50pm"}, {"days": "Sat-Sun", "time": "Closed"}], "id": "9581600124", "name": "USPS COLLECTION BOX - BLUE BOX", "address": {"city": "SACRAMENTO", "state": "CA", "street": "1801 30TH ST", "postcode": "95816"}}},
{"geometry": {"type": "Point", "coordinates": [-121.4578957941, 38.5792960623]}, "type": "Feature", "properties": {"collection_times": [{"days": "Mon-Fri", "time": "1:30pm"}, {"days": "Sat-Sun", "time": "Closed"}], "id": "9581600125", "name": "USPS COLLECTION BOX - BLUE BOX", "address": {"city": "SACRAMENTO", "state": "CA", "street": "3340 C ST", "postcode": "95816"}}},
{"geometry": {"type": "Point", "coordinates": [-121.464993525, 38.5733122416]}, "type": "Feature", "properties": {"collection_times": [{"days": "Mon-Fri", "time": "10:30am"}, {"days": "Sat-Sun", "time": "Closed"}], "id": "9581600128", "name": "USPS COLLECTION BOX - BLUE BOX", "address": {"city": "SACRAMENTO", "state": "CA", "street": "930 ALHAMBRA BLVD", "postcode": "95816"}}},
{"geometry": {"type": "Point", "coordinates": [-121.4682540052, 38.5659336492]}, "type": "Feature", "properties": {"collection_times": [{"days": "Mon-Sat", "time": "5:00pm"}, {"days": "Sun", "time": "Closed"}], "id": "9581600131", "name": "USPS COLLECTION BOX - APC", "address": {"city": "SACRAMENTO", "state": "CA", "street": "1618 ALHAMBRA BLVD", "postcode": "95816"}}},
{"geometry": {"type": "Point", "coordinates": [-121.4555615942, 38.5702525353]}, "type": "Feature", "properties": {"collection_times": [{"days": "Mon-Fri", "time": "4:10pm"}, {"days": "Sat", "time": "12:45pm"}, {"days": "Sun", "time": "Closed"}], "id": "9581600133", "name": "USPS COLLECTION BOX - BLUE BOX", "address": {"city": "SACRAMENTO", "state": "CA", "street": "3855 J ST", "postcode": "95816"}}},
{"geometry": {"type": "Point", "coordinates": [-121.474382717, 38.5757364777]}, "type": "Feature", "properties": {"collection_times": [{"days": "Mon-Sat", "time": "2:20pm"}, {"days": "Sun", "time": "Closed"}], "id": "9581600137", "name": "USPS COLLECTION BOX - BLUE BOX", "address": {"city": "SACRAMENTO", "state": "CA", "street": "918 24TH ST", "postcode": "95816"}}},
{"geometry": {"type": "Point", "coordinates": [-121.4574716501, 38.5544036859]}, "type": "Feature", "properties": {"collection_times": [{"days": "Mon-Fri", "time": "2:15pm"}, {"days": "Sat-Sun", "time": "Closed"}], "id": "9581700008", "name": "USPS COLLECTION BOX - BLUE BOX", "address": {"city": "SACRAMENTO", "state": "CA", "street": "2315 STOCKTON BLVD", "postcode": "95817"}}},
{"geometry": {"type": "Point", "coordinates": [-121.4690591848, 38.5500813328]}, "type": "Feature", "properties": {"collection_times": [{"days": "Mon-Fri", "time": "5:00pm"}, {"days": "Sat", "time": "3:15pm"}, {"days": "Sun", "time": "Closed"}], "id": "9581700014", "name": "USPS COLLECTION BOX - PO LOBBY", "address": {"city": "SACRAMENTO", "state": "CA", "street": "2929 35TH ST", "postcode": "95817"}}},
{"geometry": {"type": "Point", "coordinates": [-121.4690591848, 38.5500813328]}, "type": "Feature", "properties": {"collection_times": [{"days": "Mon-Fri", "time": "5:00pm"}, {"days": "Sat", "time": "3:15pm"}, {"days": "Sun", "time": "Closed"}], "id": "9581700015", "name": "USPS COLLECTION BOX - PO LOBBY", "address": {"city": "SACRAMENTO", "state": "CA", "street": "2929 35TH ST", "postcode": "95817"}}},
{"geometry": {"type": "Point", "coordinates": [-121.4488850346, 38.5524464288]}, "type": "Feature", "properties": {"collection_times": [{"days": "Mon-Fri", "time": "2:20pm"}, {"days": "Sat-Sun", "time": "Closed"}], "id": "9581700016", "name": "USPS COLLECTION BOX - BLUE BOX", "address": {"city": "SACRAMENTO", "state": "CA", "street": "4860 Y ST", "postcode": "95817"}}},
{"geometry": {"type": "Point", "coordinates": [-121.4590466277, 38.5504001911]}, "type": "Feature", "properties": {"collection_times": [{"days": "Mon-Fri", "time": "2:00pm"}, {"days": "Sat", "time": "4:30pm"}, {"days": "Sun", "time": "Closed"}], "id": "9581700018", "name": "USPS COLLECTION BOX - BLUE BOX", "address": {"city": "SACRAMENTO", "state": "CA", "street": "2130 51ST ST", "postcode": "95817"}}},
{"geometry": {"type": "Point", "coordinates": [-121.5102878408, 38.565460943]}, "type": "Feature", "properties": {"collection_times": [{"days": "Mon-Fri", "time": "1:35pm"}, {"days": "Sat-Sun", "time": "Closed"}], "id": "9581800014", "name": "USPS COLLECTION BOX - BLUE BOX", "address": {"city": "SACRAMENTO", "state": "CA", "street": "2555 3RD ST", "postcode": "95818"}}},
{"geometry": {"type": "Point", "coordinates": [-121.4825247444, 38.5570708712]}, "type": "Feature", "properties": {"collection_times": [{"days": "Mon-Fri", "time": "3:00pm"}, {"days": "Sat-Sun", "time": "Closed"}], "id": "9581800018", "name": "USPS COLLECTION BOX - BLUE BOX", "address": {"city": "SACRAMENTO", "state": "CA", "street": "2570 24TH ST", "postcode": "95818"}}},
{"geometry": {"type": "Point", "coordinates": [-121.4847169998, 38.5596041131]}, "type": "Feature", "properties": {"collection_times": [{"days": "Mon-Fri", "time": "5:00pm"}, {"days": "Sat", "time": "4:00pm"}, {"days": "Sun", "time": "Closed"}], "id": "9581800021", "name": "USPS COLLECTION BOX - BLUE BOX", "address": {"city": "SACRAMENTO", "state": "CA", "street": "2121 BROADWAY", "postcode": "95818"}}},
{"geometry": {"type": "Point", "coordinates": [-121.4847169998, 38.5596041131]}, "type": "Feature", "properties": {"collection_times": [{"days": "Mon-Fri", "time": "5:00pm"}, {"days": "Sat", "time": "4:00pm"}, {"days": "Sun", "time": "Closed"}], "id": "9581800022", "name": "USPS COLLECTION BOX - BLUE BOX", "address": {"city": "SACRAMENTO", "state": "CA", "street": "2121 BROADWAY", "postcode": "95818"}}},
{"geometry": {"type": "Point", "coordinates": [-121.4960035642, 38.5525572424]}, "type": "Feature", "properties": {"collection_times": [{"days": "Mon-Fri", "time": "1:40pm"}, {"days": "Sat", "time": "10:50am"}, {"days": "Sun", "time": "Closed"}], "id": "9581800030", "name": "USPS COLLECTION BOX - BLUE BOX", "address": {"city": "SACRAMENTO", "state": "CA", "street": "1600 VALLEJO WAY", "postcode": "95818"}}},
{"geometry": {"type": "Point", "coordinates": [-121.4847169998, 38.5596041131]}, "type": "Feature", "properties": {"collection_times": [{"days": "Mon-Fri", "time": "5:00pm"}, {"days": "Sat", "time": "10:00am"}, {"days": "Sun", "time": "Closed"}], "id": "9581800051", "name": "USPS COLLECTION BOX - PO LOBBY", "address": {"city": "SACRAMENTO", "state": "CA", "street": "2121 BROADWAY", "postcode": "95818"}}},
{"geometry": {"type": "Point", "coordinates": [-121.4847169998, 38.5596041131]}, "type": "Feature", "properties": {"collection_times": [{"days": "Mon-Fri", "time": "5:00pm"}, {"days": "Sat", "time": "10:00am"}, {"days": "Sun", "time": "Closed"}], "id": "9581800052", "name": "USPS COLLECTION BOX - PO LOBBY", "address": {"city": "SACRAMENTO", "state": "CA", "street": "2121 BROADWAY", "postcode": "95818"}}},
{"geometry": {"type": "Point", "coordinates": [-121.4911044311, 38.5436034532]}, "type": "Feature", "properties": {"collection_times": [{"days": "Mon-Fri", "time": "2:05pm"}, {"days": "Sat-Sun", "time": "Closed"}], "id": "9581800057", "name": "USPS COLLECTION BOX - BLUE BOX", "address": {"city": "SACRAMENTO", "state": "CA", "street": "2100 11TH AVE", "postcode": "95818"}}},
{"geometry": {"type": "Point", "coordinates": [-121.5059783213, 38.5500576343]}, "type": "Feature", "properties": {"collection_times": [{"days": "Mon-Fri", "time": "2:00pm"}, {"days": "Sat-Sun", "time": "Closed"}], "id": "9581800058", "name": "USPS COLLECTION BOX - BLUE BOX", "address": {"city": "SACRAMENTO", "state": "CA", "street": "3200 RIVERSIDE BLVD", "postcode": "95818"}}},
{"geometry": {"type": "Point", "coordinates": [-121.4847169998, 38.5596041131]}, "type": "Feature", "properties": {"collection_times": [{"days": "Mon-Fri", "time": "5:00pm"}, {"days": "Sat", "time": "4:00pm"}, {"days": "Sun", "time": "Closed"}], "id": "9581800059", "name": "USPS COLLECTION BOX - BLUE BOX", "address": {"city": "SACRAMENTO", "state": "CA", "street": "2121 BROADWAY", "postcode": "95818"}}},
{"geometry": {"type": "Point", "coordinates": [-121.4324126839, 38.5727300958]}, "type": "Feature", "properties": {"collection_times": [{"days": "Mon-Fri", "time": "1:55pm"}, {"days": "Sat", "time": "12:20pm"}, {"days": "Sun", "time": "Closed"}], "id": "9581900000", "name": "USPS COLLECTION BOX - BLUE BOX", "address": {"city": "SACRAMENTO", "state": "CA", "street": "5487 CARLSON DR", "postcode": "95819"}}},
{"geometry": {"type": "Point", "coordinates": [-121.4341561507, 38.5745531656]}, "type": "Feature", "properties": {"collection_times": [{"days": "Mon-Sat", "time": "10:30am"}, {"days": "Sun", "time": "Closed"}], "id": "9581900006", "name": "USPS COLLECTION BOX - BLUE BOX", "address": {"city": "SACRAMENTO", "state": "CA", "street": "5370 ELVAS AVE", "postcode": "95819"}}},
{"geometry": {"type": "Point", "coordinates": [-121.4526020298, 38.5694191237]}, "type": "Feature", "properties": {"collection_times": [{"days": "Mon-Fri", "time": "3:30pm"}, {"days": "Sat-Sun", "time": "Closed"}], "id": "9581900025", "name": "USPS COLLECTION BOX - BLUE BOX", "address": {"city": "SACRAMENTO", "state": "CA", "street": "4001 J ST", "postcode": "95819"}}},
{"geometry": {"type": "Point", "coordinates": [-121.4440397728, 38.5671135366]}, "type": "Feature", "properties": {"collection_times": [{"days": "Mon-Fri", "time": "5:00pm"}, {"days": "Sat", "time": "4:00pm"}, {"days": "Sun", "time": "Closed"}], "id": "9581900026", "name": "USPS COLLECTION BOX - BLUE BOX", "address": {"city": "SACRAMENTO", "state": "CA", "street": "4750 J ST", "postcode": "95819"}}},
{"geometry": {"type": "Point", "coordinates": [-121.4440397728, 38.5671135366]}, "type": "Feature", "properties": {"collection_times": [{"days": "Mon-Fri", "time": "5:00pm"}, {"days": "Sat", "time": "4:00pm"}, {"days": "Sun", "time": "Closed"}], "id": "9581900027", "name": "USPS COLLECTION BOX - BLUE BOX", "address": {"city": "SACRAMENTO", "state": "CA", "street": "4750 J ST", "postcode": "95819"}}},
{"geometry": {"type": "Point", "coordinates": [-121.4440397728, 38.5671135366]}, "type": "Feature", "properties": {"collection_times": [{"days": "Mon-Fri", "time": "5:00pm"}, {"days": "Sat", "time": "4:00pm"}, {"days": "Sun", "time": "Closed"}], "id": "9581900028", "name": "USPS COLLECTION BOX - BLUE BOX", "address": {"city": "SACRAMENTO", "state": "CA", "street": "4750 J ST", "postcode": "95819"}}},
{"geometry": {"type": "Point", "coordinates": [-121.4274310922, 38.567103183]}, "type": "Feature", "properties": {"collection_times": [{"days": "Mon-Fri", "time": "3:10pm"}, {"days": "Sat", "time": "11:40am"}, {"days": "Sun", "time": "Closed"}], "id": "9581900032", "name": "USPS COLLECTION BOX - BLUE BOX", "address": {"city": "SACRAMENTO", "state": "CA", "street": "6000 J ST", "postcode": "95819"}}},
{"geometry": {"type": "Point", "coordinates": [-121.44749283, 38.5783516468]}, "type": "Feature", "properties": {"collection_times": [{"days": "Mon-Fri", "time": "1:00pm"}, {"days": "Sat", "time": "12:35pm"}, {"days": "Sun", "time": "Closed"}], "id": "9581900037", "name": "USPS COLLECTION BOX - BLUE BOX", "address": {"city": "SACRAMENTO", "state": "CA", "street": "4065 MCKINLEY BLVD", "postcode": "95819"}}},
{"geometry": {"type": "Point", "coordinates": [-121.4377513074, 38.5582539256]}, "type": "Feature", "properties": {"collection_times": [{"days": "Mon-Fri", "time": "4:00pm"}, {"days": "Sat", "time": "11:30am"}, {"days": "Sun", "time": "Closed"}], "id": "9581900044", "name": "USPS COLLECTION BOX - BLUE BOX", "address": {"city": "SACRAMENTO", "state": "CA", "street": "5650 FOLSOM BLVD", "postcode": "95819"}}},
{"geometry": {"type": "Point", "coordinates": [-121.4440397728, 38.5671135366]}, "type": "Feature", "properties": {"collection_times": [{"days": "Mon-Fri", "time": "5:00pm"}, {"days": "Sat", "time": "12:00pm"}, {"days": "Sun", "time": "Closed"}], "id": "9581900053", "name": "USPS COLLECTION BOX - PO LOBBY", "address": {"city": "SACRAMENTO", "state": "CA", "street": "4750 J ST", "postcode": "95819"}}},
{"geometry": {"type": "Point", "coordinates": [-121.4509742783, 38.5467181411]}, "type": "Feature", "properties": {"collection_times": [{"days": "Mon-Fri", "time": "3:00pm"}, {"days": "Sat-Sun", "time": "Closed"}], "id": "9582000007", "name": "USPS COLLECTION BOX - BLUE BOX", "address": {"city": "SACRAMENTO", "state": "CA", "street": "4700 BROADWAY", "postcode": "95820"}}},
{"geometry": {"type": "Point", "coordinates": [-121.4355500108, 38.539521795]}, "type": "Feature", "properties": {"collection_times": [{"days": "Mon-Fri", "time": "10:30am"}, {"days": "Sat", "time": "10:00am"}, {"days": "Sun", "time": "Closed"}], "id": "9582000028", "name": "USPS COLLECTION BOX - BLUE BOX", "address": {"city": "SACRAMENTO", "state": "CA", "street": "5984 14TH AVE", "postcode": "95820"}}},
{"geometry": {"type": "Point", "coordinates": [-121.4472621531, 38.5467299707]}, "type": "Feature", "properties": {"collection_times": [{"days": "Mon-Fri", "time": "10:30am"}, {"days": "Sat-Sun", "time": "Closed"}], "id": "9582000032", "name": "USPS COLLECTION BOX - BLUE BOX", "address": {"city": "SACRAMENTO", "state": "CA", "street": "4900 BROADWAY", "postcode": "95820"}}},
{"geometry": {"type": "Point", "coordinates": [-121.4318777717, 38.5250664432]}, "type": "Feature", "properties": {"collection_times": [{"days": "Mon-Fri", "time": "10:30am"}, {"days": "Sat", "time": "10:00am"}, {"days": "Sun", "time": "Closed"}], "id": "9582000034", "name": "USPS COLLECTION BOX - BLUE BOX", "address": {"city": "SACRAMENTO", "state": "CA", "street": "6231 FRUITRIDGE RD", "postcode": "95820"}}},
{"geometry": {"type": "Point", "coordinates": [-121.38597667, 38.625134332]}, "type": "Feature", "properties": {"collection_times": [{"days": "Mon-Fri", "time": "4:00pm"}, {"days": "Sat-Sun", "time": "Closed"}], "id": "9582100000", "name": "USPS COLLECTION BOX - BLUE BOX", "address": {"city": "SACRAMENTO", "state": "CA", "street": "3820 AUBURN BLVD", "postcode": "95821"}}},
{"geometry": {"type": "Point", "coordinates": [-121.4015893565, 38.6184873566]}, "type": "Feature", "properties": {"collection_times": [{"days": "Mon-Fri", "time": "5:00pm"}, {"days": "Sat", "time": "4:30pm"}, {"days": "Sun", "time": "Closed"}], "id": "9582100009", "name": "USPS COLLECTION BOX - BLUE BOX", "address": {"city": "SACRAMENTO", "state": "CA", "street": "2929 FULTON AVE", "postcode": "95821"}}},
{"geometry": {"type": "Point", "coordinates": [-121.4015893565, 38.6184873566]}, "type": "Feature", "properties": {"collection_times": [{"days": "Mon-Fri", "time": "5:00pm"}, {"days": "Sat", "time": "4:30pm"}, {"days": "Sun", "time": "Closed"}], "id": "9582100010", "name": "USPS COLLECTION BOX - BLUE BOX", "address": {"city": "SACRAMENTO", "state": "CA", "street": "2929 FULTON AVE", "postcode": "95821"}}},
{"geometry": {"type": "Point", "coordinates": [-121.3983526082, 38.6181042959]}, "type": "Feature", "properties": {"collection_times": [{"days": "Mon-Fri", "time": "1:30pm"}, {"days": "Sat", "time": "1:00pm"}, {"days": "Sun", "time": "Closed"}], "id": "9582100012", "name": "USPS COLLECTION BOX - BLUE BOX", "address": {"city": "SACRAMENTO", "state": "CA", "street": "2735 MARCONI AVE", "postcode": "95821"}}},
{"geometry": {"type": "Point", "coordinates": [-121.3828689648, 38.6361936084]}, "type": "Feature", "properties": {"collection_times": [{"days": "Mon-Fri", "time": "3:55pm"}, {"days": "Sat-Sun", "time": "Closed"}], "id": "9582100020", "name": "USPS COLLECTION BOX - BLUE BOX", "address": {"city": "SACRAMENTO", "state": "CA", "street": "3838 WATT AVE", "postcode": "95821"}}},
{"geometry": {"type": "Point", "coordinates": [-121.4015893565, 38.6184873566]}, "type": "Feature", "properties": {"collection_times": [{"days": "Mon-Fri", "time": "5:00pm"}, {"days": "Sat", "time": "4:30pm"}, {"days": "Sun", "time": "Closed"}], "id": "9582100025", "name": "USPS COLLECTION BOX - PO LOBBY", "address": {"city": "SACRAMENTO", "state": "CA", "street": "2929 FULTON AVE", "postcode": "95821"}}},
{"geometry": {"type": "Point", "coordinates": [-121.4015893565, 38.6184873566]}, "type": "Feature", "properties": {"collection_times": [{"days": "Mon-Fri", "time": "5:00pm"}, {"days": "Sat", "time": "4:30pm"}, {"days": "Sun", "time": "Closed"}], "id": "9582100026", "name": "USPS COLLECTION BOX - PO LOBBY", "address": {"city": "SACRAMENTO", "state": "CA", "street": "2929 FULTON AVE", "postcode": "95821"}}},
{"geometry": {"type": "Point", "coordinates": [-121.3819365147, 38.6176818626]}, "type": "Feature", "properties": {"collection_times": [{"days": "Mon-Fri", "time": "2:10pm"}, {"days": "Sat", "time": "1:35pm"}, {"days": "Sun", "time": "Closed"}], "id": "9582100027", "name": "USPS COLLECTION BOX - BLUE BOX", "address": {"city": "SACRAMENTO", "state": "CA", "street": "3518 MARCONI AVE", "postcode": "95821"}}},
{"geometry": {"type": "Point", "coordinates": [-121.4948798003, 38.5319216904]}, "type": "Feature", "properties": {"collection_times": [{"days": "Mon-Fri", "time": "2:20pm"}, {"days": "Sat", "time": "11:15am"}, {"days": "Sun", "time": "Closed"}], "id": "9582200001", "name": "USPS COLLECTION BOX - BLUE BOX", "address": {"city": "SACRAMENTO", "state": "CA", "street": "4740 FREEPORT BLVD", "postcode": "95822"}}},
{"geometry": {"type": "Point", "coordinates": [-121.5038248526, 38.537074049]}, "type": "Feature", "properties": {"collection_times": [{"days": "Mon-Fri", "time": "1:55pm"}, {"days": "Sat", "time": "11:05am"}, {"days": "Sun", "time": "Closed"}], "id": "9582200011", "name": "USPS COLLECTION BOX - BLUE BOX", "address": {"city": "SACRAMENTO", "state": "CA", "street": "4408 DEL RIO RD", "postcode": "95822"}}},
{"geometry": {"type": "Point", "coordinates": [-121.5046440506, 38.5062423774]}, "type": "Feature", "properties": {"collection_times": [{"days": "Mon-Fri", "time": "2:45pm"}, {"days": "Sat-Sun", "time": "Closed"}], "id": "9582200020", "name": "USPS COLLECTION BOX - BLUE BOX", "address": {"city": "SACRAMENTO", "state": "CA", "street": "6650 FREEPORT BLVD", "postcode": "95822"}}},
{"geometry": {"type": "Point", "coordinates": [-121.4953303928, 38.5307861737]}, "type": "Feature", "properties": {"collection_times": [{"days": "Mon-Fri", "time": "2:30pm"}, {"days": "Sat", "time": "11:15am"}, {"days": "Sun", "time": "Closed"}], "id": "9582200022", "name": "USPS COLLECTION BOX - BLUE BOX", "address": {"city": "SACRAMENTO", "state": "CA", "street": "4850 FREEPORT BLVD", "postcode": "95822"}}},
{"geometry": {"type": "Point", "coordinates": [-121.5124982057, 38.5193213915]}, "type": "Feature", "properties": {"collection_times": [{"days": "Mon-Sat", "time": "5:00pm"}, {"days": "Sun", "time": "Closed"}], "id": "9582200031", "name": "USPS COLLECTION BOX - BLUE BOX", "address": {"city": "SACRAMENTO", "state": "CA", "street": "5930 S LAND PARK DR", "postcode": "95822"}}},
{"geometry": {"type": "Point", "coordinates": [-121.4990988884, 38.5140238051]}, "type": "Feature", "properties": {"collection_times": [{"days": "Mon-Sat", "time": "5:00pm"}, {"days": "Sun", "time": "Closed"}], "id": "9582200042", "name": "USPS COLLECTION BOX - PO LOBBY", "address": {"city": "SACRAMENTO", "state": "CA", "street": "5930 S LAND PARK DR", "postcode": "95822"}}},
{"geometry": {"type": "Point", "coordinates": [-121.5002453262, 38.5149416456]}, "type": "Feature", "properties": {"collection_times": [{"days": "Mon-Fri", "time": "2:40pm"}, {"days": "Sat-Sun", "time": "Closed"}], "id": "9582200046", "name": "USPS COLLECTION BOX - BLUE BOX", "address": {"city": "SACRAMENTO", "state": "CA", "street": "6161 FREEPORT BLVD", "postcode": "95822"}}},
{"geometry": {"type": "Point", "coordinates": [-121.4990982319, 38.5230317538]}, "type": "Feature", "properties": {"collection_times": [{"days": "Mon-Fri", "time": "2:30pm"}, {"days": "Sat-Sun", "time": "Closed"}], "id": "9582200047", "name": "USPS COLLECTION BOX - BLUE BOX", "address": {"city": "SACRAMENTO", "state": "CA", "street": "1631 CLAUDIA DR", "postcode": "95822"}}},
{"geometry": {"type": "Point", "coordinates": [-121.4990988884, 38.5140238051]}, "type": "Feature", "properties": {"collection_times": [{"days": "Mon-Sat", "time": "5:00pm"}, {"days": "Sun", "time": "Closed"}], "id": "9582200048", "name": "USPS COLLECTION BOX - APC", "address": {"city": "SACRAMENTO", "state": "CA", "street": "5930 S LAND PARK DR", "postcode": "95822"}}},
{"geometry": {"type": "Point", "coordinates": [-121.4990988884, 38.5140238051]}, "type": "Feature", "properties": {"collection_times": [{"days": "Mon-Sat", "time": "5:00pm"}, {"days": "Sun", "time": "Closed"}], "id": "9582200050", "name": "USPS COLLECTION BOX - BLUE BOX", "address": {"city": "SACRAMENTO", "state": "CA", "street": "5930 S LAND PARK DR", "postcode": "95822"}}},
{"geometry": {"type": "Point", "coordinates": [-121.4529587405, 38.4823786819]}, "type": "Feature", "properties": {"collection_times": [{"days": "Mon-Fri", "time": "5:00pm"}, {"days": "Sat", "time": "4:30pm"}, {"days": "Sun", "time": "Closed"}], "id": "9582300009", "name": "USPS COLLECTION BOX - BLUE BOX", "address": {"city": "SACRAMENTO", "state": "CA", "street": "4301 BROOKFIELD DR", "postcode": "95823"}}},
{"geometry": {"type": "Point", "coordinates": [-121.4529587405, 38.4823786819]}, "type": "Feature", "properties": {"collection_times": [{"days": "Mon-Fri", "time": "5:00pm"}, {"days": "Sat", "time": "4:30pm"}, {"days": "Sun", "time": "Closed"}], "id": "9582300010", "name": "USPS COLLECTION BOX - BLUE BOX", "address": {"city": "SACRAMENTO", "state": "CA", "street": "4301 BROOKFIELD DR", "postcode": "95823"}}},
{"geometry": {"type": "Point", "coordinates": [-121.4363892006, 38.4961781876]}, "type": "Feature", "properties": {"collection_times": [{"days": "Mon-Fri", "time": "2:30pm"}, {"days": "Sat", "time": "10:00am"}, {"days": "Sun", "time": "Closed"}], "id": "9582300025", "name": "USPS COLLECTION BOX - BLUE BOX", "address": {"city": "SACRAMENTO", "state": "CA", "street": "5901 FLORIN RD", "postcode": "95823"}}},
{"geometry": {"type": "Point", "coordinates": [-121.4612388132, 38.499501517]}, "type": "Feature", "properties": {"collection_times": [{"days": "Mon-Fri", "time": "2:55pm"}, {"days": "Sat-Sun", "time": "Closed"}], "id": "9582300028", "name": "USPS COLLECTION BOX - BLUE BOX", "address": {"city": "SACRAMENTO", "state": "CA", "street": "7000 FRANKLIN BLVD", "postcode": "95823"}}},
{"geometry": {"type": "Point", "coordinates": [-121.4161739915, 38.4642315955]}, "type": "Feature", "properties": {"collection_times": [{"days": "Mon-Sat", "time": "10:30am"}, {"days": "Sun", "time": "Closed"}], "id": "9582300044", "name": "USPS COLLECTION BOX - BLUE BOX", "address": {"city": "SACRAMENTO", "state": "CA", "street": "7500 HOSPITAL DR", "postcode": "95823"}}},
{"geometry": {"type": "Point", "coordinates": [-121.4155820608, 38.4643005661]}, "type": "Feature", "properties": {"collection_times": [{"days": "Mon-Fri", "time": "10:30am"}, {"days": "Sat-Sun", "time": "Closed"}], "id": "9582300045", "name": "USPS COLLECTION BOX - BLUE BOX", "address": {"city": "SACRAMENTO", "state": "CA", "street": "7601 HOSPITAL DR", "postcode": "95823"}}},
{"geometry": {"type": "Point", "coordinates": [-121.4529587405, 38.4823786819]}, "type": "Feature", "properties": {"collection_times": [{"days": "Mon-Fri", "time": "5:00pm"}, {"days": "Sat", "time": "4:30pm"}, {"days": "Sun", "time": "Closed"}], "id": "9582300066", "name": "USPS COLLECTION BOX - PO LOBBY", "address": {"city": "SACRAMENTO", "state": "CA", "street": "4301 BROOKFIELD DR", "postcode": "95823"}}},
{"geometry": {"type": "Point", "coordinates": [-121.4529587405, 38.4823786819]}, "type": "Feature", "properties": {"collection_times": [{"days": "Mon-Fri", "time": "5:00pm"}, {"days": "Sat", "time": "4:30pm"}, {"days": "Sun", "time": "Closed"}], "id": "9582300067", "name": "USPS COLLECTION BOX - PO LOBBY", "address": {"city": "SACRAMENTO", "state": "CA", "street": "4301 BROOKFIELD DR", "postcode": "95823"}}},
{"geometry": {"type": "Point", "coordinates": [-121.4133266092, 38.4618940685]}, "type": "Feature", "properties": {"collection_times": [{"days": "Mon-Fri", "time": "11:00am"}, {"days": "Sat-Sun", "time": "Closed"}], "id": "9582300074", "name": "USPS COLLECTION BOX - BLUE BOX", "address": {"city": "SACRAMENTO", "state": "CA", "street": "8120 TIMBERLAKE WAY", "postcode": "95823"}}},
{"geometry": {"type": "Point", "coordinates": [-121.4281097864, 38.4741427479]}, "type": "Feature", "properties": {"collection_times": [{"days": "Mon-Fri", "time": "3:00pm"}, {"days": "Sat", "time": "10:00am"}, {"days": "Sun", "time": "Closed"}], "id": "9582300084", "name": "USPS COLLECTION BOX - BLUE BOX", "address": {"city": "SACRAMENTO", "state": "CA", "street": "6366 MACK RD", "postcode": "95823"}}},
{"geometry": {"type": "Point", "coordinates": [-121.4553942299, 38.5170016892]}, "type": "Feature", "properties": {"collection_times": [{"days": "Mon-Fri", "time": "5:00pm"}, {"days": "Sat", "time": "4:30pm"}, {"days": "Sun", "time": "Closed"}], "id": "9582400002", "name": "USPS COLLECTION BOX - BLUE BOX", "address": {"city": "SACRAMENTO", "state": "CA", "street": "6024 44TH ST", "postcode": "95824"}}},
{"geometry": {"type": "Point", "coordinates": [-121.4090927991, 38.5163586822]}, "type": "Feature", "properties": {"collection_times": [{"days": "Mon-Fri", "time": "3:40pm"}, {"days": "Sat", "time": "10:00am"}, {"days": "Sun", "time": "Closed"}], "id": "9582400009", "name": "USPS COLLECTION BOX - BLUE BOX", "address": {"city": "SACRAMENTO", "state": "CA", "street": "6083 POWER INN RD", "postcode": "95824"}}},
{"geometry": {"type": "Point", "coordinates": [-121.444056359, 38.5169610749]}, "type": "Feature", "properties": {"collection_times": [{"days": "Mon-Fri", "time": "2:05pm"}, {"days": "Sat-Sun", "time": "Closed"}], "id": "9582400012", "name": "USPS COLLECTION BOX - BLUE BOX", "address": {"city": "SACRAMENTO", "state": "CA", "street": "5647 STOCKTON BLVD", "postcode": "95824"}}},
{"geometry": {"type": "Point", "coordinates": [-121.4554212185, 38.5170144758]}, "type": "Feature", "properties": {"collection_times": [{"days": "Mon-Fri", "time": "5:00pm"}, {"days": "Sat", "time": "4:30pm"}, {"days": "Sun", "time": "Closed"}], "id": "9582400023", "name": "USPS COLLECTION BOX - PO LOBBY", "address": {"city": "SACRAMENTO", "state": "CA", "street": "6024 44TH ST", "postcode": "95824"}}},
{"geometry": {"type": "Point", "coordinates": [-121.4554212185, 38.5170144758]}, "type": "Feature", "properties": {"collection_times": [{"days": "Mon-Fri", "time": "5:00pm"}, {"days": "Sat", "time": "4:30pm"}, {"days": "Sun", "time": "Closed"}], "id": "9582400024", "name": "USPS COLLECTION BOX - PO LOBBY", "address": {"city": "SACRAMENTO", "state": "CA", "street": "6024 44TH ST", "postcode": "95824"}}},
{"geometry": {"type": "Point", "coordinates": [-121.3974577483, 38.5960148661]}, "type": "Feature", "properties": {"collection_times": [{"days": "Mon-Fri", "time": "5:00pm"}, {"days": "Sat", "time": "4:45pm"}, {"days": "Sun", "time": "Closed"}], "id": "9582500012", "name": "USPS COLLECTION BOX - BLUE BOX", "address": {"city": "SACRAMENTO", "state": "CA", "street": "2801 ARDEN WAY", "postcode": "95825"}}},
{"geometry": {"type": "Point", "coordinates": [-121.3974577483, 38.5960148661]}, "type": "Feature", "properties": {"collection_times": [{"days": "Mon-Fri", "time": "5:00pm"}, {"days": "Sat", "time": "4:45pm"}, {"days": "Sun", "time": "Closed"}], "id": "9582500016", "name": "USPS COLLECTION BOX - BLUE BOX", "address": {"city": "SACRAMENTO", "state": "CA", "street": "2801 ARDEN WAY", "postcode": "95825"}}},
{"geometry": {"type": "Point", "coordinates": [-121.3838695221, 38.6067581352]}, "type": "Feature", "properties": {"collection_times": [{"days": "Mon-Fri", "time": "10:00am"}, {"days": "Sat-Sun", "time": "Closed"}], "id": "9582500025", "name": "USPS COLLECTION BOX - BLUE BOX", "address": {"city": "SACRAMENTO", "state": "CA", "street": "2260 BUTANO DR", "postcode": "95825"}}},
{"geometry": {"type": "Point", "coordinates": [-121.4107916123, 38.5671585157]}, "type": "Feature", "properties": {"collection_times": [{"days": "Mon-Sat", "time": "11:00am"}, {"days": "Sun", "time": "Closed"}], "id": "9582500032", "name": "USPS COLLECTION BOX - BLUE BOX", "address": {"city": "SACRAMENTO", "state": "CA", "street": "1131 COMMONS DR", "postcode": "95825"}}},
{"geometry": {"type": "Point", "coordinates": [-121.3995995534, 38.6034126325]}, "type": "Feature", "properties": {"collection_times": [{"days": "Mon-Fri", "time": "2:35pm"}, {"days": "Sat", "time": "11:30am"}, {"days": "Sun", "time": "Closed"}], "id": "9582500035", "name": "USPS COLLECTION BOX - BLUE BOX", "address": {"city": "SACRAMENTO", "state": "CA", "street": "2701 COTTAGE WAY", "postcode": "95825"}}},
{"geometry": {"type": "Point", "coordinates": [-121.4151120684, 38.5749213897]}, "type": "Feature", "properties": {"collection_times": [{"days": "Mon-Fri", "time": "3:35pm"}, {"days": "Sat-Sun", "time": "Closed"}], "id": "9582500049", "name": "USPS COLLECTION BOX - BLUE BOX", "address": {"city": "SACRAMENTO", "state": "CA", "street": "2119 FAIR OAKS BLVD", "postcode": "95825"}}},
{"geometry": {"type": "Point", "coordinates": [-121.4044007475, 38.5743820105]}, "type": "Feature", "properties": {"collection_times": [{"days": "Mon-Fri", "time": "3:25pm"}, {"days": "Sat", "time": "2:15pm"}, {"days": "Sun", "time": "Closed"}], "id": "9582500053", "name": "USPS COLLECTION BOX - BLUE BOX", "address": {"city": "SACRAMENTO", "state": "CA", "street": "2449 FAIR OAKS BLVD", "postcode": "95825"}}},
{"geometry": {"type": "Point", "coordinates": [-121.4054208945, 38.5742136563]}, "type": "Feature", "properties": {"collection_times": [{"days": "Mon-Fri", "time": "1:00pm"}, {"days": "Sat-Sun", "time": "Closed"}], "id": "9582500056", "name": "USPS COLLECTION BOX - BLUE BOX", "address": {"city": "SACRAMENTO", "state": "CA", "street": "2410 FAIR OAKS BLVD", "postcode": "95825"}}},
{"geometry": {"type": "Point", "coordinates": [-121.4015041173, 38.5818946089]}, "type": "Feature", "properties": {"collection_times": [{"days": "Mon-Fri", "time": "3:40pm"}, {"days": "Sat-Sun", "time": "Closed"}], "id": "9582500064", "name": "USPS COLLECTION BOX - BLUE BOX", "address": {"city": "SACRAMENTO", "state": "CA", "street": "900 FULTON AVE", "postcode": "95825"}}},
{"geometry": {"type": "Point", "coordinates": [-121.4137846306, 38.5724603645]}, "type": "Feature", "properties": {"collection_times": [{"days": "Mon-Fri", "time": "4:00pm"}, {"days": "Sat", "time": "2:00pm"}, {"days": "Sun", "time": "Closed"}], "id": "9582500077", "name": "USPS COLLECTION BOX - BLUE BOX", "address": {"city": "SACRAMENTO", "state": "CA", "street": "424 HOWE AVE", "postcode": "95825"}}},
{"geometry": {"type": "Point", "coordinates": [-121.415321078, 38.5772633246]}, "type": "Feature", "properties": {"collection_times": [{"days": "Mon-Fri", "time": "3:40pm"}, {"days": "Sat", "time": "2:30pm"}, {"days": "Sun", "time": "Closed"}], "id": "9582500078", "name": "USPS COLLECTION BOX - BLUE BOX", "address": {"city": "SACRAMENTO", "state": "CA", "street": "650 HOWE AVE", "postcode": "95825"}}},
{"geometry": {"type": "Point", "coordinates": [-121.4154736797, 38.5810783672]}, "type": "Feature", "properties": {"collection_times": [{"days": "Mon-Fri", "time": "11:00am"}, {"days": "Sat-Sun", "time": "Closed"}], "id": "9582500081", "name": "USPS COLLECTION BOX - BLUE BOX", "address": {"city": "SACRAMENTO", "state": "CA", "street": "855 HOWE AVE", "postcode": "95825"}}},
{"geometry": {"type": "Point", "coordinates": [-121.4154736797, 38.5901989808]}, "type": "Feature", "properties": {"collection_times": [{"days": "Mon-Fri", "time": "3:30pm"}, {"days": "Sat-Sun", "time": "Closed"}], "id": "9582500091", "name": "USPS COLLECTION BOX - BLUE BOX", "address": {"city": "SACRAMENTO", "state": "CA", "street": "1337 HOWE AVE", "postcode": "95825"}}},
{"geometry": {"type": "Point", "coordinates": [-121.4194389582, 38.5889710694]}, "type": "Feature", "properties": {"collection_times": [{"days": "Mon-Fri", "time": "3:55pm"}, {"days": "Sat-Sun", "time": "Closed"}], "id": "9582500107", "name": "USPS COLLECTION BOX - BLUE BOX", "address": {"city": "SACRAMENTO", "state": "CA", "street": "1010 HURLEY WAY", "postcode": "95825"}}},
{"geometry": {"type": "Point", "coordinates": [-121.3922167065, 38.6015861438]}, "type": "Feature", "properties": {"collection_times": [{"days": "Mon-Fri", "time": "2:00pm"}, {"days": "Sat", "time": "11:00am"}, {"days": "Sun", "time": "Closed"}], "id": "9582500115", "name": "USPS COLLECTION BOX - BLUE BOX", "address": {"city": "SACRAMENTO", "state": "CA", "street": "2025 MORSE AVE", "postcode": "95825"}}},
{"geometry": {"type": "Point", "coordinates": [-121.4193393179, 38.5654457118]}, "type": "Feature", "properties": {"collection_times": [{"days": "Mon-Fri", "time": "4:15pm"}, {"days": "Sat", "time": "12:05pm"}, {"days": "Sun", "time": "Closed"}], "id": "9582500140", "name": "USPS COLLECTION BOX - BLUE BOX", "address": {"city": "SACRAMENTO", "state": "CA", "street": "791 UNIVERSITY AVE", "postcode": "95825"}}},
{"geometry": {"type": "Point", "coordinates": [-121.4193393179, 38.5654457118]}, "type": "Feature", "properties": {"collection_times": [{"days": "Mon-Fri", "time": "4:15pm"}, {"days": "Sat", "time": "12:05pm"}, {"days": "Sun", "time": "Closed"}], "id": "9582500141", "name": "USPS COLLECTION BOX - BLUE BOX", "address": {"city": "SACRAMENTO", "state": "CA", "street": "791 UNIVERSITY AVE", "postcode": "95825"}}},
{"geometry": {"type": "Point", "coordinates": [-121.3830617871, 38.6056697182]}, "type": "Feature", "properties": {"collection_times": [{"days": "Mon-Fri", "time": "4:00pm"}, {"days": "Sat", "time": "11:25am"}, {"days": "Sun", "time": "Closed"}], "id": "9582500157", "name": "USPS COLLECTION BOX - BLUE BOX", "address": {"city": "SACRAMENTO", "state": "CA", "street": "2233 WATT AVE", "postcode": "95825"}}},
{"geometry": {"type": "Point", "coordinates": [-121.4067588315, 38.5879323487]}, "type": "Feature", "properties": {"collection_times": [{"days": "Mon-Fri", "time": "4:00pm"}, {"days": "Sat", "time": "11:25am"}, {"days": "Sun", "time": "Closed"}], "id": "9582500164", "name": "USPS COLLECTION BOX - BLUE BOX", "address": {"city": "SACRAMENTO", "state": "CA", "street": "2233 WATT AVE", "postcode": "95825"}}},
{"geometry": {"type": "Point", "coordinates": [-121.4187694034, 38.5727349576]}, "type": "Feature", "properties": {"collection_times": [{"days": "Mon-Fri", "time": "10:00am"}, {"days": "Sat-Sun", "time": "Closed"}], "id": "9582500179", "name": "USPS COLLECTION BOX - BLUE BOX", "address": {"city": "SACRAMENTO", "state": "CA", "street": "77 CADILLAC DR", "postcode": "95825"}}},
{"geometry": {"type": "Point", "coordinates": [-121.4089768691, 38.5651379952]}, "type": "Feature", "properties": {"collection_times": [{"days": "Mon-Fri", "time": "4:25pm"}, {"days": "Sat-Sun", "time": "Closed"}], "id": "9582500180", "name": "USPS COLLECTION BOX - BLUE BOX", "address": {"city": "SACRAMENTO", "state": "CA", "street": "100 HOWE AVE", "postcode": "95825"}}},
{"geometry": {"type": "Point", "coordinates": [-121.4166128692, 38.570506263]}, "type": "Feature", "properties": {"collection_times": [{"days": "Mon-Fri", "time": "4:20pm"}, {"days": "Sat", "time": "11:55am"}, {"days": "Sun", "time": "Closed"}], "id": "9582500184", "name": "USPS COLLECTION BOX - BLUE BOX", "address": {"city": "SACRAMENTO", "state": "CA", "street": "350 UNIVERSITY AVE", "postcode": "95825"}}},
{"geometry": {"type": "Point", "coordinates": [-121.4185304457, 38.5687637644]}, "type": "Feature", "properties": {"collection_times": [{"days": "Mon-Fri", "time": "4:10pm"}, {"days": "Sat", "time": "11:30am"}, {"days": "Sun", "time": "Closed"}], "id": "9582500187", "name": "USPS COLLECTION BOX - BLUE BOX", "address": {"city": "SACRAMENTO", "state": "CA", "street": "555 UNIVERSITY AVE", "postcode": "95825"}}},
{"geometry": {"type": "Point", "coordinates": [-121.3974577483, 38.5960148661]}, "type": "Feature", "properties": {"collection_times": [{"days": "Mon-Fri", "time": "5:00pm"}, {"days": "Sat", "time": "4:45pm"}, {"days": "Sun", "time": "Closed"}], "id": "9582500194", "name": "USPS COLLECTION BOX - PO LOBBY", "address": {"city": "SACRAMENTO", "state": "CA", "street": "2801 ARDEN WAY", "postcode": "95825"}}},
{"geometry": {"type": "Point", "coordinates": [-121.3974577483, 38.5960148661]}, "type": "Feature", "properties": {"collection_times": [{"days": "Mon-Fri", "time": "5:00pm"}, {"days": "Sat", "time": "4:45pm"}, {"days": "Sun", "time": "Closed"}], "id": "9582500195", "name": "USPS COLLECTION BOX - PO LOBBY", "address": {"city": "SACRAMENTO", "state": "CA", "street": "2801 ARDEN WAY", "postcode": "95825"}}},
{"geometry": {"type": "Point", "coordinates": [-121.4151120684, 38.5749213897]}, "type": "Feature", "properties": {"collection_times": [{"days": "Mon-Fri", "time": "3:35pm"}, {"days": "Sat-Sun", "time": "Closed"}], "id": "9582500202", "name": "USPS COLLECTION BOX - BLUE BOX", "address": {"city": "SACRAMENTO", "state": "CA", "street": "2119 FAIR OAKS BLVD", "postcode": "95825"}}},
{"geometry": {"type": "Point", "coordinates": [-121.3974577483, 38.5960148661]}, "type": "Feature", "properties": {"collection_times": [{"days": "Mon-Fri", "time": "5:00pm"}, {"days": "Sat", "time": "4:45pm"}, {"days": "Sun", "time": "Closed"}], "id": "9582500220", "name": "USPS COLLECTION BOX - APC", "address": {"city": "SACRAMENTO", "state": "CA", "street": "2801 ARDEN WAY", "postcode": "95825"}}},
{"geometry": {"type": "Point", "coordinates": [-121.4067588315, 38.5879323487]}, "type": "Feature", "properties": {"collection_times": [{"days": "Mon-Fri", "time": "4:20pm"}, {"days": "Sat-Sun", "time": "Closed"}], "id": "9582500231", "name": "USPS COLLECTION BOX - BLUE BOX", "address": {"city": "SACRAMENTO", "state": "CA", "street": "350 UNIVERSITY AVE", "postcode": "95825"}}},
{"geometry": {"type": "Point", "coordinates": [-121.4067588315, 38.5879323487]}, "type": "Feature", "properties": {"collection_times": [{"days": "Mon-Fri", "time": "4:10pm"}, {"days": "Sat", "time": "11:30am"}, {"days": "Sun", "time": "Closed"}], "id": "9582500232", "name": "USPS COLLECTION BOX - BLUE BOX", "address": {"city": "SACRAMENTO", "state": "CA", "street": "555 UNIVERSITY AVE", "postcode": "95825"}}},
{"geometry": {"type": "Point", "coordinates": [-121.4058810683, 38.5491825591]}, "type": "Feature", "properties": {"collection_times": [{"days": "Mon-Fri", "time": "11:00am"}, {"days": "Sat-Sun", "time": "Closed"}], "id": "9582600007", "name": "USPS COLLECTION BOX - BLUE BOX", "address": {"city": "SACRAMENTO", "state": "CA", "street": "21 BICENTENNIAL CIR", "postcode": "95826"}}},
{"geometry": {"type": "Point", "coordinates": [-121.3750921925, 38.555861231]}, "type": "Feature", "properties": {"collection_times": [{"days": "Mon-Fri", "time": "3:55pm"}, {"days": "Sat-Sun", "time": "Closed"}], "id": "9582600019", "name": "USPS COLLECTION BOX - BLUE BOX", "address": {"city": "SACRAMENTO", "state": "CA", "street": "8950 CAL CENTER DR", "postcode": "95826"}}},
{"geometry": {"type": "Point", "coordinates": [-121.3750921925, 38.555861231]}, "type": "Feature", "properties": {"collection_times": [{"days": "Mon-Fri", "time": "3:55pm"}, {"days": "Sat-Sun", "time": "Closed"}], "id": "9582600020", "name": "USPS COLLECTION BOX - BLUE BOX", "address": {"city": "SACRAMENTO", "state": "CA", "street": "8950 CAL CENTER DR", "postcode": "95826"}}},
{"geometry": {"type": "Point", "coordinates": [-121.4132284236, 38.5504633892]}, "type": "Feature", "properties": {"collection_times": [{"days": "Mon-Fri", "time": "4:30pm"}, {"days": "Sat-Sun", "time": "Closed"}], "id": "9582600034", "name": "USPS COLLECTION BOX - BLUE BOX", "address": {"city": "SACRAMENTO", "state": "CA", "street": "7801 FOLSOM BLVD", "postcode": "95826"}}},
{"geometry": {"type": "Point", "coordinates": [-121.3936001645, 38.5472525014]}, "type": "Feature", "properties": {"collection_times": [{"days": "Mon-Fri", "time": "4:30pm"}, {"days": "Sat", "time": "3:00pm"}, {"days": "Sun", "time": "Closed"}], "id": "9582600042", "name": "USPS COLLECTION BOX - BLUE BOX", "address": {"city": "SACRAMENTO", "state": "CA", "street": "8387 FOLSOM BLVD", "postcode": "95826"}}},
{"geometry": {"type": "Point", "coordinates": [-121.3764088258, 38.5525974472]}, "type": "Feature", "properties": {"collection_times": [{"days": "Mon-Fri", "time": "12:10pm"}, {"days": "Sat-Sun", "time": "Closed"}], "id": "9582600049", "name": "USPS COLLECTION BOX - BLUE BOX", "address": {"city": "SACRAMENTO", "state": "CA", "street": "8801 FOLSOM BLVD", "postcode": "95826"}}},
{"geometry": {"type": "Point", "coordinates": [-121.3590493222, 38.5473212654]}, "type": "Feature", "properties": {"collection_times": [{"days": "Mon-Sat", "time": "10:30am"}, {"days": "Sun", "time": "Closed"}], "id": "9582600059", "name": "USPS COLLECTION BOX - BLUE BOX", "address": {"city": "SACRAMENTO", "state": "CA", "street": "9175 KIEFER BLVD", "postcode": "95826"}}},
{"geometry": {"type": "Point", "coordinates": [-121.3784986902, 38.5631396704]}, "type": "Feature", "properties": {"collection_times": [{"days": "Mon-Sat", "time": "1:00pm"}, {"days": "Sun", "time": "Closed"}], "id": "9582600062", "name": "USPS COLLECTION BOX - BLUE BOX", "address": {"city": "SACRAMENTO", "state": "CA", "street": "8820 SALMON FALLS DR", "postcode": "95826"}}},
{"geometry": {"type": "Point", "coordinates": [-121.3515276499, 38.5636320884]}, "type": "Feature", "properties": {"collection_times": [{"days": "Mon-Fri", "time": "3:30pm"}, {"days": "Sat-Sun", "time": "Closed"}], "id": "9582600108", "name": "USPS COLLECTION BOX - BLUE BOX", "address": {"city": "SACRAMENTO", "state": "CA", "street": "9342 TECH CENTER DR", "postcode": "95826"}}},
{"geometry": {"type": "Point", "coordinates": [-121.408865671, 38.5433597206]}, "type": "Feature", "properties": {"collection_times": [{"days": "Mon-Fri", "time": "2:50pm"}, {"days": "Sat-Sun", "time": "Closed"}], "id": "9582600124", "name": "USPS COLLECTION BOX - BLUE BOX", "address": {"city": "SACRAMENTO", "state": "CA", "street": "3331 POWER INN RD", "postcode": "95826"}}},
{"geometry": {"type": "Point", "coordinates": [-121.3333602685, 38.5690147258]}, "type": "Feature", "properties": {"collection_times": [{"days": "Mon-Fri", "time": "3:50pm"}, {"days": "Sat", "time": "3:15pm"}, {"days": "Sun", "time": "Closed"}], "id": "9582700001", "name": "USPS COLLECTION BOX - BLUE BOX", "address": {"city": "SACRAMENTO", "state": "CA", "street": "9685 BUSINESS PARK DR", "postcode": "95827"}}},
{"geometry": {"type": "Point", "coordinates": [-121.328251985, 38.573030693]}, "type": "Feature", "properties": {"collection_times": [{"days": "Mon-Fri", "time": "3:30pm"}, {"days": "Sat-Sun", "time": "Closed"}], "id": "9582700008", "name": "USPS COLLECTION BOX - BLUE BOX", "address": {"city": "SACRAMENTO", "state": "CA", "street": "9940 BUSINESS PARK DR", "postcode": "95827"}}},
{"geometry": {"type": "Point", "coordinates": [-121.344520024, 38.5674977277]}, "type": "Feature", "properties": {"collection_times": [{"days": "Mon-Fri", "time": "4:00pm"}, {"days": "Sat-Sun", "time": "Closed"}], "id": "9582700010", "name": "USPS COLLECTION BOX - BLUE BOX", "address": {"city": "SACRAMENTO", "state": "CA", "street": "9645 BUTTERFIELD WAY", "postcode": "95827"}}},
{"geometry": {"type": "Point", "coordinates": [-121.3299788694, 38.5552378116]}, "type": "Feature", "properties": {"collection_times": [{"days": "Mon-Fri", "time": "3:00pm"}, {"days": "Sat-Sun", "time": "Closed"}], "id": "9582700021", "name": "USPS COLLECTION BOX - BLUE BOX", "address": {"city": "SACRAMENTO", "state": "CA", "street": "9805 GOETHE RD", "postcode": "95827"}}},
{"geometry": {"type": "Point", "coordinates": [-121.3430245409, 38.5452820289]}, "type": "Feature", "properties": {"collection_times": [{"days": "Mon-Fri", "time": "5:00pm"}, {"days": "Sat", "time": "4:45pm"}, {"days": "Sun", "time": "Closed"}], "id": "9582700033", "name": "USPS COLLECTION BOX - BLUE BOX", "address": {"city": "SACRAMENTO", "state": "CA", "street": "9500 KIEFER BLVD", "postcode": "95827"}}},
{"geometry": {"type": "Point", "coordinates": [-121.3068023374, 38.5745922032]}, "type": "Feature", "properties": {"collection_times": [{"days": "Mon-Fri", "time": "3:00pm"}, {"days": "Sat-Sun", "time": "Closed"}], "id": "9582700037", "name": "USPS COLLECTION BOX - BLUE BOX", "address": {"city": "SACRAMENTO", "state": "CA", "street": "10551 OLD PLACERVILLE RD", "postcode": "95827"}}},
{"geometry": {"type": "Point", "coordinates": [-121.3067928737, 38.5685851376]}, "type": "Feature", "properties": {"collection_times": [{"days": "Mon-Fri", "time": "2:30pm"}, {"days": "Sat-Sun", "time": "Closed"}], "id": "9582700047", "name": "USPS COLLECTION BOX - BLUE BOX", "address": {"city": "SACRAMENTO", "state": "CA", "street": "10381 OLD PLACERVILLE RD", "postcode": "95827"}}},
{"geometry": {"type": "Point", "coordinates": [-121.3230968125, 38.5767226299]}, "type": "Feature", "properties": {"collection_times": [{"days": "Mon-Fri", "time": "3:00pm"}, {"days": "Sat-Sun", "time": "Closed"}], "id": "9582700073", "name": "USPS COLLECTION BOX - BLUE BOX", "address": {"city": "SACRAMENTO", "state": "CA", "street": "3001 FITE CIR", "postcode": "95827"}}},
{"geometry": {"type": "Point", "coordinates": [-121.3068023374, 38.5745922032]}, "type": "Feature", "properties": {"collection_times": [{"days": "Mon-Fri", "time": "3:00pm"}, {"days": "Sat-Sun", "time": "Closed"}], "id": "9582700076", "name": "USPS COLLECTION BOX - BLUE BOX", "address": {"city": "SACRAMENTO", "state": "CA", "street": "10551 OLD PLACERVILLE RD", "postcode": "95827"}}},
{"geometry": {"type": "Point", "coordinates": [-121.3430245409, 38.5452820289]}, "type": "Feature", "properties": {"collection_times": [{"days": "Mon-Fri", "time": "5:00pm"}, {"days": "Sat", "time": "4:45pm"}, {"days": "Sun", "time": "Closed"}], "id": "9582700087", "name": "USPS COLLECTION BOX - PO LOBBY", "address": {"city": "SACRAMENTO", "state": "CA", "street": "9500 KIEFER BLVD", "postcode": "95827"}}},
{"geometry": {"type": "Point", "coordinates": [-121.3430245409, 38.5452820289]}, "type": "Feature", "properties": {"collection_times": [{"days": "Mon-Fri", "time": "5:00pm"}, {"days": "Sat", "time": "4:45pm"}, {"days": "Sun", "time": "Closed"}], "id": "9582700088", "name": "USPS COLLECTION BOX - PO LOBBY", "address": {"city": "SACRAMENTO", "state": "CA", "street": "9500 KIEFER BLVD", "postcode": "95827"}}},
{"geometry": {"type": "Point", "coordinates": [-121.3263164285, 38.5747578175]}, "type": "Feature", "properties": {"collection_times": [{"days": "Mon-Fri", "time": "2:45pm"}, {"days": "Sat-Sun", "time": "Closed"}], "id": "9582700107", "name": "USPS COLLECTION BOX - BLUE BOX", "address": {"city": "SACRAMENTO", "state": "CA", "street": "9891 HORN RD", "postcode": "95827"}}},
{"geometry": {"type": "Point", "coordinates": [-121.3430245409, 38.5452820289]}, "type": "Feature", "properties": {"collection_times": [{"days": "Mon-Fri", "time": "5:00pm"}, {"days": "Sat", "time": "4:45pm"}, {"days": "Sun", "time": "Closed"}], "id": "9582700109", "name": "USPS COLLECTION BOX - APC", "address": {"city": "SACRAMENTO", "state": "CA", "street": "9500 KIEFER BLVD", "postcode": "95827"}}},
{"geometry": {"type": "Point", "coordinates": [-121.3360533637, 38.5627992853]}, "type": "Feature", "properties": {"collection_times": [{"days": "Mon-Fri", "time": "3:00pm"}, {"days": "Sat-Sun", "time": "Closed"}], "id": "9582700112", "name": "USPS COLLECTION BOX - BLUE BOX", "address": {"city": "SACRAMENTO", "state": "CA", "street": "3353 BRADSHAW RD", "postcode": "95827"}}},
{"geometry": {"type": "Point", "coordinates": [-121.3340446994, 38.5620658507]}, "type": "Feature", "properties": {"collection_times": [{"days": "Mon-Fri", "time": "3:50pm"}, {"days": "Sat", "time": "2:50pm"}, {"days": "Sun", "time": "Closed"}], "id": "9582700118", "name": "USPS COLLECTION BOX - BLUE BOX", "address": {"city": "SACRAMENTO", "state": "CA", "street": "9719 LINCOLN VILLAGE DR", "postcode": "95827"}}},
{"geometry": {"type": "Point", "coordinates": [-121.3300260342, 38.56420432]}, "type": "Feature", "properties": {"collection_times": [{"days": "Mon-Fri", "time": "5:00pm"}, {"days": "Sat", "time": "4:45pm"}, {"days": "Sun", "time": "Closed"}], "id": "9582700126", "name": "USPS COLLECTION BOX - BLUE BOX", "address": {"city": "SACRAMENTO", "state": "CA", "street": "9500 KIEFER BLVD", "postcode": "95827"}}},
{"geometry": {"type": "Point", "coordinates": [-121.4108329907, 38.4816107926]}, "type": "Feature", "properties": {"collection_times": [{"days": "Mon-Fri", "time": "3:30pm"}, {"days": "Sat", "time": "10:00am"}, {"days": "Sun", "time": "Closed"}], "id": "9582800011", "name": "USPS COLLECTION BOX - BLUE BOX", "address": {"city": "SACRAMENTO", "state": "CA", "street": "7902 GERBER RD", "postcode": "95828"}}},
{"geometry": {"type": "Point", "coordinates": [-121.4078094223, 38.4815668032]}, "type": "Feature", "properties": {"collection_times": [{"days": "Mon-Fri", "time": "1:50pm"}, {"days": "Sat", "time": "10:00am"}, {"days": "Sun", "time": "Closed"}], "id": "9582800014", "name": "USPS COLLECTION BOX - BLUE BOX", "address": {"city": "SACRAMENTO", "state": "CA", "street": "8118 GERBER RD", "postcode": "95828"}}},
{"geometry": {"type": "Point", "coordinates": [-121.372031298, 38.4941169363]}, "type": "Feature", "properties": {"collection_times": [{"days": "Mon-Fri", "time": "5:00pm"}, {"days": "Sat", "time": "4:30pm"}, {"days": "Sun", "time": "Closed"}], "id": "9582800020", "name": "USPS COLLECTION BOX - PO LOBBY", "address": {"city": "SACRAMENTO", "state": "CA", "street": "7250 ELK GROVE FLORIN RD", "postcode": "95828"}}},
{"geometry": {"type": "Point", "coordinates": [-121.372031298, 38.4941169363]}, "type": "Feature", "properties": {"collection_times": [{"days": "Mon-Fri", "time": "5:00pm"}, {"days": "Sat", "time": "4:30pm"}, {"days": "Sun", "time": "Closed"}], "id": "9582800021", "name": "USPS COLLECTION BOX - PO LOBBY", "address": {"city": "SACRAMENTO", "state": "CA", "street": "7250 ELK GROVE FLORIN RD", "postcode": "95828"}}},
{"geometry": {"type": "Point", "coordinates": [-121.3849098582, 38.510708461]}, "type": "Feature", "properties": {"collection_times": [{"days": "Mon-Fri", "time": "3:00pm"}, {"days": "Sat-Sun", "time": "Closed"}], "id": "9582800022", "name": "USPS COLLECTION BOX - BLUE BOX", "address": {"city": "SACRAMENTO", "state": "CA", "street": "8615 ELDER CREEK RD", "postcode": "95828"}}},
{"geometry": {"type": "Point", "coordinates": [-121.4006280287, 38.484703708]}, "type": "Feature", "properties": {"collection_times": [{"days": "Mon-Fri", "time": "1:30pm"}, {"days": "Sat", "time": "10:00am"}, {"days": "Sun", "time": "Closed"}], "id": "9582800025", "name": "USPS COLLECTION BOX - BLUE BOX", "address": {"city": "SACRAMENTO", "state": "CA", "street": "8377 ELK GROVE FLORIN RD", "postcode": "95828"}}},
{"geometry": {"type": "Point", "coordinates": [-121.372031298, 38.4941169363]}, "type": "Feature", "properties": {"collection_times": [{"days": "Mon-Fri", "time": "5:00pm"}, {"days": "Sat", "time": "4:00pm"}, {"days": "Sun", "time": "Closed"}], "id": "9582800031", "name": "USPS COLLECTION BOX - APC", "address": {"city": "SACRAMENTO", "state": "CA", "street": "7250 ELK GROVE FLORIN RD", "postcode": "95828"}}},
{"geometry": {"type": "Point", "coordinates": [-121.3720992962, 38.4947958316]}, "type": "Feature", "properties": {"collection_times": [{"days": "Mon-Fri", "time": "5:00pm"}, {"days": "Sat", "time": "4:00pm"}, {"days": "Sun", "time": "Closed"}], "id": "9582800034", "name": "USPS COLLECTION BOX - BLUE BOX", "address": {"city": "SACRAMENTO", "state": "CA", "street": "7250 ELK GROVE FLORIN RD", "postcode": "95828"}}},
{"geometry": {"type": "Point", "coordinates": [-121.5426074627, 38.5095590341]}, "type": "Feature", "properties": {"collection_times": [{"days": "Mon-Fri", "time": "3:30pm"}, {"days": "Sat", "time": "10:00am"}, {"days": "Sun", "time": "Closed"}], "id": "9583100000", "name": "USPS COLLECTION BOX - BLUE BOX", "address": {"city": "SACRAMENTO", "state": "CA", "street": "250 FLORIN RD", "postcode": "95831"}}},
{"geometry": {"type": "Point", "coordinates": [-121.5100107907, 38.4956780971]}, "type": "Feature", "properties": {"collection_times": [{"days": "Mon-Fri", "time": "3:15pm"}, {"days": "Sat", "time": "1:30pm"}, {"days": "Sun", "time": "Closed"}], "id": "9583100004", "name": "USPS COLLECTION BOX - BLUE BOX", "address": {"city": "SACRAMENTO", "state": "CA", "street": "1301 FLORIN RD", "postcode": "95831"}}},
{"geometry": {"type": "Point", "coordinates": [-121.5354375484, 38.4852823502]}, "type": "Feature", "properties": {"collection_times": [{"days": "Mon-Fri", "time": "3:45pm"}, {"days": "Sat", "time": "2:00pm"}, {"days": "Sun", "time": "Closed"}], "id": "9583100017", "name": "USPS COLLECTION BOX - BLUE BOX", "address": {"city": "SACRAMENTO", "state": "CA", "street": "7465 RUSH RIVER DR", "postcode": "95831"}}},
{"geometry": {"type": "Point", "coordinates": [-121.5301787126, 38.4962527782]}, "type": "Feature", "properties": {"collection_times": [{"days": "Mon-Fri", "time": "4:10pm"}, {"days": "Sat", "time": "10:50am"}, {"days": "Sun", "time": "Closed"}], "id": "9583100021", "name": "USPS COLLECTION BOX - BLUE BOX", "address": {"city": "SACRAMENTO", "state": "CA", "street": "930 FLORIN RD", "postcode": "95831"}}},
{"geometry": {"type": "Point", "coordinates": [-121.5118659643, 38.4947505102]}, "type": "Feature", "properties": {"collection_times": [{"days": "Mon-Fri", "time": "2:30pm"}, {"days": "Sat-Sun", "time": "Closed"}], "id": "9583100025", "name": "USPS COLLECTION BOX - BLUE BOX", "address": {"city": "SACRAMENTO", "state": "CA", "street": "7201 S LAND PARK DR", "postcode": "95831"}}},
{"geometry": {"type": "Point", "coordinates": [-121.5395305864, 38.618877455]}, "type": "Feature", "properties": {"collection_times": [{"days": "Mon-Sat", "time": "11:30am"}, {"days": "Sun", "time": "Closed"}], "id": "9583300004", "name": "USPS COLLECTION BOX - BLUE BOX", "address": {"city": "SACRAMENTO", "state": "CA", "street": "2840 EL CENTRO RD", "postcode": "95833"}}},
{"geometry": {"type": "Point", "coordinates": [-121.5174812097, 38.6164272503]}, "type": "Feature", "properties": {"collection_times": [{"days": "Mon-Fri", "time": "4:00pm"}, {"days": "Sat-Sun", "time": "Closed"}], "id": "9583300009", "name": "USPS COLLECTION BOX - BLUE BOX", "address": {"city": "SACRAMENTO", "state": "CA", "street": "2720 GATEWAY OAKS DR", "postcode": "95833"}}},
{"geometry": {"type": "Point", "coordinates": [-121.5174812097, 38.6164272503]}, "type": "Feature", "properties": {"collection_times": [{"days": "Mon-Fri", "time": "4:00pm"}, {"days": "Sat-Sun", "time": "Closed"}], "id": "9583300010", "name": "USPS COLLECTION BOX - BLUE BOX", "address": {"city": "SACRAMENTO", "state": "CA", "street": "2720 GATEWAY OAKS DR", "postcode": "95833"}}},
{"geometry": {"type": "Point", "coordinates": [-121.4978997306, 38.6108850407]}, "type": "Feature", "properties": {"collection_times": [{"days": "Mon-Fri", "time": "4:20pm"}, {"days": "Sat-Sun", "time": "Closed"}], "id": "9583300015", "name": "USPS COLLECTION BOX - BLUE BOX", "address": {"city": "SACRAMENTO", "state": "CA", "street": "2501 MILLCREEK DR", "postcode": "95833"}}},
{"geometry": {"type": "Point", "coordinates": [-121.5062794726, 38.6115836373]}, "type": "Feature", "properties": {"collection_times": [{"days": "Mon-Fri", "time": "4:15pm"}, {"days": "Sat-Sun", "time": "Closed"}], "id": "9583300023", "name": "USPS COLLECTION BOX - BLUE BOX", "address": {"city": "SACRAMENTO", "state": "CA", "street": "2524 NATOMAS PARK DR", "postcode": "95833"}}},
{"geometry": {"type": "Point", "coordinates": [-121.4979909823, 38.6271309597]}, "type": "Feature", "properties": {"collection_times": [{"days": "Mon-Fri", "time": "2:00pm"}, {"days": "Sat", "time": "11:55am"}, {"days": "Sun", "time": "Closed"}], "id": "9583300039", "name": "USPS COLLECTION BOX - BLUE BOX", "address": {"city": "SACRAMENTO", "state": "CA", "street": "3291 TRUXEL RD", "postcode": "95833"}}},
{"geometry": {"type": "Point", "coordinates": [-121.5123177984, 38.6078889492]}, "type": "Feature", "properties": {"collection_times": [{"days": "Mon-Fri", "time": "4:00pm"}, {"days": "Sat-Sun", "time": "Closed"}], "id": "9583300042", "name": "USPS COLLECTION BOX - BLUE BOX", "address": {"city": "SACRAMENTO", "state": "CA", "street": "2400 VENTURE OAKS WAY", "postcode": "95833"}}},
{"geometry": {"type": "Point", "coordinates": [-121.5123177984, 38.6078889492]}, "type": "Feature", "properties": {"collection_times": [{"days": "Mon-Fri", "time": "4:00pm"}, {"days": "Sat-Sun", "time": "Closed"}], "id": "9583300043", "name": "USPS COLLECTION BOX - BLUE BOX", "address": {"city": "SACRAMENTO", "state": "CA", "street": "2400 VENTURE OAKS WAY", "postcode": "95833"}}},
{"geometry": {"type": "Point", "coordinates": [-121.4962017909, 38.612865071]}, "type": "Feature", "properties": {"collection_times": [{"days": "Mon-Fri", "time": "4:15pm"}, {"days": "Sat", "time": "2:45pm"}, {"days": "Sun", "time": "Closed"}], "id": "9583300049", "name": "USPS COLLECTION BOX - BLUE BOX", "address": {"city": "SACRAMENTO", "state": "CA", "street": "1540 W EL CAMINO AVE", "postcode": "95833"}}},
{"geometry": {"type": "Point", "coordinates": [-121.5174812097, 38.6164272503]}, "type": "Feature", "properties": {"collection_times": [{"days": "Mon-Fri", "time": "4:00pm"}, {"days": "Sat-Sun", "time": "Closed"}], "id": "9583300072", "name": "USPS COLLECTION BOX - BLUE BOX", "address": {"city": "SACRAMENTO", "state": "CA", "street": "2720 GATEWAY OAKS DR", "postcode": "95833"}}},
{"geometry": {"type": "Point", "coordinates": [-121.4756140256, 38.6092504493]}, "type": "Feature", "properties": {"collection_times": [{"days": "Mon-Fri", "time": "11:00am"}, {"days": "Sat-Sun", "time": "Closed"}], "id": "9583300074", "name": "USPS COLLECTION BOX - BLUE BOX", "address": {"city": "SACRAMENTO", "state": "CA", "street": "2351 NORTHGATE BLVD", "postcode": "95833"}}},
{"geometry": {"type": "Point", "coordinates": [-121.5181315816, 38.6193249054]}, "type": "Feature", "properties": {"collection_times": [{"days": "Mon-Fri", "time": "3:00pm"}, {"days": "Sat-Sun", "time": "Closed"}], "id": "9583300089", "name": "USPS COLLECTION BOX - BLUE BOX", "address": {"city": "SACRAMENTO", "state": "CA", "street": "2804 GATEWAY OAKS DR", "postcode": "95833"}}},
{"geometry": {"type": "Point", "coordinates": [-121.4781728708, 38.6464818025]}, "type": "Feature", "properties": {"collection_times": [{"days": "Mon-Fri", "time": "4:45pm"}, {"days": "Sat", "time": "11:45am"}, {"days": "Sun", "time": "Closed"}], "id": "9583400010", "name": "USPS COLLECTION BOX - BLUE BOX", "address": {"city": "SACRAMENTO", "state": "CA", "street": "4234 N FREEWAY BLVD", "postcode": "95834"}}},
{"geometry": {"type": "Point", "coordinates": [-121.487853563, 38.6468678414]}, "type": "Feature", "properties": {"collection_times": [{"days": "Mon-Fri", "time": "3:25pm"}, {"days": "Sat-Sun", "time": "Closed"}], "id": "9583400019", "name": "USPS COLLECTION BOX - BLUE BOX", "address": {"city": "SACRAMENTO", "state": "CA", "street": "1143 N MARKET BLVD", "postcode": "95834"}}},
{"geometry": {"type": "Point", "coordinates": [-121.531571607, 38.6429051383]}, "type": "Feature", "properties": {"collection_times": [{"days": "Mon-Fri", "time": "5:00pm"}, {"days": "Sat", "time": "1:25pm"}, {"days": "Sun", "time": "Closed"}], "id": "9583400071", "name": "USPS COLLECTION BOX - BLUE BOX", "address": {"city": "SACRAMENTO", "state": "CA", "street": "3250 ARENA BLVD", "postcode": "95834"}}},
{"geometry": {"type": "Point", "coordinates": [-121.4914586829, 38.6415133748]}, "type": "Feature", "properties": {"collection_times": [{"days": "Mon-Fri", "time": "3:20pm"}, {"days": "Sat-Sun", "time": "Closed"}], "id": "9583400073", "name": "USPS COLLECTION BOX - BLUE BOX", "address": {"city": "SACRAMENTO", "state": "CA", "street": "3920 LENNANE DR", "postcode": "95834"}}},
{"geometry": {"type": "Point", "coordinates": [-121.5087083932, 38.6437712113]}, "type": "Feature", "properties": {"collection_times": [{"days": "Mon-Fri", "time": "4:00pm"}, {"days": "Sat-Sun", "time": "Closed"}], "id": "9583400079", "name": "USPS COLLECTION BOX - BLUE BOX", "address": {"city": "SACRAMENTO", "state": "CA", "street": "4080 TRUXEL RD", "postcode": "95834"}}},
{"geometry": {"type": "Point", "coordinates": [-121.5084884453, 38.6416931017]}, "type": "Feature", "properties": {"collection_times": [{"days": "Mon-Fri", "time": "5:00pm"}, {"days": "Sat", "time": "1:15pm"}, {"days": "Sun", "time": "Closed"}], "id": "9583400085", "name": "USPS COLLECTION BOX - BLUE BOX", "address": {"city": "SACRAMENTO", "state": "CA", "street": "4401 GATEWAY PARK BLVD", "postcode": "95834"}}},
{"geometry": {"type": "Point", "coordinates": [-121.5084884453, 38.6416931017]}, "type": "Feature", "properties": {"collection_times": [{"days": "Mon-Fri", "time": "4:30pm"}, {"days": "Sat-Sun", "time": "Closed"}], "id": "9583400086", "name": "USPS COLLECTION BOX - PO LOBBY", "address": {"city": "SACRAMENTO", "state": "CA", "street": "4401 GATEWAY PARK BLVD", "postcode": "95834"}}},
{"geometry": {"type": "Point", "coordinates": [-121.511877732, 38.6578712856]}, "type": "Feature", "properties": {"collection_times": [{"days": "Mon-Fri", "time": "5:00pm"}, {"days": "Sat", "time": "11:50am"}, {"days": "Sun", "time": "Closed"}], "id": "9583500001", "name": "USPS COLLECTION BOX - BLUE BOX", "address": {"city": "SACRAMENTO", "state": "CA", "street": "4660 NATOMAS BLVD", "postcode": "95835"}}},
{"geometry": {"type": "Point", "coordinates": [-121.5960064288, 38.685373715]}, "type": "Feature", "properties": {"collection_times": [{"days": "Mon-Fri", "time": "10:30am"}, {"days": "Sat", "time": "10:00am"}, {"days": "Sun", "time": "Closed"}], "id": "9583700001", "name": "USPS COLLECTION BOX - BLUE BOX", "address": {"city": "SACRAMENTO", "state": "CA", "street": "5853 CITATION WAY", "postcode": "95837"}}},
{"geometry": {"type": "Point", "coordinates": [-121.4717293869, 38.6553636846]}, "type": "Feature", "properties": {"collection_times": [{"days": "Mon-Fri", "time": "2:00pm"}, {"days": "Sat-Sun", "time": "Closed"}], "id": "9583800020", "name": "USPS COLLECTION BOX - BLUE BOX", "address": {"city": "SACRAMENTO", "state": "CA", "street": "60 MAIN AVE", "postcode": "95838"}}},
{"geometry": {"type": "Point", "coordinates": [-121.4298148039, 38.6368323849]}, "type": "Feature", "properties": {"collection_times": [{"days": "Mon-Fri", "time": "5:00pm"}, {"days": "Sat", "time": "3:00pm"}, {"days": "Sun", "time": "Closed"}], "id": "9583800029", "name": "USPS COLLECTION BOX - PO LOBBY", "address": {"city": "SACRAMENTO", "state": "CA", "street": "3817 MARYSVILLE BLVD", "postcode": "95838"}}},
{"geometry": {"type": "Point", "coordinates": [-121.4585499475, 38.6386695415]}, "type": "Feature", "properties": {"collection_times": [{"days": "Mon-Fri", "time": "2:55pm"}, {"days": "Sat-Sun", "time": "Closed"}], "id": "9583800031", "name": "USPS COLLECTION BOX - BLUE BOX", "address": {"city": "SACRAMENTO", "state": "CA", "street": "310 HARRIS AVE", "postcode": "95838"}}},
{"geometry": {"type": "Point", "coordinates": [-121.4298148039, 38.6368323849]}, "type": "Feature", "properties": {"collection_times": [{"days": "Mon-Fri", "time": "5:00pm"}, {"days": "Sat", "time": "3:00pm"}, {"days": "Sun", "time": "Closed"}], "id": "9583800033", "name": "USPS COLLECTION BOX - PO LOBBY", "address": {"city": "SACRAMENTO", "state": "CA", "street": "3817 MARYSVILLE BLVD", "postcode": "95838"}}},
{"geometry": {"type": "Point", "coordinates": [-121.4298148039, 38.6368323849]}, "type": "Feature", "properties": {"collection_times": [{"days": "Mon-Fri", "time": "5:00pm"}, {"days": "Sat", "time": "3:00pm"}, {"days": "Sun", "time": "Closed"}], "id": "9583800035", "name": "USPS COLLECTION BOX - BLUE BOX", "address": {"city": "SACRAMENTO", "state": "CA", "street": "3817 MARYSVILLE BLVD", "postcode": "95838"}}},
{"geometry": {"type": "Point", "coordinates": [-121.3631017204, 38.6454656407]}, "type": "Feature", "properties": {"collection_times": [{"days": "Mon-Fri", "time": "4:05pm"}, {"days": "Sat", "time": "1:20pm"}, {"days": "Sun", "time": "Closed"}], "id": "9584100002", "name": "USPS COLLECTION BOX - BLUE BOX", "address": {"city": "SACRAMENTO", "state": "CA", "street": "4330 AUBURN BLVD", "postcode": "95841"}}},
{"geometry": {"type": "Point", "coordinates": [-121.3379563201, 38.6679716102]}, "type": "Feature", "properties": {"collection_times": [{"days": "Mon-Fri", "time": "3:00pm"}, {"days": "Sat-Sun", "time": "Closed"}], "id": "9584100011", "name": "USPS COLLECTION BOX - BLUE BOX", "address": {"city": "SACRAMENTO", "state": "CA", "street": "5431 AUBURN BLVD", "postcode": "95841"}}},
{"geometry": {"type": "Point", "coordinates": [-121.3526018336, 38.6629080603]}, "type": "Feature", "properties": {"collection_times": [{"days": "Mon-Fri", "time": "4:05pm"}, {"days": "Sat-Sun", "time": "Closed"}], "id": "9584100014", "name": "USPS COLLECTION BOX - BLUE BOX", "address": {"city": "SACRAMENTO", "state": "CA", "street": "4811 CHIPPENDALE DR", "postcode": "95841"}}},
{"geometry": {"type": "Point", "coordinates": [-121.3441897555, 38.6645006334]}, "type": "Feature", "properties": {"collection_times": [{"days": "Mon-Fri", "time": "5:00pm"}, {"days": "Sat", "time": "4:30pm"}, {"days": "Sun", "time": "Closed"}], "id": "9584100020", "name": "USPS COLLECTION BOX - BLUE BOX", "address": {"city": "SACRAMENTO", "state": "CA", "street": "5420 KOHLER RD", "postcode": "95841"}}},
{"geometry": {"type": "Point", "coordinates": [-121.3442273968, 38.6645714995]}, "type": "Feature", "properties": {"collection_times": [{"days": "Mon-Fri", "time": "5:00pm"}, {"days": "Sat", "time": "4:30pm"}, {"days": "Sun", "time": "Closed"}], "id": "9584100021", "name": "USPS COLLECTION BOX - BLUE BOX", "address": {"city": "SACRAMENTO", "state": "CA", "street": "5420 KOHLER RD", "postcode": "95841"}}},
{"geometry": {"type": "Point", "coordinates": [-121.3476544756, 38.6597270903]}, "type": "Feature", "properties": {"collection_times": [{"days": "Mon-Fri", "time": "1:30pm"}, {"days": "Sat-Sun", "time": "Closed"}], "id": "9584100026", "name": "USPS COLLECTION BOX - BLUE BOX", "address": {"city": "SACRAMENTO", "state": "CA", "street": "5777 MADISON AVE & HACKBERRY LN", "postcode": "95841"}}},
{"geometry": {"type": "Point", "coordinates": [-121.3526018336, 38.6629080603]}, "type": "Feature", "properties": {"collection_times": [{"days": "Mon-Fri", "time": "4:05pm"}, {"days": "Sat-Sun", "time": "Closed"}], "id": "9584100027", "name": "USPS COLLECTION BOX - BLUE BOX", "address": {"city": "SACRAMENTO", "state": "CA", "street": "4811 CHIPPENDALE DR", "postcode": "95841"}}},
{"geometry": {"type": "Point", "coordinates": [-121.3620678143, 38.6463351156]}, "type": "Feature", "properties": {"collection_times": [{"days": "Mon-Fri", "time": "4:10pm"}, {"days": "Sat-Sun", "time": "Closed"}], "id": "9584100034", "name": "USPS COLLECTION BOX - BLUE BOX", "address": {"city": "SACRAMENTO", "state": "CA", "street": "4362 AUBURN BLVD", "postcode": "95841"}}},
{"geometry": {"type": "Point", "coordinates": [-121.3441897555, 38.6645006334]}, "type": "Feature", "properties": {"collection_times": [{"days": "Mon-Fri", "time": "5:00pm"}, {"days": "Sat", "time": "4:30pm"}, {"days": "Sun", "time": "Closed"}], "id": "9584100035", "name": "USPS COLLECTION BOX - PO LOBBY", "address": {"city": "SACRAMENTO", "state": "CA", "street": "5420 KOHLER RD", "postcode": "95841"}}},
{"geometry": {"type": "Point", "coordinates": [-121.3441897555, 38.6645006334]}, "type": "Feature", "properties": {"collection_times": [{"days": "Mon-Fri", "time": "5:00pm"}, {"days": "Sat", "time": "4:30pm"}, {"days": "Sun", "time": "Closed"}], "id": "9584100036", "name": "USPS COLLECTION BOX - PO LOBBY", "address": {"city": "SACRAMENTO", "state": "CA", "street": "5420 KOHLER RD", "postcode": "95841"}}},
{"geometry": {"type": "Point", "coordinates": [-121.3393691977, 38.6608547539]}, "type": "Feature", "properties": {"collection_times": [{"days": "Mon-Fri", "time": "3:45pm"}, {"days": "Sat-Sun", "time": "Closed"}], "id": "9584100039", "name": "USPS COLLECTION BOX - BLUE BOX", "address": {"city": "SACRAMENTO", "state": "CA", "street": "5345 MADISON AVE", "postcode": "95841"}}},
{"geometry": {"type": "Point", "coordinates": [-121.3363786774, 38.6975667024]}, "type": "Feature", "properties": {"collection_times": [{"days": "Mon-Fri", "time": "1:30pm"}, {"days": "Sat-Sun", "time": "Closed"}], "id": "9584200005", "name": "USPS COLLECTION BOX - BLUE BOX", "address": {"city": "SACRAMENTO", "state": "CA", "street": "7210 ROSEVILLE RD", "postcode": "95842"}}},
{"geometry": {"type": "Point", "coordinates": [-121.3645099049, 38.7127128984]}, "type": "Feature", "properties": {"collection_times": [{"days": "Mon-Fri", "time": "4:30pm"}, {"days": "Sat", "time": "2:00pm"}, {"days": "Sun", "time": "Closed"}], "id": "9584300002", "name": "USPS COLLECTION BOX - BLUE BOX", "address": {"city": "ANTELOPE", "state": "CA", "street": "7909 WALERGA RD", "postcode": "95843"}}},
{"geometry": {"type": "Point", "coordinates": [-121.3813013458, 38.6105602412]}, "type": "Feature", "properties": {"collection_times": [{"days": "Mon-Fri", "time": "5:00pm"}, {"days": "Sat-Sun", "time": "Closed"}], "id": "9586000000", "name": "USPS COLLECTION BOX - PO LOBBY", "address": {"city": "SACRAMENTO", "state": "CA", "street": "3545 EL CAMINO AVE", "postcode": "95860"}}},
{"geometry": {"type": "Point", "coordinates": [-121.3813013458, 38.6105602412]}, "type": "Feature", "properties": {"collection_times": [{"days": "Mon-Fri", "time": "5:00pm"}, {"days": "Sat-Sun", "time": "Closed"}], "id": "9586000002", "name": "USPS COLLECTION BOX - PO LOBBY", "address": {"city": "SACRAMENTO", "state": "CA", "street": "3545 EL CAMINO AVE", "postcode": "95860"}}},
{"geometry": {"type": "Point", "coordinates": [-121.3813013458, 38.6105602412]}, "type": "Feature", "properties": {"collection_times": [{"days": "Mon-Fri", "time": "4:45pm"}, {"days": "Sat", "time": "4:25pm"}, {"days": "Sun", "time": "Closed"}], "id": "9586000005", "name": "USPS COLLECTION BOX - BLUE BOX", "address": {"city": "SACRAMENTO", "state": "CA", "street": "3545 EL CAMINO AVE", "postcode": "95860"}}},
{"geometry": {"type": "Point", "coordinates": [-121.3813013458, 38.6105602412]}, "type": "Feature", "properties": {"collection_times": [{"days": "Mon-Fri", "time": "4:45pm"}, {"days": "Sat", "time": "4:25pm"}, {"days": "Sun", "time": "Closed"}], "id": "9586000006", "name": "USPS COLLECTION BOX - BLUE BOX", "address": {"city": "SACRAMENTO", "state": "CA", "street": "3545 EL CAMINO AVE", "postcode": "95860"}}},
{"geometry": {"type": "Point", "coordinates": [-121.3813013458, 38.6105602412]}, "type": "Feature", "properties": {"collection_times": [{"days": "Mon-Fri", "time": "4:45pm"}, {"days": "Sat", "time": "4:25pm"}, {"days": "Sun", "time": "Closed"}], "id": "9586000007", "name": "USPS COLLECTION BOX - BLUE BOX", "address": {"city": "SACRAMENTO", "state": "CA", "street": "3545 EL CAMINO AVE", "postcode": "95860"}}},
{"geometry": {"type": "Point", "coordinates": [-121.3813013458, 38.6105602412]}, "type": "Feature", "properties": {"collection_times": [{"days": "Mon-Fri", "time": "5:00pm"}, {"days": "Sat-Sun", "time": "Closed"}], "id": "9586000010", "name": "USPS COLLECTION BOX - PO LOBBY", "address": {"city": "SACRAMENTO", "state": "CA", "street": "3545 EL CAMINO AVE", "postcode": "95860"}}},
{"geometry": {"type": "Point", "coordinates": [-121.3813013458, 38.6105602412]}, "type": "Feature", "properties": {"collection_times": [{"days": "Mon-Fri", "time": "5:00pm"}, {"days": "Sat-Sun", "time": "Closed"}], "id": "9586000011", "name": "USPS COLLECTION BOX - PO LOBBY", "address": {"city": "SACRAMENTO", "state": "CA", "street": "3545 EL CAMINO AVE", "postcode": "95860"}}},
{"geometry": {"type": "Point", "coordinates": [-121.3850541791, 38.5700051509]}, "type": "Feature", "properties": {"collection_times": [{"days": "Mon-Fri", "time": "3:15pm"}, {"days": "Sat", "time": "1:30pm"}, {"days": "Sun", "time": "Closed"}], "id": "9586400003", "name": "USPS COLLECTION BOX - BLUE BOX", "address": {"city": "SACRAMENTO", "state": "CA", "street": "3433 AMERICAN RIVER DR", "postcode": "95864"}}},
{"geometry": {"type": "Point", "coordinates": [-121.3642514224, 38.5956283934]}, "type": "Feature", "properties": {"collection_times": [{"days": "Mon-Fri", "time": "1:55pm"}, {"days": "Sat", "time": "3:05pm"}, {"days": "Sun", "time": "Closed"}], "id": "9586400007", "name": "USPS COLLECTION BOX - BLUE BOX", "address": {"city": "SACRAMENTO", "state": "CA", "street": "4307 ARDEN WAY", "postcode": "95864"}}},
{"geometry": {"type": "Point", "coordinates": [-121.3770135771, 38.5857297653]}, "type": "Feature", "properties": {"collection_times": [{"days": "Mon-Sat", "time": "1:00pm"}, {"days": "Sun", "time": "Closed"}], "id": "9586400017", "name": "USPS COLLECTION BOX - BLUE BOX", "address": {"city": "SACRAMENTO", "state": "CA", "street": "510 LA SIERRA DR", "postcode": "95864"}}},
{"geometry": {"type": "Point", "coordinates": [-121.3848774287, 38.5698816213]}, "type": "Feature", "properties": {"collection_times": [{"days": "Mon-Fri", "time": "3:20pm"}, {"days": "Sat", "time": "1:30pm"}, {"days": "Sun", "time": "Closed"}], "id": "9586400032", "name": "USPS COLLECTION BOX - BLUE BOX", "address": {"city": "SACRAMENTO", "state": "CA", "street": "3436 AMERICAN RIVER DR", "postcode": "95864"}}},
{"geometry": {"type": "Point", "coordinates": [-121.3635027435, 38.595556602]}, "type": "Feature", "properties": {"collection_times": [{"days": "Mon-Fri", "time": "5:00pm"}, {"days": "Sat", "time": "2:45pm"}, {"days": "Sun", "time": "Closed"}], "id": "9586400033", "name": "USPS COLLECTION BOX - BLUE BOX", "address": {"city": "SACRAMENTO", "state": "CA", "street": "4320 ARDEN WAY", "postcode": "95864"}}},
{"geometry": {"type": "Point", "coordinates": [-121.3815688928, 38.5699987736]}, "type": "Feature", "properties": {"collection_times": [{"days": "Mon-Fri", "time": "3:00pm"}, {"days": "Sat-Sun", "time": "Closed"}], "id": "9586400044", "name": "USPS COLLECTION BOX - BLUE BOX", "address": {"city": "SACRAMENTO", "state": "CA", "street": "3500 AMERICAN RIVER DR", "postcode": "95864"}}}
]}
