{"type": "FeatureCollection", "features": [
{"geometry": {"type": "Point", "coordinates": [-121.594789752, 39.1376405022]}, "type": "Feature", "properties": {"collection_times": [{"days": "Mon-Fri", "time": "4:00pm"}, {"days": "Sat", "time": "2:00pm"}, {"days": "Sun", "time": "Closed"}], "id": "9590100000", "name": "USPS COLLECTION BOX - BLUE BOX", "address": {"city": "MARYSVILLE", "state": "CA", "street": "300 H ST", "postcode": "95901"}}},
{"geometry": {"type": "Point", "coordinates": [-121.5874167653, 39.1397011645]}, "type": "Feature", "properties": {"collection_times": [{"days": "Mon-Fri", "time": "5:00pm"}, {"days": "Sat", "time": "3:30pm"}, {"days": "Sun", "time": "Closed"}], "id": "9590100003", "name": "USPS COLLECTION BOX - BLUE BOX", "address": {"city": "MARYSVILLE", "state": "CA", "street": "407 C ST", "postcode": "95901"}}},
{"geometry": {"type": "Point", "coordinates": [-121.5634657999, 39.1604433083]}, "type": "Feature", "properties": {"collection_times": [{"days": "Mon-Fri", "time": "5:00pm"}, {"days": "Sat", "time": "3:30pm"}, {"days": "Sun", "time": "Closed"}], "id": "9590100004", "name": "USPS COLLECTION BOX - EXPRESS", "address": {"city": "MARYSVILLE", "state": "CA", "street": "407 C ST", "postcode": "95901"}}},
{"geometry": {"type": "Point", "coordinates": [-121.5927676698, 39.1400029762]}, "type": "Feature", "properties": {"collection_times": [{"days": "Mon-Fri", "time": "4:00pm"}, {"days": "Sat", "time": "10:50am"}, {"days": "Sun", "time": "Closed"}], "id": "9590100005", "name": "USPS COLLECTION BOX - BLUE BOX", "address": {"city": "MARYSVILLE", "state": "CA", "street": "618 5TH ST", "postcode": "95901"}}},
{"geometry": {"type": "Point", "coordinates": [-121.5891944439, 39.1416841553]}, "type": "Feature", "properties": {"collection_times": [{"days": "Mon-Fri", "time": "4:00pm"}, {"days": "Sat", "time": "11:00am"}, {"days": "Sun", "time": "Closed"}], "id": "9590100008", "name": "USPS COLLECTION BOX - BLUE BOX", "address": {"city": "MARYSVILLE", "state": "CA", "street": "602 D ST", "postcode": "95901"}}},
{"geometry": {"type": "Point", "coordinates": [-121.5982281176, 39.1399000866]}, "type": "Feature", "properties": {"collection_times": [{"days": "Mon-Fri", "time": "4:00pm"}, {"days": "Sat", "time": "2:00pm"}, {"days": "Sun", "time": "Closed"}], "id": "9590100009", "name": "USPS COLLECTION BOX - BLUE BOX", "address": {"city": "MARYSVILLE", "state": "CA", "street": "526 J ST", "postcode": "95901"}}},
{"geometry": {"type": "Point", "coordinates": [-121.5894490888, 39.1434653399]}, "type": "Feature", "properties": {"collection_times": [{"days": "Mon-Sat", "time": "10:30am"}, {"days": "Sun", "time": "Closed"}], "id": "9590100011", "name": "USPS COLLECTION BOX - BLUE BOX", "address": {"city": "MARYSVILLE", "state": "CA", "street": "729 D ST", "postcode": "95901"}}},
{"geometry": {"type": "Point", "coordinates": [-121.5740159887, 39.1254424902]}, "type": "Feature", "properties": {"collection_times": [{"days": "Mon-Fri", "time": "3:00pm"}, {"days": "Sat", "time": "12:00pm"}, {"days": "Sun", "time": "Closed"}], "id": "9590100012", "name": "USPS COLLECTION BOX - BLUE BOX", "address": {"city": "MARYSVILLE", "state": "CA", "street": "5730 PACKARD AVE", "postcode": "95901"}}},
{"geometry": {"type": "Point", "coordinates": [-121.5983996031, 39.1496879378]}, "type": "Feature", "properties": {"collection_times": [{"days": "Mon-Fri", "time": "4:00pm"}, {"days": "Sat-Sun", "time": "Closed"}], "id": "9590100030", "name": "USPS COLLECTION BOX - BLUE BOX", "address": {"city": "MARYSVILLE", "state": "CA", "street": "938 14TH ST", "postcode": "95901"}}},
{"geometry": {"type": "Point", "coordinates": [-121.5858465244, 39.1393996826]}, "type": "Feature", "properties": {"collection_times": [{"days": "Mon-Fri", "time": "5:00pm"}, {"days": "Sat", "time": "3:25pm"}, {"days": "Sun", "time": "Closed"}], "id": "9590100031", "name": "USPS COLLECTION BOX - BLUE BOX", "address": {"city": "MARYSVILLE", "state": "CA", "street": "200 4TH ST", "postcode": "95901"}}},
{"geometry": {"type": "Point", "coordinates": [-121.5874167653, 39.1397011645]}, "type": "Feature", "properties": {"collection_times": [{"days": "Mon-Fri", "time": "5:00pm"}, {"days": "Sat", "time": "3:30pm"}, {"days": "Sun", "time": "Closed"}], "id": "9590100032", "name": "USPS COLLECTION BOX - PO LOBBY", "address": {"city": "MARYSVILLE", "state": "CA", "street": "407 C ST", "postcode": "95901"}}},
{"geometry": {"type": "Point", "coordinates": [-121.51665139, 39.203221765]}, "type": "Feature", "properties": {"collection_times": [{"days": "Mon-Sat", "time": "12:00pm"}, {"days": "Sun", "time": "Closed"}], "id": "9590100043", "name": "USPS COLLECTION BOX - BLUE BOX", "address": {"city": "MARYSVILLE", "state": "CA", "street": "2789 HIGHWAY 20", "postcode": "95901"}}},
{"geometry": {"type": "Point", "coordinates": [-121.3965310454, 39.1143290648]}, "type": "Feature", "properties": {"collection_times": [{"days": "Mon-Fri", "time": "3:45pm"}, {"days": "Sat-Sun", "time": "Closed"}], "id": "9590300005", "name": "USPS COLLECTION BOX - BLUE BOX", "address": {"city": "MARYSVILLE", "state": "CA", "street": "17851 16TH ST", "postcode": "95903"}}},
{"geometry": {"type": "Point", "coordinates": [-121.3654073706, 39.1130310338]}, "type": "Feature", "properties": {"collection_times": [{"days": "Mon-Fri", "time": "2:00pm"}, {"days": "Sat", "time": "12:00pm"}, {"days": "Sun", "time": "Closed"}], "id": "9590300011", "name": "USPS COLLECTION BOX - BLUE BOX", "address": {"city": "MARYSVILLE", "state": "CA", "street": "15301 WARREN SHINGLE RD", "postcode": "95903"}}},
{"geometry": {"type": "Point", "coordinates": [-121.3965265475, 39.1144402432]}, "type": "Feature", "properties": {"collection_times": [{"days": "Mon-Fri", "time": "4:00pm"}, {"days": "Sat-Sun", "time": "Closed"}], "id": "9590300012", "name": "USPS COLLECTION BOX - PO LOBBY", "address": {"city": "MARYSVILLE", "state": "CA", "street": "17852 16TH ST", "postcode": "95903"}}},
{"geometry": {"type": "Point", "coordinates": [-120.8525721721, 39.4898184935]}, "type": "Feature", "properties": {"collection_times": [{"days": "Mon-Sat", "time": "1:15pm"}, {"days": "Sun", "time": "Closed"}], "id": "9591000000", "name": "USPS COLLECTION BOX - BLUE BOX", "address": {"city": "ALLEGHANY", "state": "CA", "street": "356 MAIN ST", "postcode": "95910"}}},
{"geometry": {"type": "Point", "coordinates": [-120.8525721721, 39.4898184935]}, "type": "Feature", "properties": {"collection_times": [{"days": "Mon-Sat", "time": "1:15pm"}, {"days": "Sun", "time": "Closed"}], "id": "9591000001", "name": "USPS COLLECTION BOX - PO LOBBY", "address": {"city": "ALLEGHANY", "state": "CA", "street": "356 MAIN ST", "postcode": "95910"}}},
{"geometry": {"type": "Point", "coordinates": [-122.0084189129, 39.0077346873]}, "type": "Feature", "properties": {"collection_times": [{"days": "Mon-Fri", "time": "5:00pm"}, {"days": "Sat", "time": "12:00pm"}, {"days": "Sun", "time": "Closed"}], "id": "9591200000", "name": "USPS COLLECTION BOX - BLUE BOX", "address": {"city": "ARBUCKLE", "state": "CA", "street": "415 5TH ST", "postcode": "95912"}}},
{"geometry": {"type": "Point", "coordinates": [-122.0084189129, 39.0077346873]}, "type": "Feature", "properties": {"collection_times": [{"days": "Mon-Fri", "time": "5:00pm"}, {"days": "Sat", "time": "12:00pm"}, {"days": "Sun", "time": "Closed"}], "id": "9591200001", "name": "USPS COLLECTION BOX - PO LOBBY", "address": {"city": "ARBUCKLE", "state": "CA", "street": "415 5TH ST", "postcode": "95912"}}},
{"geometry": {"type": "Point", "coordinates": [-122.0084189129, 39.0077346873]}, "type": "Feature", "properties": {"collection_times": [{"days": "Mon-Fri", "time": "5:00pm"}, {"days": "Sat", "time": "12:00pm"}, {"days": "Sun", "time": "Closed"}], "id": "9591200002", "name": "USPS COLLECTION BOX - PO LOBBY", "address": {"city": "ARBUCKLE", "state": "CA", "street": "415 5TH ST", "postcode": "95912"}}},
{"geometry": {"type": "Point", "coordinates": [-122.0084189129, 39.0077346873]}, "type": "Feature", "properties": {"collection_times": [{"days": "Mon-Fri", "time": "5:00pm"}, {"days": "Sat", "time": "12:00pm"}, {"days": "Sun", "time": "Closed"}], "id": "9591200003", "name": "USPS COLLECTION BOX - PO LOBBY", "address": {"city": "ARBUCKLE", "state": "CA", "street": "415 5TH ST", "postcode": "95912"}}},
{"geometry": {"type": "Point", "coordinates": [-122.1947279208, 39.6195710835]}, "type": "Feature", "properties": {"collection_times": [{"days": "Mon-Fri", "time": "11:45am"}, {"days": "Sat", "time": "9:30am"}, {"days": "Sun", "time": "Closed"}], "id": "9591300001", "name": "USPS COLLECTION BOX - PO LOBBY", "address": {"city": "ARTOIS", "state": "CA", "street": "357 FRONT ST", "postcode": "95913"}}},
{"geometry": {"type": "Point", "coordinates": [-121.4068853977, 39.3871939243]}, "type": "Feature", "properties": {"collection_times": [{"days": "Mon-Fri", "time": "3:30pm"}, {"days": "Sat", "time": "10:00am"}, {"days": "Sun", "time": "Closed"}], "id": "9591400000", "name": "USPS COLLECTION BOX - BLUE BOX", "address": {"city": "BANGOR", "state": "CA", "street": "5673 LA PORTE RD", "postcode": "95914"}}},
{"geometry": {"type": "Point", "coordinates": [-121.4068853977, 39.3871939243]}, "type": "Feature", "properties": {"collection_times": [{"days": "Mon-Fri", "time": "3:30pm"}, {"days": "Sat", "time": "10:00am"}, {"days": "Sun", "time": "Closed"}], "id": "9591400001", "name": "USPS COLLECTION BOX - PO LOBBY", "address": {"city": "BANGOR", "state": "CA", "street": "5673 LA PORTE RD", "postcode": "95914"}}},
{"geometry": {"type": "Point", "coordinates": [-121.4068853977, 39.3871939243]}, "type": "Feature", "properties": {"collection_times": [{"days": "Mon-Fri", "time": "3:30pm"}, {"days": "Sat", "time": "10:00am"}, {"days": "Sun", "time": "Closed"}], "id": "9591400002", "name": "USPS COLLECTION BOX - PO LOBBY", "address": {"city": "BANGOR", "state": "CA", "street": "5673 LA PORTE RD", "postcode": "95914"}}},
{"geometry": {"type": "Point", "coordinates": [-121.4363878544, 39.6238489345]}, "type": "Feature", "properties": {"collection_times": [{"days": "Mon-Fri", "time": "12:45pm"}, {"days": "Sat", "time": "10:45am"}, {"days": "Sun", "time": "Closed"}], "id": "9591600000", "name": "USPS COLLECTION BOX - BLUE BOX", "address": {"city": "BERRY CREEK", "state": "CA", "street": "5 WHISPERING CHAPEL LN", "postcode": "95916"}}},
{"geometry": {"type": "Point", "coordinates": [-121.4363878544, 39.6238489345]}, "type": "Feature", "properties": {"collection_times": [{"days": "Mon-Fri", "time": "1:00pm"}, {"days": "Sat", "time": "10:45am"}, {"days": "Sun", "time": "Closed"}], "id": "9591600001", "name": "USPS COLLECTION BOX - PO LOBBY", "address": {"city": "BERRY CREEK", "state": "CA", "street": "5 WHISPERING CHAPEL LN", "postcode": "95916"}}},
{"geometry": {"type": "Point", "coordinates": [-121.4363878544, 39.6238489345]}, "type": "Feature", "properties": {"collection_times": [{"days": "Mon-Fri", "time": "1:00pm"}, {"days": "Sat", "time": "10:45am"}, {"days": "Sun", "time": "Closed"}], "id": "9591600002", "name": "USPS COLLECTION BOX - PO LOBBY", "address": {"city": "BERRY CREEK", "state": "CA", "street": "5 WHISPERING CHAPEL LN", "postcode": "95916"}}},
{"geometry": {"type": "Point", "coordinates": [-121.7105528683, 39.4130545332]}, "type": "Feature", "properties": {"collection_times": [{"days": "Mon-Fri", "time": "5:00pm"}, {"days": "Sat", "time": "11:00am"}, {"days": "Sun", "time": "Closed"}], "id": "9591700000", "name": "USPS COLLECTION BOX - BLUE BOX", "address": {"city": "BIGGS", "state": "CA", "street": "2994 6TH ST", "postcode": "95917"}}},
{"geometry": {"type": "Point", "coordinates": [-121.7105528683, 39.4130545332]}, "type": "Feature", "properties": {"collection_times": [{"days": "Mon-Fri", "time": "5:00pm"}, {"days": "Sat", "time": "11:00am"}, {"days": "Sun", "time": "Closed"}], "id": "9591700001", "name": "USPS COLLECTION BOX - PO LOBBY", "address": {"city": "BIGGS", "state": "CA", "street": "2994 6TH ST", "postcode": "95917"}}},
{"geometry": {"type": "Point", "coordinates": [-121.7105528683, 39.4130545332]}, "type": "Feature", "properties": {"collection_times": [{"days": "Mon-Fri", "time": "5:00pm"}, {"days": "Sat", "time": "11:00am"}, {"days": "Sun", "time": "Closed"}], "id": "9591700002", "name": "USPS COLLECTION BOX - PO LOBBY", "address": {"city": "BIGGS", "state": "CA", "street": "2994 6TH ST", "postcode": "95917"}}},
{"geometry": {"type": "Point", "coordinates": [-121.4092482162, 39.2389912454]}, "type": "Feature", "properties": {"collection_times": [{"days": "Mon-Fri", "time": "3:15pm"}, {"days": "Sat", "time": "11:00am"}, {"days": "Sun", "time": "Closed"}], "id": "9591800000", "name": "USPS COLLECTION BOX - BLUE BOX", "address": {"city": "BROWNS VALLEY", "state": "CA", "street": "5534 MARYSVILLE RD", "postcode": "95918"}}},
{"geometry": {"type": "Point", "coordinates": [-121.4092482162, 39.2389912454]}, "type": "Feature", "properties": {"collection_times": [{"days": "Mon-Fri", "time": "3:30pm"}, {"days": "Sat", "time": "11:00am"}, {"days": "Sun", "time": "Closed"}], "id": "9591800001", "name": "USPS COLLECTION BOX - PO LOBBY", "address": {"city": "BROWNS VALLEY", "state": "CA", "street": "5534 MARYSVILLE RD", "postcode": "95918"}}},
{"geometry": {"type": "Point", "coordinates": [-121.4092482162, 39.2389912454]}, "type": "Feature", "properties": {"collection_times": [{"days": "Mon-Fri", "time": "3:30pm"}, {"days": "Sat", "time": "11:00am"}, {"days": "Sun", "time": "Closed"}], "id": "9591800002", "name": "USPS COLLECTION BOX - PO LOBBY", "address": {"city": "BROWNS VALLEY", "state": "CA", "street": "5534 MARYSVILLE RD", "postcode": "95918"}}},
{"geometry": {"type": "Point", "coordinates": [-121.2850383419, 39.4515994771]}, "type": "Feature", "properties": {"collection_times": [{"days": "Mon-Fri", "time": "3:30pm"}, {"days": "Sat", "time": "11:00am"}, {"days": "Sun", "time": "Closed"}], "id": "9591900000", "name": "USPS COLLECTION BOX - BLUE BOX", "address": {"city": "BROWNSVILLE", "state": "CA", "street": "8975 FRENCHTOWN EXT", "postcode": "95919"}}},
{"geometry": {"type": "Point", "coordinates": [-121.2850383419, 39.4515994771]}, "type": "Feature", "properties": {"collection_times": [{"days": "Mon-Fri", "time": "4:00pm"}, {"days": "Sat", "time": "11:00am"}, {"days": "Sun", "time": "Closed"}], "id": "9591900001", "name": "USPS COLLECTION BOX - PO LOBBY", "address": {"city": "BROWNSVILLE", "state": "CA", "street": "8975 FRENCHTOWN EXT", "postcode": "95919"}}},
{"geometry": {"type": "Point", "coordinates": [-121.2850383419, 39.4515994771]}, "type": "Feature", "properties": {"collection_times": [{"days": "Mon-Fri", "time": "4:00pm"}, {"days": "Sat", "time": "11:00am"}, {"days": "Sun", "time": "Closed"}], "id": "9591900002", "name": "USPS COLLECTION BOX - PO LOBBY", "address": {"city": "BROWNSVILLE", "state": "CA", "street": "8975 FRENCHTOWN EXT", "postcode": "95919"}}},
{"geometry": {"type": "Point", "coordinates": [-121.9895985462, 39.4641897292]}, "type": "Feature", "properties": {"collection_times": [{"days": "Mon-Fri", "time": "3:30pm"}, {"days": "Sat", "time": "11:30am"}, {"days": "Sun", "time": "Closed"}], "id": "9592000000", "name": "USPS COLLECTION BOX - BLUE BOX", "address": {"city": "BUTTE CITY", "state": "CA", "street": "31 KILARNEY ST", "postcode": "95920"}}},
{"geometry": {"type": "Point", "coordinates": [-121.9895985462, 39.4641897292]}, "type": "Feature", "properties": {"collection_times": [{"days": "Mon-Fri", "time": "3:30pm"}, {"days": "Sat", "time": "11:30am"}, {"days": "Sun", "time": "Closed"}], "id": "9592000001", "name": "USPS COLLECTION BOX - PO LOBBY", "address": {"city": "BUTTE CITY", "state": "CA", "street": "31 KILARNEY ST", "postcode": "95920"}}},
{"geometry": {"type": "Point", "coordinates": [-121.9895985462, 39.4641897292]}, "type": "Feature", "properties": {"collection_times": [{"days": "Mon-Fri", "time": "3:30pm"}, {"days": "Sat", "time": "11:30am"}, {"days": "Sun", "time": "Closed"}], "id": "9592000002", "name": "USPS COLLECTION BOX - PO LOBBY", "address": {"city": "BUTTE CITY", "state": "CA", "street": "31 KILARNEY ST", "postcode": "95920"}}},
{"geometry": {"type": "Point", "coordinates": [-121.0513446754, 39.4522053229]}, "type": "Feature", "properties": {"collection_times": [{"days": "Mon-Fri", "time": "3:45pm"}, {"days": "Sat", "time": "11:00am"}, {"days": "Sun", "time": "Closed"}], "id": "9592200000", "name": "USPS COLLECTION BOX - BLUE BOX", "address": {"city": "CAMPTONVILLE", "state": "CA", "street": "15318 CLEVELAND AVE", "postcode": "95922"}}},
{"geometry": {"type": "Point", "coordinates": [-121.0513446754, 39.4522053229]}, "type": "Feature", "properties": {"collection_times": [{"days": "Mon-Fri", "time": "3:45pm"}, {"days": "Sat", "time": "11:00am"}, {"days": "Sun", "time": "Closed"}], "id": "9592200001", "name": "USPS COLLECTION BOX - PO LOBBY", "address": {"city": "CAMPTONVILLE", "state": "CA", "street": "15318 CLEVELAND AVE", "postcode": "95922"}}},
{"geometry": {"type": "Point", "coordinates": [-121.1534899957, 40.1700442911]}, "type": "Feature", "properties": {"collection_times": [{"days": "Mon-Fri", "time": "2:00pm"}, {"days": "Sat", "time": "11:15am"}, {"days": "Sun", "time": "Closed"}], "id": "9592300000", "name": "USPS COLLECTION BOX - BLUE BOX", "address": {"city": "CANYONDAM", "state": "CA", "street": "29586 HIGHWAY 89", "postcode": "95923"}}},
{"geometry": {"type": "Point", "coordinates": [-121.1534899957, 40.1700442911]}, "type": "Feature", "properties": {"collection_times": [{"days": "Mon-Fri", "time": "2:00pm"}, {"days": "Sat", "time": "11:15am"}, {"days": "Sun", "time": "Closed"}], "id": "9592300001", "name": "USPS COLLECTION BOX - PO LOBBY", "address": {"city": "CANYONDAM", "state": "CA", "street": "29586 HIGHWAY 89", "postcode": "95923"}}},
{"geometry": {"type": "Point", "coordinates": [-121.0233294762, 39.198870537]}, "type": "Feature", "properties": {"collection_times": [{"days": "Mon-Fri", "time": "4:00pm"}, {"days": "Sat", "time": "10:30am"}, {"days": "Sun", "time": "Closed"}], "id": "9592400000", "name": "USPS COLLECTION BOX - BLUE BOX", "address": {"city": "CEDAR RIDGE", "state": "CA", "street": "12700 COLFAX HWY", "postcode": "95924"}}},
{"geometry": {"type": "Point", "coordinates": [-121.0205144641, 39.1989718339]}, "type": "Feature", "properties": {"collection_times": [{"days": "Mon-Fri", "time": "4:00pm"}, {"days": "Sat", "time": "10:30am"}, {"days": "Sun", "time": "Closed"}], "id": "9592400001", "name": "USPS COLLECTION BOX - PO LOBBY", "address": {"city": "CEDAR RIDGE", "state": "CA", "street": "12700 COLFAX HWY 174", "postcode": "95924"}}},
{"geometry": {"type": "Point", "coordinates": [-121.0205144641, 39.1989718339]}, "type": "Feature", "properties": {"collection_times": [{"days": "Mon-Fri", "time": "4:00pm"}, {"days": "Sat", "time": "10:30am"}, {"days": "Sun", "time": "Closed"}], "id": "9592400002", "name": "USPS COLLECTION BOX - PO LOBBY", "address": {"city": "CEDAR RIDGE", "state": "CA", "street": "12700 COLFAX HWY 174", "postcode": "95924"}}},
{"geometry": {"type": "Point", "coordinates": [-121.2207124987, 39.4839919076]}, "type": "Feature", "properties": {"collection_times": [{"days": "Mon-Fri", "time": "1:00pm"}, {"days": "Sat", "time": "9:30am"}, {"days": "Sun", "time": "Closed"}], "id": "9592500001", "name": "USPS COLLECTION BOX - PO LOBBY", "address": {"city": "CHALLENGE", "state": "CA", "street": "18040 OREGON HILL RD", "postcode": "95925"}}},
{"geometry": {"type": "Point", "coordinates": [-121.2207124987, 39.4839919076]}, "type": "Feature", "properties": {"collection_times": [{"days": "Mon-Fri", "time": "1:00pm"}, {"days": "Sat", "time": "9:30am"}, {"days": "Sun", "time": "Closed"}], "id": "9592500002", "name": "USPS COLLECTION BOX - PO LOBBY", "address": {"city": "CHALLENGE", "state": "CA", "street": "18040 OREGON HILL RD", "postcode": "95925"}}},
{"geometry": {"type": "Point", "coordinates": [-121.847742694, 39.758041576]}, "type": "Feature", "properties": {"collection_times": [{"days": "Mon-Fri", "time": "4:00pm"}, {"days": "Sat", "time": "3:15pm"}, {"days": "Sun", "time": "Closed"}], "id": "9592600020", "name": "USPS COLLECTION BOX - BLUE BOX", "address": {"city": "CHICO", "state": "CA", "street": "2200 PILLSBURY RD", "postcode": "95926"}}},
{"geometry": {"type": "Point", "coordinates": [-121.847742694, 39.758041576]}, "type": "Feature", "properties": {"collection_times": [{"days": "Mon-Fri", "time": "4:00pm"}, {"days": "Sat", "time": "3:15pm"}, {"days": "Sun", "time": "Closed"}], "id": "9592600022", "name": "USPS COLLECTION BOX - BLUE BOX", "address": {"city": "CHICO", "state": "CA", "street": "2200 PILLSBURY RD", "postcode": "95926"}}},
{"geometry": {"type": "Point", "coordinates": [-121.847742694, 39.758041576]}, "type": "Feature", "properties": {"collection_times": [{"days": "Mon-Fri", "time": "4:00pm"}, {"days": "Sat", "time": "3:15pm"}, {"days": "Sun", "time": "Closed"}], "id": "9592600023", "name": "USPS COLLECTION BOX - BLUE BOX", "address": {"city": "CHICO", "state": "CA", "street": "2200 PILLSBURY RD", "postcode": "95926"}}},
{"geometry": {"type": "Point", "coordinates": [-121.8331102446, 39.7350631183]}, "type": "Feature", "properties": {"collection_times": [{"days": "Mon-Fri", "time": "5:00pm"}, {"days": "Sat", "time": "4:15pm"}, {"days": "Sun", "time": "Closed"}], "id": "9592600026", "name": "USPS COLLECTION BOX - PO LOBBY", "address": {"city": "CHICO", "state": "CA", "street": "550 VALLOMBROSA AVE", "postcode": "95926"}}},
{"geometry": {"type": "Point", "coordinates": [-121.8331102446, 39.7350631183]}, "type": "Feature", "properties": {"collection_times": [{"days": "Mon-Fri", "time": "5:00pm"}, {"days": "Sat", "time": "4:30pm"}, {"days": "Sun", "time": "Closed"}], "id": "9592600027", "name": "USPS COLLECTION BOX - BLUE BOX", "address": {"city": "CHICO", "state": "CA", "street": "550 VALLOMBROSA AVE", "postcode": "95926"}}},
{"geometry": {"type": "Point", "coordinates": [-121.84797676, 39.7439340969]}, "type": "Feature", "properties": {"collection_times": [{"days": "Mon-Fri", "time": "5:00pm"}, {"days": "Sat", "time": "4:30pm"}, {"days": "Sun", "time": "Closed"}], "id": "9592600028", "name": "USPS COLLECTION BOX - EXPRESS", "address": {"city": "CHICO", "state": "CA", "street": "550 VALLOMBROSA AVE", "postcode": "95926"}}},
{"geometry": {"type": "Point", "coordinates": [-121.8496562916, 39.7436372049]}, "type": "Feature", "properties": {"collection_times": [{"days": "Mon-Fri", "time": "3:40pm"}, {"days": "Sat", "time": "12:00pm"}, {"days": "Sun", "time": "Closed"}], "id": "9592600031", "name": "USPS COLLECTION BOX - BLUE BOX", "address": {"city": "CHICO", "state": "CA", "street": "1600 ESPLANADE", "postcode": "95926"}}},
{"geometry": {"type": "Point", "coordinates": [-121.8347439109, 39.7609758344]}, "type": "Feature", "properties": {"collection_times": [{"days": "Mon-Fri", "time": "4:00pm"}, {"days": "Sat", "time": "2:30pm"}, {"days": "Sun", "time": "Closed"}], "id": "9592600033", "name": "USPS COLLECTION BOX - BLUE BOX", "address": {"city": "CHICO", "state": "CA", "street": "1074 EAST AVE", "postcode": "95926"}}},
{"geometry": {"type": "Point", "coordinates": [-121.8646148077, 39.7548634855]}, "type": "Feature", "properties": {"collection_times": [{"days": "Mon-Fri", "time": "4:00pm"}, {"days": "Sat", "time": "2:00pm"}, {"days": "Sun", "time": "Closed"}], "id": "9592600035", "name": "USPS COLLECTION BOX - BLUE BOX", "address": {"city": "CHICO", "state": "CA", "street": "236 W EAST AVE", "postcode": "95926"}}},
{"geometry": {"type": "Point", "coordinates": [-121.8254612319, 39.750091429]}, "type": "Feature", "properties": {"collection_times": [{"days": "Mon-Fri", "time": "4:00pm"}, {"days": "Sat", "time": "2:30pm"}, {"days": "Sun", "time": "Closed"}], "id": "9592600040", "name": "USPS COLLECTION BOX - BLUE BOX", "address": {"city": "CHICO", "state": "CA", "street": "1283 E 1ST AVE", "postcode": "95926"}}},
{"geometry": {"type": "Point", "coordinates": [-121.8254612319, 39.750091429]}, "type": "Feature", "properties": {"collection_times": [{"days": "Mon-Fri", "time": "4:00pm"}, {"days": "Sat", "time": "2:30pm"}, {"days": "Sun", "time": "Closed"}], "id": "9592600041", "name": "USPS COLLECTION BOX - BLUE BOX", "address": {"city": "CHICO", "state": "CA", "street": "1283 E 1ST AVE", "postcode": "95926"}}},
{"geometry": {"type": "Point", "coordinates": [-121.8500614662, 39.7552273584]}, "type": "Feature", "properties": {"collection_times": [{"days": "Mon-Fri", "time": "3:40pm"}, {"days": "Sat", "time": "1:00pm"}, {"days": "Sun", "time": "Closed"}], "id": "9592600088", "name": "USPS COLLECTION BOX - BLUE BOX", "address": {"city": "CHICO", "state": "CA", "street": "108 PARMAC RD", "postcode": "95926"}}},
{"geometry": {"type": "Point", "coordinates": [-121.832637061, 39.7353292841]}, "type": "Feature", "properties": {"collection_times": [{"days": "Mon-Fri", "time": "5:00pm"}, {"days": "Sat", "time": "3:35pm"}, {"days": "Sun", "time": "Closed"}], "id": "9592600091", "name": "USPS COLLECTION BOX - PO LOBBY", "address": {"city": "CHICO", "state": "CA", "street": "554 VALLOMBROSA AVE", "postcode": "95926"}}},
{"geometry": {"type": "Point", "coordinates": [-121.8347439109, 39.7609758344]}, "type": "Feature", "properties": {"collection_times": [{"days": "Mon-Fri", "time": "4:00pm"}, {"days": "Sat", "time": "2:30pm"}, {"days": "Sun", "time": "Closed"}], "id": "9592600092", "name": "USPS COLLECTION BOX - BLUE BOX", "address": {"city": "CHICO", "state": "CA", "street": "1074 EAST AVE", "postcode": "95926"}}},
{"geometry": {"type": "Point", "coordinates": [-121.8232195247, 39.7610929474]}, "type": "Feature", "properties": {"collection_times": [{"days": "Mon-Fri", "time": "4:00pm"}, {"days": "Sat", "time": "11:00am"}, {"days": "Sun", "time": "Closed"}], "id": "9592600098", "name": "USPS COLLECTION BOX - BLUE BOX", "address": {"city": "CHICO", "state": "CA", "street": "1354 EAST AVE", "postcode": "95926"}}},
{"geometry": {"type": "Point", "coordinates": [-121.8014483479, 39.7238048978]}, "type": "Feature", "properties": {"collection_times": [{"days": "Mon-Fri", "time": "3:30pm"}, {"days": "Sat-Sun", "time": "Closed"}], "id": "9592600100", "name": "USPS COLLECTION BOX - BLUE BOX", "address": {"city": "CHICO", "state": "CA", "street": "2039 FOREST AVE", "postcode": "95926"}}},
{"geometry": {"type": "Point", "coordinates": [-121.8014483479, 39.7238048978]}, "type": "Feature", "properties": {"collection_times": [{"days": "Mon-Fri", "time": "3:30pm"}, {"days": "Sat-Sun", "time": "Closed"}], "id": "9592600101", "name": "USPS COLLECTION BOX - BLUE BOX", "address": {"city": "CHICO", "state": "CA", "street": "2039 FOREST AVE", "postcode": "95926"}}},
{"geometry": {"type": "Point", "coordinates": [-121.8331102446, 39.7350631183]}, "type": "Feature", "properties": {"collection_times": [{"days": "Mon-Fri", "time": "5:00pm"}, {"days": "Sat", "time": "4:15pm"}, {"days": "Sun", "time": "Closed"}], "id": "9592600102", "name": "USPS COLLECTION BOX - APC", "address": {"city": "CHICO", "state": "CA", "street": "550 VALLOMBROSA AVE", "postcode": "95926"}}},
{"geometry": {"type": "Point", "coordinates": [-121.8331102446, 39.7350631183]}, "type": "Feature", "properties": {"collection_times": [{"days": "Mon-Fri", "time": "5:00pm"}, {"days": "Sat", "time": "4:15pm"}, {"days": "Sun", "time": "Closed"}], "id": "9592600104", "name": "USPS COLLECTION BOX - APC", "address": {"city": "CHICO", "state": "CA", "street": "550 VALLOMBROSA AVE", "postcode": "95926"}}},
{"geometry": {"type": "Point", "coordinates": [-121.806664014, 39.7272650528]}, "type": "Feature", "properties": {"collection_times": [{"days": "Mon-Fri", "time": "3:30pm"}, {"days": "Sat-Sun", "time": "Closed"}], "id": "9592800003", "name": "USPS COLLECTION BOX - BLUE BOX", "address": {"city": "CHICO", "state": "CA", "street": "1950 E 20TH ST", "postcode": "95928"}}},
{"geometry": {"type": "Point", "coordinates": [-121.841227709, 39.7282197007]}, "type": "Feature", "properties": {"collection_times": [{"days": "Mon-Fri", "time": "3:40pm"}, {"days": "Sat-Sun", "time": "Closed"}], "id": "9592800007", "name": "USPS COLLECTION BOX - BLUE BOX", "address": {"city": "CHICO", "state": "CA", "street": "300 SALEM ST", "postcode": "95928"}}},
{"geometry": {"type": "Point", "coordinates": [-121.8388490314, 39.7276529977]}, "type": "Feature", "properties": {"collection_times": [{"days": "Mon-Fri", "time": "5:00pm"}, {"days": "Sat", "time": "4:00pm"}, {"days": "Sun", "time": "Closed"}], "id": "9592800014", "name": "USPS COLLECTION BOX - BLUE BOX", "address": {"city": "CHICO", "state": "CA", "street": "501 BROADWAY ST", "postcode": "95928"}}},
{"geometry": {"type": "Point", "coordinates": [-121.8388490314, 39.7276529977]}, "type": "Feature", "properties": {"collection_times": [{"days": "Mon-Fri", "time": "5:00pm"}, {"days": "Sat", "time": "4:00pm"}, {"days": "Sun", "time": "Closed"}], "id": "9592800018", "name": "USPS COLLECTION BOX - BLUE BOX", "address": {"city": "CHICO", "state": "CA", "street": "501 BROADWAY ST", "postcode": "95928"}}},
{"geometry": {"type": "Point", "coordinates": [-121.8173184012, 39.7258805991]}, "type": "Feature", "properties": {"collection_times": [{"days": "Mon-Fri", "time": "5:00pm"}, {"days": "Sat", "time": "4:00pm"}, {"days": "Sun", "time": "Closed"}], "id": "9592800019", "name": "USPS COLLECTION BOX - EXPRESS", "address": {"city": "CHICO", "state": "CA", "street": "501 BROADWAY ST", "postcode": "95928"}}},
{"geometry": {"type": "Point", "coordinates": [-121.8122972646, 39.7363537265]}, "type": "Feature", "properties": {"collection_times": [{"days": "Mon-Fri", "time": "3:30pm"}, {"days": "Sat-Sun", "time": "Closed"}], "id": "9592800023", "name": "USPS COLLECTION BOX - BLUE BOX", "address": {"city": "CHICO", "state": "CA", "street": "1560 HUMBOLDT RD", "postcode": "95928"}}},
{"geometry": {"type": "Point", "coordinates": [-121.7953265352, 39.7152781296]}, "type": "Feature", "properties": {"collection_times": [{"days": "Mon-Fri", "time": "3:40pm"}, {"days": "Sat-Sun", "time": "Closed"}], "id": "9592800028", "name": "USPS COLLECTION BOX - BLUE BOX", "address": {"city": "CHICO", "state": "CA", "street": "2485 NOTRE DAME BLVD", "postcode": "95928"}}},
{"geometry": {"type": "Point", "coordinates": [-121.7953265352, 39.7152781296]}, "type": "Feature", "properties": {"collection_times": [{"days": "Mon-Fri", "time": "3:40pm"}, {"days": "Sat-Sun", "time": "Closed"}], "id": "9592800029", "name": "USPS COLLECTION BOX - BLUE BOX", "address": {"city": "CHICO", "state": "CA", "street": "2485 NOTRE DAME BLVD", "postcode": "95928"}}},
{"geometry": {"type": "Point", "coordinates": [-121.8182132423, 39.70681879]}, "type": "Feature", "properties": {"collection_times": [{"days": "Mon-Fri", "time": "10:00am"}, {"days": "Sat-Sun", "time": "Closed"}], "id": "9592800030", "name": "USPS COLLECTION BOX - BLUE BOX", "address": {"city": "CHICO", "state": "CA", "street": "312 OTTERSON DR", "postcode": "95928"}}},
{"geometry": {"type": "Point", "coordinates": [-121.8494327124, 39.7238758754]}, "type": "Feature", "properties": {"collection_times": [{"days": "Mon-Fri", "time": "3:40pm"}, {"days": "Sat-Sun", "time": "Closed"}], "id": "9592800033", "name": "USPS COLLECTION BOX - BLUE BOX", "address": {"city": "CHICO", "state": "CA", "street": "207 WALNUT ST", "postcode": "95928"}}},
{"geometry": {"type": "Point", "coordinates": [-121.8388490314, 39.7276529977]}, "type": "Feature", "properties": {"collection_times": [{"days": "Mon-Fri", "time": "5:00pm"}, {"days": "Sat", "time": "9:00am"}, {"days": "Sun", "time": "Closed"}], "id": "9592800037", "name": "USPS COLLECTION BOX - PO LOBBY", "address": {"city": "CHICO", "state": "CA", "street": "501 BROADWAY ST", "postcode": "95928"}}},
{"geometry": {"type": "Point", "coordinates": [-121.8182203401, 39.7068258878]}, "type": "Feature", "properties": {"collection_times": [{"days": "Mon-Fri", "time": "10:00am"}, {"days": "Sat-Sun", "time": "Closed"}], "id": "9592800038", "name": "USPS COLLECTION BOX - BLUE BOX", "address": {"city": "CHICO", "state": "CA", "street": "311 OTTERSON DR", "postcode": "95928"}}},
{"geometry": {"type": "Point", "coordinates": [-121.1614833322, 39.5323888736]}, "type": "Feature", "properties": {"collection_times": [{"days": "Mon-Fri", "time": "3:25pm"}, {"days": "Sat", "time": "10:55am"}, {"days": "Sun", "time": "Closed"}], "id": "9593000000", "name": "USPS COLLECTION BOX - PO LOBBY", "address": {"city": "CLIPPER MILLS", "state": "CA", "street": "12225 LA PORTE RD", "postcode": "95930"}}},
{"geometry": {"type": "Point", "coordinates": [-121.1614833322, 39.5323888736]}, "type": "Feature", "properties": {"collection_times": [{"days": "Mon-Fri", "time": "3:25pm"}, {"days": "Sat", "time": "10:55am"}, {"days": "Sun", "time": "Closed"}], "id": "9593000001", "name": "USPS COLLECTION BOX - BLUE BOX", "address": {"city": "CLIPPER MILLS", "state": "CA", "street": "12225 LA PORTE RD", "postcode": "95930"}}},
{"geometry": {"type": "Point", "coordinates": [-121.1614833322, 39.5323888736]}, "type": "Feature", "properties": {"collection_times": [{"days": "Mon-Fri", "time": "3:25pm"}, {"days": "Sat", "time": "10:55am"}, {"days": "Sun", "time": "Closed"}], "id": "9593000002", "name": "USPS COLLECTION BOX - PO LOBBY", "address": {"city": "CLIPPER MILLS", "state": "CA", "street": "12225 LA PORTE RD", "postcode": "95930"}}},
{"geometry": {"type": "Point", "coordinates": [-122.0060886818, 39.2135660074]}, "type": "Feature", "properties": {"collection_times": [{"days": "Mon-Fri", "time": "5:00pm"}, {"days": "Sat", "time": "3:45pm"}, {"days": "Sun", "time": "Closed"}], "id": "9593200002", "name": "USPS COLLECTION BOX - BLUE BOX", "address": {"city": "COLUSA", "state": "CA", "street": "357 MARKET ST", "postcode": "95932"}}},
{"geometry": {"type": "Point", "coordinates": [-122.0060886818, 39.2135660074]}, "type": "Feature", "properties": {"collection_times": [{"days": "Mon-Fri", "time": "5:00pm"}, {"days": "Sat", "time": "3:45pm"}, {"days": "Sun", "time": "Closed"}], "id": "9593200003", "name": "USPS COLLECTION BOX - BLUE BOX", "address": {"city": "COLUSA", "state": "CA", "street": "357 MARKET ST", "postcode": "95932"}}},
{"geometry": {"type": "Point", "coordinates": [-122.0060886818, 39.2135660074]}, "type": "Feature", "properties": {"collection_times": [{"days": "Mon-Fri", "time": "5:00pm"}, {"days": "Sat", "time": "3:45pm"}, {"days": "Sun", "time": "Closed"}], "id": "9593200004", "name": "USPS COLLECTION BOX - PO LOBBY", "address": {"city": "COLUSA", "state": "CA", "street": "357 MARKET ST", "postcode": "95932"}}},
{"geometry": {"type": "Point", "coordinates": [-122.0060886818, 39.2135660074]}, "type": "Feature", "properties": {"collection_times": [{"days": "Mon-Fri", "time": "5:00pm"}, {"days": "Sat", "time": "3:45pm"}, {"days": "Sun", "time": "Closed"}], "id": "9593200005", "name": "USPS COLLECTION BOX - PO LOBBY", "address": {"city": "COLUSA", "state": "CA", "street": "357 MARKET ST", "postcode": "95932"}}},
{"geometry": {"type": "Point", "coordinates": [-120.9529845524, 40.0732405251]}, "type": "Feature", "properties": {"collection_times": [{"days": "Mon-Fri", "time": "2:00pm"}, {"days": "Sat", "time": "11:30am"}, {"days": "Sun", "time": "Closed"}], "id": "9593400000", "name": "USPS COLLECTION BOX - BLUE BOX", "address": {"city": "CRESCENT MILLS", "state": "CA", "street": "15711 MAIN ST", "postcode": "95934"}}},
{"geometry": {"type": "Point", "coordinates": [-120.9529845524, 40.0732405251]}, "type": "Feature", "properties": {"collection_times": [{"days": "Mon-Fri", "time": "2:00pm"}, {"days": "Sat", "time": "11:30am"}, {"days": "Sun", "time": "Closed"}], "id": "9593400001", "name": "USPS COLLECTION BOX - PO LOBBY", "address": {"city": "CRESCENT MILLS", "state": "CA", "street": "15711 MAIN ST", "postcode": "95934"}}},
{"geometry": {"type": "Point", "coordinates": [-120.9529845524, 40.0732405251]}, "type": "Feature", "properties": {"collection_times": [{"days": "Mon-Fri", "time": "2:00pm"}, {"days": "Sat", "time": "11:30am"}, {"days": "Sun", "time": "Closed"}], "id": "9593400002", "name": "USPS COLLECTION BOX - PO LOBBY", "address": {"city": "CRESCENT MILLS", "state": "CA", "street": "15711 MAIN ST", "postcode": "95934"}}},
{"geometry": {"type": "Point", "coordinates": [-121.210651173, 39.3719033828]}, "type": "Feature", "properties": {"collection_times": [{"days": "Mon-Fri", "time": "3:00pm"}, {"days": "Sat", "time": "10:00am"}, {"days": "Sun", "time": "Closed"}], "id": "9593500000", "name": "USPS COLLECTION BOX - PO LOBBY", "address": {"city": "DOBBINS", "state": "CA", "street": "10375 OLD DOBBINS RD", "postcode": "95935"}}},
{"geometry": {"type": "Point", "coordinates": [-121.210651173, 39.3719033828]}, "type": "Feature", "properties": {"collection_times": [{"days": "Mon-Fri", "time": "3:00pm"}, {"days": "Sat", "time": "10:00am"}, {"days": "Sun", "time": "Closed"}], "id": "9593500001", "name": "USPS COLLECTION BOX - PO LOBBY", "address": {"city": "DOBBINS", "state": "CA", "street": "10375 OLD DOBBINS RD", "postcode": "95935"}}},
{"geometry": {"type": "Point", "coordinates": [-120.829419011, 39.5604825226]}, "type": "Feature", "properties": {"collection_times": [{"days": "Mon-Fri", "time": "2:45pm"}, {"days": "Sat", "time": "11:30am"}, {"days": "Sun", "time": "Closed"}], "id": "9593600000", "name": "USPS COLLECTION BOX - BLUE BOX", "address": {"city": "DOWNIEVILLE", "state": "CA", "street": "301 MAIN ST", "postcode": "95936"}}},
{"geometry": {"type": "Point", "coordinates": [-120.829419011, 39.5604825226]}, "type": "Feature", "properties": {"collection_times": [{"days": "Mon-Fri", "time": "2:45pm"}, {"days": "Sat", "time": "11:30am"}, {"days": "Sun", "time": "Closed"}], "id": "9593600001", "name": "USPS COLLECTION BOX - PO LOBBY", "address": {"city": "DOWNIEVILLE", "state": "CA", "street": "301 MAIN ST", "postcode": "95936"}}},
{"geometry": {"type": "Point", "coordinates": [-122.0810182339, 38.8627970505]}, "type": "Feature", "properties": {"collection_times": [{"days": "Mon-Fri", "time": "4:00pm"}, {"days": "Sat", "time": "9:45am"}, {"days": "Sun", "time": "Closed"}], "id": "9593700000", "name": "USPS COLLECTION BOX - BLUE BOX", "address": {"city": "DUNNIGAN", "state": "CA", "street": "3650 COUNTY RD", "postcode": "95937"}}},
{"geometry": {"type": "Point", "coordinates": [-122.0810182339, 38.8627970505]}, "type": "Feature", "properties": {"collection_times": [{"days": "Mon-Fri", "time": "4:00pm"}, {"days": "Sat", "time": "9:45am"}, {"days": "Sun", "time": "Closed"}], "id": "9593700001", "name": "USPS COLLECTION BOX - PO LOBBY", "address": {"city": "DUNNIGAN", "state": "CA", "street": "3650 COUNTY RD", "postcode": "95937"}}},
{"geometry": {"type": "Point", "coordinates": [-121.8012271346, 39.6459567343]}, "type": "Feature", "properties": {"collection_times": [{"days": "Mon-Fri", "time": "5:00pm"}, {"days": "Sat", "time": "10:00am"}, {"days": "Sun", "time": "Closed"}], "id": "9593800000", "name": "USPS COLLECTION BOX - BLUE BOX", "address": {"city": "DURHAM", "state": "CA", "street": "2396 DURHAM DAYTON HWY", "postcode": "95938"}}},
{"geometry": {"type": "Point", "coordinates": [-121.8012271346, 39.6459567343]}, "type": "Feature", "properties": {"collection_times": [{"days": "Mon-Fri", "time": "5:00pm"}, {"days": "Sat", "time": "10:00am"}, {"days": "Sun", "time": "Closed"}], "id": "9593800002", "name": "USPS COLLECTION BOX - PO LOBBY", "address": {"city": "DURHAM", "state": "CA", "street": "2396 DURHAM DAYTON HWY", "postcode": "95938"}}},
{"geometry": {"type": "Point", "coordinates": [-122.5398499941, 39.6057352114]}, "type": "Feature", "properties": {"collection_times": [{"days": "Mon-Fri", "time": "12:00pm"}, {"days": "Sat", "time": "11:00am"}, {"days": "Sun", "time": "Closed"}], "id": "9593900000", "name": "USPS COLLECTION BOX - BLUE BOX", "address": {"city": "ELK CREEK", "state": "CA", "street": "160 CHURCH ST", "postcode": "95939"}}},
{"geometry": {"type": "Point", "coordinates": [-122.5398499941, 39.6057352114]}, "type": "Feature", "properties": {"collection_times": [{"days": "Mon-Fri", "time": "12:00pm"}, {"days": "Sat", "time": "11:00am"}, {"days": "Sun", "time": "Closed"}], "id": "9593900001", "name": "USPS COLLECTION BOX - PO LOBBY", "address": {"city": "ELK CREEK", "state": "CA", "street": "160 CHURCH ST", "postcode": "95939"}}},
{"geometry": {"type": "Point", "coordinates": [-121.2755687002, 39.5182074187]}, "type": "Feature", "properties": {"collection_times": [{"days": "Mon-Fri", "time": "12:30pm"}, {"days": "Sat", "time": "10:00am"}, {"days": "Sun", "time": "Closed"}], "id": "9594100000", "name": "USPS COLLECTION BOX - BLUE BOX", "address": {"city": "FORBESTOWN", "state": "CA", "street": "19173 NEW YORK FLAT RD", "postcode": "95941"}}},
{"geometry": {"type": "Point", "coordinates": [-121.2755687002, 39.5182074187]}, "type": "Feature", "properties": {"collection_times": [{"days": "Mon-Fri", "time": "12:30pm"}, {"days": "Sat", "time": "10:00am"}, {"days": "Sun", "time": "Closed"}], "id": "9594100001", "name": "USPS COLLECTION BOX - PO LOBBY", "address": {"city": "FORBESTOWN", "state": "CA", "street": "19173 NEW YORK FLAT RD", "postcode": "95941"}}},
{"geometry": {"type": "Point", "coordinates": [-121.6814123187, 39.8746522762]}, "type": "Feature", "properties": {"collection_times": [{"days": "Mon-Fri", "time": "2:15pm"}, {"days": "Sat", "time": "11:00am"}, {"days": "Sun", "time": "Closed"}], "id": "9594200000", "name": "USPS COLLECTION BOX - BLUE BOX", "address": {"city": "FOREST RANCH", "state": "CA", "street": "15517 NOPEL AVE", "postcode": "95942"}}},
{"geometry": {"type": "Point", "coordinates": [-121.6814123187, 39.8746522762]}, "type": "Feature", "properties": {"collection_times": [{"days": "Mon-Fri", "time": "2:15pm"}, {"days": "Sat", "time": "11:00am"}, {"days": "Sun", "time": "Closed"}], "id": "9594200001", "name": "USPS COLLECTION BOX - PO LOBBY", "address": {"city": "FOREST RANCH", "state": "CA", "street": "15517 NOPEL AVE", "postcode": "95942"}}},
{"geometry": {"type": "Point", "coordinates": [-121.6814123187, 39.8746522762]}, "type": "Feature", "properties": {"collection_times": [{"days": "Mon-Fri", "time": "2:15pm"}, {"days": "Sat", "time": "11:00am"}, {"days": "Sun", "time": "Closed"}], "id": "9594200002", "name": "USPS COLLECTION BOX - PO LOBBY", "address": {"city": "FOREST RANCH", "state": "CA", "street": "15517 NOPEL AVE", "postcode": "95942"}}},
{"geometry": {"type": "Point", "coordinates": [-122.0128671548, 39.5261992889]}, "type": "Feature", "properties": {"collection_times": [{"days": "Mon-Fri", "time": "12:15pm"}, {"days": "Sat", "time": "8:45am"}, {"days": "Sun", "time": "Closed"}], "id": "9594300002", "name": "USPS COLLECTION BOX - PO LOBBY", "address": {"city": "GLENN", "state": "CA", "street": "1836 HIGHWAY 45", "postcode": "95943"}}},
{"geometry": {"type": "Point", "coordinates": [-122.0128671548, 39.5261992889]}, "type": "Feature", "properties": {"collection_times": [{"days": "Mon-Fri", "time": "12:15pm"}, {"days": "Sat", "time": "8:45am"}, {"days": "Sun", "time": "Closed"}], "id": "9594300003", "name": "USPS COLLECTION BOX - PO LOBBY", "address": {"city": "GLENN", "state": "CA", "street": "1836 HIGHWAY 45", "postcode": "95943"}}},
{"geometry": {"type": "Point", "coordinates": [-122.0128671548, 39.5261992889]}, "type": "Feature", "properties": {"collection_times": [{"days": "Mon-Fri", "time": "12:15pm"}, {"days": "Sat", "time": "8:45am"}, {"days": "Sun", "time": "Closed"}], "id": "9594300004", "name": "USPS COLLECTION BOX - PO LOBBY", "address": {"city": "GLENN", "state": "CA", "street": "1836 HIGHWAY 45", "postcode": "95943"}}},
{"geometry": {"type": "Point", "coordinates": [-120.8860320689, 39.5450217176]}, "type": "Feature", "properties": {"collection_times": [{"days": "Mon-Fri", "time": "11:45am"}, {"days": "Sat", "time": "10:30am"}, {"days": "Sun", "time": "Closed"}], "id": "9594400000", "name": "USPS COLLECTION BOX - PO LOBBY", "address": {"city": "GOODYEARS BAR", "state": "CA", "street": "22 POST OFFICE SPUR", "postcode": "95944"}}},
{"geometry": {"type": "Point", "coordinates": [-121.0338944465, 39.2272920199]}, "type": "Feature", "properties": {"collection_times": [{"days": "Mon-Fri", "time": "3:00pm"}, {"days": "Sat", "time": "1:15pm"}, {"days": "Sun", "time": "Closed"}], "id": "9594500004", "name": "USPS COLLECTION BOX - BLUE BOX", "address": {"city": "GRASS VALLEY", "state": "CA", "street": "646 SUTTON WAY", "postcode": "95945"}}},
{"geometry": {"type": "Point", "coordinates": [-121.0338944465, 39.2272920199]}, "type": "Feature", "properties": {"collection_times": [{"days": "Mon-Fri", "time": "3:00pm"}, {"days": "Sat", "time": "1:15pm"}, {"days": "Sun", "time": "Closed"}], "id": "9594500005", "name": "USPS COLLECTION BOX - BLUE BOX", "address": {"city": "GRASS VALLEY", "state": "CA", "street": "646 SUTTON WAY", "postcode": "95945"}}},
{"geometry": {"type": "Point", "coordinates": [-121.0342462229, 39.2286098215]}, "type": "Feature", "properties": {"collection_times": [{"days": "Mon-Fri", "time": "4:00pm"}, {"days": "Sat", "time": "1:15pm"}, {"days": "Sun", "time": "Closed"}], "id": "9594500006", "name": "USPS COLLECTION BOX - BLUE BOX", "address": {"city": "GRASS VALLEY", "state": "CA", "street": "867 SUTTON WAY", "postcode": "95945"}}},
{"geometry": {"type": "Point", "coordinates": [-121.0698322874, 39.1499348443]}, "type": "Feature", "properties": {"collection_times": [{"days": "Mon-Sat", "time": "10:45am"}, {"days": "Sun", "time": "Closed"}], "id": "9594500007", "name": "USPS COLLECTION BOX - BLUE BOX", "address": {"city": "GRASS VALLEY", "state": "CA", "street": "10135 TIMBERLAND DR", "postcode": "95945"}}},
{"geometry": {"type": "Point", "coordinates": [-121.0608915231, 39.2193278917]}, "type": "Feature", "properties": {"collection_times": [{"days": "Mon-Fri", "time": "4:15pm"}, {"days": "Sat", "time": "2:00pm"}, {"days": "Sun", "time": "Closed"}], "id": "9594500009", "name": "USPS COLLECTION BOX - BLUE BOX", "address": {"city": "GRASS VALLEY", "state": "CA", "street": "125 E MAIN ST", "postcode": "95945"}}},
{"geometry": {"type": "Point", "coordinates": [-121.0177975328, 39.2195075734]}, "type": "Feature", "properties": {"collection_times": [{"days": "Mon-Fri", "time": "12:00pm"}, {"days": "Sat", "time": "11:45am"}, {"days": "Sun", "time": "Closed"}], "id": "9594500016", "name": "USPS COLLECTION BOX - BLUE BOX", "address": {"city": "GRASS VALLEY", "state": "CA", "street": "12438 LOMA RICA DR", "postcode": "95945"}}},
{"geometry": {"type": "Point", "coordinates": [-121.0089379078, 39.1823514909]}, "type": "Feature", "properties": {"collection_times": [{"days": "Mon-Sat", "time": "10:15am"}, {"days": "Sun", "time": "Closed"}], "id": "9594500017", "name": "USPS COLLECTION BOX - BLUE BOX", "address": {"city": "GRASS VALLEY", "state": "CA", "street": "10563 BRUNSWICH", "postcode": "95945"}}},
{"geometry": {"type": "Point", "coordinates": [-121.0089379078, 39.1823514909]}, "type": "Feature", "properties": {"collection_times": [{"days": "Mon-Fri", "time": "4:15pm"}, {"days": "Sat", "time": "2:00pm"}, {"days": "Sun", "time": "Closed"}], "id": "9594500021", "name": "USPS COLLECTION BOX - BLUE BOX", "address": {"city": "GRASS VALLEY", "state": "CA", "street": "2032 NEVADA CITY HWY", "postcode": "95945"}}},
{"geometry": {"type": "Point", "coordinates": [-121.0640150213, 39.2034617237]}, "type": "Feature", "properties": {"collection_times": [{"days": "Mon-Fri", "time": "3:45pm"}, {"days": "Sat", "time": "1:15pm"}, {"days": "Sun", "time": "Closed"}], "id": "9594500024", "name": "USPS COLLECTION BOX - BLUE BOX", "address": {"city": "GRASS VALLEY", "state": "CA", "street": "692 FREEMAN LN", "postcode": "95945"}}},
{"geometry": {"type": "Point", "coordinates": [-121.0342462229, 39.2286098215]}, "type": "Feature", "properties": {"collection_times": [{"days": "Mon-Fri", "time": "4:00pm"}, {"days": "Sat", "time": "1:15pm"}, {"days": "Sun", "time": "Closed"}], "id": "9594500025", "name": "USPS COLLECTION BOX - BLUE BOX", "address": {"city": "GRASS VALLEY", "state": "CA", "street": "867 SUTTON WAY", "postcode": "95945"}}},
{"geometry": {"type": "Point", "coordinates": [-121.0628914332, 39.2181253317]}, "type": "Feature", "properties": {"collection_times": [{"days": "Mon-Fri", "time": "3:30pm"}, {"days": "Sat", "time": "2:00pm"}, {"days": "Sun", "time": "Closed"}], "id": "9594500026", "name": "USPS COLLECTION BOX - BLUE BOX", "address": {"city": "GRASS VALLEY", "state": "CA", "street": "131 MILL ST", "postcode": "95945"}}},
{"geometry": {"type": "Point", "coordinates": [-121.0384244838, 39.2356138673]}, "type": "Feature", "properties": {"collection_times": [{"days": "Mon-Sat", "time": "11:00am"}, {"days": "Sun", "time": "Closed"}], "id": "9594500028", "name": "USPS COLLECTION BOX - BLUE BOX", "address": {"city": "GRASS VALLEY", "state": "CA", "street": "11654 MALTMAN DR", "postcode": "95945"}}},
{"geometry": {"type": "Point", "coordinates": [-121.059932311, 39.2194831632]}, "type": "Feature", "properties": {"collection_times": [{"days": "Mon-Fri", "time": "5:00pm"}, {"days": "Sat", "time": "3:30pm"}, {"days": "Sun", "time": "Closed"}], "id": "9594500031", "name": "USPS COLLECTION BOX - PO LOBBY", "address": {"city": "GRASS VALLEY", "state": "CA", "street": "185 E MAIN ST", "postcode": "95945"}}},
{"geometry": {"type": "Point", "coordinates": [-121.059932311, 39.2194831632]}, "type": "Feature", "properties": {"collection_times": [{"days": "Mon-Fri", "time": "5:00pm"}, {"days": "Sat", "time": "3:30pm"}, {"days": "Sun", "time": "Closed"}], "id": "9594500032", "name": "USPS COLLECTION BOX - PO LOBBY", "address": {"city": "GRASS VALLEY", "state": "CA", "street": "185 E MAIN ST", "postcode": "95945"}}},
{"geometry": {"type": "Point", "coordinates": [-121.059932311, 39.2194831632]}, "type": "Feature", "properties": {"collection_times": [{"days": "Mon-Fri", "time": "5:00pm"}, {"days": "Sat", "time": "3:30pm"}, {"days": "Sun", "time": "Closed"}], "id": "9594500034", "name": "USPS COLLECTION BOX - PO LOBBY", "address": {"city": "GRASS VALLEY", "state": "CA", "street": "185 E MAIN ST", "postcode": "95945"}}},
{"geometry": {"type": "Point", "coordinates": [-121.0687628122, 39.1397844638]}, "type": "Feature", "properties": {"collection_times": [{"days": "Mon-Sat", "time": "10:00am"}, {"days": "Sun", "time": "Closed"}], "id": "9594500039", "name": "USPS COLLECTION BOX - BLUE BOX", "address": {"city": "GRASS VALLEY", "state": "CA", "street": "10182 ALTA SIERRA DR", "postcode": "95945"}}},
{"geometry": {"type": "Point", "coordinates": [-121.059932311, 39.2194831632]}, "type": "Feature", "properties": {"collection_times": [{"days": "Mon-Fri", "time": "5:00pm"}, {"days": "Sat", "time": "3:30pm"}, {"days": "Sun", "time": "Closed"}], "id": "9594500043", "name": "USPS COLLECTION BOX - BLUE BOX", "address": {"city": "GRASS VALLEY", "state": "CA", "street": "185 E MAIN ST", "postcode": "95945"}}},
{"geometry": {"type": "Point", "coordinates": [-121.051167681, 39.228949761]}, "type": "Feature", "properties": {"collection_times": [{"days": "Mon-Sat", "time": "2:00pm"}, {"days": "Sun", "time": "Closed"}], "id": "9594500045", "name": "USPS COLLECTION BOX - BLUE BOX", "address": {"city": "GRASS VALLEY", "state": "CA", "street": "970 E MAIN ST", "postcode": "95945"}}},
{"geometry": {"type": "Point", "coordinates": [-121.241912551, 39.1162196317]}, "type": "Feature", "properties": {"collection_times": [{"days": "Mon-Sat", "time": "11:00am"}, {"days": "Sun", "time": "Closed"}], "id": "9594600005", "name": "USPS COLLECTION BOX - BLUE BOX", "address": {"city": "ROUGH & READY", "state": "CA", "street": "0000 NORTH GATE WILDWOOD ENTRANCE", "postcode": "95946"}}},
{"geometry": {"type": "Point", "coordinates": [-121.241912551, 39.1162196317]}, "type": "Feature", "properties": {"collection_times": [{"days": "Mon-Sat", "time": "11:00am"}, {"days": "Sun", "time": "Closed"}], "id": "9594600006", "name": "USPS COLLECTION BOX - BLUE BOX", "address": {"city": "ROUGH & READY", "state": "CA", "street": "0000 WILDWOOD MAIN GATE ENTRANCE", "postcode": "95946"}}},
{"geometry": {"type": "Point", "coordinates": [-121.241912551, 39.1162196317]}, "type": "Feature", "properties": {"collection_times": [{"days": "Mon-Fri", "time": "4:00pm"}, {"days": "Sat", "time": "12:00pm"}, {"days": "Sun", "time": "Closed"}], "id": "9594600010", "name": "USPS COLLECTION BOX - BLUE BOX", "address": {"city": "ROUGH & READY", "state": "CA", "street": "17612 PENN VALLEY DR", "postcode": "95946"}}},
{"geometry": {"type": "Point", "coordinates": [-121.241912551, 39.1162196317]}, "type": "Feature", "properties": {"collection_times": [{"days": "Mon-Fri", "time": "4:00pm"}, {"days": "Sat", "time": "12:00pm"}, {"days": "Sun", "time": "Closed"}], "id": "9594600011", "name": "USPS COLLECTION BOX - PO LOBBY", "address": {"city": "ROUGH & READY", "state": "CA", "street": "17612 PENN VALLEY DR", "postcode": "95946"}}},
{"geometry": {"type": "Point", "coordinates": [-121.241912551, 39.1162196317]}, "type": "Feature", "properties": {"collection_times": [{"days": "Mon-Fri", "time": "4:00pm"}, {"days": "Sat", "time": "12:00pm"}, {"days": "Sun", "time": "Closed"}], "id": "9594600012", "name": "USPS COLLECTION BOX - PO LOBBY", "address": {"city": "ROUGH & READY", "state": "CA", "street": "17612 PENN VALLEY DR", "postcode": "95946"}}},
{"geometry": {"type": "Point", "coordinates": [-120.9499659587, 40.1404602567]}, "type": "Feature", "properties": {"collection_times": [{"days": "Mon-Fri", "time": "2:30pm"}, {"days": "Sat", "time": "1:00pm"}, {"days": "Sun", "time": "Closed"}], "id": "9594700000", "name": "USPS COLLECTION BOX - BLUE BOX", "address": {"city": "GREENVILLE", "state": "CA", "street": "405 MAIN ST", "postcode": "95947"}}},
{"geometry": {"type": "Point", "coordinates": [-120.9499659587, 40.1404602567]}, "type": "Feature", "properties": {"collection_times": [{"days": "Mon-Fri", "time": "2:30pm"}, {"days": "Sat", "time": "1:00pm"}, {"days": "Sun", "time": "Closed"}], "id": "9594700001", "name": "USPS COLLECTION BOX - PO LOBBY", "address": {"city": "GREENVILLE", "state": "CA", "street": "405 MAIN ST", "postcode": "95947"}}},
{"geometry": {"type": "Point", "coordinates": [-121.6875790994, 39.3631830465]}, "type": "Feature", "properties": {"collection_times": [{"days": "Mon-Sat", "time": "9:30am"}, {"days": "Sun", "time": "Closed"}], "id": "9594800001", "name": "USPS COLLECTION BOX - BLUE BOX", "address": {"city": "GRIDLEY", "state": "CA", "street": "2 E GRIDLEY RD", "postcode": "95948"}}},
{"geometry": {"type": "Point", "coordinates": [-121.6956575106, 39.3637642391]}, "type": "Feature", "properties": {"collection_times": [{"days": "Mon-Fri", "time": "5:00pm"}, {"days": "Sat", "time": "3:30pm"}, {"days": "Sun", "time": "Closed"}], "id": "9594800002", "name": "USPS COLLECTION BOX - BLUE BOX", "address": {"city": "GRIDLEY", "state": "CA", "street": "805 SYCAMORE ST", "postcode": "95948"}}},
{"geometry": {"type": "Point", "coordinates": [-121.6956575106, 39.3637642391]}, "type": "Feature", "properties": {"collection_times": [{"days": "Mon-Fri", "time": "5:00pm"}, {"days": "Sat", "time": "3:30pm"}, {"days": "Sun", "time": "Closed"}], "id": "9594800004", "name": "USPS COLLECTION BOX - PO LOBBY", "address": {"city": "GRIDLEY", "state": "CA", "street": "805 SYCAMORE ST", "postcode": "95948"}}},
{"geometry": {"type": "Point", "coordinates": [-121.6956575106, 39.3637642391]}, "type": "Feature", "properties": {"collection_times": [{"days": "Mon-Fri", "time": "5:00pm"}, {"days": "Sat", "time": "3:30pm"}, {"days": "Sun", "time": "Closed"}], "id": "9594800005", "name": "USPS COLLECTION BOX - PO LOBBY", "address": {"city": "GRIDLEY", "state": "CA", "street": "805 SYCAMORE ST", "postcode": "95948"}}},
{"geometry": {"type": "Point", "coordinates": [-121.6909895545, 39.3669617772]}, "type": "Feature", "properties": {"collection_times": [{"days": "Mon-Fri", "time": "3:00pm"}, {"days": "Sat", "time": "11:00am"}, {"days": "Sun", "time": "Closed"}], "id": "9594800006", "name": "USPS COLLECTION BOX - BLUE BOX", "address": {"city": "GRIDLEY", "state": "CA", "street": "284 SPRUCE ST", "postcode": "95948"}}},
{"geometry": {"type": "Point", "coordinates": [-121.695597417, 39.359153491]}, "type": "Feature", "properties": {"collection_times": [{"days": "Mon-Sat", "time": "11:00am"}, {"days": "Sun", "time": "Closed"}], "id": "9594800007", "name": "USPS COLLECTION BOX - BLUE BOX", "address": {"city": "GRIDLEY", "state": "CA", "street": "260 SPRUCE ST", "postcode": "95948"}}},
{"geometry": {"type": "Point", "coordinates": [-121.8942446777, 39.0749230945]}, "type": "Feature", "properties": {"collection_times": [{"days": "Mon-Fri", "time": "3:45pm"}, {"days": "Sat", "time": "9:15am"}, {"days": "Sun", "time": "Closed"}], "id": "9595000000", "name": "USPS COLLECTION BOX - BLUE BOX", "address": {"city": "GRIMES", "state": "CA", "street": "170 MAIN ST", "postcode": "95950"}}},
{"geometry": {"type": "Point", "coordinates": [-121.8942446777, 39.0749230945]}, "type": "Feature", "properties": {"collection_times": [{"days": "Mon-Fri", "time": "3:45pm"}, {"days": "Sat", "time": "9:15am"}, {"days": "Sun", "time": "Closed"}], "id": "9595000001", "name": "USPS COLLECTION BOX - PO LOBBY", "address": {"city": "GRIMES", "state": "CA", "street": "170 MAIN ST", "postcode": "95950"}}},
{"geometry": {"type": "Point", "coordinates": [-122.0111853009, 39.7401766529]}, "type": "Feature", "properties": {"collection_times": [{"days": "Mon-Fri", "time": "4:30pm"}, {"days": "Sat", "time": "10:00am"}, {"days": "Sun", "time": "Closed"}], "id": "9595100000", "name": "USPS COLLECTION BOX - BLUE BOX", "address": {"city": "HAMILTON CITY", "state": "CA", "street": "201 MAIN ST", "postcode": "95951"}}},
{"geometry": {"type": "Point", "coordinates": [-122.0111853009, 39.7401766529]}, "type": "Feature", "properties": {"collection_times": [{"days": "Mon-Fri", "time": "4:45pm"}, {"days": "Sat", "time": "10:00am"}, {"days": "Sun", "time": "Closed"}], "id": "9595100004", "name": "USPS COLLECTION BOX - PO LOBBY", "address": {"city": "HAMILTON CITY", "state": "CA", "street": "201 MAIN ST", "postcode": "95951"}}},
{"geometry": {"type": "Point", "coordinates": [-121.6648804672, 39.2718435957]}, "type": "Feature", "properties": {"collection_times": [{"days": "Mon-Sat", "time": "12:00pm"}, {"days": "Sun", "time": "Closed"}], "id": "9595300000", "name": "USPS COLLECTION BOX - BLUE BOX", "address": {"city": "LIVE OAK", "state": "CA", "street": "2750 DATE ST", "postcode": "95953"}}},
{"geometry": {"type": "Point", "coordinates": [-121.6599321499, 39.2678440114]}, "type": "Feature", "properties": {"collection_times": [{"days": "Mon-Sat", "time": "9:00am"}, {"days": "Sun", "time": "Closed"}], "id": "9595300002", "name": "USPS COLLECTION BOX - BLUE BOX", "address": {"city": "LIVE OAK", "state": "CA", "street": "9400 LARKIN RD", "postcode": "95953"}}},
{"geometry": {"type": "Point", "coordinates": [-121.9790195539, 36.9836302064]}, "type": "Feature", "properties": {"collection_times": [{"days": "Mon-Sat", "time": "9:00am"}, {"days": "Sun", "time": "Closed"}], "id": "9595300003", "name": "USPS COLLECTION BOX - BLUE BOX", "address": {"city": "LIVE OAK", "state": "CA", "street": "2551 ALLEN ST", "postcode": "95953"}}},
{"geometry": {"type": "Point", "coordinates": [-121.6612972845, 39.2783510529]}, "type": "Feature", "properties": {"collection_times": [{"days": "Mon-Sat", "time": "9:00am"}, {"days": "Sun", "time": "Closed"}], "id": "9595300005", "name": "USPS COLLECTION BOX - BLUE BOX", "address": {"city": "LIVE OAK", "state": "CA", "street": "10153 LIVE OAK BLVD", "postcode": "95953"}}},
{"geometry": {"type": "Point", "coordinates": [-121.6630054773, 39.2749713392]}, "type": "Feature", "properties": {"collection_times": [{"days": "Mon-Fri", "time": "5:00pm"}, {"days": "Sat", "time": "3:00pm"}, {"days": "Sun", "time": "Closed"}], "id": "9595300006", "name": "USPS COLLECTION BOX - BLUE BOX", "address": {"city": "LIVE OAK", "state": "CA", "street": "2622 GUM ST", "postcode": "95953"}}},
{"geometry": {"type": "Point", "coordinates": [-121.6630054773, 39.2749713392]}, "type": "Feature", "properties": {"collection_times": [{"days": "Mon-Fri", "time": "5:00pm"}, {"days": "Sat", "time": "3:00pm"}, {"days": "Sun", "time": "Closed"}], "id": "9595300008", "name": "USPS COLLECTION BOX - PO LOBBY", "address": {"city": "LIVE OAK", "state": "CA", "street": "2622 GUM ST", "postcode": "95953"}}},
{"geometry": {"type": "Point", "coordinates": [-121.6630054773, 39.2749713392]}, "type": "Feature", "properties": {"collection_times": [{"days": "Mon-Fri", "time": "5:00pm"}, {"days": "Sat", "time": "3:00pm"}, {"days": "Sun", "time": "Closed"}], "id": "9595300011", "name": "USPS COLLECTION BOX - BLUE BOX", "address": {"city": "LIVE OAK", "state": "CA", "street": "2622 GUM ST", "postcode": "95953"}}},
{"geometry": {"type": "Point", "coordinates": [-121.5923451924, 39.8188142006]}, "type": "Feature", "properties": {"collection_times": [{"days": "Mon-Fri", "time": "5:00pm"}, {"days": "Sat", "time": "11:00am"}, {"days": "Sun", "time": "Closed"}], "id": "9595400000", "name": "USPS COLLECTION BOX - BLUE BOX", "address": {"city": "MAGALIA", "state": "CA", "street": "14146 SKYWAY", "postcode": "95954"}}},
{"geometry": {"type": "Point", "coordinates": [-121.5923451924, 39.8188142006]}, "type": "Feature", "properties": {"collection_times": [{"days": "Mon-Fri", "time": "5:00pm"}, {"days": "Sat", "time": "11:00am"}, {"days": "Sun", "time": "Closed"}], "id": "9595400002", "name": "USPS COLLECTION BOX - PO LOBBY", "address": {"city": "MAGALIA", "state": "CA", "street": "14146 SKYWAY", "postcode": "95954"}}},
{"geometry": {"type": "Point", "coordinates": [-121.5923451924, 39.8188142006]}, "type": "Feature", "properties": {"collection_times": [{"days": "Mon-Fri", "time": "5:00pm"}, {"days": "Sat", "time": "11:00am"}, {"days": "Sun", "time": "Closed"}], "id": "9595400003", "name": "USPS COLLECTION BOX - PO LOBBY", "address": {"city": "MAGALIA", "state": "CA", "street": "14146 SKYWAY", "postcode": "95954"}}},
{"geometry": {"type": "Point", "coordinates": [-121.5923451924, 39.8188142006]}, "type": "Feature", "properties": {"collection_times": [{"days": "Mon-Fri", "time": "5:00pm"}, {"days": "Sat", "time": "11:00am"}, {"days": "Sun", "time": "Closed"}], "id": "9595400004", "name": "USPS COLLECTION BOX - BLUE BOX", "address": {"city": "MAGALIA", "state": "CA", "street": "14146 SKYWAY", "postcode": "95954"}}},
{"geometry": {"type": "Point", "coordinates": [-122.1950713742, 39.2763271984]}, "type": "Feature", "properties": {"collection_times": [{"days": "Mon-Fri", "time": "4:00pm"}, {"days": "Sat", "time": "10:00am"}, {"days": "Sun", "time": "Closed"}], "id": "9595500000", "name": "USPS COLLECTION BOX - BLUE BOX", "address": {"city": "MAXWELL", "state": "CA", "street": "260 OAK ST", "postcode": "95955"}}},
{"geometry": {"type": "Point", "coordinates": [-122.1950713742, 39.2763271984]}, "type": "Feature", "properties": {"collection_times": [{"days": "Mon-Fri", "time": "4:30pm"}, {"days": "Sat", "time": "10:00am"}, {"days": "Sun", "time": "Closed"}], "id": "9595500001", "name": "USPS COLLECTION BOX - PO LOBBY", "address": {"city": "MAXWELL", "state": "CA", "street": "260 OAK ST", "postcode": "95955"}}},
{"geometry": {"type": "Point", "coordinates": [-122.1950713742, 39.2763271984]}, "type": "Feature", "properties": {"collection_times": [{"days": "Mon-Fri", "time": "4:30pm"}, {"days": "Sat", "time": "10:00am"}, {"days": "Sun", "time": "Closed"}], "id": "9595500002", "name": "USPS COLLECTION BOX - PO LOBBY", "address": {"city": "MAXWELL", "state": "CA", "street": "260 OAK ST", "postcode": "95955"}}},
{"geometry": {"type": "Point", "coordinates": [-121.0075441177, 39.8792081783]}, "type": "Feature", "properties": {"collection_times": [{"days": "Mon-Fri", "time": "11:00am"}, {"days": "Sat", "time": "11:15am"}, {"days": "Sun", "time": "Closed"}], "id": "9595600000", "name": "USPS COLLECTION BOX - BLUE BOX", "address": {"city": "MEADOW VALLEY", "state": "CA", "street": "1111 BUCKS LAKE RD", "postcode": "95956"}}},
{"geometry": {"type": "Point", "coordinates": [-121.0075441177, 39.8792081783]}, "type": "Feature", "properties": {"collection_times": [{"days": "Mon-Sat", "time": "11:45am"}, {"days": "Sun", "time": "Closed"}], "id": "9595600001", "name": "USPS COLLECTION BOX - PO LOBBY", "address": {"city": "MEADOW VALLEY", "state": "CA", "street": "1111 BUCKS LAKE RD", "postcode": "95956"}}},
{"geometry": {"type": "Point", "coordinates": [-121.9146622527, 39.1436960169]}, "type": "Feature", "properties": {"collection_times": [{"days": "Mon-Fri", "time": "4:20pm"}, {"days": "Sat", "time": "9:30am"}, {"days": "Sun", "time": "Closed"}], "id": "9595700000", "name": "USPS COLLECTION BOX - BLUE BOX", "address": {"city": "MERIDIAN", "state": "CA", "street": "1041 3RD ST", "postcode": "95957"}}},
{"geometry": {"type": "Point", "coordinates": [-121.9146622527, 39.1436960169]}, "type": "Feature", "properties": {"collection_times": [{"days": "Mon-Fri", "time": "4:00pm"}, {"days": "Sat", "time": "9:30am"}, {"days": "Sun", "time": "Closed"}], "id": "9595700001", "name": "USPS COLLECTION BOX - PO LOBBY", "address": {"city": "MERIDIAN", "state": "CA", "street": "1041 3RD ST", "postcode": "95957"}}},
{"geometry": {"type": "Point", "coordinates": [-121.9146622527, 39.1436960169]}, "type": "Feature", "properties": {"collection_times": [{"days": "Mon-Fri", "time": "4:00pm"}, {"days": "Sat", "time": "9:30am"}, {"days": "Sun", "time": "Closed"}], "id": "9595700002", "name": "USPS COLLECTION BOX - PO LOBBY", "address": {"city": "MERIDIAN", "state": "CA", "street": "1041 3RD ST", "postcode": "95957"}}},
{"geometry": {"type": "Point", "coordinates": [-121.0169217358, 39.2630543374]}, "type": "Feature", "properties": {"collection_times": [{"days": "Mon-Fri", "time": "5:00pm"}, {"days": "Sat", "time": "3:45pm"}, {"days": "Sun", "time": "Closed"}], "id": "9595900000", "name": "USPS COLLECTION BOX - BLUE BOX", "address": {"city": "NEVADA CITY", "state": "CA", "street": "200 COYOTE ST", "postcode": "95959"}}},
{"geometry": {"type": "Point", "coordinates": [-121.0187007451, 39.2626740845]}, "type": "Feature", "properties": {"collection_times": [{"days": "Mon-Fri", "time": "3:00pm"}, {"days": "Sat", "time": "2:30pm"}, {"days": "Sun", "time": "Closed"}], "id": "9595900001", "name": "USPS COLLECTION BOX - BLUE BOX", "address": {"city": "NEVADA CITY", "state": "CA", "street": "300 BROAD ST", "postcode": "95959"}}},
{"geometry": {"type": "Point", "coordinates": [-121.0259715142, 39.2533406497]}, "type": "Feature", "properties": {"collection_times": [{"days": "Mon-Fri", "time": "3:00pm"}, {"days": "Sat", "time": "2:30pm"}, {"days": "Sun", "time": "Closed"}], "id": "9595900005", "name": "USPS COLLECTION BOX - BLUE BOX", "address": {"city": "NEVADA CITY", "state": "CA", "street": "735 ZION ST", "postcode": "95959"}}},
{"geometry": {"type": "Point", "coordinates": [-121.0169217358, 39.2630543374]}, "type": "Feature", "properties": {"collection_times": [{"days": "Mon-Fri", "time": "5:00pm"}, {"days": "Sat", "time": "3:45pm"}, {"days": "Sun", "time": "Closed"}], "id": "9595900010", "name": "USPS COLLECTION BOX - PO LOBBY", "address": {"city": "NEVADA CITY", "state": "CA", "street": "200 COYOTE ST", "postcode": "95959"}}},
{"geometry": {"type": "Point", "coordinates": [-121.0169217358, 39.2630543374]}, "type": "Feature", "properties": {"collection_times": [{"days": "Mon-Fri", "time": "5:00pm"}, {"days": "Sat", "time": "3:45pm"}, {"days": "Sun", "time": "Closed"}], "id": "9595900011", "name": "USPS COLLECTION BOX - PO LOBBY", "address": {"city": "NEVADA CITY", "state": "CA", "street": "200 COYOTE ST", "postcode": "95959"}}},
{"geometry": {"type": "Point", "coordinates": [-121.055494786, 39.267772678]}, "type": "Feature", "properties": {"collection_times": [{"days": "Mon-Sat", "time": "1:30pm"}, {"days": "Sun", "time": "Closed"}], "id": "9595900014", "name": "USPS COLLECTION BOX - BLUE BOX", "address": {"city": "NEVADA CITY", "state": "CA", "street": "16797 HIGHWAY 49", "postcode": "95959"}}},
{"geometry": {"type": "Point", "coordinates": [-121.0164922217, 39.4236434095]}, "type": "Feature", "properties": {"collection_times": [{"days": "Mon-Fri", "time": "3:00pm"}, {"days": "Sat", "time": "10:30am"}, {"days": "Sun", "time": "Closed"}], "id": "9596000000", "name": "USPS COLLECTION BOX - BLUE BOX", "address": {"city": "NORTH SAN JUAN", "state": "CA", "street": "20092 OAK TREE RD", "postcode": "95960"}}},
{"geometry": {"type": "Point", "coordinates": [-121.0164922217, 39.4236434095]}, "type": "Feature", "properties": {"collection_times": [{"days": "Mon-Fri", "time": "3:00pm"}, {"days": "Sat", "time": "10:30am"}, {"days": "Sun", "time": "Closed"}], "id": "9596000001", "name": "USPS COLLECTION BOX - PO LOBBY", "address": {"city": "NORTH SAN JUAN", "state": "CA", "street": "20092 OAK TREE RD", "postcode": "95960"}}},
{"geometry": {"type": "Point", "coordinates": [-121.0164922217, 39.4236434095]}, "type": "Feature", "properties": {"collection_times": [{"days": "Mon-Fri", "time": "3:00pm"}, {"days": "Sat", "time": "10:30am"}, {"days": "Sun", "time": "Closed"}], "id": "9596000002", "name": "USPS COLLECTION BOX - PO LOBBY", "address": {"city": "NORTH SAN JUAN", "state": "CA", "street": "20092 OAK TREE RD", "postcode": "95960"}}},
{"geometry": {"type": "Point", "coordinates": [-121.551504497, 39.0984099818]}, "type": "Feature", "properties": {"collection_times": [{"days": "Mon-Fri", "time": "5:00pm"}, {"days": "Sat", "time": "3:00pm"}, {"days": "Sun", "time": "Closed"}], "id": "9596100001", "name": "USPS COLLECTION BOX - BLUE BOX", "address": {"city": "OLIVEHURST", "state": "CA", "street": "4982 OLIVEHURST AVE", "postcode": "95961"}}},
{"geometry": {"type": "Point", "coordinates": [-121.551504497, 39.0984099818]}, "type": "Feature", "properties": {"collection_times": [{"days": "Mon-Fri", "time": "5:00pm"}, {"days": "Sat", "time": "3:00pm"}, {"days": "Sun", "time": "Closed"}], "id": "9596100008", "name": "USPS COLLECTION BOX - PO LOBBY", "address": {"city": "OLIVEHURST", "state": "CA", "street": "4982 OLIVEHURST AVE", "postcode": "95961"}}},
{"geometry": {"type": "Point", "coordinates": [-121.551504497, 39.0984099818]}, "type": "Feature", "properties": {"collection_times": [{"days": "Mon-Fri", "time": "5:00pm"}, {"days": "Sat", "time": "3:00pm"}, {"days": "Sun", "time": "Closed"}], "id": "9596100009", "name": "USPS COLLECTION BOX - PO LOBBY", "address": {"city": "OLIVEHURST", "state": "CA", "street": "4982 OLIVEHURST AVE", "postcode": "95961"}}},
{"geometry": {"type": "Point", "coordinates": [-121.5638097342, 39.1125845916]}, "type": "Feature", "properties": {"collection_times": [{"days": "Mon-Sat", "time": "9:30am"}, {"days": "Sun", "time": "Closed"}], "id": "9596100010", "name": "USPS COLLECTION BOX - BLUE BOX", "address": {"city": "OLIVEHURST", "state": "CA", "street": "5478 ARBOGA RD", "postcode": "95961"}}},
{"geometry": {"type": "Point", "coordinates": [-121.2197326762, 39.2997111745]}, "type": "Feature", "properties": {"collection_times": [{"days": "Mon-Fri", "time": "4:00pm"}, {"days": "Sat", "time": "12:00pm"}, {"days": "Sun", "time": "Closed"}], "id": "9596200000", "name": "USPS COLLECTION BOX - BLUE BOX", "address": {"city": "OREGON HOUSE", "state": "CA", "street": "8753 MARYSVILLE RD", "postcode": "95962"}}},
{"geometry": {"type": "Point", "coordinates": [-121.2197326762, 39.2997111745]}, "type": "Feature", "properties": {"collection_times": [{"days": "Mon-Fri", "time": "4:00pm"}, {"days": "Sat", "time": "12:00pm"}, {"days": "Sun", "time": "Closed"}], "id": "9596200001", "name": "USPS COLLECTION BOX - PO LOBBY", "address": {"city": "OREGON HOUSE", "state": "CA", "street": "8753 MARYSVILLE RD", "postcode": "95962"}}},
{"geometry": {"type": "Point", "coordinates": [-121.2197326762, 39.2997111745]}, "type": "Feature", "properties": {"collection_times": [{"days": "Mon-Fri", "time": "4:00pm"}, {"days": "Sat", "time": "12:00pm"}, {"days": "Sun", "time": "Closed"}], "id": "9596200002", "name": "USPS COLLECTION BOX - PO LOBBY", "address": {"city": "OREGON HOUSE", "state": "CA", "street": "8753 MARYSVILLE RD", "postcode": "95962"}}},
{"geometry": {"type": "Point", "coordinates": [-121.2197326762, 39.2997111745]}, "type": "Feature", "properties": {"collection_times": [{"days": "Mon-Fri", "time": "4:00pm"}, {"days": "Sat", "time": "12:00pm"}, {"days": "Sun", "time": "Closed"}], "id": "9596200003", "name": "USPS COLLECTION BOX - PO LOBBY", "address": {"city": "OREGON HOUSE", "state": "CA", "street": "8753 MARYSVILLE RD", "postcode": "95962"}}},
{"geometry": {"type": "Point", "coordinates": [-122.1856655444, 39.7472859053]}, "type": "Feature", "properties": {"collection_times": [{"days": "Mon-Sat", "time": "10:00am"}, {"days": "Sun", "time": "Closed"}], "id": "9596300003", "name": "USPS COLLECTION BOX - BLUE BOX", "address": {"city": "ORLAND", "state": "CA", "street": "65 E WALKER ST", "postcode": "95963"}}},
{"geometry": {"type": "Point", "coordinates": [-122.194247345, 39.7459342863]}, "type": "Feature", "properties": {"collection_times": [{"days": "Mon-Fri", "time": "5:00pm"}, {"days": "Sat", "time": "3:30pm"}, {"days": "Sun", "time": "Closed"}], "id": "9596300006", "name": "USPS COLLECTION BOX - BLUE BOX", "address": {"city": "ORLAND", "state": "CA", "street": "831 4TH ST", "postcode": "95963"}}},
{"geometry": {"type": "Point", "coordinates": [-122.194247345, 39.7459342863]}, "type": "Feature", "properties": {"collection_times": [{"days": "Mon-Fri", "time": "5:00pm"}, {"days": "Sat", "time": "3:30pm"}, {"days": "Sun", "time": "Closed"}], "id": "9596300007", "name": "USPS COLLECTION BOX - PO LOBBY", "address": {"city": "ORLAND", "state": "CA", "street": "831 4TH ST", "postcode": "95963"}}},
{"geometry": {"type": "Point", "coordinates": [-122.194247345, 39.7459342863]}, "type": "Feature", "properties": {"collection_times": [{"days": "Mon-Fri", "time": "5:00pm"}, {"days": "Sat", "time": "3:30pm"}, {"days": "Sun", "time": "Closed"}], "id": "9596300008", "name": "USPS COLLECTION BOX - PO LOBBY", "address": {"city": "ORLAND", "state": "CA", "street": "831 4TH ST", "postcode": "95963"}}},
{"geometry": {"type": "Point", "coordinates": [-121.5716420075, 39.5277625722]}, "type": "Feature", "properties": {"collection_times": [{"days": "Mon-Fri", "time": "3:00pm"}, {"days": "Sat", "time": "10:00am"}, {"days": "Sun", "time": "Closed"}], "id": "9596500015", "name": "USPS COLLECTION BOX - BLUE BOX", "address": {"city": "OROVILLE", "state": "CA", "street": "25 COUNTY CENTER DR", "postcode": "95965"}}},
{"geometry": {"type": "Point", "coordinates": [-121.5574867205, 39.5123710931]}, "type": "Feature", "properties": {"collection_times": [{"days": "Mon-Fri", "time": "3:30pm"}, {"days": "Sat", "time": "3:00pm"}, {"days": "Sun", "time": "Closed"}], "id": "9596500020", "name": "USPS COLLECTION BOX - BLUE BOX", "address": {"city": "OROVILLE", "state": "CA", "street": "1770 BIRD ST", "postcode": "95965"}}},
{"geometry": {"type": "Point", "coordinates": [-121.5626145167, 39.5006832189]}, "type": "Feature", "properties": {"collection_times": [{"days": "Mon-Fri", "time": "3:30pm"}, {"days": "Sat", "time": "3:00pm"}, {"days": "Sun", "time": "Closed"}], "id": "9596500022", "name": "USPS COLLECTION BOX - BLUE BOX", "address": {"city": "OROVILLE", "state": "CA", "street": "1050 ORO DAM BLVD E", "postcode": "95965"}}},
{"geometry": {"type": "Point", "coordinates": [-121.5717473803, 39.5329319856]}, "type": "Feature", "properties": {"collection_times": [{"days": "Mon-Fri", "time": "5:00pm"}, {"days": "Sat", "time": "3:45pm"}, {"days": "Sun", "time": "Closed"}], "id": "9596500032", "name": "USPS COLLECTION BOX - BLUE BOX", "address": {"city": "OROVILLE", "state": "CA", "street": "1735 ROBINSON ST", "postcode": "95965"}}},
{"geometry": {"type": "Point", "coordinates": [-121.5717473804, 39.5329319399]}, "type": "Feature", "properties": {"collection_times": [{"days": "Mon-Fri", "time": "5:00pm"}, {"days": "Sat", "time": "12:00pm"}, {"days": "Sun", "time": "Closed"}], "id": "9596500034", "name": "USPS COLLECTION BOX - EXPRESS", "address": {"city": "OROVILLE", "state": "CA", "street": "1735 ROBINSON ST", "postcode": "95965"}}},
{"geometry": {"type": "Point", "coordinates": [-121.5573968272, 39.5113343808]}, "type": "Feature", "properties": {"collection_times": [{"days": "Mon-Fri", "time": "5:00pm"}, {"days": "Sat", "time": "3:45pm"}, {"days": "Sun", "time": "Closed"}], "id": "9596500035", "name": "USPS COLLECTION BOX - BLUE BOX", "address": {"city": "OROVILLE", "state": "CA", "street": "1735 ROBINSON ST", "postcode": "95965"}}},
{"geometry": {"type": "Point", "coordinates": [-121.5573968272, 39.5113343808]}, "type": "Feature", "properties": {"collection_times": [{"days": "Mon-Fri", "time": "5:00pm"}, {"days": "Sat", "time": "3:45pm"}, {"days": "Sun", "time": "Closed"}], "id": "9596500036", "name": "USPS COLLECTION BOX - BLUE BOX", "address": {"city": "OROVILLE", "state": "CA", "street": "1735 ROBINSON ST", "postcode": "95965"}}},
{"geometry": {"type": "Point", "coordinates": [-121.5573968272, 39.5113343808]}, "type": "Feature", "properties": {"collection_times": [{"days": "Mon-Fri", "time": "5:00pm"}, {"days": "Sat", "time": "3:45pm"}, {"days": "Sun", "time": "Closed"}], "id": "9596500049", "name": "USPS COLLECTION BOX - PO LOBBY", "address": {"city": "OROVILLE", "state": "CA", "street": "1735 ROBINSON ST", "postcode": "95965"}}},
{"geometry": {"type": "Point", "coordinates": [-121.5573968272, 39.5113343808]}, "type": "Feature", "properties": {"collection_times": [{"days": "Mon-Fri", "time": "5:00pm"}, {"days": "Sat", "time": "3:45pm"}, {"days": "Sun", "time": "Closed"}], "id": "9596500050", "name": "USPS COLLECTION BOX - PO LOBBY", "address": {"city": "OROVILLE", "state": "CA", "street": "1735 ROBINSON ST", "postcode": "95965"}}},
{"geometry": {"type": "Point", "coordinates": [-121.5573968272, 39.5113343808]}, "type": "Feature", "properties": {"collection_times": [{"days": "Mon-Fri", "time": "5:00pm"}, {"days": "Sat", "time": "3:45pm"}, {"days": "Sun", "time": "Closed"}], "id": "9596500051", "name": "USPS COLLECTION BOX - PO LOBBY", "address": {"city": "OROVILLE", "state": "CA", "street": "1735 ROBINSON ST", "postcode": "95965"}}},
{"geometry": {"type": "Point", "coordinates": [-121.5574902694, 39.5129057906]}, "type": "Feature", "properties": {"collection_times": [{"days": "Mon-Fri", "time": "3:30pm"}, {"days": "Sat", "time": "3:00pm"}, {"days": "Sun", "time": "Closed"}], "id": "9596500052", "name": "USPS COLLECTION BOX - BLUE BOX", "address": {"city": "OROVILLE", "state": "CA", "street": "1343 LINCOLN ST", "postcode": "95965"}}},
{"geometry": {"type": "Point", "coordinates": [-121.5500612871, 39.5051787026]}, "type": "Feature", "properties": {"collection_times": [{"days": "Mon-Fri", "time": "4:00pm"}, {"days": "Sat", "time": "3:00pm"}, {"days": "Sun", "time": "Closed"}], "id": "9596600000", "name": "USPS COLLECTION BOX - PO LOBBY", "address": {"city": "OROVILLE", "state": "CA", "street": "2359 MYERS ST STE D", "postcode": "95966"}}},
{"geometry": {"type": "Point", "coordinates": [-121.5506574984, 39.5044062304]}, "type": "Feature", "properties": {"collection_times": [{"days": "Mon-Fri", "time": "3:30pm"}, {"days": "Sat", "time": "3:00pm"}, {"days": "Sun", "time": "Closed"}], "id": "9596600009", "name": "USPS COLLECTION BOX - BLUE BOX", "address": {"city": "OROVILLE", "state": "CA", "street": "1911 ORO DAM BLVD E", "postcode": "95966"}}},
{"geometry": {"type": "Point", "coordinates": [-121.4614233548, 39.5039685356]}, "type": "Feature", "properties": {"collection_times": [{"days": "Mon-Sat", "time": "12:00pm"}, {"days": "Sun", "time": "Closed"}], "id": "9596600014", "name": "USPS COLLECTION BOX - BLUE BOX", "address": {"city": "OROVILLE", "state": "CA", "street": "5250 OLIVE HWY", "postcode": "95966"}}},
{"geometry": {"type": "Point", "coordinates": [-121.5305590256, 39.481096024]}, "type": "Feature", "properties": {"collection_times": [{"days": "Mon-Sat", "time": "1:00pm"}, {"days": "Sun", "time": "Closed"}], "id": "9596600018", "name": "USPS COLLECTION BOX - BLUE BOX", "address": {"city": "OROVILLE", "state": "CA", "street": "5291 LOWER WYANDOTTE RD", "postcode": "95966"}}},
{"geometry": {"type": "Point", "coordinates": [-121.5500612871, 39.5051787026]}, "type": "Feature", "properties": {"collection_times": [{"days": "Mon-Fri", "time": "4:00pm"}, {"days": "Sat", "time": "3:00pm"}, {"days": "Sun", "time": "Closed"}], "id": "9596600020", "name": "USPS COLLECTION BOX - BLUE BOX", "address": {"city": "OROVILLE", "state": "CA", "street": "2359 MYERS ST STE D", "postcode": "95966"}}},
{"geometry": {"type": "Point", "coordinates": [-121.5530210504, 39.5052189232]}, "type": "Feature", "properties": {"collection_times": [{"days": "Mon-Fri", "time": "3:30pm"}, {"days": "Sat", "time": "3:00pm"}, {"days": "Sun", "time": "Closed"}], "id": "9596600021", "name": "USPS COLLECTION BOX - BLUE BOX", "address": {"city": "OROVILLE", "state": "CA", "street": "2368 LINCOLN ST", "postcode": "95966"}}},
{"geometry": {"type": "Point", "coordinates": [-121.5514813495, 39.4353262117]}, "type": "Feature", "properties": {"collection_times": [{"days": "Mon-Fri", "time": "4:15pm"}, {"days": "Sat", "time": "8:30am"}, {"days": "Sun", "time": "Closed"}], "id": "9596800000", "name": "USPS COLLECTION BOX - BLUE BOX", "address": {"city": "PALERMO", "state": "CA", "street": "7390 LINCOLN BLVD", "postcode": "95968"}}},
{"geometry": {"type": "Point", "coordinates": [-121.5514452229, 39.4353529077]}, "type": "Feature", "properties": {"collection_times": [{"days": "Mon-Fri", "time": "4:15pm"}, {"days": "Sat", "time": "8:30am"}, {"days": "Sun", "time": "Closed"}], "id": "9596800001", "name": "USPS COLLECTION BOX - PO LOBBY", "address": {"city": "PALERMO", "state": "CA", "street": "7390 LINCOLN BLVD", "postcode": "95968"}}},
{"geometry": {"type": "Point", "coordinates": [-121.5514813495, 39.4353262117]}, "type": "Feature", "properties": {"collection_times": [{"days": "Mon-Fri", "time": "4:15pm"}, {"days": "Sat", "time": "8:30am"}, {"days": "Sun", "time": "Closed"}], "id": "9596800002", "name": "USPS COLLECTION BOX - PO LOBBY", "address": {"city": "PALERMO", "state": "CA", "street": "7390 LINCOLN BLVD", "postcode": "95968"}}},
{"geometry": {"type": "Point", "coordinates": [-121.5968638756, 39.7712782241]}, "type": "Feature", "properties": {"collection_times": [{"days": "Mon-Fri", "time": "5:00pm"}, {"days": "Sat", "time": "4:00pm"}, {"days": "Sun", "time": "Closed"}], "id": "9596900000", "name": "USPS COLLECTION BOX - BLUE BOX", "address": {"city": "PARADISE", "state": "CA", "street": "6469 CLARK RD", "postcode": "95969"}}},
{"geometry": {"type": "Point", "coordinates": [-121.5968638756, 39.7712782241]}, "type": "Feature", "properties": {"collection_times": [{"days": "Mon-Fri", "time": "5:00pm"}, {"days": "Sat", "time": "4:00pm"}, {"days": "Sun", "time": "Closed"}], "id": "9596900001", "name": "USPS COLLECTION BOX - BLUE BOX", "address": {"city": "PARADISE", "state": "CA", "street": "6469 CLARK RD", "postcode": "95969"}}},
{"geometry": {"type": "Point", "coordinates": [-121.5968638756, 39.7712782241]}, "type": "Feature", "properties": {"collection_times": [{"days": "Mon-Fri", "time": "5:00pm"}, {"days": "Sat", "time": "4:00pm"}, {"days": "Sun", "time": "Closed"}], "id": "9596900002", "name": "USPS COLLECTION BOX - BLUE BOX", "address": {"city": "PARADISE", "state": "CA", "street": "6469 CLARK RD", "postcode": "95969"}}},
{"geometry": {"type": "Point", "coordinates": [-121.5968638756, 39.7712782241]}, "type": "Feature", "properties": {"collection_times": [{"days": "Mon-Fri", "time": "5:00pm"}, {"days": "Sat", "time": "4:00pm"}, {"days": "Sun", "time": "Closed"}], "id": "9596900003", "name": "USPS COLLECTION BOX - BLUE BOX", "address": {"city": "PARADISE", "state": "CA", "street": "6469 CLARK RD", "postcode": "95969"}}},
{"geometry": {"type": "Point", "coordinates": [-121.6056852006, 39.7610728371]}, "type": "Feature", "properties": {"collection_times": [{"days": "Mon-Sat", "time": "2:00pm"}, {"days": "Sun", "time": "Closed"}], "id": "9596900004", "name": "USPS COLLECTION BOX - BLUE BOX", "address": {"city": "PARADISE", "state": "CA", "street": "6020 CLARK RD", "postcode": "95969"}}},
{"geometry": {"type": "Point", "coordinates": [-121.6156093526, 39.7521734319]}, "type": "Feature", "properties": {"collection_times": [{"days": "Mon-Sat", "time": "1:45pm"}, {"days": "Sun", "time": "Closed"}], "id": "9596900007", "name": "USPS COLLECTION BOX - BLUE BOX", "address": {"city": "PARADISE", "state": "CA", "street": "480 PEARSON RD", "postcode": "95969"}}},
{"geometry": {"type": "Point", "coordinates": [-121.621442214, 39.7485500335]}, "type": "Feature", "properties": {"collection_times": [{"days": "Mon-Sat", "time": "1:00pm"}, {"days": "Sun", "time": "Closed"}], "id": "9596900008", "name": "USPS COLLECTION BOX - BLUE BOX", "address": {"city": "PARADISE", "state": "CA", "street": "771 BUSCHMANN RD", "postcode": "95969"}}},
{"geometry": {"type": "Point", "coordinates": [-121.6335948625, 39.7490389083]}, "type": "Feature", "properties": {"collection_times": [{"days": "Mon-Sat", "time": "12:00pm"}, {"days": "Sun", "time": "Closed"}], "id": "9596900009", "name": "USPS COLLECTION BOX - BLUE BOX", "address": {"city": "PARADISE", "state": "CA", "street": "5555 SKYWAY", "postcode": "95969"}}},
{"geometry": {"type": "Point", "coordinates": [-121.6204007857, 39.7635646354]}, "type": "Feature", "properties": {"collection_times": [{"days": "Mon-Sat", "time": "1:00pm"}, {"days": "Sun", "time": "Closed"}], "id": "9596900011", "name": "USPS COLLECTION BOX - BLUE BOX", "address": {"city": "PARADISE", "state": "CA", "street": "6830 SKYWAY", "postcode": "95969"}}},
{"geometry": {"type": "Point", "coordinates": [-121.6180111066, 39.7650312528]}, "type": "Feature", "properties": {"collection_times": [{"days": "Mon-Sat", "time": "2:00pm"}, {"days": "Sun", "time": "Closed"}], "id": "9596900012", "name": "USPS COLLECTION BOX - BLUE BOX", "address": {"city": "PARADISE", "state": "CA", "street": "7050 SKYWAY", "postcode": "95969"}}},
{"geometry": {"type": "Point", "coordinates": [-121.6003192987, 39.76764654]}, "type": "Feature", "properties": {"collection_times": [{"days": "Mon-Sat", "time": "2:00pm"}, {"days": "Sun", "time": "Closed"}], "id": "9596900013", "name": "USPS COLLECTION BOX - BLUE BOX", "address": {"city": "PARADISE", "state": "CA", "street": "6283 CLARK RD", "postcode": "95969"}}},
{"geometry": {"type": "Point", "coordinates": [-121.5927909479, 39.7754422396]}, "type": "Feature", "properties": {"collection_times": [{"days": "Mon-Sat", "time": "2:00pm"}, {"days": "Sun", "time": "Closed"}], "id": "9596900014", "name": "USPS COLLECTION BOX - BLUE BOX", "address": {"city": "PARADISE", "state": "CA", "street": "6585 CLARK RD", "postcode": "95969"}}},
{"geometry": {"type": "Point", "coordinates": [-121.5968638756, 39.7712782241]}, "type": "Feature", "properties": {"collection_times": [{"days": "Mon-Fri", "time": "5:00pm"}, {"days": "Sat", "time": "4:00pm"}, {"days": "Sun", "time": "Closed"}], "id": "9596900017", "name": "USPS COLLECTION BOX - PO LOBBY", "address": {"city": "PARADISE", "state": "CA", "street": "6469 CLARK RD", "postcode": "95969"}}},
{"geometry": {"type": "Point", "coordinates": [-121.5968638756, 39.7712782241]}, "type": "Feature", "properties": {"collection_times": [{"days": "Mon-Fri", "time": "5:00pm"}, {"days": "Sat", "time": "4:00pm"}, {"days": "Sun", "time": "Closed"}], "id": "9596900018", "name": "USPS COLLECTION BOX - PO LOBBY", "address": {"city": "PARADISE", "state": "CA", "street": "6469 CLARK RD", "postcode": "95969"}}},
{"geometry": {"type": "Point", "coordinates": [-121.5968638756, 39.7712782241]}, "type": "Feature", "properties": {"collection_times": [{"days": "Mon-Fri", "time": "5:00pm"}, {"days": "Sat", "time": "4:00pm"}, {"days": "Sun", "time": "Closed"}], "id": "9596900019", "name": "USPS COLLECTION BOX - PO LOBBY", "address": {"city": "PARADISE", "state": "CA", "street": "6469 CLARK RD", "postcode": "95969"}}},
{"geometry": {"type": "Point", "coordinates": [-121.572872372, 39.7415689824]}, "type": "Feature", "properties": {"collection_times": [{"days": "Mon-Sat", "time": "1:30pm"}, {"days": "Sun", "time": "Closed"}], "id": "9596900025", "name": "USPS COLLECTION BOX - BLUE BOX", "address": {"city": "PARADISE", "state": "CA", "street": "5531 PENTZ RD", "postcode": "95969"}}},
{"geometry": {"type": "Point", "coordinates": [-122.0098600651, 39.4027491087]}, "type": "Feature", "properties": {"collection_times": [{"days": "Mon-Fri", "time": "11:30am"}, {"days": "Sat", "time": "9:30am"}, {"days": "Sun", "time": "Closed"}], "id": "9597000001", "name": "USPS COLLECTION BOX - PO LOBBY", "address": {"city": "PRINCETON", "state": "CA", "street": "149 COMMERCIAL ST", "postcode": "95970"}}},
{"geometry": {"type": "Point", "coordinates": [-122.0098600651, 39.4027491087]}, "type": "Feature", "properties": {"collection_times": [{"days": "Mon-Fri", "time": "11:30am"}, {"days": "Sat", "time": "9:30am"}, {"days": "Sun", "time": "Closed"}], "id": "9597000002", "name": "USPS COLLECTION BOX - PO LOBBY", "address": {"city": "PRINCETON", "state": "CA", "street": "149 COMMERCIAL ST", "postcode": "95970"}}},
{"geometry": {"type": "Point", "coordinates": [-120.9402066624, 39.9371615153]}, "type": "Feature", "properties": {"collection_times": [{"days": "Mon-Fri", "time": "4:45pm"}, {"days": "Sat", "time": "4:15pm"}, {"days": "Sun", "time": "Closed"}], "id": "9597100000", "name": "USPS COLLECTION BOX - BLUE BOX", "address": {"city": "QUINCY", "state": "CA", "street": "251 MAIN ST", "postcode": "95971"}}},
{"geometry": {"type": "Point", "coordinates": [-120.9034381201, 39.9341878674]}, "type": "Feature", "properties": {"collection_times": [{"days": "Mon-Sat", "time": "12:45pm"}, {"days": "Sun", "time": "Closed"}], "id": "9597100003", "name": "USPS COLLECTION BOX - BLUE BOX", "address": {"city": "QUINCY", "state": "CA", "street": "1947 E MAIN ST", "postcode": "95971"}}},
{"geometry": {"type": "Point", "coordinates": [-120.9423114369, 39.9376252314]}, "type": "Feature", "properties": {"collection_times": [{"days": "Mon-Fri", "time": "4:45pm"}, {"days": "Sat", "time": "4:15pm"}, {"days": "Sun", "time": "Closed"}], "id": "9597100004", "name": "USPS COLLECTION BOX - BLUE BOX", "address": {"city": "QUINCY", "state": "CA", "street": "222 LAWRENCE ST", "postcode": "95971"}}},
{"geometry": {"type": "Point", "coordinates": [-120.758766007, 39.8985282597]}, "type": "Feature", "properties": {"collection_times": [{"days": "Mon-Sat", "time": "11:15am"}, {"days": "Sun", "time": "Closed"}], "id": "9597100005", "name": "USPS COLLECTION BOX - BLUE BOX", "address": {"city": "QUINCY", "state": "CA", "street": "1541 HARRISON RD", "postcode": "95971"}}},
{"geometry": {"type": "Point", "coordinates": [-120.9423114369, 39.9376252314]}, "type": "Feature", "properties": {"collection_times": [{"days": "Mon-Fri", "time": "4:45pm"}, {"days": "Sat", "time": "4:15pm"}, {"days": "Sun", "time": "Closed"}], "id": "9597100007", "name": "USPS COLLECTION BOX - PO LOBBY", "address": {"city": "QUINCY", "state": "CA", "street": "222 LAWRENCE ST", "postcode": "95971"}}},
{"geometry": {"type": "Point", "coordinates": [-120.9423114369, 39.9376252314]}, "type": "Feature", "properties": {"collection_times": [{"days": "Mon-Fri", "time": "2:45pm"}, {"days": "Sat", "time": "11:45am"}, {"days": "Sun", "time": "Closed"}], "id": "9597100008", "name": "USPS COLLECTION BOX - PO LOBBY", "address": {"city": "QUINCY", "state": "CA", "street": "222 LAWRENCE ST", "postcode": "95971"}}},
{"geometry": {"type": "Point", "coordinates": [-120.9423114369, 39.9376252314]}, "type": "Feature", "properties": {"collection_times": [{"days": "Mon-Fri", "time": "4:45pm"}, {"days": "Sat", "time": "4:15pm"}, {"days": "Sun", "time": "Closed"}], "id": "9597100009", "name": "USPS COLLECTION BOX - PO LOBBY", "address": {"city": "QUINCY", "state": "CA", "street": "222 LAWRENCE ST", "postcode": "95971"}}},
{"geometry": {"type": "Point", "coordinates": [-121.3317191065, 39.4390982711]}, "type": "Feature", "properties": {"collection_times": [{"days": "Mon-Fri", "time": "3:30pm"}, {"days": "Sat", "time": "9:30am"}, {"days": "Sun", "time": "Closed"}], "id": "9597200000", "name": "USPS COLLECTION BOX - BLUE BOX", "address": {"city": "RACKERBY", "state": "CA", "street": "7417 LA PORTE RD", "postcode": "95972"}}},
{"geometry": {"type": "Point", "coordinates": [-121.3317191065, 39.4390982711]}, "type": "Feature", "properties": {"collection_times": [{"days": "Mon-Fri", "time": "3:30pm"}, {"days": "Sat", "time": "9:30am"}, {"days": "Sun", "time": "Closed"}], "id": "9597200001", "name": "USPS COLLECTION BOX - PO LOBBY", "address": {"city": "RACKERBY", "state": "CA", "street": "7417 LA PORTE RD", "postcode": "95972"}}},
{"geometry": {"type": "Point", "coordinates": [-121.854548871, 39.7996999319]}, "type": "Feature", "properties": {"collection_times": [{"days": "Mon-Fri", "time": "3:40pm"}, {"days": "Sat", "time": "12:30pm"}, {"days": "Sun", "time": "Closed"}], "id": "9597300001", "name": "USPS COLLECTION BOX - BLUE BOX", "address": {"city": "CHICO", "state": "CA", "street": "100 AIRPARK BLVD", "postcode": "95973"}}},
{"geometry": {"type": "Point", "coordinates": [-121.8769384013, 39.7723413248]}, "type": "Feature", "properties": {"collection_times": [{"days": "Mon-Fri", "time": "4:00pm"}, {"days": "Sat", "time": "2:15pm"}, {"days": "Sun", "time": "Closed"}], "id": "9597300003", "name": "USPS COLLECTION BOX - BLUE BOX", "address": {"city": "CHICO", "state": "CA", "street": "100 EATON RD", "postcode": "95973"}}},
{"geometry": {"type": "Point", "coordinates": [-121.8769384013, 39.7723413248]}, "type": "Feature", "properties": {"collection_times": [{"days": "Mon-Fri", "time": "4:00pm"}, {"days": "Sat", "time": "2:15pm"}, {"days": "Sun", "time": "Closed"}], "id": "9597300004", "name": "USPS COLLECTION BOX - BLUE BOX", "address": {"city": "CHICO", "state": "CA", "street": "100 EATON RD", "postcode": "95973"}}},
{"geometry": {"type": "Point", "coordinates": [-121.8769384013, 39.7723413248]}, "type": "Feature", "properties": {"collection_times": [{"days": "Mon-Fri", "time": "4:00pm"}, {"days": "Sat", "time": "2:15pm"}, {"days": "Sun", "time": "Closed"}], "id": "9597300005", "name": "USPS COLLECTION BOX - BLUE BOX", "address": {"city": "CHICO", "state": "CA", "street": "100 EATON RD", "postcode": "95973"}}},
{"geometry": {"type": "Point", "coordinates": [-121.8393964885, 39.7749950811]}, "type": "Feature", "properties": {"collection_times": [{"days": "Mon-Fri", "time": "3:40pm"}, {"days": "Sat", "time": "10:00am"}, {"days": "Sun", "time": "Closed"}], "id": "9597300011", "name": "USPS COLLECTION BOX - BLUE BOX", "address": {"city": "CHICO", "state": "CA", "street": "1395 RIDGEWOOD DR", "postcode": "95973"}}},
{"geometry": {"type": "Point", "coordinates": [-121.8769384013, 39.7723413248]}, "type": "Feature", "properties": {"collection_times": [{"days": "Mon-Fri", "time": "4:00pm"}, {"days": "Sat", "time": "2:15pm"}, {"days": "Sun", "time": "Closed"}], "id": "9597300013", "name": "USPS COLLECTION BOX - BLUE BOX", "address": {"city": "CHICO", "state": "CA", "street": "100 EATON RD", "postcode": "95973"}}},
{"geometry": {"type": "Point", "coordinates": [-121.8393964885, 39.7749950811]}, "type": "Feature", "properties": {"collection_times": [{"days": "Mon-Fri", "time": "3:40pm"}, {"days": "Sat", "time": "10:00am"}, {"days": "Sun", "time": "Closed"}], "id": "9597300017", "name": "USPS COLLECTION BOX - BLUE BOX", "address": {"city": "CHICO", "state": "CA", "street": "1395 RIDGEWOOD DR", "postcode": "95973"}}},
{"geometry": {"type": "Point", "coordinates": [-121.8769384013, 39.7723413248]}, "type": "Feature", "properties": {"collection_times": [{"days": "Mon-Fri", "time": "4:00pm"}, {"days": "Sat", "time": "2:15pm"}, {"days": "Sun", "time": "Closed"}], "id": "9597300018", "name": "USPS COLLECTION BOX - BLUE BOX", "address": {"city": "CHICO", "state": "CA", "street": "100 EATON RD", "postcode": "95973"}}},
{"geometry": {"type": "Point", "coordinates": [-121.7479705983, 39.4963861814]}, "type": "Feature", "properties": {"collection_times": [{"days": "Mon-Fri", "time": "4:15pm"}, {"days": "Sat", "time": "9:45am"}, {"days": "Sun", "time": "Closed"}], "id": "9597400000", "name": "USPS COLLECTION BOX - BLUE BOX", "address": {"city": "RICHVALE", "state": "CA", "street": "1259 BROADWAY", "postcode": "95974"}}},
{"geometry": {"type": "Point", "coordinates": [-121.7479705983, 39.4963861814]}, "type": "Feature", "properties": {"collection_times": [{"days": "Mon-Fri", "time": "4:30pm"}, {"days": "Sat", "time": "10:00am"}, {"days": "Sun", "time": "Closed"}], "id": "9597400001", "name": "USPS COLLECTION BOX - PO LOBBY", "address": {"city": "RICHVALE", "state": "CA", "street": "1259 BROADWAY", "postcode": "95974"}}},
{"geometry": {"type": "Point", "coordinates": [-121.136593151, 39.2299309755]}, "type": "Feature", "properties": {"collection_times": [{"days": "Mon-Fri", "time": "3:00pm"}, {"days": "Sat", "time": "10:30am"}, {"days": "Sun", "time": "Closed"}], "id": "9597500004", "name": "USPS COLLECTION BOX - BLUE BOX", "address": {"city": "ROUGH AND READY", "state": "CA", "street": "14485 ROUGH AND READY HWY", "postcode": "95975"}}},
{"geometry": {"type": "Point", "coordinates": [-121.136593151, 39.2299309755]}, "type": "Feature", "properties": {"collection_times": [{"days": "Mon-Fri", "time": "3:00pm"}, {"days": "Sat", "time": "10:30am"}, {"days": "Sun", "time": "Closed"}], "id": "9597500005", "name": "USPS COLLECTION BOX - PO LOBBY", "address": {"city": "ROUGH AND READY", "state": "CA", "street": "14485 ROUGH AND READY HWY", "postcode": "95975"}}},
{"geometry": {"type": "Point", "coordinates": [-121.136593151, 39.2299309755]}, "type": "Feature", "properties": {"collection_times": [{"days": "Mon-Fri", "time": "3:00pm"}, {"days": "Sat", "time": "10:30am"}, {"days": "Sun", "time": "Closed"}], "id": "9597500006", "name": "USPS COLLECTION BOX - PO LOBBY", "address": {"city": "ROUGH AND READY", "state": "CA", "street": "14485 ROUGH AND READY HWY", "postcode": "95975"}}},
{"geometry": {"type": "Point", "coordinates": [-121.136593151, 39.2299309755]}, "type": "Feature", "properties": {"collection_times": [{"days": "Mon-Fri", "time": "3:00pm"}, {"days": "Sat", "time": "10:30am"}, {"days": "Sun", "time": "Closed"}], "id": "9597500007", "name": "USPS COLLECTION BOX - PO LOBBY", "address": {"city": "ROUGH AND READY", "state": "CA", "street": "14485 ROUGH AND READY HWY", "postcode": "95975"}}},
{"geometry": {"type": "Point", "coordinates": [-121.1586590923, 39.2224679785]}, "type": "Feature", "properties": {"collection_times": [{"days": "Mon-Sat", "time": "11:00am"}, {"days": "Sun", "time": "Closed"}], "id": "9597500008", "name": "USPS COLLECTION BOX - BLUE BOX", "address": {"city": "ROUGH AND READY", "state": "CA", "street": "11260 PLEASANT VALLEY RD", "postcode": "95975"}}},
{"geometry": {"type": "Point", "coordinates": [-121.2976035156, 39.2071864065]}, "type": "Feature", "properties": {"collection_times": [{"days": "Mon-Fri", "time": "3:00pm"}, {"days": "Sat", "time": "9:00am"}, {"days": "Sun", "time": "Closed"}], "id": "9597700001", "name": "USPS COLLECTION BOX - PO LOBBY", "address": {"city": "SMARTSVILLE", "state": "CA", "street": "8482 SMARTVILLE RD", "postcode": "95977"}}},
{"geometry": {"type": "Point", "coordinates": [-121.2976035156, 39.2071864065]}, "type": "Feature", "properties": {"collection_times": [{"days": "Mon-Fri", "time": "3:00pm"}, {"days": "Sat", "time": "9:00am"}, {"days": "Sun", "time": "Closed"}], "id": "9597700002", "name": "USPS COLLECTION BOX - PO LOBBY", "address": {"city": "SMARTSVILLE", "state": "CA", "street": "8482 SMARTVILLE RD", "postcode": "95977"}}},
{"geometry": {"type": "Point", "coordinates": [-121.5290432565, 39.9020046738]}, "type": "Feature", "properties": {"collection_times": [{"days": "Mon-Fri", "time": "11:45am"}, {"days": "Sat", "time": "10:15am"}, {"days": "Sun", "time": "Closed"}], "id": "9597800000", "name": "USPS COLLECTION BOX - PO LOBBY", "address": {"city": "STIRLING CITY", "state": "CA", "street": "16939 SKYWAY", "postcode": "95978"}}},
{"geometry": {"type": "Point", "coordinates": [-122.5453042561, 39.3755846669]}, "type": "Feature", "properties": {"collection_times": [{"days": "Mon-Sat", "time": "11:55am"}, {"days": "Sun", "time": "Closed"}], "id": "9597900000", "name": "USPS COLLECTION BOX - BLUE BOX", "address": {"city": "STONYFORD", "state": "CA", "street": "259 MARKET ST", "postcode": "95979"}}},
{"geometry": {"type": "Point", "coordinates": [-122.5184116057, 39.3021312634]}, "type": "Feature", "properties": {"collection_times": [{"days": "Mon-Fri", "time": "12:10pm"}, {"days": "Sat-Sun", "time": "Closed"}], "id": "9597900001", "name": "USPS COLLECTION BOX - BLUE BOX", "address": {"city": "STONYFORD", "state": "CA", "street": "91 LAKE PARK DR", "postcode": "95979"}}},
{"geometry": {"type": "Point", "coordinates": [-122.5453042561, 39.3755846669]}, "type": "Feature", "properties": {"collection_times": [{"days": "Mon-Sat", "time": "11:55am"}, {"days": "Sun", "time": "Closed"}], "id": "9597900002", "name": "USPS COLLECTION BOX - PO LOBBY", "address": {"city": "STONYFORD", "state": "CA", "street": "259 MARKET ST", "postcode": "95979"}}},
{"geometry": {"type": "Point", "coordinates": [-122.5453042561, 39.3755846669]}, "type": "Feature", "properties": {"collection_times": [{"days": "Mon-Sat", "time": "11:55am"}, {"days": "Sun", "time": "Closed"}], "id": "9597900003", "name": "USPS COLLECTION BOX - PO LOBBY", "address": {"city": "STONYFORD", "state": "CA", "street": "259 MARKET ST", "postcode": "95979"}}},
{"geometry": {"type": "Point", "coordinates": [-121.7489367994, 39.1602184048]}, "type": "Feature", "properties": {"collection_times": [{"days": "Mon-Fri", "time": "4:30pm"}, {"days": "Sat", "time": "10:00am"}, {"days": "Sun", "time": "Closed"}], "id": "9598200000", "name": "USPS COLLECTION BOX - BLUE BOX", "address": {"city": "SUTTER", "state": "CA", "street": "2209 CALIFORNIA ST", "postcode": "95982"}}},
{"geometry": {"type": "Point", "coordinates": [-121.7489367994, 39.1602184048]}, "type": "Feature", "properties": {"collection_times": [{"days": "Mon-Fri", "time": "5:00pm"}, {"days": "Sat", "time": "10:00am"}, {"days": "Sun", "time": "Closed"}], "id": "9598200001", "name": "USPS COLLECTION BOX - PO LOBBY", "address": {"city": "SUTTER", "state": "CA", "street": "2209 CALIFORNIA ST", "postcode": "95982"}}},
{"geometry": {"type": "Point", "coordinates": [-121.7489367994, 39.1602184048]}, "type": "Feature", "properties": {"collection_times": [{"days": "Mon-Fri", "time": "5:00pm"}, {"days": "Sat", "time": "10:00am"}, {"days": "Sun", "time": "Closed"}], "id": "9598200002", "name": "USPS COLLECTION BOX - PO LOBBY", "address": {"city": "SUTTER", "state": "CA", "street": "2209 CALIFORNIA ST", "postcode": "95982"}}},
{"geometry": {"type": "Point", "coordinates": [-121.754598738, 39.14231791]}, "type": "Feature", "properties": {"collection_times": [{"days": "Mon-Sat", "time": "1:30pm"}, {"days": "Sun", "time": "Closed"}], "id": "9598200003", "name": "USPS COLLECTION BOX - BLUE BOX", "address": {"city": "SUTTER", "state": "CA", "street": "7505 COLUSA HWY", "postcode": "95982"}}},
{"geometry": {"type": "Point", "coordinates": [-120.8404443858, 40.075260864]}, "type": "Feature", "properties": {"collection_times": [{"days": "Mon-Fri", "time": "1:45pm"}, {"days": "Sat", "time": "11:30am"}, {"days": "Sun", "time": "Closed"}], "id": "9598300000", "name": "USPS COLLECTION BOX - BLUE BOX", "address": {"city": "TAYLORSVILLE", "state": "CA", "street": "4368 MAIN ST", "postcode": "95983"}}},
{"geometry": {"type": "Point", "coordinates": [-120.8404443858, 40.075260864]}, "type": "Feature", "properties": {"collection_times": [{"days": "Mon-Fri", "time": "1:45pm"}, {"days": "Sat", "time": "11:30am"}, {"days": "Sun", "time": "Closed"}], "id": "9598300001", "name": "USPS COLLECTION BOX - PO LOBBY", "address": {"city": "TAYLORSVILLE", "state": "CA", "street": "4368 MAIN ST", "postcode": "95983"}}},
{"geometry": {"type": "Point", "coordinates": [-120.8404443858, 40.075260864]}, "type": "Feature", "properties": {"collection_times": [{"days": "Mon-Fri", "time": "1:45pm"}, {"days": "Sat", "time": "11:30am"}, {"days": "Sun", "time": "Closed"}], "id": "9598300002", "name": "USPS COLLECTION BOX - PO LOBBY", "address": {"city": "TAYLORSVILLE", "state": "CA", "street": "4368 MAIN ST", "postcode": "95983"}}},
{"geometry": {"type": "Point", "coordinates": [-121.1435004563, 40.0395991776]}, "type": "Feature", "properties": {"collection_times": [{"days": "Mon-Fri", "time": "11:45am"}, {"days": "Sat", "time": "9:45am"}, {"days": "Sun", "time": "Closed"}], "id": "9598400001", "name": "USPS COLLECTION BOX - PO LOBBY", "address": {"city": "TWAIN", "state": "CA", "street": "200 TWAIN RD", "postcode": "95984"}}},
{"geometry": {"type": "Point", "coordinates": [-120.794788666, 39.3604710455]}, "type": "Feature", "properties": {"collection_times": [{"days": "Mon-Fri", "time": "12:30pm"}, {"days": "Sat", "time": "11:00am"}, {"days": "Sun", "time": "Closed"}], "id": "9598600000", "name": "USPS COLLECTION BOX - PO LOBBY", "address": {"city": "WASHINGTON", "state": "CA", "street": "15274 WASHINGTON RD", "postcode": "95986"}}},
{"geometry": {"type": "Point", "coordinates": [-122.1508576787, 39.1540770667]}, "type": "Feature", "properties": {"collection_times": [{"days": "Mon-Fri", "time": "5:00pm"}, {"days": "Sat", "time": "10:00am"}, {"days": "Sun", "time": "Closed"}], "id": "9598700000", "name": "USPS COLLECTION BOX - BLUE BOX", "address": {"city": "WILLIAMS", "state": "CA", "street": "801 E ST", "postcode": "95987"}}},
{"geometry": {"type": "Point", "coordinates": [-122.1508576787, 39.1540770667]}, "type": "Feature", "properties": {"collection_times": [{"days": "Mon-Fri", "time": "5:00pm"}, {"days": "Sat", "time": "10:00am"}, {"days": "Sun", "time": "Closed"}], "id": "9598700001", "name": "USPS COLLECTION BOX - PO LOBBY", "address": {"city": "WILLIAMS", "state": "CA", "street": "801 E ST", "postcode": "95987"}}},
{"geometry": {"type": "Point", "coordinates": [-122.1508576787, 39.1540770667]}, "type": "Feature", "properties": {"collection_times": [{"days": "Mon-Fri", "time": "5:00pm"}, {"days": "Sat", "time": "10:00am"}, {"days": "Sun", "time": "Closed"}], "id": "9598700002", "name": "USPS COLLECTION BOX - PO LOBBY", "address": {"city": "WILLIAMS", "state": "CA", "street": "801 E ST", "postcode": "95987"}}},
{"geometry": {"type": "Point", "coordinates": [-122.1508576787, 39.1540770667]}, "type": "Feature", "properties": {"collection_times": [{"days": "Mon-Fri", "time": "5:00pm"}, {"days": "Sat", "time": "10:00am"}, {"days": "Sun", "time": "Closed"}], "id": "9598700003", "name": "USPS COLLECTION BOX - PO LOBBY", "address": {"city": "WILLIAMS", "state": "CA", "street": "801 E ST", "postcode": "95987"}}},
{"geometry": {"type": "Point", "coordinates": [-122.1969921877, 39.5205845654]}, "type": "Feature", "properties": {"collection_times": [{"days": "Mon-Fri", "time": "5:00pm"}, {"days": "Sat", "time": "4:00pm"}, {"days": "Sun", "time": "Closed"}], "id": "9598800000", "name": "USPS COLLECTION BOX - BLUE BOX", "address": {"city": "WILLOWS", "state": "CA", "street": "315 W SYCAMORE ST", "postcode": "95988"}}},
{"geometry": {"type": "Point", "coordinates": [-122.1969921877, 39.5205845654]}, "type": "Feature", "properties": {"collection_times": [{"days": "Mon-Fri", "time": "5:00pm"}, {"days": "Sat", "time": "4:00pm"}, {"days": "Sun", "time": "Closed"}], "id": "9598800001", "name": "USPS COLLECTION BOX - BLUE BOX", "address": {"city": "WILLOWS", "state": "CA", "street": "315 W SYCAMORE ST", "postcode": "95988"}}},
{"geometry": {"type": "Point", "coordinates": [-122.1999734182, 39.52045606]}, "type": "Feature", "properties": {"collection_times": [{"days": "Mon-Fri", "time": "2:45pm"}, {"days": "Sat", "time": "1:00pm"}, {"days": "Sun", "time": "Closed"}], "id": "9598800004", "name": "USPS COLLECTION BOX - BLUE BOX", "address": {"city": "WILLOWS", "state": "CA", "street": "526 W SYCAMORE ST", "postcode": "95988"}}},
{"geometry": {"type": "Point", "coordinates": [-122.2161084824, 39.5216699155]}, "type": "Feature", "properties": {"collection_times": [{"days": "Mon-Sat", "time": "11:00am"}, {"days": "Sun", "time": "Closed"}], "id": "9598800008", "name": "USPS COLLECTION BOX - BLUE BOX", "address": {"city": "WILLOWS", "state": "CA", "street": "470 N AIRPORT RD", "postcode": "95988"}}},
{"geometry": {"type": "Point", "coordinates": [-122.1969921877, 39.5205845654]}, "type": "Feature", "properties": {"collection_times": [{"days": "Mon-Fri", "time": "5:00pm"}, {"days": "Sat", "time": "4:00pm"}, {"days": "Sun", "time": "Closed"}], "id": "9598800009", "name": "USPS COLLECTION BOX - PO LOBBY", "address": {"city": "WILLOWS", "state": "CA", "street": "315 W SYCAMORE ST", "postcode": "95988"}}},
{"geometry": {"type": "Point", "coordinates": [-122.1969921877, 39.5205845654]}, "type": "Feature", "properties": {"collection_times": [{"days": "Mon-Fri", "time": "5:00pm"}, {"days": "Sat", "time": "4:00pm"}, {"days": "Sun", "time": "Closed"}], "id": "9598800010", "name": "USPS COLLECTION BOX - PO LOBBY", "address": {"city": "WILLOWS", "state": "CA", "street": "315 W SYCAMORE ST", "postcode": "95988"}}},
{"geometry": {"type": "Point", "coordinates": [-122.193933043, 39.5155628601]}, "type": "Feature", "properties": {"collection_times": [{"days": "Mon-Fri", "time": "2:30pm"}, {"days": "Sat", "time": "11:00am"}, {"days": "Sun", "time": "Closed"}], "id": "9598800011", "name": "USPS COLLECTION BOX - BLUE BOX", "address": {"city": "WILLOWS", "state": "CA", "street": "517 S TEHAMA ST", "postcode": "95988"}}},
{"geometry": {"type": "Point", "coordinates": [-121.619972979, 39.1435422322]}, "type": "Feature", "properties": {"collection_times": [{"days": "Mon-Fri", "time": "4:00pm"}, {"days": "Sat", "time": "3:00pm"}, {"days": "Sun", "time": "Closed"}], "id": "9599100007", "name": "USPS COLLECTION BOX - BLUE BOX", "address": {"city": "YUBA CITY", "state": "CA", "street": "466 DEL NORTE AVE", "postcode": "95991"}}},
{"geometry": {"type": "Point", "coordinates": [-121.627755666, 39.1126942113]}, "type": "Feature", "properties": {"collection_times": [{"days": "Mon-Sat", "time": "2:45pm"}, {"days": "Sun", "time": "Closed"}], "id": "9599100015", "name": "USPS COLLECTION BOX - BLUE BOX", "address": {"city": "YUBA CITY", "state": "CA", "street": "1020 LINCOLN RD", "postcode": "95991"}}},
{"geometry": {"type": "Point", "coordinates": [-121.6225491843, 39.1260135307]}, "type": "Feature", "properties": {"collection_times": [{"days": "Mon-Sat", "time": "3:00pm"}, {"days": "Sun", "time": "Closed"}], "id": "9599100022", "name": "USPS COLLECTION BOX - BLUE BOX", "address": {"city": "YUBA CITY", "state": "CA", "street": "448 GARDEN HWY", "postcode": "95991"}}},
{"geometry": {"type": "Point", "coordinates": [-121.6314311195, 39.1708886946]}, "type": "Feature", "properties": {"collection_times": [{"days": "Mon-Sat", "time": "10:00am"}, {"days": "Sun", "time": "Closed"}], "id": "9599100025", "name": "USPS COLLECTION BOX - BLUE BOX", "address": {"city": "YUBA CITY", "state": "CA", "street": "1155 PEASE RD", "postcode": "95991"}}},
{"geometry": {"type": "Point", "coordinates": [-121.6411841057, 39.1473262581]}, "type": "Feature", "properties": {"collection_times": [{"days": "Mon-Fri", "time": "4:00pm"}, {"days": "Sat", "time": "3:00pm"}, {"days": "Sun", "time": "Closed"}], "id": "9599100030", "name": "USPS COLLECTION BOX - BLUE BOX", "address": {"city": "YUBA CITY", "state": "CA", "street": "1501 BUTTE HOUSE RD", "postcode": "95991"}}},
{"geometry": {"type": "Point", "coordinates": [-121.644927802, 39.1126816475]}, "type": "Feature", "properties": {"collection_times": [{"days": "Mon-Sat", "time": "1:00pm"}, {"days": "Sun", "time": "Closed"}], "id": "9599100032", "name": "USPS COLLECTION BOX - BLUE BOX", "address": {"city": "YUBA CITY", "state": "CA", "street": "1640 LINCOLN RD", "postcode": "95991"}}},
{"geometry": {"type": "Point", "coordinates": [-121.650040247, 39.1403742681]}, "type": "Feature", "properties": {"collection_times": [{"days": "Mon-Fri", "time": "4:00pm"}, {"days": "Sat", "time": "3:00pm"}, {"days": "Sun", "time": "Closed"}], "id": "9599100033", "name": "USPS COLLECTION BOX - BLUE BOX", "address": {"city": "YUBA CITY", "state": "CA", "street": "1650 SIERRA AVE", "postcode": "95991"}}},
{"geometry": {"type": "Point", "coordinates": [-121.6247734265, 39.1226026756]}, "type": "Feature", "properties": {"collection_times": [{"days": "Mon-Fri", "time": "4:00pm"}, {"days": "Sat", "time": "3:00pm"}, {"days": "Sun", "time": "Closed"}], "id": "9599100041", "name": "USPS COLLECTION BOX - BLUE BOX", "address": {"city": "YUBA CITY", "state": "CA", "street": "222 CLARK AVE", "postcode": "95991"}}},
{"geometry": {"type": "Point", "coordinates": [-121.6350817631, 39.1331284631]}, "type": "Feature", "properties": {"collection_times": [{"days": "Mon-Fri", "time": "4:00pm"}, {"days": "Sat", "time": "3:00pm"}, {"days": "Sun", "time": "Closed"}], "id": "9599100042", "name": "USPS COLLECTION BOX - BLUE BOX", "address": {"city": "YUBA CITY", "state": "CA", "street": "700 W ONSTOTT FRONTAGE RD", "postcode": "95991"}}},
{"geometry": {"type": "Point", "coordinates": [-121.6335486161, 39.1214835964]}, "type": "Feature", "properties": {"collection_times": [{"days": "Mon-Fri", "time": "4:00pm"}, {"days": "Sat", "time": "3:00pm"}, {"days": "Sun", "time": "Closed"}], "id": "9599100049", "name": "USPS COLLECTION BOX - BLUE BOX", "address": {"city": "YUBA CITY", "state": "CA", "street": "410 CENTURY PARK DR", "postcode": "95991"}}},
{"geometry": {"type": "Point", "coordinates": [-121.639316724, 39.143635686]}, "type": "Feature", "properties": {"collection_times": [{"days": "Mon-Fri", "time": "4:00pm"}, {"days": "Sat", "time": "3:00pm"}, {"days": "Sun", "time": "Closed"}], "id": "9599100051", "name": "USPS COLLECTION BOX - BLUE BOX", "address": {"city": "YUBA CITY", "state": "CA", "street": "1130 CIVIC CENTER BLVD", "postcode": "95991"}}},
{"geometry": {"type": "Point", "coordinates": [-121.6423474648, 39.1434795354]}, "type": "Feature", "properties": {"collection_times": [{"days": "Mon-Fri", "time": "4:00pm"}, {"days": "Sat", "time": "3:00pm"}, {"days": "Sun", "time": "Closed"}], "id": "9599100055", "name": "USPS COLLECTION BOX - BLUE BOX", "address": {"city": "YUBA CITY", "state": "CA", "street": "1547 STARR DR", "postcode": "95991"}}},
{"geometry": {"type": "Point", "coordinates": [-121.6225578747, 39.1260221748]}, "type": "Feature", "properties": {"collection_times": [{"days": "Mon-Fri", "time": "5:00pm"}, {"days": "Sat", "time": "1:00pm"}, {"days": "Sun", "time": "Closed"}], "id": "9599100058", "name": "USPS COLLECTION BOX - BLUE BOX", "address": {"city": "YUBA CITY", "state": "CA", "street": "761 PLUMAS ST", "postcode": "95991"}}},
{"geometry": {"type": "Point", "coordinates": [-121.6169966542, 39.1390150483]}, "type": "Feature", "properties": {"collection_times": [{"days": "Mon-Fri", "time": "5:00pm"}, {"days": "Sat", "time": "1:00pm"}, {"days": "Sun", "time": "Closed"}], "id": "9599100060", "name": "USPS COLLECTION BOX - BLUE BOX", "address": {"city": "YUBA CITY", "state": "CA", "street": "761 PLUMAS ST", "postcode": "95991"}}},
{"geometry": {"type": "Point", "coordinates": [-121.6169966542, 39.1390150483]}, "type": "Feature", "properties": {"collection_times": [{"days": "Mon-Fri", "time": "5:00pm"}, {"days": "Sat", "time": "1:00pm"}, {"days": "Sun", "time": "Closed"}], "id": "9599100061", "name": "USPS COLLECTION BOX - PO LOBBY", "address": {"city": "YUBA CITY", "state": "CA", "street": "761 PLUMAS ST", "postcode": "95991"}}},
{"geometry": {"type": "Point", "coordinates": [-121.6718252116, 39.1137254021]}, "type": "Feature", "properties": {"collection_times": [{"days": "Mon-Fri", "time": "4:00pm"}, {"days": "Sat", "time": "3:00pm"}, {"days": "Sun", "time": "Closed"}], "id": "9599100062", "name": "USPS COLLECTION BOX - BLUE BOX", "address": {"city": "YUBA CITY", "state": "CA", "street": "955 S GEORGE WASHINGTON BLVD", "postcode": "95991"}}},
{"geometry": {"type": "Point", "coordinates": [-121.6335486161, 39.1214835964]}, "type": "Feature", "properties": {"collection_times": [{"days": "Mon-Fri", "time": "4:00pm"}, {"days": "Sat", "time": "3:00pm"}, {"days": "Sun", "time": "Closed"}], "id": "9599100063", "name": "USPS COLLECTION BOX - BLUE BOX", "address": {"city": "YUBA CITY", "state": "CA", "street": "410 CENTURY PARK DR", "postcode": "95991"}}},
{"geometry": {"type": "Point", "coordinates": [-121.6177170762, 39.1416329365]}, "type": "Feature", "properties": {"collection_times": [{"days": "Mon-Fri", "time": "4:00pm"}, {"days": "Sat", "time": "3:00pm"}, {"days": "Sun", "time": "Closed"}], "id": "9599100064", "name": "USPS COLLECTION BOX - BLUE BOX", "address": {"city": "YUBA CITY", "state": "CA", "street": "887 PLUMAS ST", "postcode": "95991"}}},
{"geometry": {"type": "Point", "coordinates": [-121.6061276273, 39.1356672744]}, "type": "Feature", "properties": {"collection_times": [{"days": "Mon-Fri", "time": "4:00pm"}, {"days": "Sat", "time": "3:00pm"}, {"days": "Sun", "time": "Closed"}], "id": "9599100066", "name": "USPS COLLECTION BOX - BLUE BOX", "address": {"city": "YUBA CITY", "state": "CA", "street": "463 2ND ST", "postcode": "95991"}}}
]}
