{"type": "FeatureCollection", "features": [
{"geometry": {"type": "Point", "coordinates": [-122.3933414603, 40.5826050346]}, "type": "Feature", "properties": {"collection_times": [{"days": "Mon-Fri", "time": "5:00pm"}, {"days": "Sat", "time": "4:00pm"}, {"days": "Sun", "time": "Closed"}], "id": "9600100004", "name": "USPS COLLECTION BOX - BLUE BOX", "address": {"city": "REDDING", "state": "CA", "street": "1647 YUBA ST", "postcode": "96001"}}},
{"geometry": {"type": "Point", "coordinates": [-122.3931350592, 40.5826666736]}, "type": "Feature", "properties": {"collection_times": [{"days": "Mon-Fri", "time": "5:00pm"}, {"days": "Sat", "time": "4:00pm"}, {"days": "Sun", "time": "Closed"}], "id": "9600100006", "name": "USPS COLLECTION BOX - BLUE BOX", "address": {"city": "REDDING", "state": "CA", "street": "1647 YUBA ST", "postcode": "96001"}}},
{"geometry": {"type": "Point", "coordinates": [-122.3933414603, 40.5826050346]}, "type": "Feature", "properties": {"collection_times": [{"days": "Mon-Fri", "time": "5:00pm"}, {"days": "Sat", "time": "4:00pm"}, {"days": "Sun", "time": "Closed"}], "id": "9600100007", "name": "USPS COLLECTION BOX - BLUE BOX", "address": {"city": "REDDING", "state": "CA", "street": "1647 YUBA ST", "postcode": "96001"}}},
{"geometry": {"type": "Point", "coordinates": [-122.3933414603, 40.5826050346]}, "type": "Feature", "properties": {"collection_times": [{"days": "Mon-Fri", "time": "5:00pm"}, {"days": "Sat", "time": "4:00pm"}, {"days": "Sun", "time": "Closed"}], "id": "9600100009", "name": "USPS COLLECTION BOX - BLUE BOX", "address": {"city": "REDDING", "state": "CA", "street": "1647 YUBA ST", "postcode": "96001"}}},
{"geometry": {"type": "Point", "coordinates": [-122.3960467098, 40.5896588534]}, "type": "Feature", "properties": {"collection_times": [{"days": "Mon-Fri", "time": "3:00pm"}, {"days": "Sat", "time": "1:00pm"}, {"days": "Sun", "time": "Closed"}], "id": "9600100011", "name": "USPS COLLECTION BOX - BLUE BOX", "address": {"city": "REDDING", "state": "CA", "street": "1000 CENTER ST", "postcode": "96001"}}},
{"geometry": {"type": "Point", "coordinates": [-122.3898449385, 40.5818775976]}, "type": "Feature", "properties": {"collection_times": [{"days": "Mon-Fri", "time": "4:00pm"}, {"days": "Sat-Sun", "time": "Closed"}], "id": "9600100021", "name": "USPS COLLECTION BOX - BLUE BOX", "address": {"city": "REDDING", "state": "CA", "street": "1698 MARKET ST", "postcode": "96001"}}},
{"geometry": {"type": "Point", "coordinates": [-122.3879414599, 40.5844790554]}, "type": "Feature", "properties": {"collection_times": [{"days": "Mon-Fri", "time": "4:00pm"}, {"days": "Sat-Sun", "time": "Closed"}], "id": "9600100026", "name": "USPS COLLECTION BOX - BLUE BOX", "address": {"city": "REDDING", "state": "CA", "street": "1555 EAST ST", "postcode": "96001"}}},
{"geometry": {"type": "Point", "coordinates": [-122.3756953619, 40.5851677058]}, "type": "Feature", "properties": {"collection_times": [{"days": "Mon-Fri", "time": "4:00pm"}, {"days": "Sat-Sun", "time": "Closed"}], "id": "9600100030", "name": "USPS COLLECTION BOX - BLUE BOX", "address": {"city": "REDDING", "state": "CA", "street": "1880 PARK MARINA DR", "postcode": "96001"}}},
{"geometry": {"type": "Point", "coordinates": [-122.3713172899, 40.5781446085]}, "type": "Feature", "properties": {"collection_times": [{"days": "Mon-Sat", "time": "10:00am"}, {"days": "Sun", "time": "Closed"}], "id": "9600100031", "name": "USPS COLLECTION BOX - BLUE BOX", "address": {"city": "REDDING", "state": "CA", "street": "2400 WASHINGTON AVE", "postcode": "96001"}}},
{"geometry": {"type": "Point", "coordinates": [-122.3764129701, 40.5740218857]}, "type": "Feature", "properties": {"collection_times": [{"days": "Mon-Fri", "time": "4:00pm"}, {"days": "Sat-Sun", "time": "Closed"}], "id": "9600100033", "name": "USPS COLLECTION BOX - BLUE BOX", "address": {"city": "REDDING", "state": "CA", "street": "2453 ATHENS AVE", "postcode": "96001"}}},
{"geometry": {"type": "Point", "coordinates": [-122.3741760135, 40.5743870698]}, "type": "Feature", "properties": {"collection_times": [{"days": "Mon-Fri", "time": "4:00pm"}, {"days": "Sat-Sun", "time": "Closed"}], "id": "9600100034", "name": "USPS COLLECTION BOX - BLUE BOX", "address": {"city": "REDDING", "state": "CA", "street": "200 LOCUST ST", "postcode": "96001"}}},
{"geometry": {"type": "Point", "coordinates": [-122.4095364068, 40.5478764911]}, "type": "Feature", "properties": {"collection_times": [{"days": "Mon-Fri", "time": "4:00pm"}, {"days": "Sat-Sun", "time": "Closed"}], "id": "9600100042", "name": "USPS COLLECTION BOX - BLUE BOX", "address": {"city": "REDDING", "state": "CA", "street": "2135 CIVIC CENTER DR", "postcode": "96001"}}},
{"geometry": {"type": "Point", "coordinates": [-122.3825491428, 40.521142118]}, "type": "Feature", "properties": {"collection_times": [{"days": "Mon-Sat", "time": "3:00pm"}, {"days": "Sun", "time": "Closed"}], "id": "9600100048", "name": "USPS COLLECTION BOX - BLUE BOX", "address": {"city": "REDDING", "state": "CA", "street": "6478 WESTSIDE RD", "postcode": "96001"}}},
{"geometry": {"type": "Point", "coordinates": [-122.3972110695, 40.5722719076]}, "type": "Feature", "properties": {"collection_times": [{"days": "Mon-Fri", "time": "4:00pm"}, {"days": "Sat", "time": "3:00pm"}, {"days": "Sun", "time": "Closed"}], "id": "9600100051", "name": "USPS COLLECTION BOX - BLUE BOX", "address": {"city": "REDDING", "state": "CA", "street": "2175 ROSALINE AVE", "postcode": "96001"}}},
{"geometry": {"type": "Point", "coordinates": [-122.4262857483, 40.5837909592]}, "type": "Feature", "properties": {"collection_times": [{"days": "Mon-Fri", "time": "4:00pm"}, {"days": "Sat", "time": "3:00pm"}, {"days": "Sun", "time": "Closed"}], "id": "9600100053", "name": "USPS COLLECTION BOX - BLUE BOX", "address": {"city": "REDDING", "state": "CA", "street": "3685 EUREKA WAY", "postcode": "96001"}}},
{"geometry": {"type": "Point", "coordinates": [-122.3911127658, 40.5886324089]}, "type": "Feature", "properties": {"collection_times": [{"days": "Mon-Fri", "time": "3:00pm"}, {"days": "Sat", "time": "1:00pm"}, {"days": "Sun", "time": "Closed"}], "id": "9600100062", "name": "USPS COLLECTION BOX - BLUE BOX", "address": {"city": "REDDING", "state": "CA", "street": "1135 PINE ST", "postcode": "96001"}}},
{"geometry": {"type": "Point", "coordinates": [-122.3713610219, 40.5767671439]}, "type": "Feature", "properties": {"collection_times": [{"days": "Mon-Fri", "time": "4:00pm"}, {"days": "Sat-Sun", "time": "Closed"}], "id": "9600100066", "name": "USPS COLLECTION BOX - BLUE BOX", "address": {"city": "REDDING", "state": "CA", "street": "2515 PARK MARINA DR", "postcode": "96001"}}},
{"geometry": {"type": "Point", "coordinates": [-122.3933414603, 40.5826050346]}, "type": "Feature", "properties": {"collection_times": [{"days": "Mon-Fri", "time": "5:00pm"}, {"days": "Sat", "time": "4:00pm"}, {"days": "Sun", "time": "Closed"}], "id": "9600100069", "name": "USPS COLLECTION BOX - PO LOBBY", "address": {"city": "REDDING", "state": "CA", "street": "1647 YUBA ST", "postcode": "96001"}}},
{"geometry": {"type": "Point", "coordinates": [-122.3933414603, 40.5826050346]}, "type": "Feature", "properties": {"collection_times": [{"days": "Mon-Fri", "time": "5:00pm"}, {"days": "Sat", "time": "4:00pm"}, {"days": "Sun", "time": "Closed"}], "id": "9600100070", "name": "USPS COLLECTION BOX - PO LOBBY", "address": {"city": "REDDING", "state": "CA", "street": "1647 YUBA ST", "postcode": "96001"}}},
{"geometry": {"type": "Point", "coordinates": [-122.3799294035, 40.574123705]}, "type": "Feature", "properties": {"collection_times": [{"days": "Mon-Fri", "time": "4:00pm"}, {"days": "Sat-Sun", "time": "Closed"}], "id": "9600100071", "name": "USPS COLLECTION BOX - BLUE BOX", "address": {"city": "REDDING", "state": "CA", "street": "777 CYPRESS AVE", "postcode": "96001"}}},
{"geometry": {"type": "Point", "coordinates": [-122.4146466263, 40.5756724343]}, "type": "Feature", "properties": {"collection_times": [{"days": "Mon-Fri", "time": "4:00pm"}, {"days": "Sat", "time": "3:00pm"}, {"days": "Sun", "time": "Closed"}], "id": "9600100072", "name": "USPS COLLECTION BOX - BLUE BOX", "address": {"city": "REDDING", "state": "CA", "street": "3315 PLACER ST", "postcode": "96001"}}},
{"geometry": {"type": "Point", "coordinates": [-122.4041091909, 40.5714582837]}, "type": "Feature", "properties": {"collection_times": [{"days": "Mon-Fri", "time": "4:00pm"}, {"days": "Sat", "time": "1:00pm"}, {"days": "Sun", "time": "Closed"}], "id": "9600100077", "name": "USPS COLLECTION BOX - BLUE BOX", "address": {"city": "REDDING", "state": "CA", "street": "2510 AIRPARK DR", "postcode": "96001"}}},
{"geometry": {"type": "Point", "coordinates": [-122.3863028744, 40.5855453544]}, "type": "Feature", "properties": {"collection_times": [{"days": "Mon-Fri", "time": "4:00pm"}, {"days": "Sat-Sun", "time": "Closed"}], "id": "9600100081", "name": "USPS COLLECTION BOX - BLUE BOX", "address": {"city": "REDDING", "state": "CA", "street": "1100 BUTTE ST", "postcode": "96001"}}},
{"geometry": {"type": "Point", "coordinates": [-122.3818723809, 40.5420041435]}, "type": "Feature", "properties": {"collection_times": [{"days": "Mon-Sat", "time": "3:00pm"}, {"days": "Sun", "time": "Closed"}], "id": "9600100082", "name": "USPS COLLECTION BOX - BLUE BOX", "address": {"city": "REDDING", "state": "CA", "street": "5110 BONNYVIEW AVE", "postcode": "96001"}}},
{"geometry": {"type": "Point", "coordinates": [-122.3902238999, 40.5864342429]}, "type": "Feature", "properties": {"collection_times": [{"days": "Mon-Fri", "time": "4:00pm"}, {"days": "Sat", "time": "1:00pm"}, {"days": "Sun", "time": "Closed"}], "id": "9600100083", "name": "USPS COLLECTION BOX - BLUE BOX", "address": {"city": "REDDING", "state": "CA", "street": "1325 PINE ST", "postcode": "96001"}}},
{"geometry": {"type": "Point", "coordinates": [-122.3727501293, 40.5791084973]}, "type": "Feature", "properties": {"collection_times": [{"days": "Mon-Sat", "time": "10:00am"}, {"days": "Sun", "time": "Closed"}], "id": "9600100084", "name": "USPS COLLECTION BOX - BLUE BOX", "address": {"city": "REDDING", "state": "CA", "street": "301 SOUTH ST", "postcode": "96001"}}},
{"geometry": {"type": "Point", "coordinates": [-122.4095364068, 40.5478764911]}, "type": "Feature", "properties": {"collection_times": [{"days": "Mon-Fri", "time": "4:00pm"}, {"days": "Sat-Sun", "time": "Closed"}], "id": "9600100085", "name": "USPS COLLECTION BOX - BLUE BOX", "address": {"city": "REDDING", "state": "CA", "street": "2135 CIVIC CENTER DR", "postcode": "96001"}}},
{"geometry": {"type": "Point", "coordinates": [-122.3530105908, 40.573611928]}, "type": "Feature", "properties": {"collection_times": [{"days": "Mon-Sat", "time": "5:00pm"}, {"days": "Sun", "time": "Closed"}], "id": "9600200000", "name": "USPS COLLECTION BOX - BLUE BOX", "address": {"city": "REDDING", "state": "CA", "street": "2323 CHURN CREEK RD", "postcode": "96002"}}},
{"geometry": {"type": "Point", "coordinates": [-122.3530105908, 40.573611928]}, "type": "Feature", "properties": {"collection_times": [{"days": "Mon-Sat", "time": "5:00pm"}, {"days": "Sun", "time": "Closed"}], "id": "9600200001", "name": "USPS COLLECTION BOX - BLUE BOX", "address": {"city": "REDDING", "state": "CA", "street": "2323 CHURN CREEK RD", "postcode": "96002"}}},
{"geometry": {"type": "Point", "coordinates": [-122.3626848484, 40.5735840671]}, "type": "Feature", "properties": {"collection_times": [{"days": "Mon-Fri", "time": "4:00pm"}, {"days": "Sat", "time": "3:30pm"}, {"days": "Sun", "time": "Closed"}], "id": "9600200008", "name": "USPS COLLECTION BOX - BLUE BOX", "address": {"city": "REDDING", "state": "CA", "street": "2315 BECHELLI LN", "postcode": "96002"}}},
{"geometry": {"type": "Point", "coordinates": [-122.3657193559, 40.5726523459]}, "type": "Feature", "properties": {"collection_times": [{"days": "Mon-Fri", "time": "4:00pm"}, {"days": "Sat", "time": "3:30pm"}, {"days": "Sun", "time": "Closed"}], "id": "9600200015", "name": "USPS COLLECTION BOX - BLUE BOX", "address": {"city": "REDDING", "state": "CA", "street": "345 HEMSTED DR", "postcode": "96002"}}},
{"geometry": {"type": "Point", "coordinates": [-122.3695570316, 40.5692937439]}, "type": "Feature", "properties": {"collection_times": [{"days": "Mon-Fri", "time": "4:00pm"}, {"days": "Sat", "time": "3:30pm"}, {"days": "Sun", "time": "Closed"}], "id": "9600200017", "name": "USPS COLLECTION BOX - BLUE BOX", "address": {"city": "REDDING", "state": "CA", "street": "110 HARTNELL AVE", "postcode": "96002"}}},
{"geometry": {"type": "Point", "coordinates": [-122.3625965593, 40.567635656]}, "type": "Feature", "properties": {"collection_times": [{"days": "Mon-Fri", "time": "4:00pm"}, {"days": "Sat", "time": "3:30pm"}, {"days": "Sun", "time": "Closed"}], "id": "9600200023", "name": "USPS COLLECTION BOX - BLUE BOX", "address": {"city": "REDDING", "state": "CA", "street": "2745 BECHELLI LN", "postcode": "96002"}}},
{"geometry": {"type": "Point", "coordinates": [-122.3489097827, 40.5638253855]}, "type": "Feature", "properties": {"collection_times": [{"days": "Mon-Fri", "time": "4:00pm"}, {"days": "Sat", "time": "3:30pm"}, {"days": "Sun", "time": "Closed"}], "id": "9600200026", "name": "USPS COLLECTION BOX - BLUE BOX", "address": {"city": "REDDING", "state": "CA", "street": "1154 HARTNELL AVE", "postcode": "96002"}}},
{"geometry": {"type": "Point", "coordinates": [-122.3422309211, 40.5711124656]}, "type": "Feature", "properties": {"collection_times": [{"days": "Mon-Fri", "time": "4:00pm"}, {"days": "Sat", "time": "3:30pm"}, {"days": "Sun", "time": "Closed"}], "id": "9600200027", "name": "USPS COLLECTION BOX - BLUE BOX", "address": {"city": "REDDING", "state": "CA", "street": "1600 E CYPRESS AVE", "postcode": "96002"}}},
{"geometry": {"type": "Point", "coordinates": [-122.3542028482, 40.5800491165]}, "type": "Feature", "properties": {"collection_times": [{"days": "Mon-Fri", "time": "4:00pm"}, {"days": "Sat", "time": "3:30pm"}, {"days": "Sun", "time": "Closed"}], "id": "9600200028", "name": "USPS COLLECTION BOX - BLUE BOX", "address": {"city": "REDDING", "state": "CA", "street": "1900 CHURN CREEK RD", "postcode": "96002"}}},
{"geometry": {"type": "Point", "coordinates": [-122.3542594345, 40.5815172175]}, "type": "Feature", "properties": {"collection_times": [{"days": "Mon-Fri", "time": "4:00pm"}, {"days": "Sat", "time": "3:30pm"}, {"days": "Sun", "time": "Closed"}], "id": "9600200032", "name": "USPS COLLECTION BOX - BLUE BOX", "address": {"city": "REDDING", "state": "CA", "street": "1760 CHURN CREEK RD", "postcode": "96002"}}},
{"geometry": {"type": "Point", "coordinates": [-122.3477106306, 40.5378522178]}, "type": "Feature", "properties": {"collection_times": [{"days": "Mon-Fri", "time": "4:00pm"}, {"days": "Sat", "time": "3:30pm"}, {"days": "Sun", "time": "Closed"}], "id": "9600200033", "name": "USPS COLLECTION BOX - BLUE BOX", "address": {"city": "REDDING", "state": "CA", "street": "5200 CHURN CREEK RD", "postcode": "96002"}}},
{"geometry": {"type": "Point", "coordinates": [-122.3257131774, 40.5636934336]}, "type": "Feature", "properties": {"collection_times": [{"days": "Mon-Fri", "time": "4:00pm"}, {"days": "Sat", "time": "3:30pm"}, {"days": "Sun", "time": "Closed"}], "id": "9600200037", "name": "USPS COLLECTION BOX - BLUE BOX", "address": {"city": "REDDING", "state": "CA", "street": "2455 HARTNELL AVE", "postcode": "96002"}}},
{"geometry": {"type": "Point", "coordinates": [-122.2971751096, 40.4871748043]}, "type": "Feature", "properties": {"collection_times": [{"days": "Mon-Sat", "time": "10:00am"}, {"days": "Sun", "time": "Closed"}], "id": "9600200041", "name": "USPS COLLECTION BOX - BLUE BOX", "address": {"city": "REDDING", "state": "CA", "street": "20350 HOLE IN ONE DR", "postcode": "96002"}}},
{"geometry": {"type": "Point", "coordinates": [-122.363324505, 40.5748830964]}, "type": "Feature", "properties": {"collection_times": [{"days": "Mon-Fri", "time": "4:00pm"}, {"days": "Sat", "time": "3:30pm"}, {"days": "Sun", "time": "Closed"}], "id": "9600200047", "name": "USPS COLLECTION BOX - BLUE BOX", "address": {"city": "REDDING", "state": "CA", "street": "429 REDCLIFF DR", "postcode": "96002"}}},
{"geometry": {"type": "Point", "coordinates": [-122.3530105908, 40.573611928]}, "type": "Feature", "properties": {"collection_times": [{"days": "Mon-Sat", "time": "5:00pm"}, {"days": "Sun", "time": "Closed"}], "id": "9600200052", "name": "USPS COLLECTION BOX - PO LOBBY", "address": {"city": "REDDING", "state": "CA", "street": "2323 CHURN CREEK RD", "postcode": "96002"}}},
{"geometry": {"type": "Point", "coordinates": [-122.3530105908, 40.573611928]}, "type": "Feature", "properties": {"collection_times": [{"days": "Mon-Sat", "time": "5:00pm"}, {"days": "Sun", "time": "Closed"}], "id": "9600200053", "name": "USPS COLLECTION BOX - PO LOBBY", "address": {"city": "REDDING", "state": "CA", "street": "2323 CHURN CREEK RD", "postcode": "96002"}}},
{"geometry": {"type": "Point", "coordinates": [-122.3038424413, 40.5460616674]}, "type": "Feature", "properties": {"collection_times": [{"days": "Mon-Sat", "time": "9:30am"}, {"days": "Sun", "time": "Closed"}], "id": "9600200056", "name": "USPS COLLECTION BOX - BLUE BOX", "address": {"city": "REDDING", "state": "CA", "street": "20200 CHARLANNE DR", "postcode": "96002"}}},
{"geometry": {"type": "Point", "coordinates": [-122.3530105908, 40.573611928]}, "type": "Feature", "properties": {"collection_times": [{"days": "Mon-Sat", "time": "5:00pm"}, {"days": "Sun", "time": "Closed"}], "id": "9600200061", "name": "USPS COLLECTION BOX - APC", "address": {"city": "REDDING", "state": "CA", "street": "2323 CHURN CREEK RD", "postcode": "96002"}}},
{"geometry": {"type": "Point", "coordinates": [-122.3371896193, 40.5503627727]}, "type": "Feature", "properties": {"collection_times": [{"days": "Mon-Sat", "time": "5:00pm"}, {"days": "Sun", "time": "Closed"}], "id": "9600200065", "name": "USPS COLLECTION BOX - EXPRESS", "address": {"city": "REDDING", "state": "CA", "street": "2323 CHURN CREEK RD", "postcode": "96002"}}},
{"geometry": {"type": "Point", "coordinates": [-122.3560518195, 40.5861074357]}, "type": "Feature", "properties": {"collection_times": [{"days": "Mon-Fri", "time": "4:00pm"}, {"days": "Sat", "time": "3:30pm"}, {"days": "Sun", "time": "Closed"}], "id": "9600300002", "name": "USPS COLLECTION BOX - BLUE BOX", "address": {"city": "REDDING", "state": "CA", "street": "900 DANA DR", "postcode": "96003"}}},
{"geometry": {"type": "Point", "coordinates": [-122.3581889956, 40.5910963479]}, "type": "Feature", "properties": {"collection_times": [{"days": "Mon-Fri", "time": "4:00pm"}, {"days": "Sat", "time": "3:30pm"}, {"days": "Sun", "time": "Closed"}], "id": "9600300004", "name": "USPS COLLECTION BOX - BLUE BOX", "address": {"city": "REDDING", "state": "CA", "street": "1095 HILLTOP DR", "postcode": "96003"}}},
{"geometry": {"type": "Point", "coordinates": [-122.3803384631, 40.6106002212]}, "type": "Feature", "properties": {"collection_times": [{"days": "Mon-Fri", "time": "4:00pm"}, {"days": "Sat", "time": "3:30pm"}, {"days": "Sun", "time": "Closed"}], "id": "9600300007", "name": "USPS COLLECTION BOX - BLUE BOX", "address": {"city": "REDDING", "state": "CA", "street": "201 LAKE BLVD", "postcode": "96003"}}},
{"geometry": {"type": "Point", "coordinates": [-122.3725003654, 40.6251851091]}, "type": "Feature", "properties": {"collection_times": [{"days": "Mon-Fri", "time": "4:00pm"}, {"days": "Sat", "time": "3:30pm"}, {"days": "Sun", "time": "Closed"}], "id": "9600300009", "name": "USPS COLLECTION BOX - BLUE BOX", "address": {"city": "REDDING", "state": "CA", "street": "1191 PRESTIGE WAY", "postcode": "96003"}}},
{"geometry": {"type": "Point", "coordinates": [-122.334560108, 40.57876329]}, "type": "Feature", "properties": {"collection_times": [{"days": "Mon-Fri", "time": "4:00pm"}, {"days": "Sat", "time": "3:30pm"}, {"days": "Sun", "time": "Closed"}], "id": "9600300018", "name": "USPS COLLECTION BOX - BLUE BOX", "address": {"city": "REDDING", "state": "CA", "street": "1849 KEYSTONE CT", "postcode": "96003"}}},
{"geometry": {"type": "Point", "coordinates": [-122.3652919139, 40.6222064886]}, "type": "Feature", "properties": {"collection_times": [{"days": "Mon-Fri", "time": "4:00pm"}, {"days": "Sat", "time": "3:30pm"}, {"days": "Sun", "time": "Closed"}], "id": "9600300019", "name": "USPS COLLECTION BOX - BLUE BOX", "address": {"city": "REDDING", "state": "CA", "street": "5455 MOUNTAIN VIEW DR", "postcode": "96003"}}},
{"geometry": {"type": "Point", "coordinates": [-122.3220352036, 40.7525432124]}, "type": "Feature", "properties": {"collection_times": [{"days": "Mon-Sat", "time": "9:30am"}, {"days": "Sun", "time": "Closed"}], "id": "9600300022", "name": "USPS COLLECTION BOX - BLUE BOX", "address": {"city": "REDDING", "state": "CA", "street": "10300 BRIDGE BAY RD", "postcode": "96003"}}},
{"geometry": {"type": "Point", "coordinates": [-122.3317194442, 40.6501372052]}, "type": "Feature", "properties": {"collection_times": [{"days": "Mon-Sat", "time": "9:00am"}, {"days": "Sun", "time": "Closed"}], "id": "9600300025", "name": "USPS COLLECTION BOX - BLUE BOX", "address": {"city": "REDDING", "state": "CA", "street": "11555 OLD OREGON TRL", "postcode": "96003"}}},
{"geometry": {"type": "Point", "coordinates": [-122.3477101743, 40.5857800084]}, "type": "Feature", "properties": {"collection_times": [{"days": "Mon-Fri", "time": "4:00pm"}, {"days": "Sat", "time": "3:30pm"}, {"days": "Sun", "time": "Closed"}], "id": "9600300028", "name": "USPS COLLECTION BOX - BLUE BOX", "address": {"city": "REDDING", "state": "CA", "street": "1280 DANA DR", "postcode": "96003"}}},
{"geometry": {"type": "Point", "coordinates": [-122.3437447918, 40.5855905749]}, "type": "Feature", "properties": {"collection_times": [{"days": "Mon-Fri", "time": "4:00pm"}, {"days": "Sat", "time": "3:30pm"}, {"days": "Sun", "time": "Closed"}], "id": "9600300033", "name": "USPS COLLECTION BOX - BLUE BOX", "address": {"city": "REDDING", "state": "CA", "street": "1515 DANA DR", "postcode": "96003"}}},
{"geometry": {"type": "Point", "coordinates": [-122.375645697, 40.6031069107]}, "type": "Feature", "properties": {"collection_times": [{"days": "Mon-Fri", "time": "4:00pm"}, {"days": "Sat", "time": "3:30pm"}, {"days": "Sun", "time": "Closed"}], "id": "9600300036", "name": "USPS COLLECTION BOX - BLUE BOX", "address": {"city": "REDDING", "state": "CA", "street": "240 RIDGETOP DR", "postcode": "96003"}}},
{"geometry": {"type": "Point", "coordinates": [-122.3027484828, 40.5638349071]}, "type": "Feature", "properties": {"collection_times": [{"days": "Mon-Fri", "time": "4:00pm"}, {"days": "Sat", "time": "3:30pm"}, {"days": "Sun", "time": "Closed"}], "id": "9600300038", "name": "USPS COLLECTION BOX - BLUE BOX", "address": {"city": "REDDING", "state": "CA", "street": "3625 OLD 44 DR", "postcode": "96003"}}},
{"geometry": {"type": "Point", "coordinates": [-120.9591891206, 41.1945226362]}, "type": "Feature", "properties": {"collection_times": [{"days": "Mon-Fri", "time": "1:00pm"}, {"days": "Sat", "time": "11:30am"}, {"days": "Sun", "time": "Closed"}], "id": "9600600000", "name": "USPS COLLECTION BOX - PO LOBBY", "address": {"city": "ADIN", "state": "CA", "street": "512 S MAIN ST", "postcode": "96006"}}},
{"geometry": {"type": "Point", "coordinates": [-122.3000504796, 40.4481640158]}, "type": "Feature", "properties": {"collection_times": [{"days": "Mon-Sat", "time": "12:00pm"}, {"days": "Sun", "time": "Closed"}], "id": "9600700000", "name": "USPS COLLECTION BOX - BLUE BOX", "address": {"city": "ANDERSON", "state": "CA", "street": "1925 HOWARD ST", "postcode": "96007"}}},
{"geometry": {"type": "Point", "coordinates": [-122.2909015659, 40.4383233214]}, "type": "Feature", "properties": {"collection_times": [{"days": "Mon-Sat", "time": "3:00pm"}, {"days": "Sun", "time": "Closed"}], "id": "9600700001", "name": "USPS COLLECTION BOX - BLUE BOX", "address": {"city": "ANDERSON", "state": "CA", "street": "1901 HIGHWAY 273", "postcode": "96007"}}},
{"geometry": {"type": "Point", "coordinates": [-122.2889033984, 40.4538237594]}, "type": "Feature", "properties": {"collection_times": [{"days": "Mon-Sat", "time": "3:00pm"}, {"days": "Sun", "time": "Closed"}], "id": "9600700003", "name": "USPS COLLECTION BOX - BLUE BOX", "address": {"city": "ANDERSON", "state": "CA", "street": "2613 BALLS FERRY RD", "postcode": "96007"}}},
{"geometry": {"type": "Point", "coordinates": [-122.2982521623, 40.4512856292]}, "type": "Feature", "properties": {"collection_times": [{"days": "Mon-Fri", "time": "5:00pm"}, {"days": "Sat", "time": "3:45pm"}, {"days": "Sun", "time": "Closed"}], "id": "9600700004", "name": "USPS COLLECTION BOX - BLUE BOX", "address": {"city": "ANDERSON", "state": "CA", "street": "2141 FERRY ST", "postcode": "96007"}}},
{"geometry": {"type": "Point", "coordinates": [-122.2982521623, 40.4512856292]}, "type": "Feature", "properties": {"collection_times": [{"days": "Mon-Fri", "time": "5:00pm"}, {"days": "Sat", "time": "4:00pm"}, {"days": "Sun", "time": "Closed"}], "id": "9600700005", "name": "USPS COLLECTION BOX - PO LOBBY", "address": {"city": "ANDERSON", "state": "CA", "street": "2141 FERRY ST", "postcode": "96007"}}},
{"geometry": {"type": "Point", "coordinates": [-122.4077094662, 40.4485697702]}, "type": "Feature", "properties": {"collection_times": [{"days": "Mon-Sat", "time": "11:15am"}, {"days": "Sun", "time": "Closed"}], "id": "9600700008", "name": "USPS COLLECTION BOX - BLUE BOX", "address": {"city": "ANDERSON", "state": "CA", "street": "5235 HAPPY VALLEY RD", "postcode": "96007"}}},
{"geometry": {"type": "Point", "coordinates": [-122.2566283355, 40.4486137133]}, "type": "Feature", "properties": {"collection_times": [{"days": "Mon-Sat", "time": "12:00pm"}, {"days": "Sun", "time": "Closed"}], "id": "9600700009", "name": "USPS COLLECTION BOX - BLUE BOX", "address": {"city": "ANDERSON", "state": "CA", "street": "5544 DESCHUTES RD", "postcode": "96007"}}},
{"geometry": {"type": "Point", "coordinates": [-122.2322521066, 40.6397503361]}, "type": "Feature", "properties": {"collection_times": [{"days": "Mon-Fri", "time": "4:00pm"}, {"days": "Sat", "time": "10:00am"}, {"days": "Sun", "time": "Closed"}], "id": "9600800000", "name": "USPS COLLECTION BOX - BLUE BOX", "address": {"city": "BELLA VISTA", "state": "CA", "street": "22515 OLD ALTURAS RD", "postcode": "96008"}}},
{"geometry": {"type": "Point", "coordinates": [-122.2322521066, 40.6397503361]}, "type": "Feature", "properties": {"collection_times": [{"days": "Mon-Fri", "time": "4:00pm"}, {"days": "Sat", "time": "10:00am"}, {"days": "Sun", "time": "Closed"}], "id": "9600800001", "name": "USPS COLLECTION BOX - PO LOBBY", "address": {"city": "BELLA VISTA", "state": "CA", "street": "22515 OLD ALTURAS RD", "postcode": "96008"}}},
{"geometry": {"type": "Point", "coordinates": [-122.2322521066, 40.6397503361]}, "type": "Feature", "properties": {"collection_times": [{"days": "Mon-Fri", "time": "4:00pm"}, {"days": "Sat", "time": "10:00am"}, {"days": "Sun", "time": "Closed"}], "id": "9600800002", "name": "USPS COLLECTION BOX - PO LOBBY", "address": {"city": "BELLA VISTA", "state": "CA", "street": "22515 OLD ALTURAS RD", "postcode": "96008"}}},
{"geometry": {"type": "Point", "coordinates": [-121.1412783486, 41.1212172335]}, "type": "Feature", "properties": {"collection_times": [{"days": "Mon-Fri", "time": "2:00pm"}, {"days": "Sat", "time": "11:00am"}, {"days": "Sun", "time": "Closed"}], "id": "9600900000", "name": "USPS COLLECTION BOX - BLUE BOX", "address": {"city": "BIEBER", "state": "CA", "street": "105 BRIDGE ST", "postcode": "96009"}}},
{"geometry": {"type": "Point", "coordinates": [-121.1412783486, 41.1212172335]}, "type": "Feature", "properties": {"collection_times": [{"days": "Mon-Fri", "time": "2:00pm"}, {"days": "Sat", "time": "11:00am"}, {"days": "Sun", "time": "Closed"}], "id": "9600900003", "name": "USPS COLLECTION BOX - PO LOBBY", "address": {"city": "BIEBER", "state": "CA", "street": "105 BRIDGE ST", "postcode": "96009"}}},
{"geometry": {"type": "Point", "coordinates": [-123.187014119, 40.8056068923]}, "type": "Feature", "properties": {"collection_times": [{"days": "Mon-Fri", "time": "12:15pm"}, {"days": "Sat", "time": "11:00am"}, {"days": "Sun", "time": "Closed"}], "id": "9601000000", "name": "USPS COLLECTION BOX - BLUE BOX", "address": {"city": "BIG BAR", "state": "CA", "street": "0000 HWY 299 W", "postcode": "96010"}}},
{"geometry": {"type": "Point", "coordinates": [-123.187014119, 40.8056068923]}, "type": "Feature", "properties": {"collection_times": [{"days": "Mon-Fri", "time": "12:15pm"}, {"days": "Sat", "time": "11:00am"}, {"days": "Sun", "time": "Closed"}], "id": "9601000001", "name": "USPS COLLECTION BOX - PO LOBBY", "address": {"city": "BIG BAR", "state": "CA", "street": "0000 HWY 299 W", "postcode": "96010"}}},
{"geometry": {"type": "Point", "coordinates": [-121.9102484001, 41.0194080418]}, "type": "Feature", "properties": {"collection_times": [{"days": "Mon-Sat", "time": "11:40am"}, {"days": "Sun", "time": "Closed"}], "id": "9601100000", "name": "USPS COLLECTION BOX - PO LOBBY", "address": {"city": "BIG BEND", "state": "CA", "street": "30487 HOT SPRINGS RD", "postcode": "96011"}}},
{"geometry": {"type": "Point", "coordinates": [-121.6610108457, 40.8826198194]}, "type": "Feature", "properties": {"collection_times": [{"days": "Mon-Sat", "time": "3:00pm"}, {"days": "Sun", "time": "Closed"}], "id": "9601300000", "name": "USPS COLLECTION BOX - BLUE BOX", "address": {"city": "BURNEY", "state": "CA", "street": "37264 HIGHWAY 299 E", "postcode": "96013"}}},
{"geometry": {"type": "Point", "coordinates": [-121.6524931983, 40.8894901204]}, "type": "Feature", "properties": {"collection_times": [{"days": "Mon-Fri", "time": "3:30pm"}, {"days": "Sat", "time": "3:00pm"}, {"days": "Sun", "time": "Closed"}], "id": "9601300002", "name": "USPS COLLECTION BOX - BLUE BOX", "address": {"city": "BURNEY", "state": "CA", "street": "20655 COMMERCE WAY", "postcode": "96013"}}},
{"geometry": {"type": "Point", "coordinates": [-121.6524931983, 40.8894901204]}, "type": "Feature", "properties": {"collection_times": [{"days": "Mon-Fri", "time": "3:30pm"}, {"days": "Sat", "time": "3:00pm"}, {"days": "Sun", "time": "Closed"}], "id": "9601300003", "name": "USPS COLLECTION BOX - BLUE BOX", "address": {"city": "BURNEY", "state": "CA", "street": "20655 COMMERCE WAY", "postcode": "96013"}}},
{"geometry": {"type": "Point", "coordinates": [-121.6524931983, 40.8894901204]}, "type": "Feature", "properties": {"collection_times": [{"days": "Mon-Fri", "time": "3:30pm"}, {"days": "Sat", "time": "3:00pm"}, {"days": "Sun", "time": "Closed"}], "id": "9601300006", "name": "USPS COLLECTION BOX - PO LOBBY", "address": {"city": "BURNEY", "state": "CA", "street": "20655 COMMERCE WAY", "postcode": "96013"}}},
{"geometry": {"type": "Point", "coordinates": [-121.6524931983, 40.8894901204]}, "type": "Feature", "properties": {"collection_times": [{"days": "Mon-Fri", "time": "3:30pm"}, {"days": "Sat", "time": "3:00pm"}, {"days": "Sun", "time": "Closed"}], "id": "9601300007", "name": "USPS COLLECTION BOX - PO LOBBY", "address": {"city": "BURNEY", "state": "CA", "street": "20655 COMMERCE WAY", "postcode": "96013"}}},
{"geometry": {"type": "Point", "coordinates": [-122.7963190107, 41.3076126331]}, "type": "Feature", "properties": {"collection_times": [{"days": "Mon-Fri", "time": "2:15pm"}, {"days": "Sat", "time": "12:15pm"}, {"days": "Sun", "time": "Closed"}], "id": "9601400000", "name": "USPS COLLECTION BOX - BLUE BOX", "address": {"city": "CALLAHAN", "state": "CA", "street": "12436 S STATE HIGHWAY 3", "postcode": "96014"}}},
{"geometry": {"type": "Point", "coordinates": [-122.7963190107, 41.3076126331]}, "type": "Feature", "properties": {"collection_times": [{"days": "Mon-Fri", "time": "2:15pm"}, {"days": "Sat", "time": "12:15pm"}, {"days": "Sun", "time": "Closed"}], "id": "9601400001", "name": "USPS COLLECTION BOX - PO LOBBY", "address": {"city": "CALLAHAN", "state": "CA", "street": "12436 S STATE HIGHWAY 3", "postcode": "96014"}}},
{"geometry": {"type": "Point", "coordinates": [-120.9311206836, 41.4019459241]}, "type": "Feature", "properties": {"collection_times": [{"days": "Mon-Fri", "time": "12:30pm"}, {"days": "Sat", "time": "10:30am"}, {"days": "Sun", "time": "Closed"}], "id": "9601500000", "name": "USPS COLLECTION BOX - BLUE BOX", "address": {"city": "CANBY", "state": "CA", "street": "22489 STATE HIGHWAY 299 E STE 0", "postcode": "96015"}}},
{"geometry": {"type": "Point", "coordinates": [-120.9311206836, 41.4019459241]}, "type": "Feature", "properties": {"collection_times": [{"days": "Mon-Fri", "time": "12:45pm"}, {"days": "Sat", "time": "12:15pm"}, {"days": "Sun", "time": "Closed"}], "id": "9601500001", "name": "USPS COLLECTION BOX - PO LOBBY", "address": {"city": "CANBY", "state": "CA", "street": "22489 STATE HIGHWAY 299 E STE 0", "postcode": "96015"}}},
{"geometry": {"type": "Point", "coordinates": [-120.9311206836, 41.4019459241]}, "type": "Feature", "properties": {"collection_times": [{"days": "Mon-Fri", "time": "12:45pm"}, {"days": "Sat", "time": "12:15pm"}, {"days": "Sun", "time": "Closed"}], "id": "9601500002", "name": "USPS COLLECTION BOX - PO LOBBY", "address": {"city": "CANBY", "state": "CA", "street": "22489 STATE HIGHWAY 299 E STE 0", "postcode": "96015"}}},
{"geometry": {"type": "Point", "coordinates": [-121.5495191407, 40.9188726106]}, "type": "Feature", "properties": {"collection_times": [{"days": "Mon-Fri", "time": "1:30pm"}, {"days": "Sat", "time": "10:00am"}, {"days": "Sun", "time": "Closed"}], "id": "9601600001", "name": "USPS COLLECTION BOX - PO LOBBY", "address": {"city": "CASSEL", "state": "CA", "street": "21594 CASSEL RD", "postcode": "96016"}}},
{"geometry": {"type": "Point", "coordinates": [-122.2946474684, 41.1588552492]}, "type": "Feature", "properties": {"collection_times": [{"days": "Mon-Fri", "time": "2:55pm"}, {"days": "Sat", "time": "10:00am"}, {"days": "Sun", "time": "Closed"}], "id": "9601700000", "name": "USPS COLLECTION BOX - BLUE BOX", "address": {"city": "CASTELLA", "state": "CA", "street": "20115 CASTLE CREEK RD", "postcode": "96017"}}},
{"geometry": {"type": "Point", "coordinates": [-122.2946474684, 41.1588552492]}, "type": "Feature", "properties": {"collection_times": [{"days": "Mon-Fri", "time": "3:00pm"}, {"days": "Sat", "time": "10:00am"}, {"days": "Sun", "time": "Closed"}], "id": "9601700001", "name": "USPS COLLECTION BOX - PO LOBBY", "address": {"city": "CASTELLA", "state": "CA", "street": "20115 CASTLE CREEK RD", "postcode": "96017"}}},
{"geometry": {"type": "Point", "coordinates": [-122.3631785655, 40.6809873785]}, "type": "Feature", "properties": {"collection_times": [{"days": "Mon-Fri", "time": "5:00pm"}, {"days": "Sat", "time": "1:00pm"}, {"days": "Sun", "time": "Closed"}], "id": "9601900000", "name": "USPS COLLECTION BOX - BLUE BOX", "address": {"city": "SHASTA LAKE", "state": "CA", "street": "4425 FRONT ST", "postcode": "96019"}}},
{"geometry": {"type": "Point", "coordinates": [-122.3631785655, 40.6809873785]}, "type": "Feature", "properties": {"collection_times": [{"days": "Mon-Fri", "time": "5:00pm"}, {"days": "Sat", "time": "1:00pm"}, {"days": "Sun", "time": "Closed"}], "id": "9601900001", "name": "USPS COLLECTION BOX - PO LOBBY", "address": {"city": "SHASTA LAKE", "state": "CA", "street": "4425 FRONT ST", "postcode": "96019"}}},
{"geometry": {"type": "Point", "coordinates": [-121.2281375356, 40.3088316598]}, "type": "Feature", "properties": {"collection_times": [{"days": "Mon-Fri", "time": "2:40pm"}, {"days": "Sat", "time": "12:00pm"}, {"days": "Sun", "time": "Closed"}], "id": "9602000000", "name": "USPS COLLECTION BOX - BLUE BOX", "address": {"city": "CHESTER", "state": "CA", "street": "218 LAUREL LN", "postcode": "96020"}}},
{"geometry": {"type": "Point", "coordinates": [-121.2281375356, 40.3088316598]}, "type": "Feature", "properties": {"collection_times": [{"days": "Mon-Fri", "time": "2:40pm"}, {"days": "Sat", "time": "12:00pm"}, {"days": "Sun", "time": "Closed"}], "id": "9602000001", "name": "USPS COLLECTION BOX - PO LOBBY", "address": {"city": "CHESTER", "state": "CA", "street": "218 LAUREL LN", "postcode": "96020"}}},
{"geometry": {"type": "Point", "coordinates": [-122.1812012055, 39.9289335862]}, "type": "Feature", "properties": {"collection_times": [{"days": "Mon-Fri", "time": "4:30pm"}, {"days": "Sat", "time": "1:00pm"}, {"days": "Sun", "time": "Closed"}], "id": "9602100001", "name": "USPS COLLECTION BOX - BLUE BOX", "address": {"city": "CORNING", "state": "CA", "street": "1217 YOLO ST", "postcode": "96021"}}},
{"geometry": {"type": "Point", "coordinates": [-122.1812012055, 39.9289335862]}, "type": "Feature", "properties": {"collection_times": [{"days": "Mon-Fri", "time": "4:30pm"}, {"days": "Sat", "time": "1:00pm"}, {"days": "Sun", "time": "Closed"}], "id": "9602100002", "name": "USPS COLLECTION BOX - BLUE BOX", "address": {"city": "CORNING", "state": "CA", "street": "1217 YOLO ST", "postcode": "96021"}}},
{"geometry": {"type": "Point", "coordinates": [-122.1812012055, 39.9289335862]}, "type": "Feature", "properties": {"collection_times": [{"days": "Mon-Fri", "time": "4:30pm"}, {"days": "Sat", "time": "1:00pm"}, {"days": "Sun", "time": "Closed"}], "id": "9602100003", "name": "USPS COLLECTION BOX - PO LOBBY", "address": {"city": "CORNING", "state": "CA", "street": "1217 YOLO ST", "postcode": "96021"}}},
{"geometry": {"type": "Point", "coordinates": [-122.1742297608, 39.9278290025]}, "type": "Feature", "properties": {"collection_times": [{"days": "Mon-Fri", "time": "12:00pm"}, {"days": "Sat", "time": "12:30pm"}, {"days": "Sun", "time": "Closed"}], "id": "9602100004", "name": "USPS COLLECTION BOX - BLUE BOX", "address": {"city": "CORNING", "state": "CA", "street": "590 SOLANO ST", "postcode": "96021"}}},
{"geometry": {"type": "Point", "coordinates": [-122.1856411714, 39.9279533069]}, "type": "Feature", "properties": {"collection_times": [{"days": "Mon-Fri", "time": "12:00pm"}, {"days": "Sat", "time": "12:30pm"}, {"days": "Sun", "time": "Closed"}], "id": "9602100005", "name": "USPS COLLECTION BOX - BLUE BOX", "address": {"city": "CORNING", "state": "CA", "street": "1503 SOLANO ST", "postcode": "96021"}}},
{"geometry": {"type": "Point", "coordinates": [-122.1974810406, 39.9328820346]}, "type": "Feature", "properties": {"collection_times": [{"days": "Mon-Fri", "time": "12:00pm"}, {"days": "Sat", "time": "12:30pm"}, {"days": "Sun", "time": "Closed"}], "id": "9602100008", "name": "USPS COLLECTION BOX - BLUE BOX", "address": {"city": "CORNING", "state": "CA", "street": "600 EDITH AVE", "postcode": "96021"}}},
{"geometry": {"type": "Point", "coordinates": [-122.197424039, 39.9024091389]}, "type": "Feature", "properties": {"collection_times": [{"days": "Mon-Sat", "time": "9:00am"}, {"days": "Sun", "time": "Closed"}], "id": "9602100009", "name": "USPS COLLECTION BOX - BLUE BOX", "address": {"city": "CORNING", "state": "CA", "street": "3524 HIGHWAY 99 W", "postcode": "96021"}}},
{"geometry": {"type": "Point", "coordinates": [-122.0781059029, 39.9146309408]}, "type": "Feature", "properties": {"collection_times": [{"days": "Mon-Fri", "time": "11:00am"}, {"days": "Sat", "time": "10:00am"}, {"days": "Sun", "time": "Closed"}], "id": "9602100010", "name": "USPS COLLECTION BOX - BLUE BOX", "address": {"city": "CORNING", "state": "CA", "street": "2151 SOUTH AVE", "postcode": "96021"}}},
{"geometry": {"type": "Point", "coordinates": [-122.183586, 39.92744]}, "type": "Feature", "properties": {"collection_times": [{"days": "Mon-Sat", "time": "10:00am"}, {"days": "Sun", "time": "Closed"}], "id": "9602100019", "name": "USPS COLLECTION BOX - BLUE BOX", "address": {"city": "CORNING", "state": "CA", "street": "2655 EVERETT FREEMAN WAY", "postcode": "96021"}}},
{"geometry": {"type": "Point", "coordinates": [-122.0685935868, 39.9176701255]}, "type": "Feature", "properties": {"collection_times": [{"days": "Mon-Sat", "time": "11:00am"}, {"days": "Sun", "time": "Closed"}], "id": "9602100021", "name": "USPS COLLECTION BOX - BLUE BOX", "address": {"city": "CORNING", "state": "CA", "street": "2120 SOUTH AVE", "postcode": "96021"}}},
{"geometry": {"type": "Point", "coordinates": [-122.2740531896, 39.9112539842]}, "type": "Feature", "properties": {"collection_times": [{"days": "Mon-Sat", "time": "9:30am"}, {"days": "Sun", "time": "Closed"}], "id": "9602100023", "name": "USPS COLLECTION BOX - BLUE BOX", "address": {"city": "CORNING", "state": "CA", "street": "17605 PARK TERRACE RD", "postcode": "96021"}}},
{"geometry": {"type": "Point", "coordinates": [-122.5101308273, 40.3335908539]}, "type": "Feature", "properties": {"collection_times": [{"days": "Mon-Fri", "time": "5:00pm"}, {"days": "Sat", "time": "12:15pm"}, {"days": "Sun", "time": "Closed"}], "id": "9602200000", "name": "USPS COLLECTION BOX - BLUE BOX", "address": {"city": "COTTONWOOD", "state": "CA", "street": "3270 WALNUT ST", "postcode": "96022"}}},
{"geometry": {"type": "Point", "coordinates": [-122.2947165552, 40.3892380553]}, "type": "Feature", "properties": {"collection_times": [{"days": "Mon-Sat", "time": "10:00am"}, {"days": "Sun", "time": "Closed"}], "id": "9602200003", "name": "USPS COLLECTION BOX - BLUE BOX", "address": {"city": "COTTONWOOD", "state": "CA", "street": "20633 GAS POINT RD", "postcode": "96022"}}},
{"geometry": {"type": "Point", "coordinates": [-122.5101308273, 40.3335908539]}, "type": "Feature", "properties": {"collection_times": [{"days": "Mon-Fri", "time": "5:00pm"}, {"days": "Sat", "time": "12:15pm"}, {"days": "Sun", "time": "Closed"}], "id": "9602200004", "name": "USPS COLLECTION BOX - PO LOBBY", "address": {"city": "COTTONWOOD", "state": "CA", "street": "3270 WALNUT ST", "postcode": "96022"}}},
{"geometry": {"type": "Point", "coordinates": [-122.5101308273, 40.3335908539]}, "type": "Feature", "properties": {"collection_times": [{"days": "Mon-Fri", "time": "5:00pm"}, {"days": "Sat", "time": "12:15pm"}, {"days": "Sun", "time": "Closed"}], "id": "9602200006", "name": "USPS COLLECTION BOX - BLUE BOX", "address": {"city": "COTTONWOOD", "state": "CA", "street": "3270 WALNUT ST", "postcode": "96022"}}},
{"geometry": {"type": "Point", "coordinates": [-122.31272948, 40.389288484]}, "type": "Feature", "properties": {"collection_times": [{"days": "Mon-Sat", "time": "12:00pm"}, {"days": "Sun", "time": "Closed"}], "id": "9602200008", "name": "USPS COLLECTION BOX - BLUE BOX", "address": {"city": "COTTONWOOD", "state": "CA", "street": "19980 GAS POINT RD", "postcode": "96022"}}},
{"geometry": {"type": "Point", "coordinates": [-122.3544434063, 40.3473399776]}, "type": "Feature", "properties": {"collection_times": [{"days": "Mon-Sat", "time": "12:00pm"}, {"days": "Sun", "time": "Closed"}], "id": "9602200009", "name": "USPS COLLECTION BOX - BLUE BOX", "address": {"city": "COTTONWOOD", "state": "CA", "street": "18371 BOWMAN RD", "postcode": "96022"}}},
{"geometry": {"type": "Point", "coordinates": [-121.9195911483, 41.9642746185]}, "type": "Feature", "properties": {"collection_times": [{"days": "Mon-Fri", "time": "2:20pm"}, {"days": "Sat", "time": "11:00am"}, {"days": "Sun", "time": "Closed"}], "id": "9602300000", "name": "USPS COLLECTION BOX - BLUE BOX", "address": {"city": "DORRIS", "state": "CA", "street": "214 W 3RD ST", "postcode": "96023"}}},
{"geometry": {"type": "Point", "coordinates": [-121.9195911483, 41.9642746185]}, "type": "Feature", "properties": {"collection_times": [{"days": "Mon-Fri", "time": "2:20pm"}, {"days": "Sat", "time": "11:00am"}, {"days": "Sun", "time": "Closed"}], "id": "9602300001", "name": "USPS COLLECTION BOX - PO LOBBY", "address": {"city": "DORRIS", "state": "CA", "street": "214 W 3RD ST", "postcode": "96023"}}},
{"geometry": {"type": "Point", "coordinates": [-121.9195911483, 41.9642746185]}, "type": "Feature", "properties": {"collection_times": [{"days": "Mon-Fri", "time": "2:20pm"}, {"days": "Sat", "time": "11:00am"}, {"days": "Sun", "time": "Closed"}], "id": "9602300002", "name": "USPS COLLECTION BOX - PO LOBBY", "address": {"city": "DORRIS", "state": "CA", "street": "214 W 3RD ST", "postcode": "96023"}}},
{"geometry": {"type": "Point", "coordinates": [-122.8687327021, 40.599279072]}, "type": "Feature", "properties": {"collection_times": [{"days": "Mon-Fri", "time": "2:30pm"}, {"days": "Sat", "time": "10:00am"}, {"days": "Sun", "time": "Closed"}], "id": "9602400000", "name": "USPS COLLECTION BOX - BLUE BOX", "address": {"city": "DOUGLAS CITY", "state": "CA", "street": "3333 STEINER FLAT RD", "postcode": "96024"}}},
{"geometry": {"type": "Point", "coordinates": [-122.8687327021, 40.599279072]}, "type": "Feature", "properties": {"collection_times": [{"days": "Mon-Fri", "time": "2:30pm"}, {"days": "Sat", "time": "10:00am"}, {"days": "Sun", "time": "Closed"}], "id": "9602400001", "name": "USPS COLLECTION BOX - PO LOBBY", "address": {"city": "DOUGLAS CITY", "state": "CA", "street": "3333 STEINER FLAT RD", "postcode": "96024"}}},
{"geometry": {"type": "Point", "coordinates": [-122.8687327021, 40.599279072]}, "type": "Feature", "properties": {"collection_times": [{"days": "Mon-Fri", "time": "2:30pm"}, {"days": "Sat", "time": "10:00am"}, {"days": "Sun", "time": "Closed"}], "id": "9602400002", "name": "USPS COLLECTION BOX - PO LOBBY", "address": {"city": "DOUGLAS CITY", "state": "CA", "street": "3333 STEINER FLAT RD", "postcode": "96024"}}},
{"geometry": {"type": "Point", "coordinates": [-122.2717146738, 41.2127875379]}, "type": "Feature", "properties": {"collection_times": [{"days": "Mon-Fri", "time": "12:00pm"}, {"days": "Sat", "time": "9:30am"}, {"days": "Sun", "time": "Closed"}], "id": "9602500002", "name": "USPS COLLECTION BOX - BLUE BOX", "address": {"city": "DUNSMUIR", "state": "CA", "street": "5915 DUNSMUIR AVE", "postcode": "96025"}}},
{"geometry": {"type": "Point", "coordinates": [-122.272781005, 41.2161869005]}, "type": "Feature", "properties": {"collection_times": [{"days": "Mon-Fri", "time": "4:50pm"}, {"days": "Sat", "time": "11:00am"}, {"days": "Sun", "time": "Closed"}], "id": "9602500008", "name": "USPS COLLECTION BOX - BLUE BOX", "address": {"city": "DUNSMUIR", "state": "CA", "street": "5530 DUNSMUIR AVE", "postcode": "96025"}}},
{"geometry": {"type": "Point", "coordinates": [-122.272781005, 41.2161869005]}, "type": "Feature", "properties": {"collection_times": [{"days": "Mon-Fri", "time": "4:50pm"}, {"days": "Sat", "time": "11:00am"}, {"days": "Sun", "time": "Closed"}], "id": "9602500009", "name": "USPS COLLECTION BOX - PO LOBBY", "address": {"city": "DUNSMUIR", "state": "CA", "street": "5530 DUNSMUIR AVE", "postcode": "96025"}}},
{"geometry": {"type": "Point", "coordinates": [-122.895042672, 41.4568106504]}, "type": "Feature", "properties": {"collection_times": [{"days": "Mon-Fri", "time": "1:30pm"}, {"days": "Sat", "time": "10:00am"}, {"days": "Sun", "time": "Closed"}], "id": "9602700000", "name": "USPS COLLECTION BOX - BLUE BOX", "address": {"city": "ETNA", "state": "CA", "street": "119 DIGGLES ST", "postcode": "96027"}}},
{"geometry": {"type": "Point", "coordinates": [-122.895042672, 41.4568106504]}, "type": "Feature", "properties": {"collection_times": [{"days": "Mon-Fri", "time": "1:30pm"}, {"days": "Sat", "time": "10:00am"}, {"days": "Sun", "time": "Closed"}], "id": "9602700001", "name": "USPS COLLECTION BOX - PO LOBBY", "address": {"city": "ETNA", "state": "CA", "street": "119 DIGGLES ST", "postcode": "96027"}}},
{"geometry": {"type": "Point", "coordinates": [-121.4919318018, 40.9936768254]}, "type": "Feature", "properties": {"collection_times": [{"days": "Mon-Fri", "time": "2:30pm"}, {"days": "Sat", "time": "10:30am"}, {"days": "Sun", "time": "Closed"}], "id": "9602800000", "name": "USPS COLLECTION BOX - BLUE BOX", "address": {"city": "FL RIVER MLS", "state": "CA", "street": "43294 STATE HIGHWAY 299 E", "postcode": "96028"}}},
{"geometry": {"type": "Point", "coordinates": [-121.4919318018, 40.9936768254]}, "type": "Feature", "properties": {"collection_times": [{"days": "Mon-Fri", "time": "3:00pm"}, {"days": "Sat", "time": "10:30am"}, {"days": "Sun", "time": "Closed"}], "id": "9602800002", "name": "USPS COLLECTION BOX - PO LOBBY", "address": {"city": "FL RIVER MLS", "state": "CA", "street": "43294 STATE HIGHWAY 299 E", "postcode": "96028"}}},
{"geometry": {"type": "Point", "coordinates": [-121.4919318018, 40.9936768254]}, "type": "Feature", "properties": {"collection_times": [{"days": "Mon-Fri", "time": "3:00pm"}, {"days": "Sat", "time": "10:30am"}, {"days": "Sun", "time": "Closed"}], "id": "9602800003", "name": "USPS COLLECTION BOX - PO LOBBY", "address": {"city": "FL RIVER MLS", "state": "CA", "street": "43294 STATE HIGHWAY 299 E", "postcode": "96028"}}},
{"geometry": {"type": "Point", "coordinates": [-121.4919318018, 40.9936768254]}, "type": "Feature", "properties": {"collection_times": [{"days": "Mon-Fri", "time": "3:00pm"}, {"days": "Sat", "time": "10:30am"}, {"days": "Sun", "time": "Closed"}], "id": "9602800004", "name": "USPS COLLECTION BOX - PO LOBBY", "address": {"city": "FL RIVER MLS", "state": "CA", "street": "43294 STATE HIGHWAY 299 E", "postcode": "96028"}}},
{"geometry": {"type": "Point", "coordinates": [-123.1632941132, 41.1901068364]}, "type": "Feature", "properties": {"collection_times": [{"days": "Mon-Sat", "time": "12:00pm"}, {"days": "Sun", "time": "Closed"}], "id": "9603100000", "name": "USPS COLLECTION BOX - PO LOBBY", "address": {"city": "FORKS OF SALMON", "state": "CA", "street": "39039 SAWYERS BAR RD", "postcode": "96031"}}},
{"geometry": {"type": "Point", "coordinates": [-122.8416014799, 41.6075745762]}, "type": "Feature", "properties": {"collection_times": [{"days": "Mon-Fri", "time": "2:15pm"}, {"days": "Sat", "time": "11:00am"}, {"days": "Sun", "time": "Closed"}], "id": "9603200000", "name": "USPS COLLECTION BOX - BLUE BOX", "address": {"city": "FORT JONES", "state": "CA", "street": "11954 MAIN ST", "postcode": "96032"}}},
{"geometry": {"type": "Point", "coordinates": [-122.8416014799, 41.6075745762]}, "type": "Feature", "properties": {"collection_times": [{"days": "Mon-Fri", "time": "2:15pm"}, {"days": "Sat", "time": "11:00am"}, {"days": "Sun", "time": "Closed"}], "id": "9603200001", "name": "USPS COLLECTION BOX - PO LOBBY", "address": {"city": "FORT JONES", "state": "CA", "street": "11954 MAIN ST", "postcode": "96032"}}},
{"geometry": {"type": "Point", "coordinates": [-122.6429057, 40.6857874261]}, "type": "Feature", "properties": {"collection_times": [{"days": "Mon-Fri", "time": "12:15pm"}, {"days": "Sat", "time": "9:50am"}, {"days": "Sun", "time": "Closed"}], "id": "9603300001", "name": "USPS COLLECTION BOX - PO LOBBY", "address": {"city": "FRENCH GULCH", "state": "CA", "street": "14200 MAIN ST", "postcode": "96033"}}},
{"geometry": {"type": "Point", "coordinates": [-122.6429057, 40.6857874261]}, "type": "Feature", "properties": {"collection_times": [{"days": "Mon-Fri", "time": "12:15pm"}, {"days": "Sat", "time": "9:50am"}, {"days": "Sun", "time": "Closed"}], "id": "9603300002", "name": "USPS COLLECTION BOX - PO LOBBY", "address": {"city": "FRENCH GULCH", "state": "CA", "street": "14200 MAIN ST", "postcode": "96033"}}},
{"geometry": {"type": "Point", "coordinates": [-122.6429057, 40.6857874261]}, "type": "Feature", "properties": {"collection_times": [{"days": "Mon-Fri", "time": "12:15pm"}, {"days": "Sat", "time": "9:50am"}, {"days": "Sun", "time": "Closed"}], "id": "9603300003", "name": "USPS COLLECTION BOX - PO LOBBY", "address": {"city": "FRENCH GULCH", "state": "CA", "street": "14200 MAIN ST", "postcode": "96033"}}},
{"geometry": {"type": "Point", "coordinates": [-122.6159564821, 41.4634439535]}, "type": "Feature", "properties": {"collection_times": [{"days": "Mon-Fri", "time": "1:50pm"}, {"days": "Sat", "time": "9:00am"}, {"days": "Sun", "time": "Closed"}], "id": "9603400000", "name": "USPS COLLECTION BOX - BLUE BOX", "address": {"city": "GAZELLE", "state": "CA", "street": "18418 OLD HIGHWAY 99", "postcode": "96034"}}},
{"geometry": {"type": "Point", "coordinates": [-122.6159564821, 41.4634439535]}, "type": "Feature", "properties": {"collection_times": [{"days": "Mon-Fri", "time": "12:15pm"}, {"days": "Sat", "time": "9:00am"}, {"days": "Sun", "time": "Closed"}], "id": "9603400001", "name": "USPS COLLECTION BOX - PO LOBBY", "address": {"city": "GAZELLE", "state": "CA", "street": "18418 OLD HIGHWAY 99", "postcode": "96034"}}},
{"geometry": {"type": "Point", "coordinates": [-122.6159564821, 41.4634439535]}, "type": "Feature", "properties": {"collection_times": [{"days": "Mon-Fri", "time": "12:45pm"}, {"days": "Sat", "time": "9:00am"}, {"days": "Sun", "time": "Closed"}], "id": "9603400002", "name": "USPS COLLECTION BOX - PO LOBBY", "address": {"city": "GAZELLE", "state": "CA", "street": "18418 OLD HIGHWAY 99", "postcode": "96034"}}},
{"geometry": {"type": "Point", "coordinates": [-122.151775955, 40.0559393777]}, "type": "Feature", "properties": {"collection_times": [{"days": "Mon-Fri", "time": "3:15pm"}, {"days": "Sat", "time": "9:00am"}, {"days": "Sun", "time": "Closed"}], "id": "9603500001", "name": "USPS COLLECTION BOX - PO LOBBY", "address": {"city": "GERBER", "state": "CA", "street": "408 SAN BENITO AVE", "postcode": "96035"}}},
{"geometry": {"type": "Point", "coordinates": [-122.9067947603, 41.5453325952]}, "type": "Feature", "properties": {"collection_times": [{"days": "Mon-Fri", "time": "1:45pm"}, {"days": "Sat", "time": "10:30am"}, {"days": "Sun", "time": "Closed"}], "id": "9603700000", "name": "USPS COLLECTION BOX - BLUE BOX", "address": {"city": "GREENVIEW", "state": "CA", "street": "6745 MAIN ST", "postcode": "96037"}}},
{"geometry": {"type": "Point", "coordinates": [-122.9067947603, 41.5453325952]}, "type": "Feature", "properties": {"collection_times": [{"days": "Mon-Fri", "time": "1:45pm"}, {"days": "Sat", "time": "10:30am"}, {"days": "Sun", "time": "Closed"}], "id": "9603700001", "name": "USPS COLLECTION BOX - PO LOBBY", "address": {"city": "GREENVIEW", "state": "CA", "street": "6745 MAIN ST", "postcode": "96037"}}},
{"geometry": {"type": "Point", "coordinates": [-122.5297789591, 41.6455774508]}, "type": "Feature", "properties": {"collection_times": [{"days": "Mon-Fri", "time": "2:50pm"}, {"days": "Sat", "time": "11:00am"}, {"days": "Sun", "time": "Closed"}], "id": "9603800000", "name": "USPS COLLECTION BOX - BLUE BOX", "address": {"city": "GRENADA", "state": "CA", "street": "515 SHASTA BLVD", "postcode": "96038"}}},
{"geometry": {"type": "Point", "coordinates": [-122.5297789591, 41.6455774508]}, "type": "Feature", "properties": {"collection_times": [{"days": "Mon-Fri", "time": "2:50pm"}, {"days": "Sat", "time": "11:00am"}, {"days": "Sun", "time": "Closed"}], "id": "9603800002", "name": "USPS COLLECTION BOX - PO LOBBY", "address": {"city": "GRENADA", "state": "CA", "street": "515 SHASTA BLVD", "postcode": "96038"}}},
{"geometry": {"type": "Point", "coordinates": [-123.3752055442, 41.7989985677]}, "type": "Feature", "properties": {"collection_times": [{"days": "Mon-Sat", "time": "1:15pm"}, {"days": "Sun", "time": "Closed"}], "id": "9603900000", "name": "USPS COLLECTION BOX - BLUE BOX", "address": {"city": "HAPPY CAMP", "state": "CA", "street": "33 DAVIS RD", "postcode": "96039"}}},
{"geometry": {"type": "Point", "coordinates": [-123.3752055442, 41.7989985677]}, "type": "Feature", "properties": {"collection_times": [{"days": "Mon-Sat", "time": "1:15pm"}, {"days": "Sun", "time": "Closed"}], "id": "9603900002", "name": "USPS COLLECTION BOX - PO LOBBY", "address": {"city": "HAPPY CAMP", "state": "CA", "street": "33 DAVIS RD", "postcode": "96039"}}},
{"geometry": {"type": "Point", "coordinates": [-123.3752055442, 41.7989985677]}, "type": "Feature", "properties": {"collection_times": [{"days": "Mon-Sat", "time": "1:15pm"}, {"days": "Sun", "time": "Closed"}], "id": "9603900003", "name": "USPS COLLECTION BOX - PO LOBBY", "address": {"city": "HAPPY CAMP", "state": "CA", "street": "33 DAVIS RD", "postcode": "96039"}}},
{"geometry": {"type": "Point", "coordinates": [-121.51558881, 40.8352693013]}, "type": "Feature", "properties": {"collection_times": [{"days": "Mon-Fri", "time": "2:30pm"}, {"days": "Sat", "time": "12:30pm"}, {"days": "Sun", "time": "Closed"}], "id": "9604000000", "name": "USPS COLLECTION BOX - BLUE BOX", "address": {"city": "HAT CREEK", "state": "CA", "street": "18630 HIGHWAY 89", "postcode": "96040"}}},
{"geometry": {"type": "Point", "coordinates": [-121.51558881, 40.8352693013]}, "type": "Feature", "properties": {"collection_times": [{"days": "Mon-Fri", "time": "2:30pm"}, {"days": "Sat", "time": "12:30pm"}, {"days": "Sun", "time": "Closed"}], "id": "9604000001", "name": "USPS COLLECTION BOX - PO LOBBY", "address": {"city": "HAT CREEK", "state": "CA", "street": "18630 HIGHWAY 89", "postcode": "96040"}}},
{"geometry": {"type": "Point", "coordinates": [-123.1345473701, 40.5154669642]}, "type": "Feature", "properties": {"collection_times": [{"days": "Mon-Sat", "time": "1:00pm"}, {"days": "Sun", "time": "Closed"}], "id": "9604100000", "name": "USPS COLLECTION BOX - BLUE BOX", "address": {"city": "HAYFORK", "state": "CA", "street": "3 STATE HWY 3", "postcode": "96041"}}},
{"geometry": {"type": "Point", "coordinates": [-123.1345473701, 40.5154669642]}, "type": "Feature", "properties": {"collection_times": [{"days": "Mon-Sat", "time": "1:00pm"}, {"days": "Sun", "time": "Closed"}], "id": "9604100001", "name": "USPS COLLECTION BOX - PO LOBBY", "address": {"city": "HAYFORK", "state": "CA", "street": "3 STATE HWY 3", "postcode": "96041"}}},
{"geometry": {"type": "Point", "coordinates": [-123.1345473701, 40.5154669642]}, "type": "Feature", "properties": {"collection_times": [{"days": "Mon-Sat", "time": "1:00pm"}, {"days": "Sun", "time": "Closed"}], "id": "9604100002", "name": "USPS COLLECTION BOX - PO LOBBY", "address": {"city": "HAYFORK", "state": "CA", "street": "3 STATE HWY 3", "postcode": "96041"}}},
{"geometry": {"type": "Point", "coordinates": [-122.5625450274, 41.9144742324]}, "type": "Feature", "properties": {"collection_times": [{"days": "Mon-Fri", "time": "3:15pm"}, {"days": "Sat", "time": "11:15am"}, {"days": "Sun", "time": "Closed"}], "id": "9604400000", "name": "USPS COLLECTION BOX - BLUE BOX", "address": {"city": "HORNBROOK", "state": "CA", "street": "15431 HORNBROOK RD", "postcode": "96044"}}},
{"geometry": {"type": "Point", "coordinates": [-122.5625450274, 41.9144742324]}, "type": "Feature", "properties": {"collection_times": [{"days": "Mon-Fri", "time": "3:15pm"}, {"days": "Sat", "time": "10:30am"}, {"days": "Sun", "time": "Closed"}], "id": "9604400001", "name": "USPS COLLECTION BOX - PO LOBBY", "address": {"city": "HORNBROOK", "state": "CA", "street": "15431 HORNBROOK RD", "postcode": "96044"}}},
{"geometry": {"type": "Point", "coordinates": [-122.5625450274, 41.9144742324]}, "type": "Feature", "properties": {"collection_times": [{"days": "Mon-Fri", "time": "3:15pm"}, {"days": "Sat", "time": "10:30am"}, {"days": "Sun", "time": "Closed"}], "id": "9604400002", "name": "USPS COLLECTION BOX - PO LOBBY", "address": {"city": "HORNBROOK", "state": "CA", "street": "15431 HORNBROOK RD", "postcode": "96044"}}},
{"geometry": {"type": "Point", "coordinates": [-122.563396866, 41.901243545]}, "type": "Feature", "properties": {"collection_times": [{"days": "Mon-Fri", "time": "2:30pm"}, {"days": "Sat", "time": "1:00pm"}, {"days": "Sun", "time": "Closed"}], "id": "9604400003", "name": "USPS COLLECTION BOX - BLUE BOX", "address": {"city": "HORNBROOK", "state": "CA", "street": "114 COPCO RD", "postcode": "96044"}}},
{"geometry": {"type": "Point", "coordinates": [-123.4946254405, 40.64050457]}, "type": "Feature", "properties": {"collection_times": [{"days": "Mon-Sat", "time": "11:30am"}, {"days": "Sun", "time": "Closed"}], "id": "9604600001", "name": "USPS COLLECTION BOX - PO LOBBY", "address": {"city": "HYAMPOM", "state": "CA", "street": "22617 HYAMPOM RD", "postcode": "96046"}}},
{"geometry": {"type": "Point", "coordinates": [-122.5413924898, 40.5043034511]}, "type": "Feature", "properties": {"collection_times": [{"days": "Mon-Fri", "time": "3:30pm"}, {"days": "Sat", "time": "10:00am"}, {"days": "Sun", "time": "Closed"}], "id": "9604700001", "name": "USPS COLLECTION BOX - PO LOBBY", "address": {"city": "ONO", "state": "CA", "street": "6484 PLACER RD", "postcode": "96047"}}},
{"geometry": {"type": "Point", "coordinates": [-122.5413924898, 40.5043034511]}, "type": "Feature", "properties": {"collection_times": [{"days": "Mon-Fri", "time": "3:30pm"}, {"days": "Sat", "time": "10:00am"}, {"days": "Sun", "time": "Closed"}], "id": "9604700002", "name": "USPS COLLECTION BOX - BLUE BOX", "address": {"city": "ONO", "state": "CA", "street": "6484 PLACER RD", "postcode": "96047"}}},
{"geometry": {"type": "Point", "coordinates": [-123.0443701453, 40.8119634845]}, "type": "Feature", "properties": {"collection_times": [{"days": "Mon-Fri", "time": "12:45pm"}, {"days": "Sat", "time": "10:15am"}, {"days": "Sun", "time": "Closed"}], "id": "9604800000", "name": "USPS COLLECTION BOX - BLUE BOX", "address": {"city": "JUNCTION CITY", "state": "CA", "street": "9998 HWY 299 W", "postcode": "96048"}}},
{"geometry": {"type": "Point", "coordinates": [-123.0443701453, 40.8119634845]}, "type": "Feature", "properties": {"collection_times": [{"days": "Mon-Fri", "time": "12:45pm"}, {"days": "Sat", "time": "10:15am"}, {"days": "Sun", "time": "Closed"}], "id": "9604800001", "name": "USPS COLLECTION BOX - PO LOBBY", "address": {"city": "JUNCTION CITY", "state": "CA", "street": "9998 HWY 299 W", "postcode": "96048"}}},
{"geometry": {"type": "Point", "coordinates": [-122.8665737345, 41.8385369979]}, "type": "Feature", "properties": {"collection_times": [{"days": "Mon-Fri", "time": "2:30pm"}, {"days": "Sat", "time": "9:15am"}, {"days": "Sun", "time": "Closed"}], "id": "9605000000", "name": "USPS COLLECTION BOX - BLUE BOX", "address": {"city": "KLAMATH RIVER", "state": "CA", "street": "20523 STATE HIGHWAY 96", "postcode": "96050"}}},
{"geometry": {"type": "Point", "coordinates": [-122.8665737345, 41.8385369979]}, "type": "Feature", "properties": {"collection_times": [{"days": "Mon-Fri", "time": "1:15pm"}, {"days": "Sat", "time": "9:15am"}, {"days": "Sun", "time": "Closed"}], "id": "9605000002", "name": "USPS COLLECTION BOX - PO LOBBY", "address": {"city": "KLAMATH RIVER", "state": "CA", "street": "20523 STATE HIGHWAY 96", "postcode": "96050"}}},
{"geometry": {"type": "Point", "coordinates": [-123.0022363437, 41.8234973242]}, "type": "Feature", "properties": {"collection_times": [{"days": "Mon-Fri", "time": "1:15pm"}, {"days": "Sat-Sun", "time": "Closed"}], "id": "9605000003", "name": "USPS COLLECTION BOX - BLUE BOX", "address": {"city": "KLAMATH RIVER", "state": "CA", "street": "29203 STATE HIGHWAY 96", "postcode": "96050"}}},
{"geometry": {"type": "Point", "coordinates": [-122.3844416349, 40.8879391583]}, "type": "Feature", "properties": {"collection_times": [{"days": "Mon-Fri", "time": "1:00pm"}, {"days": "Sat", "time": "9:15am"}, {"days": "Sun", "time": "Closed"}], "id": "9605100000", "name": "USPS COLLECTION BOX - BLUE BOX", "address": {"city": "LAKEHEAD", "state": "CA", "street": "20750 LAKESHORE DR", "postcode": "96051"}}},
{"geometry": {"type": "Point", "coordinates": [-122.3830582683, 40.8856124613]}, "type": "Feature", "properties": {"collection_times": [{"days": "Mon-Fri", "time": "3:15pm"}, {"days": "Sat", "time": "10:30am"}, {"days": "Sun", "time": "Closed"}], "id": "9605100001", "name": "USPS COLLECTION BOX - PO LOBBY", "address": {"city": "LAKEHEAD", "state": "CA", "street": "20856 ANTLERS RD", "postcode": "96051"}}},
{"geometry": {"type": "Point", "coordinates": [-122.3830582683, 40.8856124613]}, "type": "Feature", "properties": {"collection_times": [{"days": "Mon-Fri", "time": "3:15pm"}, {"days": "Sat", "time": "10:30am"}, {"days": "Sun", "time": "Closed"}], "id": "9605100002", "name": "USPS COLLECTION BOX - PO LOBBY", "address": {"city": "LAKEHEAD", "state": "CA", "street": "20856 ANTLERS RD", "postcode": "96051"}}},
{"geometry": {"type": "Point", "coordinates": [-122.8426788691, 40.7029637109]}, "type": "Feature", "properties": {"collection_times": [{"days": "Mon-Fri", "time": "2:00pm"}, {"days": "Sat", "time": "11:00am"}, {"days": "Sun", "time": "Closed"}], "id": "9605200000", "name": "USPS COLLECTION BOX - BLUE BOX", "address": {"city": "LEWISTON", "state": "CA", "street": "4391A TRINITY DAM BLVD", "postcode": "96052"}}},
{"geometry": {"type": "Point", "coordinates": [-122.8426788691, 40.7029637109]}, "type": "Feature", "properties": {"collection_times": [{"days": "Mon-Fri", "time": "2:00pm"}, {"days": "Sat", "time": "11:00am"}, {"days": "Sun", "time": "Closed"}], "id": "9605200003", "name": "USPS COLLECTION BOX - PO LOBBY", "address": {"city": "LEWISTON", "state": "CA", "street": "4391A TRINITY DAM BLVD", "postcode": "96052"}}},
{"geometry": {"type": "Point", "coordinates": [-121.151905946, 41.2081067844]}, "type": "Feature", "properties": {"collection_times": [{"days": "Mon-Fri", "time": "12:45pm"}, {"days": "Sat", "time": "10:30am"}, {"days": "Sun", "time": "Closed"}], "id": "9605400000", "name": "USPS COLLECTION BOX - PO LOBBY", "address": {"city": "LOOKOUT", "state": "CA", "street": "409 MAIN ST", "postcode": "96054"}}},
{"geometry": {"type": "Point", "coordinates": [-122.0999202824, 40.0253041843]}, "type": "Feature", "properties": {"collection_times": [{"days": "Mon-Fri", "time": "3:30pm"}, {"days": "Sat", "time": "10:00am"}, {"days": "Sun", "time": "Closed"}], "id": "9605500002", "name": "USPS COLLECTION BOX - BLUE BOX", "address": {"city": "LOS MOLINOS", "state": "CA", "street": "7865 STATE HIGHWAY 99E", "postcode": "96055"}}},
{"geometry": {"type": "Point", "coordinates": [-122.0999202824, 40.0253041843]}, "type": "Feature", "properties": {"collection_times": [{"days": "Mon-Fri", "time": "3:30pm"}, {"days": "Sat", "time": "10:00am"}, {"days": "Sun", "time": "Closed"}], "id": "9605500004", "name": "USPS COLLECTION BOX - PO LOBBY", "address": {"city": "LOS MOLINOS", "state": "CA", "street": "7865 STATE HIGHWAY 99E", "postcode": "96055"}}},
{"geometry": {"type": "Point", "coordinates": [-121.3836342303, 41.0564926366]}, "type": "Feature", "properties": {"collection_times": [{"days": "Mon-Fri", "time": "2:00pm"}, {"days": "Sat", "time": "10:30am"}, {"days": "Sun", "time": "Closed"}], "id": "9605600000", "name": "USPS COLLECTION BOX - BLUE BOX", "address": {"city": "MCARTHUR", "state": "CA", "street": "44160 STATE HWY 299E #1", "postcode": "96056"}}},
{"geometry": {"type": "Point", "coordinates": [-121.3836342303, 41.0564926366]}, "type": "Feature", "properties": {"collection_times": [{"days": "Mon-Fri", "time": "2:00pm"}, {"days": "Sat", "time": "10:30am"}, {"days": "Sun", "time": "Closed"}], "id": "9605600001", "name": "USPS COLLECTION BOX - PO LOBBY", "address": {"city": "MCARTHUR", "state": "CA", "street": "44160 HIGHWAY 299 E #1", "postcode": "96056"}}},
{"geometry": {"type": "Point", "coordinates": [-121.3836342303, 41.0564926366]}, "type": "Feature", "properties": {"collection_times": [{"days": "Mon-Fri", "time": "2:00pm"}, {"days": "Sat", "time": "10:30am"}, {"days": "Sun", "time": "Closed"}], "id": "9605600002", "name": "USPS COLLECTION BOX - PO LOBBY", "address": {"city": "MCARTHUR", "state": "CA", "street": "44160 HIGHWAY 299 E #1", "postcode": "96056"}}},
{"geometry": {"type": "Point", "coordinates": [-122.1391553828, 41.2545454479]}, "type": "Feature", "properties": {"collection_times": [{"days": "Mon-Fri", "time": "3:30pm"}, {"days": "Sat", "time": "11:00am"}, {"days": "Sun", "time": "Closed"}], "id": "9605700000", "name": "USPS COLLECTION BOX - BLUE BOX", "address": {"city": "MCCLOUD", "state": "CA", "street": "324 MAIN ST", "postcode": "96057"}}},
{"geometry": {"type": "Point", "coordinates": [-122.1391553828, 41.2545454479]}, "type": "Feature", "properties": {"collection_times": [{"days": "Mon-Fri", "time": "3:30pm"}, {"days": "Sat", "time": "11:30am"}, {"days": "Sun", "time": "Closed"}], "id": "9605700001", "name": "USPS COLLECTION BOX - PO LOBBY", "address": {"city": "MCCLOUD", "state": "CA", "street": "324 MAIN ST", "postcode": "96057"}}},
{"geometry": {"type": "Point", "coordinates": [-122.1391553828, 41.2545454479]}, "type": "Feature", "properties": {"collection_times": [{"days": "Mon-Fri", "time": "3:30pm"}, {"days": "Sat", "time": "11:30am"}, {"days": "Sun", "time": "Closed"}], "id": "9605700002", "name": "USPS COLLECTION BOX - PO LOBBY", "address": {"city": "MCCLOUD", "state": "CA", "street": "324 MAIN ST", "postcode": "96057"}}},
{"geometry": {"type": "Point", "coordinates": [-122.0157639058, 41.8165037569]}, "type": "Feature", "properties": {"collection_times": [{"days": "Mon-Fri", "time": "3:00pm"}, {"days": "Sat", "time": "11:00am"}, {"days": "Sun", "time": "Closed"}], "id": "9605800000", "name": "USPS COLLECTION BOX - BLUE BOX", "address": {"city": "MACDOEL", "state": "CA", "street": "41439 HIGHWAY 97", "postcode": "96058"}}},
{"geometry": {"type": "Point", "coordinates": [-122.0157639058, 41.8165037569]}, "type": "Feature", "properties": {"collection_times": [{"days": "Mon-Fri", "time": "12:45pm"}, {"days": "Sat", "time": "11:00am"}, {"days": "Sun", "time": "Closed"}], "id": "9605800001", "name": "USPS COLLECTION BOX - PO LOBBY", "address": {"city": "MACDOEL", "state": "CA", "street": "41439 HIGHWAY 97", "postcode": "96058"}}},
{"geometry": {"type": "Point", "coordinates": [-122.0157639058, 41.8165037569]}, "type": "Feature", "properties": {"collection_times": [{"days": "Mon-Fri", "time": "12:45pm"}, {"days": "Sat", "time": "11:00am"}, {"days": "Sun", "time": "Closed"}], "id": "9605800002", "name": "USPS COLLECTION BOX - PO LOBBY", "address": {"city": "MACDOEL", "state": "CA", "street": "41439 HIGHWAY 97", "postcode": "96058"}}},
{"geometry": {"type": "Point", "coordinates": [-122.0066742122, 41.8275712545]}, "type": "Feature", "properties": {"collection_times": [{"days": "Mon-Fri", "time": "3:00pm"}, {"days": "Sat", "time": "1:45pm"}, {"days": "Sun", "time": "Closed"}], "id": "9605800004", "name": "USPS COLLECTION BOX - BLUE BOX", "address": {"city": "MACDOEL", "state": "CA", "street": "41501 HIGHWAY 97", "postcode": "96058"}}},
{"geometry": {"type": "Point", "coordinates": [-121.8685145432, 40.4449009]}, "type": "Feature", "properties": {"collection_times": [{"days": "Mon-Fri", "time": "1:30pm"}, {"days": "Sat", "time": "12:30pm"}, {"days": "Sun", "time": "Closed"}], "id": "9605900000", "name": "USPS COLLECTION BOX - PO LOBBY", "address": {"city": "MANTON", "state": "CA", "street": "31240 MANTON RD", "postcode": "96059"}}},
{"geometry": {"type": "Point", "coordinates": [-121.8685145432, 40.4449009]}, "type": "Feature", "properties": {"collection_times": [{"days": "Mon-Fri", "time": "1:30pm"}, {"days": "Sat", "time": "12:30pm"}, {"days": "Sun", "time": "Closed"}], "id": "9605900001", "name": "USPS COLLECTION BOX - PO LOBBY", "address": {"city": "MANTON", "state": "CA", "street": "31240 MANTON RD", "postcode": "96059"}}},
{"geometry": {"type": "Point", "coordinates": [-121.8685145432, 40.4449009]}, "type": "Feature", "properties": {"collection_times": [{"days": "Mon-Fri", "time": "1:30pm"}, {"days": "Sat", "time": "12:30pm"}, {"days": "Sun", "time": "Closed"}], "id": "9605900002", "name": "USPS COLLECTION BOX - BLUE BOX", "address": {"city": "MANTON", "state": "CA", "street": "31240 MANTON RD", "postcode": "96059"}}},
{"geometry": {"type": "Point", "coordinates": [-122.1777995021, 40.549236205]}, "type": "Feature", "properties": {"collection_times": [{"days": "Mon-Fri", "time": "4:00pm"}, {"days": "Sat", "time": "10:00am"}, {"days": "Sun", "time": "Closed"}], "id": "9606200000", "name": "USPS COLLECTION BOX - BLUE BOX", "address": {"city": "MILLVILLE", "state": "CA", "street": "24127 OLD 44 DR", "postcode": "96062"}}},
{"geometry": {"type": "Point", "coordinates": [-122.1777995021, 40.549236205]}, "type": "Feature", "properties": {"collection_times": [{"days": "Mon-Fri", "time": "4:00pm"}, {"days": "Sat", "time": "10:00am"}, {"days": "Sun", "time": "Closed"}], "id": "9606200001", "name": "USPS COLLECTION BOX - PO LOBBY", "address": {"city": "MILLVILLE", "state": "CA", "street": "24127 OLD 44 DR", "postcode": "96062"}}},
{"geometry": {"type": "Point", "coordinates": [-121.518512398, 40.3541496131]}, "type": "Feature", "properties": {"collection_times": [{"days": "Mon-Fri", "time": "3:00pm"}, {"days": "Sat", "time": "8:45am"}, {"days": "Sun", "time": "Closed"}], "id": "9606300000", "name": "USPS COLLECTION BOX - BLUE BOX", "address": {"city": "MINERAL", "state": "CA", "street": "38450 HIGHWAY 36 E", "postcode": "96063"}}},
{"geometry": {"type": "Point", "coordinates": [-121.5252698605, 40.3242357891]}, "type": "Feature", "properties": {"collection_times": [{"days": "Mon-Fri", "time": "10:15am"}, {"days": "Sat", "time": "8:45am"}, {"days": "Sun", "time": "Closed"}], "id": "9606300001", "name": "USPS COLLECTION BOX - BLUE BOX", "address": {"city": "MINERAL", "state": "CA", "street": "40271 HIGHWAY 172", "postcode": "96063"}}},
{"geometry": {"type": "Point", "coordinates": [-121.518512398, 40.3541496131]}, "type": "Feature", "properties": {"collection_times": [{"days": "Mon-Fri", "time": "2:00pm"}, {"days": "Sat", "time": "8:45am"}, {"days": "Sun", "time": "Closed"}], "id": "9606300002", "name": "USPS COLLECTION BOX - PO LOBBY", "address": {"city": "MINERAL", "state": "CA", "street": "38450 HIGHWAY 36 E", "postcode": "96063"}}},
{"geometry": {"type": "Point", "coordinates": [-122.5278463285, 41.7280386832]}, "type": "Feature", "properties": {"collection_times": [{"days": "Mon-Fri", "time": "3:15pm"}, {"days": "Sat", "time": "11:00am"}, {"days": "Sun", "time": "Closed"}], "id": "9606400000", "name": "USPS COLLECTION BOX - BLUE BOX", "address": {"city": "MONTAGUE", "state": "CA", "street": "115 S 11TH ST", "postcode": "96064"}}},
{"geometry": {"type": "Point", "coordinates": [-122.5278463285, 41.7280386832]}, "type": "Feature", "properties": {"collection_times": [{"days": "Mon-Fri", "time": "3:15pm"}, {"days": "Sat", "time": "11:00am"}, {"days": "Sun", "time": "Closed"}], "id": "9606400003", "name": "USPS COLLECTION BOX - PO LOBBY", "address": {"city": "MONTAGUE", "state": "CA", "street": "115 S 11TH ST", "postcode": "96064"}}},
{"geometry": {"type": "Point", "coordinates": [-122.524999379, 41.727176397]}, "type": "Feature", "properties": {"collection_times": [{"days": "Mon-Fri", "time": "3:15pm"}, {"days": "Sat", "time": "3:00pm"}, {"days": "Sun", "time": "Closed"}], "id": "9606400004", "name": "USPS COLLECTION BOX - BLUE BOX", "address": {"city": "MONTAGUE", "state": "CA", "street": "250 E WEBB ST", "postcode": "96064"}}},
{"geometry": {"type": "Point", "coordinates": [-122.4093325193, 41.6240948275]}, "type": "Feature", "properties": {"collection_times": [{"days": "Mon-Sat", "time": "1:00pm"}, {"days": "Sun", "time": "Closed"}], "id": "9606400005", "name": "USPS COLLECTION BOX - BLUE BOX", "address": {"city": "MONTAGUE", "state": "CA", "street": "7126 HIGHWAY A12", "postcode": "96064"}}},
{"geometry": {"type": "Point", "coordinates": [-121.9263040889, 40.8370553272]}, "type": "Feature", "properties": {"collection_times": [{"days": "Mon-Fri", "time": "3:30pm"}, {"days": "Sat", "time": "8:30am"}, {"days": "Sun", "time": "Closed"}], "id": "9606500000", "name": "USPS COLLECTION BOX - BLUE BOX", "address": {"city": "MONTGOMERY CREEK", "state": "CA", "street": "30346 HWY 299", "postcode": "96065"}}},
{"geometry": {"type": "Point", "coordinates": [-121.9263040889, 40.8370553272]}, "type": "Feature", "properties": {"collection_times": [{"days": "Mon-Fri", "time": "3:30pm"}, {"days": "Sat", "time": "8:30am"}, {"days": "Sun", "time": "Closed"}], "id": "9606500001", "name": "USPS COLLECTION BOX - PO LOBBY", "address": {"city": "MONTGOMERY CREEK", "state": "CA", "street": "30346 HWY 299", "postcode": "96065"}}},
{"geometry": {"type": "Point", "coordinates": [-122.3110965183, 41.3120699023]}, "type": "Feature", "properties": {"collection_times": [{"days": "Mon-Fri", "time": "4:30pm"}, {"days": "Sat", "time": "3:30pm"}, {"days": "Sun", "time": "Closed"}], "id": "9606700006", "name": "USPS COLLECTION BOX - PO LOBBY", "address": {"city": "MOUNT SHASTA", "state": "CA", "street": "301 S MOUNT SHASTA BLVD", "postcode": "96067"}}},
{"geometry": {"type": "Point", "coordinates": [-122.3110965183, 41.3120699023]}, "type": "Feature", "properties": {"collection_times": [{"days": "Mon-Fri", "time": "4:30pm"}, {"days": "Sat", "time": "3:30pm"}, {"days": "Sun", "time": "Closed"}], "id": "9606700007", "name": "USPS COLLECTION BOX - BLUE BOX", "address": {"city": "MOUNT SHASTA", "state": "CA", "street": "301 S MOUNT SHASTA BLVD", "postcode": "96067"}}},
{"geometry": {"type": "Point", "coordinates": [-122.3110965183, 41.3120699023]}, "type": "Feature", "properties": {"collection_times": [{"days": "Mon-Fri", "time": "4:30pm"}, {"days": "Sat", "time": "3:30pm"}, {"days": "Sun", "time": "Closed"}], "id": "9606700008", "name": "USPS COLLECTION BOX - BLUE BOX", "address": {"city": "MOUNT SHASTA", "state": "CA", "street": "301 S MOUNT SHASTA BLVD", "postcode": "96067"}}},
{"geometry": {"type": "Point", "coordinates": [-122.3129597848, 41.3128156434]}, "type": "Feature", "properties": {"collection_times": [{"days": "Mon-Sat", "time": "11:00am"}, {"days": "Sun", "time": "Closed"}], "id": "9606700009", "name": "USPS COLLECTION BOX - BLUE BOX", "address": {"city": "MOUNT SHASTA", "state": "CA", "street": "300 W LAKE ST", "postcode": "96067"}}},
{"geometry": {"type": "Point", "coordinates": [-121.1810773783, 41.0968223548]}, "type": "Feature", "properties": {"collection_times": [{"days": "Mon-Fri", "time": "2:00pm"}, {"days": "Sat", "time": "11:50am"}, {"days": "Sun", "time": "Closed"}], "id": "9606800000", "name": "USPS COLLECTION BOX - BLUE BOX", "address": {"city": "NUBIEBER", "state": "CA", "street": "652890 HWY 299 E", "postcode": "96068"}}},
{"geometry": {"type": "Point", "coordinates": [-121.1806968854, 41.0969818447]}, "type": "Feature", "properties": {"collection_times": [{"days": "Mon-Fri", "time": "2:00pm"}, {"days": "Sat", "time": "11:50am"}, {"days": "Sun", "time": "Closed"}], "id": "9606800001", "name": "USPS COLLECTION BOX - PO LOBBY", "address": {"city": "NUBIEBER", "state": "CA", "street": "652-890 STATE HIGHWAY 299 E", "postcode": "96068"}}},
{"geometry": {"type": "Point", "coordinates": [-121.1806968854, 41.0969818447]}, "type": "Feature", "properties": {"collection_times": [{"days": "Mon-Fri", "time": "2:00pm"}, {"days": "Sat", "time": "11:50am"}, {"days": "Sun", "time": "Closed"}], "id": "9606800002", "name": "USPS COLLECTION BOX - PO LOBBY", "address": {"city": "NUBIEBER", "state": "CA", "street": "652-890 STATE HIGHWAY 299 E", "postcode": "96068"}}},
{"geometry": {"type": "Point", "coordinates": [-122.0309802833, 40.6848506529]}, "type": "Feature", "properties": {"collection_times": [{"days": "Mon-Fri", "time": "2:30pm"}, {"days": "Sat", "time": "11:30am"}, {"days": "Sun", "time": "Closed"}], "id": "9606900000", "name": "USPS COLLECTION BOX - BLUE BOX", "address": {"city": "OAK RUN", "state": "CA", "street": "27600 OAK RUN TO FERN RD", "postcode": "96069"}}},
{"geometry": {"type": "Point", "coordinates": [-122.0309802833, 40.6848506529]}, "type": "Feature", "properties": {"collection_times": [{"days": "Mon-Fri", "time": "2:30pm"}, {"days": "Sat", "time": "11:30am"}, {"days": "Sun", "time": "Closed"}], "id": "9606900001", "name": "USPS COLLECTION BOX - PO LOBBY", "address": {"city": "OAK RUN", "state": "CA", "street": "27600 OAK RUN TO FERN RD", "postcode": "96069"}}},
{"geometry": {"type": "Point", "coordinates": [-121.4687735563, 40.5834017995]}, "type": "Feature", "properties": {"collection_times": [{"days": "Mon-Sat", "time": "1:45pm"}, {"days": "Sun", "time": "Closed"}], "id": "9607100000", "name": "USPS COLLECTION BOX - BLUE BOX", "address": {"city": "OLD STATION", "state": "CA", "street": "12529 HWY 44/89", "postcode": "96071"}}},
{"geometry": {"type": "Point", "coordinates": [-122.2392986782, 40.5334430049]}, "type": "Feature", "properties": {"collection_times": [{"days": "Mon-Fri", "time": "5:00pm"}, {"days": "Sat", "time": "10:00am"}, {"days": "Sun", "time": "Closed"}], "id": "9607300000", "name": "USPS COLLECTION BOX - BLUE BOX", "address": {"city": "PALO CEDRO", "state": "CA", "street": "9434 DESCHUTES RD", "postcode": "96073"}}},
{"geometry": {"type": "Point", "coordinates": [-122.2392617762, 40.534118687]}, "type": "Feature", "properties": {"collection_times": [{"days": "Mon-Sat", "time": "9:30am"}, {"days": "Sun", "time": "Closed"}], "id": "9607300001", "name": "USPS COLLECTION BOX - BLUE BOX", "address": {"city": "PALO CEDRO", "state": "CA", "street": "9390 DESCHUTES RD", "postcode": "96073"}}},
{"geometry": {"type": "Point", "coordinates": [-122.2392986782, 40.5334430049]}, "type": "Feature", "properties": {"collection_times": [{"days": "Mon-Fri", "time": "5:00pm"}, {"days": "Sat", "time": "10:00am"}, {"days": "Sun", "time": "Closed"}], "id": "9607300003", "name": "USPS COLLECTION BOX - PO LOBBY", "address": {"city": "PALO CEDRO", "state": "CA", "street": "9434 DESCHUTES RD", "postcode": "96073"}}},
{"geometry": {"type": "Point", "coordinates": [-122.2392986782, 40.5334430049]}, "type": "Feature", "properties": {"collection_times": [{"days": "Mon-Fri", "time": "5:00pm"}, {"days": "Sat", "time": "10:00am"}, {"days": "Sun", "time": "Closed"}], "id": "9607300004", "name": "USPS COLLECTION BOX - PO LOBBY", "address": {"city": "PALO CEDRO", "state": "CA", "street": "9434 DESCHUTES RD", "postcode": "96073"}}},
{"geometry": {"type": "Point", "coordinates": [-122.2386413674, 40.5379348817]}, "type": "Feature", "properties": {"collection_times": [{"days": "Mon-Fri", "time": "9:30am"}, {"days": "Sat-Sun", "time": "Closed"}], "id": "9607300005", "name": "USPS COLLECTION BOX - BLUE BOX", "address": {"city": "PALO CEDRO", "state": "CA", "street": "9155 DESCHUTES RD", "postcode": "96073"}}},
{"geometry": {"type": "Point", "coordinates": [-122.5465797789, 39.8839762084]}, "type": "Feature", "properties": {"collection_times": [{"days": "Mon-Sat", "time": "11:00am"}, {"days": "Sun", "time": "Closed"}], "id": "9607400000", "name": "USPS COLLECTION BOX - PO LOBBY", "address": {"city": "PASKENTA", "state": "CA", "street": "13180 TOOMES CAMP RD", "postcode": "96074"}}},
{"geometry": {"type": "Point", "coordinates": [-121.916356462, 40.335738769]}, "type": "Feature", "properties": {"collection_times": [{"days": "Mon-Sat", "time": "4:00pm"}, {"days": "Sun", "time": "Closed"}], "id": "9607500001", "name": "USPS COLLECTION BOX - BLUE BOX", "address": {"city": "PAYNES CREEK", "state": "CA", "street": "29791 PAYNES CREEK LOOP", "postcode": "96075"}}},
{"geometry": {"type": "Point", "coordinates": [-122.9101137478, 40.3595870992]}, "type": "Feature", "properties": {"collection_times": [{"days": "Mon-Fri", "time": "1:30pm"}, {"days": "Sat", "time": "1:00pm"}, {"days": "Sun", "time": "Closed"}], "id": "9607600001", "name": "USPS COLLECTION BOX - PO LOBBY", "address": {"city": "PLATINA", "state": "CA", "street": "4554 HIGHWAY 36 W", "postcode": "96076"}}},
{"geometry": {"type": "Point", "coordinates": [-122.1711116323, 40.0814484001]}, "type": "Feature", "properties": {"collection_times": [{"days": "Mon-Fri", "time": "3:00pm"}, {"days": "Sat", "time": "9:45am"}, {"days": "Sun", "time": "Closed"}], "id": "9607800000", "name": "USPS COLLECTION BOX - BLUE BOX", "address": {"city": "PROBERTA", "state": "CA", "street": "9973 HWY 99 W", "postcode": "96078"}}},
{"geometry": {"type": "Point", "coordinates": [-122.1711116323, 40.0814484001]}, "type": "Feature", "properties": {"collection_times": [{"days": "Mon-Fri", "time": "3:00pm"}, {"days": "Sat", "time": "9:45am"}, {"days": "Sun", "time": "Closed"}], "id": "9607800001", "name": "USPS COLLECTION BOX - PO LOBBY", "address": {"city": "PROBERTA", "state": "CA", "street": "9973 HWY 99 W", "postcode": "96078"}}},
{"geometry": {"type": "Point", "coordinates": [-122.3535655863, 40.6759881097]}, "type": "Feature", "properties": {"collection_times": [{"days": "Mon-Fri", "time": "10:00am"}, {"days": "Sat-Sun", "time": "Closed"}], "id": "9607900000", "name": "USPS COLLECTION BOX - PO LOBBY", "address": {"city": "SHASTA LAKE", "state": "CA", "street": "1985 CASCADE BLVD", "postcode": "96079"}}},
{"geometry": {"type": "Point", "coordinates": [-122.3535655863, 40.6759881097]}, "type": "Feature", "properties": {"collection_times": [{"days": "Mon-Fri", "time": "10:00am"}, {"days": "Sat", "time": "8:00am"}, {"days": "Sun", "time": "Closed"}], "id": "9607900001", "name": "USPS COLLECTION BOX - BLUE BOX", "address": {"city": "SHASTA LAKE", "state": "CA", "street": "1985 CASCADE BLVD", "postcode": "96079"}}},
{"geometry": {"type": "Point", "coordinates": [-122.2371767453, 40.1776147326]}, "type": "Feature", "properties": {"collection_times": [{"days": "Mon-Sat", "time": "5:00pm"}, {"days": "Sun", "time": "Closed"}], "id": "9608000001", "name": "USPS COLLECTION BOX - BLUE BOX", "address": {"city": "RED BLUFF", "state": "CA", "street": "447 WALNUT ST", "postcode": "96080"}}},
{"geometry": {"type": "Point", "coordinates": [-122.2371767453, 40.1776147326]}, "type": "Feature", "properties": {"collection_times": [{"days": "Mon-Sat", "time": "5:00pm"}, {"days": "Sun", "time": "Closed"}], "id": "9608000002", "name": "USPS COLLECTION BOX - BLUE BOX", "address": {"city": "RED BLUFF", "state": "CA", "street": "447 WALNUT ST", "postcode": "96080"}}},
{"geometry": {"type": "Point", "coordinates": [-122.2371767453, 40.1776147326]}, "type": "Feature", "properties": {"collection_times": [{"days": "Mon-Sat", "time": "5:00pm"}, {"days": "Sun", "time": "Closed"}], "id": "9608000003", "name": "USPS COLLECTION BOX - PO LOBBY", "address": {"city": "RED BLUFF", "state": "CA", "street": "447 WALNUT ST", "postcode": "96080"}}},
{"geometry": {"type": "Point", "coordinates": [-122.2386400453, 40.1757141499]}, "type": "Feature", "properties": {"collection_times": [{"days": "Mon-Sat", "time": "3:00pm"}, {"days": "Sun", "time": "Closed"}], "id": "9608000007", "name": "USPS COLLECTION BOX - BLUE BOX", "address": {"city": "RED BLUFF", "state": "CA", "street": "501 PINE ST", "postcode": "96080"}}},
{"geometry": {"type": "Point", "coordinates": [-122.2290219698, 40.1703395508]}, "type": "Feature", "properties": {"collection_times": [{"days": "Mon-Sat", "time": "3:00pm"}, {"days": "Sun", "time": "Closed"}], "id": "9608000021", "name": "USPS COLLECTION BOX - BLUE BOX", "address": {"city": "RED BLUFF", "state": "CA", "street": "237 S MAIN ST", "postcode": "96080"}}},
{"geometry": {"type": "Point", "coordinates": [-122.2284511914, 40.1686856466]}, "type": "Feature", "properties": {"collection_times": [{"days": "Mon-Sat", "time": "3:00pm"}, {"days": "Sun", "time": "Closed"}], "id": "9608000022", "name": "USPS COLLECTION BOX - BLUE BOX", "address": {"city": "RED BLUFF", "state": "CA", "street": "725 S MAIN ST", "postcode": "96080"}}},
{"geometry": {"type": "Point", "coordinates": [-122.2209172632, 40.1533055715]}, "type": "Feature", "properties": {"collection_times": [{"days": "Mon-Sat", "time": "3:00pm"}, {"days": "Sun", "time": "Closed"}], "id": "9608000023", "name": "USPS COLLECTION BOX - BLUE BOX", "address": {"city": "RED BLUFF", "state": "CA", "street": "2 JOHN SUTTER SQ", "postcode": "96080"}}},
{"geometry": {"type": "Point", "coordinates": [-122.2455186932, 40.1790429477]}, "type": "Feature", "properties": {"collection_times": [{"days": "Mon-Sat", "time": "10:30am"}, {"days": "Sun", "time": "Closed"}], "id": "9608000025", "name": "USPS COLLECTION BOX - BLUE BOX", "address": {"city": "RED BLUFF", "state": "CA", "street": "460 MAIN ST", "postcode": "96080"}}},
{"geometry": {"type": "Point", "coordinates": [-122.2330354736, 40.1772733956]}, "type": "Feature", "properties": {"collection_times": [{"days": "Mon-Sat", "time": "11:00am"}, {"days": "Sun", "time": "Closed"}], "id": "9608000026", "name": "USPS COLLECTION BOX - BLUE BOX", "address": {"city": "RED BLUFF", "state": "CA", "street": "645 ANTELOPE BLVD", "postcode": "96080"}}},
{"geometry": {"type": "Point", "coordinates": [-122.2332677721, 40.1769024513]}, "type": "Feature", "properties": {"collection_times": [{"days": "Mon-Sat", "time": "11:15am"}, {"days": "Sun", "time": "Closed"}], "id": "9608000027", "name": "USPS COLLECTION BOX - BLUE BOX", "address": {"city": "RED BLUFF", "state": "CA", "street": "460 ANTELOPE BLVD", "postcode": "96080"}}},
{"geometry": {"type": "Point", "coordinates": [-122.2276084002, 40.1806597977]}, "type": "Feature", "properties": {"collection_times": [{"days": "Mon-Sat", "time": "2:00pm"}, {"days": "Sun", "time": "Closed"}], "id": "9608000028", "name": "USPS COLLECTION BOX - BLUE BOX", "address": {"city": "RED BLUFF", "state": "CA", "street": "100 BELLE MILL RD", "postcode": "96080"}}},
{"geometry": {"type": "Point", "coordinates": [-122.2283800137, 40.1675179485]}, "type": "Feature", "properties": {"collection_times": [{"days": "Mon-Sat", "time": "3:00pm"}, {"days": "Sun", "time": "Closed"}], "id": "9608000031", "name": "USPS COLLECTION BOX - BLUE BOX", "address": {"city": "RED BLUFF", "state": "CA", "street": "1025 S MAIN ST", "postcode": "96080"}}},
{"geometry": {"type": "Point", "coordinates": [-122.2349132973, 40.175740731]}, "type": "Feature", "properties": {"collection_times": [{"days": "Mon-Sat", "time": "3:00pm"}, {"days": "Sun", "time": "Closed"}], "id": "9608000034", "name": "USPS COLLECTION BOX - BLUE BOX", "address": {"city": "RED BLUFF", "state": "CA", "street": "555 WASHINGTON ST", "postcode": "96080"}}},
{"geometry": {"type": "Point", "coordinates": [-122.12352135, 40.13163827]}, "type": "Feature", "properties": {"collection_times": [{"days": "Mon-Sat", "time": "10:00am"}, {"days": "Sun", "time": "Closed"}], "id": "9608000037", "name": "USPS COLLECTION BOX - BLUE BOX", "address": {"city": "RED BLUFF", "state": "CA", "street": "11625 HIGHWAY 99 E", "postcode": "96080"}}},
{"geometry": {"type": "Point", "coordinates": [-121.9471171242, 40.7896587385]}, "type": "Feature", "properties": {"collection_times": [{"days": "Mon-Fri", "time": "3:45pm"}, {"days": "Sat", "time": "8:30am"}, {"days": "Sun", "time": "Closed"}], "id": "9608400000", "name": "USPS COLLECTION BOX - BLUE BOX", "address": {"city": "ROUND MOUNTAIN", "state": "CA", "street": "29620 STATE HIGHWAY 299 E", "postcode": "96084"}}},
{"geometry": {"type": "Point", "coordinates": [-121.9389045286, 40.8005406373]}, "type": "Feature", "properties": {"collection_times": [{"days": "Mon-Fri", "time": "3:45pm"}, {"days": "Sat", "time": "8:30am"}, {"days": "Sun", "time": "Closed"}], "id": "9608400001", "name": "USPS COLLECTION BOX - PO LOBBY", "address": {"city": "ROUND MOUNTAIN", "state": "CA", "street": "29620 STATE HIGHWAY 299 E", "postcode": "96084"}}},
{"geometry": {"type": "Point", "coordinates": [-121.9389045286, 40.8005406373]}, "type": "Feature", "properties": {"collection_times": [{"days": "Mon-Fri", "time": "3:45pm"}, {"days": "Sat", "time": "8:30am"}, {"days": "Sun", "time": "Closed"}], "id": "9608400002", "name": "USPS COLLECTION BOX - PO LOBBY", "address": {"city": "ROUND MOUNTAIN", "state": "CA", "street": "29620 STATE HIGHWAY 299 E", "postcode": "96084"}}},
{"geometry": {"type": "Point", "coordinates": [-122.9803069491, 41.7726485825]}, "type": "Feature", "properties": {"collection_times": [{"days": "Mon-Sat", "time": "11:30am"}, {"days": "Sun", "time": "Closed"}], "id": "9608500000", "name": "USPS COLLECTION BOX - PO LOBBY", "address": {"city": "SCOTT BAR", "state": "CA", "street": "27233 SCOTT RIVER RD", "postcode": "96085"}}},
{"geometry": {"type": "Point", "coordinates": [-123.1895186885, 41.8389342542]}, "type": "Feature", "properties": {"collection_times": [{"days": "Mon-Fri", "time": "1:45pm"}, {"days": "Sat", "time": "1:40pm"}, {"days": "Sun", "time": "Closed"}], "id": "9608600000", "name": "USPS COLLECTION BOX - BLUE BOX", "address": {"city": "SEIAD VALLEY", "state": "CA", "street": "44717 STATE HIGHWAY 96", "postcode": "96086"}}},
{"geometry": {"type": "Point", "coordinates": [-123.1895186885, 41.8389342542]}, "type": "Feature", "properties": {"collection_times": [{"days": "Mon-Fri", "time": "1:45pm"}, {"days": "Sat", "time": "1:40pm"}, {"days": "Sun", "time": "Closed"}], "id": "9608600001", "name": "USPS COLLECTION BOX - PO LOBBY", "address": {"city": "SEIAD VALLEY", "state": "CA", "street": "44717 STATE HIGHWAY 96", "postcode": "96086"}}},
{"geometry": {"type": "Point", "coordinates": [-122.5009909177, 40.6112122453]}, "type": "Feature", "properties": {"collection_times": [{"days": "Mon-Fri", "time": "4:15pm"}, {"days": "Sat", "time": "8:30am"}, {"days": "Sun", "time": "Closed"}], "id": "9608700000", "name": "USPS COLLECTION BOX - BLUE BOX", "address": {"city": "SHASTA", "state": "CA", "street": "15430 STATE HIGHWAY 299 W", "postcode": "96087"}}},
{"geometry": {"type": "Point", "coordinates": [-122.5009909177, 40.6112122453]}, "type": "Feature", "properties": {"collection_times": [{"days": "Mon-Fri", "time": "4:15pm"}, {"days": "Sat", "time": "8:30am"}, {"days": "Sun", "time": "Closed"}], "id": "9608700001", "name": "USPS COLLECTION BOX - PO LOBBY", "address": {"city": "SHASTA", "state": "CA", "street": "15430 STATE HIGHWAY 299 W", "postcode": "96087"}}},
{"geometry": {"type": "Point", "coordinates": [-122.5009909177, 40.6112122453]}, "type": "Feature", "properties": {"collection_times": [{"days": "Mon-Fri", "time": "4:15pm"}, {"days": "Sat", "time": "8:30am"}, {"days": "Sun", "time": "Closed"}], "id": "9608700002", "name": "USPS COLLECTION BOX - PO LOBBY", "address": {"city": "SHASTA", "state": "CA", "street": "15430 STATE HIGHWAY 299 W", "postcode": "96087"}}},
{"geometry": {"type": "Point", "coordinates": [-121.875327255, 40.4941947789]}, "type": "Feature", "properties": {"collection_times": [{"days": "Mon-Fri", "time": "4:00pm"}, {"days": "Sat", "time": "2:00pm"}, {"days": "Sun", "time": "Closed"}], "id": "9608800000", "name": "USPS COLLECTION BOX - BLUE BOX", "address": {"city": "SHINGLETOWN", "state": "CA", "street": "31268 HWY 44", "postcode": "96088"}}},
{"geometry": {"type": "Point", "coordinates": [-121.875327255, 40.4941947789]}, "type": "Feature", "properties": {"collection_times": [{"days": "Mon-Fri", "time": "4:00pm"}, {"days": "Sat", "time": "2:00pm"}, {"days": "Sun", "time": "Closed"}], "id": "9608800001", "name": "USPS COLLECTION BOX - PO LOBBY", "address": {"city": "SHINGLETOWN", "state": "CA", "street": "31268 HWY 44", "postcode": "96088"}}},
{"geometry": {"type": "Point", "coordinates": [-121.875327255, 40.4941947789]}, "type": "Feature", "properties": {"collection_times": [{"days": "Mon-Fri", "time": "4:00pm"}, {"days": "Sat", "time": "2:00pm"}, {"days": "Sun", "time": "Closed"}], "id": "9608800002", "name": "USPS COLLECTION BOX - PO LOBBY", "address": {"city": "SHINGLETOWN", "state": "CA", "street": "31268 HWY 44", "postcode": "96088"}}},
{"geometry": {"type": "Point", "coordinates": [-122.4017236129, 40.6793647473]}, "type": "Feature", "properties": {"collection_times": [{"days": "Mon-Fri", "time": "1:30pm"}, {"days": "Sat", "time": "10:00am"}, {"days": "Sun", "time": "Closed"}], "id": "9608900000", "name": "USPS COLLECTION BOX - PO LOBBY", "address": {"city": "SHASTA LAKE", "state": "CA", "street": "13701 HILL BLVD", "postcode": "96089"}}},
{"geometry": {"type": "Point", "coordinates": [-122.4017236129, 40.6793647473]}, "type": "Feature", "properties": {"collection_times": [{"days": "Mon-Fri", "time": "1:30pm"}, {"days": "Sat", "time": "10:00am"}, {"days": "Sun", "time": "Closed"}], "id": "9608900001", "name": "USPS COLLECTION BOX - BLUE BOX", "address": {"city": "SHASTA LAKE", "state": "CA", "street": "13701 HILL BLVD", "postcode": "96089"}}},
{"geometry": {"type": "Point", "coordinates": [-122.1222345373, 40.0274182826]}, "type": "Feature", "properties": {"collection_times": [{"days": "Mon-Fri", "time": "3:30pm"}, {"days": "Sat", "time": "9:00am"}, {"days": "Sun", "time": "Closed"}], "id": "9609000000", "name": "USPS COLLECTION BOX - BLUE BOX", "address": {"city": "TEHAMA", "state": "CA", "street": "225 C ST", "postcode": "96090"}}},
{"geometry": {"type": "Point", "coordinates": [-122.1222345373, 40.0274182826]}, "type": "Feature", "properties": {"collection_times": [{"days": "Mon-Fri", "time": "3:30pm"}, {"days": "Sat", "time": "9:00am"}, {"days": "Sun", "time": "Closed"}], "id": "9609000003", "name": "USPS COLLECTION BOX - PO LOBBY", "address": {"city": "TEHAMA", "state": "CA", "street": "225 C ST", "postcode": "96090"}}},
{"geometry": {"type": "Point", "coordinates": [-122.6328994394, 41.1156633848]}, "type": "Feature", "properties": {"collection_times": [{"days": "Mon-Fri", "time": "1:20pm"}, {"days": "Sat", "time": "10:00am"}, {"days": "Sun", "time": "Closed"}], "id": "9609100000", "name": "USPS COLLECTION BOX - PO LOBBY", "address": {"city": "TRINITY CENTER", "state": "CA", "street": "271 MARY AVE", "postcode": "96091"}}},
{"geometry": {"type": "Point", "coordinates": [-122.6328994394, 41.1156633848]}, "type": "Feature", "properties": {"collection_times": [{"days": "Mon-Fri", "time": "1:20pm"}, {"days": "Sat", "time": "10:00am"}, {"days": "Sun", "time": "Closed"}], "id": "9609100001", "name": "USPS COLLECTION BOX - PO LOBBY", "address": {"city": "TRINITY CENTER", "state": "CA", "street": "271 MARY AVE", "postcode": "96091"}}},
{"geometry": {"type": "Point", "coordinates": [-122.6328994394, 41.1156633848]}, "type": "Feature", "properties": {"collection_times": [{"days": "Mon-Fri", "time": "1:20pm"}, {"days": "Sat", "time": "10:00am"}, {"days": "Sun", "time": "Closed"}], "id": "9609100002", "name": "USPS COLLECTION BOX - PO LOBBY", "address": {"city": "TRINITY CENTER", "state": "CA", "street": "271 MARY AVE", "postcode": "96091"}}},
{"geometry": {"type": "Point", "coordinates": [-122.6328994394, 41.1156633848]}, "type": "Feature", "properties": {"collection_times": [{"days": "Mon-Sat", "time": "10:00am"}, {"days": "Sun", "time": "Closed"}], "id": "9609100003", "name": "USPS COLLECTION BOX - BLUE BOX", "address": {"city": "TRINITY CENTER", "state": "CA", "street": "10 MANN RD", "postcode": "96091"}}},
{"geometry": {"type": "Point", "coordinates": [-122.0545205934, 39.9326922093]}, "type": "Feature", "properties": {"collection_times": [{"days": "Mon-Fri", "time": "3:45pm"}, {"days": "Sat", "time": "9:45am"}, {"days": "Sun", "time": "Closed"}], "id": "9609200000", "name": "USPS COLLECTION BOX - BLUE BOX", "address": {"city": "VINA", "state": "CA", "street": "4750 ROWLES RD", "postcode": "96092"}}},
{"geometry": {"type": "Point", "coordinates": [-122.0545205934, 39.9326922093]}, "type": "Feature", "properties": {"collection_times": [{"days": "Mon-Fri", "time": "12:00pm"}, {"days": "Sat", "time": "9:45am"}, {"days": "Sun", "time": "Closed"}], "id": "9609200001", "name": "USPS COLLECTION BOX - PO LOBBY", "address": {"city": "VINA", "state": "CA", "street": "4750 ROWLES RD", "postcode": "96092"}}},
{"geometry": {"type": "Point", "coordinates": [-122.929255647, 40.722654391]}, "type": "Feature", "properties": {"collection_times": [{"days": "Mon-Sat", "time": "2:00pm"}, {"days": "Sun", "time": "Closed"}], "id": "9609300000", "name": "USPS COLLECTION BOX - BLUE BOX", "address": {"city": "WEAVERVILLE", "state": "CA", "street": "1301 MAIN ST", "postcode": "96093"}}},
{"geometry": {"type": "Point", "coordinates": [-122.9537027498, 40.7430753024]}, "type": "Feature", "properties": {"collection_times": [{"days": "Mon-Fri", "time": "2:00pm"}, {"days": "Sat", "time": "12:30pm"}, {"days": "Sun", "time": "Closed"}], "id": "9609300001", "name": "USPS COLLECTION BOX - BLUE BOX", "address": {"city": "WEAVERVILLE", "state": "CA", "street": "0000 HWY 3", "postcode": "96093"}}},
{"geometry": {"type": "Point", "coordinates": [-122.94120156, 40.7317815763]}, "type": "Feature", "properties": {"collection_times": [{"days": "Mon-Fri", "time": "3:15pm"}, {"days": "Sat", "time": "11:00am"}, {"days": "Sun", "time": "Closed"}], "id": "9609300002", "name": "USPS COLLECTION BOX - PO LOBBY", "address": {"city": "WEAVERVILLE", "state": "CA", "street": "204 S MINER ST", "postcode": "96093"}}},
{"geometry": {"type": "Point", "coordinates": [-122.94120156, 40.7317815763]}, "type": "Feature", "properties": {"collection_times": [{"days": "Mon-Fri", "time": "3:15pm"}, {"days": "Sat", "time": "11:00am"}, {"days": "Sun", "time": "Closed"}], "id": "9609300003", "name": "USPS COLLECTION BOX - PO LOBBY", "address": {"city": "WEAVERVILLE", "state": "CA", "street": "204 S MINER ST", "postcode": "96093"}}},
{"geometry": {"type": "Point", "coordinates": [-122.94120156, 40.7317815763]}, "type": "Feature", "properties": {"collection_times": [{"days": "Mon-Fri", "time": "3:15pm"}, {"days": "Sat", "time": "11:00am"}, {"days": "Sun", "time": "Closed"}], "id": "9609300004", "name": "USPS COLLECTION BOX - PO LOBBY", "address": {"city": "WEAVERVILLE", "state": "CA", "street": "204 S MINER ST", "postcode": "96093"}}},
{"geometry": {"type": "Point", "coordinates": [-122.94120156, 40.7317815763]}, "type": "Feature", "properties": {"collection_times": [{"days": "Mon-Fri", "time": "3:15pm"}, {"days": "Sat", "time": "11:00am"}, {"days": "Sun", "time": "Closed"}], "id": "9609300005", "name": "USPS COLLECTION BOX - PO LOBBY", "address": {"city": "WEAVERVILLE", "state": "CA", "street": "204 S MINER ST", "postcode": "96093"}}},
{"geometry": {"type": "Point", "coordinates": [-122.3844589341, 41.4560009591]}, "type": "Feature", "properties": {"collection_times": [{"days": "Mon-Fri", "time": "4:30pm"}, {"days": "Sat", "time": "1:00pm"}, {"days": "Sun", "time": "Closed"}], "id": "9609400002", "name": "USPS COLLECTION BOX - BLUE BOX", "address": {"city": "WEED", "state": "CA", "street": "560 TEBBE ST", "postcode": "96094"}}},
{"geometry": {"type": "Point", "coordinates": [-122.3843489595, 41.425132402]}, "type": "Feature", "properties": {"collection_times": [{"days": "Mon-Fri", "time": "1:30pm"}, {"days": "Sat-Sun", "time": "Closed"}], "id": "9609400004", "name": "USPS COLLECTION BOX - BLUE BOX", "address": {"city": "WEED", "state": "CA", "street": "303 MAIN ST", "postcode": "96094"}}},
{"geometry": {"type": "Point", "coordinates": [-122.3800280632, 41.5071413835]}, "type": "Feature", "properties": {"collection_times": [{"days": "Mon-Fri", "time": "11:00am"}, {"days": "Sat-Sun", "time": "Closed"}], "id": "9609400007", "name": "USPS COLLECTION BOX - BLUE BOX", "address": {"city": "WEED", "state": "CA", "street": "15708 LAKE SHORE DR", "postcode": "96094"}}},
{"geometry": {"type": "Point", "coordinates": [-122.3847695404, 41.4275817625]}, "type": "Feature", "properties": {"collection_times": [{"days": "Mon-Fri", "time": "4:30pm"}, {"days": "Sat", "time": "11:30am"}, {"days": "Sun", "time": "Closed"}], "id": "9609400013", "name": "USPS COLLECTION BOX - PO LOBBY", "address": {"city": "WEED", "state": "CA", "street": "560 TEBBE ST", "postcode": "96094"}}},
{"geometry": {"type": "Point", "coordinates": [-122.3862681059, 41.4222365372]}, "type": "Feature", "properties": {"collection_times": [{"days": "Mon-Sat", "time": "3:00pm"}, {"days": "Sun", "time": "Closed"}], "id": "9609400017", "name": "USPS COLLECTION BOX - BLUE BOX", "address": {"city": "WEED", "state": "CA", "street": "25 N WEED BLVD", "postcode": "96094"}}},
{"geometry": {"type": "Point", "coordinates": [-122.3555113998, 41.4753843837]}, "type": "Feature", "properties": {"collection_times": [{"days": "Mon-Sat", "time": "1:30pm"}, {"days": "Sun", "time": "Closed"}], "id": "9609400018", "name": "USPS COLLECTION BOX - BLUE BOX", "address": {"city": "WEED", "state": "CA", "street": "20506 BIG SPRINGS RD", "postcode": "96094"}}},
{"geometry": {"type": "Point", "coordinates": [-121.89678287, 40.6322643548]}, "type": "Feature", "properties": {"collection_times": [{"days": "Mon-Fri", "time": "2:30pm"}, {"days": "Sat", "time": "10:00am"}, {"days": "Sun", "time": "Closed"}], "id": "9609600000", "name": "USPS COLLECTION BOX - BLUE BOX", "address": {"city": "WHITMORE", "state": "CA", "street": "30544 WHITMORE RD", "postcode": "96096"}}},
{"geometry": {"type": "Point", "coordinates": [-121.89678287, 40.6322643548]}, "type": "Feature", "properties": {"collection_times": [{"days": "Mon-Fri", "time": "2:30pm"}, {"days": "Sat", "time": "10:00am"}, {"days": "Sun", "time": "Closed"}], "id": "9609600001", "name": "USPS COLLECTION BOX - PO LOBBY", "address": {"city": "WHITMORE", "state": "CA", "street": "30544 WHITMORE RD", "postcode": "96096"}}},
{"geometry": {"type": "Point", "coordinates": [-121.9132702477, 40.6289780808]}, "type": "Feature", "properties": {"collection_times": [{"days": "Mon-Fri", "time": "3:00pm"}, {"days": "Sat", "time": "2:00pm"}, {"days": "Sun", "time": "Closed"}], "id": "9609600002", "name": "USPS COLLECTION BOX - BLUE BOX", "address": {"city": "WHITMORE", "state": "CA", "street": "30560 WHITMORE RD", "postcode": "96096"}}},
{"geometry": {"type": "Point", "coordinates": [-122.6323964425, 41.7401746203]}, "type": "Feature", "properties": {"collection_times": [{"days": "Mon-Fri", "time": "12:15pm"}, {"days": "Sat-Sun", "time": "Closed"}], "id": "9609700008", "name": "USPS COLLECTION BOX - BLUE BOX", "address": {"city": "YREKA", "state": "CA", "street": "121 MONTAGUE RD", "postcode": "96097"}}},
{"geometry": {"type": "Point", "coordinates": [-122.6451788057, 41.703415944]}, "type": "Feature", "properties": {"collection_times": [{"days": "Mon-Fri", "time": "12:20pm"}, {"days": "Sat-Sun", "time": "Closed"}], "id": "9609700010", "name": "USPS COLLECTION BOX - BLUE BOX", "address": {"city": "YREKA", "state": "CA", "street": "1810 FORT JONES RD", "postcode": "96097"}}},
{"geometry": {"type": "Point", "coordinates": [-122.6379718173, 41.7304871545]}, "type": "Feature", "properties": {"collection_times": [{"days": "Mon-Fri", "time": "10:00am"}, {"days": "Sat-Sun", "time": "Closed"}], "id": "9609700012", "name": "USPS COLLECTION BOX - BLUE BOX", "address": {"city": "YREKA", "state": "CA", "street": "311 4TH ST", "postcode": "96097"}}},
{"geometry": {"type": "Point", "coordinates": [-122.6370872151, 41.7294890288]}, "type": "Feature", "properties": {"collection_times": [{"days": "Mon-Fri", "time": "3:50pm"}, {"days": "Sat", "time": "2:30pm"}, {"days": "Sun", "time": "Closed"}], "id": "9609700013", "name": "USPS COLLECTION BOX - PO LOBBY", "address": {"city": "YREKA", "state": "CA", "street": "401 S BROADWAY ST", "postcode": "96097"}}},
{"geometry": {"type": "Point", "coordinates": [-122.6370872151, 41.7294890288]}, "type": "Feature", "properties": {"collection_times": [{"days": "Mon-Fri", "time": "3:50pm"}, {"days": "Sat", "time": "3:00pm"}, {"days": "Sun", "time": "Closed"}], "id": "9609700016", "name": "USPS COLLECTION BOX - BLUE BOX", "address": {"city": "YREKA", "state": "CA", "street": "401 S BROADWAY ST", "postcode": "96097"}}},
{"geometry": {"type": "Point", "coordinates": [-122.635454477, 41.7315027373]}, "type": "Feature", "properties": {"collection_times": [{"days": "Mon-Fri", "time": "3:00pm"}, {"days": "Sat", "time": "1:00pm"}, {"days": "Sun", "time": "Closed"}], "id": "9609700017", "name": "USPS COLLECTION BOX - BLUE BOX", "address": {"city": "YREKA", "state": "CA", "street": "115 E MINER ST", "postcode": "96097"}}}
]}
