{"type": "FeatureCollection", "features": [
{"geometry": {"type": "Point", "coordinates": [-120.5397836333, 41.4801365385]}, "type": "Feature", "properties": {"collection_times": [{"days": "Mon-Sat", "time": "10:00am"}, {"days": "Sun", "time": "Closed"}], "id": "9610100001", "name": "USPS COLLECTION BOX - BLUE BOX", "address": {"city": "ALTURAS", "state": "CA", "street": "310 E MCDOWELL AVE", "postcode": "96101"}}},
{"geometry": {"type": "Point", "coordinates": [-120.542462795, 41.485771051]}, "type": "Feature", "properties": {"collection_times": [{"days": "Mon-Sat", "time": "4:00pm"}, {"days": "Sun", "time": "Closed"}], "id": "9610100003", "name": "USPS COLLECTION BOX - PO LOBBY", "address": {"city": "ALTURAS", "state": "CA", "street": "240 N MAIN ST", "postcode": "96101"}}},
{"geometry": {"type": "Point", "coordinates": [-120.5424142301, 41.4878814642]}, "type": "Feature", "properties": {"collection_times": [{"days": "Mon-Sat", "time": "3:00pm"}, {"days": "Sun", "time": "Closed"}], "id": "9610100004", "name": "USPS COLLECTION BOX - BLUE BOX", "address": {"city": "ALTURAS", "state": "CA", "street": "510 N MAIN ST", "postcode": "96101"}}},
{"geometry": {"type": "Point", "coordinates": [-120.542462795, 41.485771051]}, "type": "Feature", "properties": {"collection_times": [{"days": "Mon-Sat", "time": "4:00pm"}, {"days": "Sun", "time": "Closed"}], "id": "9610100006", "name": "USPS COLLECTION BOX - BLUE BOX", "address": {"city": "ALTURAS", "state": "CA", "street": "240 N MAIN ST", "postcode": "96101"}}},
{"geometry": {"type": "Point", "coordinates": [-120.6883828595, 41.4095561042]}, "type": "Feature", "properties": {"collection_times": [{"days": "Mon-Sat", "time": "10:00am"}, {"days": "Sun", "time": "Closed"}], "id": "9610100007", "name": "USPS COLLECTION BOX - BLUE BOX", "address": {"city": "ALTURAS", "state": "CA", "street": "750 SHASTA VIEW ST", "postcode": "96101"}}},
{"geometry": {"type": "Point", "coordinates": [-120.614586198, 39.7789284064]}, "type": "Feature", "properties": {"collection_times": [{"days": "Mon-Fri", "time": "3:30pm"}, {"days": "Sat", "time": "12:00pm"}, {"days": "Sun", "time": "Closed"}], "id": "9610300000", "name": "USPS COLLECTION BOX - BLUE BOX", "address": {"city": "BLAIRSDEN", "state": "CA", "street": "280 S BONTA ST", "postcode": "96103"}}},
{"geometry": {"type": "Point", "coordinates": [-120.6588880292, 39.8169582748]}, "type": "Feature", "properties": {"collection_times": [{"days": "Mon-Fri", "time": "1:00pm"}, {"days": "Sat", "time": "12:00pm"}, {"days": "Sun", "time": "Closed"}], "id": "9610300007", "name": "USPS COLLECTION BOX - BLUE BOX", "address": {"city": "BLAIRSDEN", "state": "CA", "street": "59659 HIGHWAY 70", "postcode": "96103"}}},
{"geometry": {"type": "Point", "coordinates": [-120.618747578, 39.769700509]}, "type": "Feature", "properties": {"collection_times": [{"days": "Mon-Fri", "time": "3:30pm"}, {"days": "Sat", "time": "12:00pm"}, {"days": "Sun", "time": "Closed"}], "id": "9610300008", "name": "USPS COLLECTION BOX - PO LOBBY", "address": {"city": "BLAIRSDEN", "state": "CA", "street": "1228 WASCO TRL", "postcode": "96103"}}},
{"geometry": {"type": "Point", "coordinates": [-120.618747578, 39.769700509]}, "type": "Feature", "properties": {"collection_times": [{"days": "Mon-Fri", "time": "3:30pm"}, {"days": "Sat", "time": "12:00pm"}, {"days": "Sun", "time": "Closed"}], "id": "9610300009", "name": "USPS COLLECTION BOX - BLUE BOX", "address": {"city": "BLAIRSDEN", "state": "CA", "street": "1228 WASCO TRL", "postcode": "96103"}}},
{"geometry": {"type": "Point", "coordinates": [-120.618747578, 39.769700509]}, "type": "Feature", "properties": {"collection_times": [{"days": "Mon-Fri", "time": "3:30pm"}, {"days": "Sat", "time": "12:00pm"}, {"days": "Sun", "time": "Closed"}], "id": "9610300010", "name": "USPS COLLECTION BOX - BLUE BOX", "address": {"city": "BLAIRSDEN", "state": "CA", "street": "1228 WASCO TRL", "postcode": "96103"}}},
{"geometry": {"type": "Point", "coordinates": [-120.171922146, 41.527370218]}, "type": "Feature", "properties": {"collection_times": [{"days": "Mon-Fri", "time": "2:00pm"}, {"days": "Sat", "time": "11:45am"}, {"days": "Sun", "time": "Closed"}], "id": "9610400000", "name": "USPS COLLECTION BOX - PO LOBBY", "address": {"city": "CEDARVILLE", "state": "CA", "street": "480 MAIN ST", "postcode": "96104"}}},
{"geometry": {"type": "Point", "coordinates": [-120.1385569084, 39.7976079038]}, "type": "Feature", "properties": {"collection_times": [{"days": "Mon-Fri", "time": "5:15pm"}, {"days": "Sat", "time": "10:00am"}, {"days": "Sun", "time": "Closed"}], "id": "9610500000", "name": "USPS COLLECTION BOX - BLUE BOX", "address": {"city": "CHILCOOT", "state": "CA", "street": "94217 STATE HIGHWAY 70", "postcode": "96105"}}},
{"geometry": {"type": "Point", "coordinates": [-120.138556908, 39.797607904]}, "type": "Feature", "properties": {"collection_times": [{"days": "Mon-Fri", "time": "3:15pm"}, {"days": "Sat", "time": "10:00am"}, {"days": "Sun", "time": "Closed"}], "id": "9610500001", "name": "USPS COLLECTION BOX - PO LOBBY", "address": {"city": "CHILCOOT", "state": "CA", "street": "94217 STATE HIGHWAY 70", "postcode": "96105"}}},
{"geometry": {"type": "Point", "coordinates": [-120.580394761, 39.742808837]}, "type": "Feature", "properties": {"collection_times": [{"days": "Mon-Fri", "time": "4:00pm"}, {"days": "Sat", "time": "10:00am"}, {"days": "Sun", "time": "Closed"}], "id": "9610600000", "name": "USPS COLLECTION BOX - PO LOBBY", "address": {"city": "CLIO", "state": "CA", "street": "284 CLIO STATE 40A RD", "postcode": "96106"}}},
{"geometry": {"type": "Point", "coordinates": [-119.4041413452, 38.3230237749]}, "type": "Feature", "properties": {"collection_times": [{"days": "Mon-Sat", "time": "9:15am"}, {"days": "Sun", "time": "Closed"}], "id": "9610700002", "name": "USPS COLLECTION BOX - BLUE BOX", "address": {"city": "COLEVILLE", "state": "CA", "street": "600 DAVENPORT CT", "postcode": "96107"}}},
{"geometry": {"type": "Point", "coordinates": [-119.456351141, 38.5322331774]}, "type": "Feature", "properties": {"collection_times": [{"days": "Mon-Sat", "time": "9:45am"}, {"days": "Sun", "time": "Closed"}], "id": "9610700003", "name": "USPS COLLECTION BOX - BLUE BOX", "address": {"city": "COLEVILLE", "state": "CA", "street": "1476 EASTSIDE LN", "postcode": "96107"}}},
{"geometry": {"type": "Point", "coordinates": [-119.2561431571, 38.257422186]}, "type": "Feature", "properties": {"collection_times": [{"days": "Mon-Fri", "time": "1:15pm"}, {"days": "Sat", "time": "10:15am"}, {"days": "Sun", "time": "Closed"}], "id": "9610700006", "name": "USPS COLLECTION BOX - BLUE BOX", "address": {"city": "COLEVILLE", "state": "CA", "street": "106834 HIGHWAY 395", "postcode": "96107"}}},
{"geometry": {"type": "Point", "coordinates": [-119.295472205, 38.2805018376]}, "type": "Feature", "properties": {"collection_times": [{"days": "Mon-Sat", "time": "9:00am"}, {"days": "Sun", "time": "Closed"}], "id": "9610700008", "name": "USPS COLLECTION BOX - BLUE BOX", "address": {"city": "COLEVILLE", "state": "CA", "street": "107500 HIGHWAY 395", "postcode": "96107"}}},
{"geometry": {"type": "Point", "coordinates": [-119.4601239619, 38.516793801]}, "type": "Feature", "properties": {"collection_times": [{"days": "Mon-Sat", "time": "9:30am"}, {"days": "Sun", "time": "Closed"}], "id": "9610700010", "name": "USPS COLLECTION BOX - BLUE BOX", "address": {"city": "COLEVILLE", "state": "CA", "street": "45 N RIVER LN", "postcode": "96107"}}},
{"geometry": {"type": "Point", "coordinates": [-120.375406601, 41.763377923]}, "type": "Feature", "properties": {"collection_times": [{"days": "Mon-Sat", "time": "12:00pm"}, {"days": "Sun", "time": "Closed"}], "id": "9610800000", "name": "USPS COLLECTION BOX - PO LOBBY", "address": {"city": "DAVIS CREEK", "state": "CA", "street": "1 E US HIGHWAY 395 N", "postcode": "96108"}}},
{"geometry": {"type": "Point", "coordinates": [-120.3752065081, 41.7154904899]}, "type": "Feature", "properties": {"collection_times": [{"days": "Mon-Sat", "time": "12:00pm"}, {"days": "Sun", "time": "Closed"}], "id": "9610800001", "name": "USPS COLLECTION BOX - BLUE BOX", "address": {"city": "DAVIS CREEK", "state": "CA", "street": "US HIGHWAY 395", "postcode": "96108"}}},
{"geometry": {"type": "Point", "coordinates": [-120.121032894, 40.0450876]}, "type": "Feature", "properties": {"collection_times": [{"days": "Mon-Fri", "time": "4:15pm"}, {"days": "Sat", "time": "9:00am"}, {"days": "Sun", "time": "Closed"}], "id": "9610900000", "name": "USPS COLLECTION BOX - PO LOBBY", "address": {"city": "DOYLE", "state": "CA", "street": "745-850 RACHEL DR", "postcode": "96109"}}},
{"geometry": {"type": "Point", "coordinates": [-120.1210836475, 40.0450986019]}, "type": "Feature", "properties": {"collection_times": [{"days": "Mon-Fri", "time": "4:15pm"}, {"days": "Sat", "time": "9:00am"}, {"days": "Sun", "time": "Closed"}], "id": "9610900001", "name": "USPS COLLECTION BOX - BLUE BOX", "address": {"city": "DOYLE", "state": "CA", "street": "745 RACHEL", "postcode": "96109"}}},
{"geometry": {"type": "Point", "coordinates": [-120.115910548, 41.317614343]}, "type": "Feature", "properties": {"collection_times": [{"days": "Mon-Sat", "time": "11:00am"}, {"days": "Sun", "time": "Closed"}], "id": "9611000000", "name": "USPS COLLECTION BOX - PO LOBBY", "address": {"city": "EAGLEVILLE", "state": "CA", "street": "13761 MAIN ST", "postcode": "96110"}}},
{"geometry": {"type": "Point", "coordinates": [-120.1161450216, 41.3185699548]}, "type": "Feature", "properties": {"collection_times": [{"days": "Mon-Sat", "time": "10:30am"}, {"days": "Sun", "time": "Closed"}], "id": "9611000001", "name": "USPS COLLECTION BOX - BLUE BOX", "address": {"city": "EAGLEVILLE", "state": "CA", "street": "0 MAIN ST", "postcode": "96110"}}},
{"geometry": {"type": "Point", "coordinates": [-120.151031113, 41.857632232]}, "type": "Feature", "properties": {"collection_times": [{"days": "Mon-Fri", "time": "12:45pm"}, {"days": "Sat", "time": "1:00pm"}, {"days": "Sun", "time": "Closed"}], "id": "9611200000", "name": "USPS COLLECTION BOX - BLUE BOX", "address": {"city": "FORT BIDWELL", "state": "CA", "street": "47 E BRIDGE ST", "postcode": "96112"}}},
{"geometry": {"type": "Point", "coordinates": [-120.151031113, 41.857632232]}, "type": "Feature", "properties": {"collection_times": [{"days": "Mon-Fri", "time": "12:45pm"}, {"days": "Sat", "time": "1:00pm"}, {"days": "Sun", "time": "Closed"}], "id": "9611200001", "name": "USPS COLLECTION BOX - PO LOBBY", "address": {"city": "FORT BIDWELL", "state": "CA", "street": "47 E BRIDGE ST", "postcode": "96112"}}},
{"geometry": {"type": "Point", "coordinates": [-120.133552145, 40.143101417]}, "type": "Feature", "properties": {"collection_times": [{"days": "Mon-Fri", "time": "3:30pm"}, {"days": "Sat", "time": "10:45am"}, {"days": "Sun", "time": "Closed"}], "id": "9611300000", "name": "USPS COLLECTION BOX - PO LOBBY", "address": {"city": "HERLONG", "state": "CA", "street": "2067 YUBA ST", "postcode": "96113"}}},
{"geometry": {"type": "Point", "coordinates": [-120.133552145, 40.143101417]}, "type": "Feature", "properties": {"collection_times": [{"days": "Mon-Fri", "time": "3:30pm"}, {"days": "Sat", "time": "11:00am"}, {"days": "Sun", "time": "Closed"}], "id": "9611300001", "name": "USPS COLLECTION BOX - BLUE BOX", "address": {"city": "HERLONG", "state": "CA", "street": "2067 YUBA ST", "postcode": "96113"}}},
{"geometry": {"type": "Point", "coordinates": [-120.537387754, 40.310188895]}, "type": "Feature", "properties": {"collection_times": [{"days": "Mon-Fri", "time": "4:00pm"}, {"days": "Sat", "time": "10:30am"}, {"days": "Sun", "time": "Closed"}], "id": "9611400000", "name": "USPS COLLECTION BOX - BLUE BOX", "address": {"city": "JANESVILLE", "state": "CA", "street": "463-495 MAIN ST", "postcode": "96114"}}},
{"geometry": {"type": "Point", "coordinates": [-120.537387754, 40.310188895]}, "type": "Feature", "properties": {"collection_times": [{"days": "Mon-Fri", "time": "4:00pm"}, {"days": "Sat", "time": "10:30am"}, {"days": "Sun", "time": "Closed"}], "id": "9611400001", "name": "USPS COLLECTION BOX - PO LOBBY", "address": {"city": "JANESVILLE", "state": "CA", "street": "463-495 MAIN ST", "postcode": "96114"}}},
{"geometry": {"type": "Point", "coordinates": [-120.213114831, 41.645185073]}, "type": "Feature", "properties": {"collection_times": [{"days": "Mon-Sat", "time": "11:45am"}, {"days": "Sun", "time": "Closed"}], "id": "9611500000", "name": "USPS COLLECTION BOX - BLUE BOX", "address": {"city": "LAKE CITY", "state": "CA", "street": "35 E NORTH ST", "postcode": "96115"}}},
{"geometry": {"type": "Point", "coordinates": [-120.213114831, 41.645185073]}, "type": "Feature", "properties": {"collection_times": [{"days": "Mon-Sat", "time": "11:45am"}, {"days": "Sun", "time": "Closed"}], "id": "9611500001", "name": "USPS COLLECTION BOX - PO LOBBY", "address": {"city": "LAKE CITY", "state": "CA", "street": "35 E NORTH ST", "postcode": "96115"}}},
{"geometry": {"type": "Point", "coordinates": [-120.504449898, 41.250598696]}, "type": "Feature", "properties": {"collection_times": [{"days": "Mon-Fri", "time": "4:15pm"}, {"days": "Sat", "time": "10:00am"}, {"days": "Sun", "time": "Closed"}], "id": "9611600000", "name": "USPS COLLECTION BOX - PO LOBBY", "address": {"city": "LIKELY", "state": "CA", "street": "HIGHWAY 395", "postcode": "96116"}}},
{"geometry": {"type": "Point", "coordinates": [-120.391803493, 40.383356945]}, "type": "Feature", "properties": {"collection_times": [{"days": "Mon-Fri", "time": "3:45pm"}, {"days": "Sat", "time": "10:30am"}, {"days": "Sun", "time": "Closed"}], "id": "9611700000", "name": "USPS COLLECTION BOX - BLUE BOX", "address": {"city": "LITCHFIELD", "state": "CA", "street": "721-255 CENTER RD", "postcode": "96117"}}},
{"geometry": {"type": "Point", "coordinates": [-120.391803493, 40.383356945]}, "type": "Feature", "properties": {"collection_times": [{"days": "Mon-Fri", "time": "3:45pm"}, {"days": "Sat", "time": "10:30am"}, {"days": "Sun", "time": "Closed"}], "id": "9611700001", "name": "USPS COLLECTION BOX - PO LOBBY", "address": {"city": "LITCHFIELD", "state": "CA", "street": "721-255 CENTER RD", "postcode": "96117"}}},
{"geometry": {"type": "Point", "coordinates": [-120.24378674, 39.676013365]}, "type": "Feature", "properties": {"collection_times": [{"days": "Mon-Fri", "time": "2:30pm"}, {"days": "Sat", "time": "10:00am"}, {"days": "Sun", "time": "Closed"}], "id": "9611800000", "name": "USPS COLLECTION BOX - BLUE BOX", "address": {"city": "LOYALTON", "state": "CA", "street": "500 MAIN ST", "postcode": "96118"}}},
{"geometry": {"type": "Point", "coordinates": [-120.158868027, 39.6911090297]}, "type": "Feature", "properties": {"collection_times": [{"days": "Mon-Fri", "time": "3:30pm"}, {"days": "Sat", "time": "10:30am"}, {"days": "Sun", "time": "Closed"}], "id": "9611800002", "name": "USPS COLLECTION BOX - BLUE BOX", "address": {"city": "LOYALTON", "state": "CA", "street": "1 E HIGHWAY 395", "postcode": "96118"}}},
{"geometry": {"type": "Point", "coordinates": [-120.24378674, 39.676013365]}, "type": "Feature", "properties": {"collection_times": [{"days": "Mon-Fri", "time": "2:30pm"}, {"days": "Sat", "time": "10:00am"}, {"days": "Sun", "time": "Closed"}], "id": "9611800003", "name": "USPS COLLECTION BOX - PO LOBBY", "address": {"city": "LOYALTON", "state": "CA", "street": "500 MAIN ST", "postcode": "96118"}}},
{"geometry": {"type": "Point", "coordinates": [-120.477256435, 41.05172591]}, "type": "Feature", "properties": {"collection_times": [{"days": "Mon-Fri", "time": "11:30am"}, {"days": "Sat", "time": "9:00am"}, {"days": "Sun", "time": "Closed"}], "id": "9611900001", "name": "USPS COLLECTION BOX - PO LOBBY", "address": {"city": "MADELINE", "state": "CA", "street": "711-950 LASSEN ST", "postcode": "96119"}}},
{"geometry": {"type": "Point", "coordinates": [-119.8938044781, 38.7769957437]}, "type": "Feature", "properties": {"collection_times": [{"days": "Mon-Fri", "time": "1:15pm"}, {"days": "Sat", "time": "11:00am"}, {"days": "Sun", "time": "Closed"}], "id": "9612000000", "name": "USPS COLLECTION BOX - BLUE BOX", "address": {"city": "MARKLEEVILLE", "state": "CA", "street": "14845 STATE ROUTE 89", "postcode": "96120"}}},
{"geometry": {"type": "Point", "coordinates": [-120.3423730678, 40.1314111976]}, "type": "Feature", "properties": {"collection_times": [{"days": "Mon-Fri", "time": "4:15pm"}, {"days": "Sat", "time": "8:45am"}, {"days": "Sun", "time": "Closed"}], "id": "9612100000", "name": "USPS COLLECTION BOX - BLUE BOX", "address": {"city": "MILFORD", "state": "CA", "street": "450-075 MILFORD GRADE", "postcode": "96121"}}},
{"geometry": {"type": "Point", "coordinates": [-120.3423730678, 40.1314111976]}, "type": "Feature", "properties": {"collection_times": [{"days": "Mon-Fri", "time": "4:30pm"}, {"days": "Sat", "time": "8:45am"}, {"days": "Sun", "time": "Closed"}], "id": "9612100001", "name": "USPS COLLECTION BOX - PO LOBBY", "address": {"city": "MILFORD", "state": "CA", "street": "450-075 MILFORD GRADE", "postcode": "96121"}}},
{"geometry": {"type": "Point", "coordinates": [-120.468086295, 39.811014247]}, "type": "Feature", "properties": {"collection_times": [{"days": "Mon-Fri", "time": "5:00pm"}, {"days": "Sat", "time": "1:30pm"}, {"days": "Sun", "time": "Closed"}], "id": "9612200000", "name": "USPS COLLECTION BOX - BLUE BOX", "address": {"city": "PORTOLA", "state": "CA", "street": "96 E SIERRA ST", "postcode": "96122"}}},
{"geometry": {"type": "Point", "coordinates": [-120.4649522553, 39.8047497466]}, "type": "Feature", "properties": {"collection_times": [{"days": "Mon-Fri", "time": "4:45pm"}, {"days": "Sat", "time": "1:30pm"}, {"days": "Sun", "time": "Closed"}], "id": "9612200001", "name": "USPS COLLECTION BOX - BLUE BOX", "address": {"city": "PORTOLA", "state": "CA", "street": "440 S GULLING ST", "postcode": "96122"}}},
{"geometry": {"type": "Point", "coordinates": [-120.4713768424, 39.8043144674]}, "type": "Feature", "properties": {"collection_times": [{"days": "Mon-Fri", "time": "5:00pm"}, {"days": "Sat", "time": "1:45pm"}, {"days": "Sun", "time": "Closed"}], "id": "9612200002", "name": "USPS COLLECTION BOX - BLUE BOX", "address": {"city": "PORTOLA", "state": "CA", "street": "202 MAIN ST", "postcode": "96122"}}},
{"geometry": {"type": "Point", "coordinates": [-120.4649522553, 39.8047497466]}, "type": "Feature", "properties": {"collection_times": [{"days": "Mon-Fri", "time": "4:45pm"}, {"days": "Sat", "time": "11:00am"}, {"days": "Sun", "time": "Closed"}], "id": "9612200004", "name": "USPS COLLECTION BOX - PO LOBBY", "address": {"city": "PORTOLA", "state": "CA", "street": "440 S GULLING ST", "postcode": "96122"}}},
{"geometry": {"type": "Point", "coordinates": [-120.1636875178, 40.8646265705]}, "type": "Feature", "properties": {"collection_times": [{"days": "Mon-Fri", "time": "4:30pm"}, {"days": "Sat", "time": "10:45am"}, {"days": "Sun", "time": "Closed"}], "id": "9612300000", "name": "USPS COLLECTION BOX - PO LOBBY", "address": {"city": "RAVENDALE", "state": "CA", "street": "519-300 SCHOOLHOUSE RD", "postcode": "96123"}}},
{"geometry": {"type": "Point", "coordinates": [-120.4407092444, 39.6717811375]}, "type": "Feature", "properties": {"collection_times": [{"days": "Mon-Fri", "time": "1:30pm"}, {"days": "Sat", "time": "10:30am"}, {"days": "Sun", "time": "Closed"}], "id": "9612400000", "name": "USPS COLLECTION BOX - PO LOBBY", "address": {"city": "SATTLEY", "state": "CA", "street": "131 COUNTY RD", "postcode": "96124"}}},
{"geometry": {"type": "Point", "coordinates": [-120.4407092444, 39.6717811375]}, "type": "Feature", "properties": {"collection_times": [{"days": "Mon-Fri", "time": "1:30pm"}, {"days": "Sat", "time": "10:30am"}, {"days": "Sun", "time": "Closed"}], "id": "9612400001", "name": "USPS COLLECTION BOX - BLUE BOX", "address": {"city": "SATTLEY", "state": "CA", "street": "131 COUNTY RD", "postcode": "96124"}}},
{"geometry": {"type": "Point", "coordinates": [-120.6359935104, 39.5655982644]}, "type": "Feature", "properties": {"collection_times": [{"days": "Mon-Fri", "time": "1:00pm"}, {"days": "Sat", "time": "11:45am"}, {"days": "Sun", "time": "Closed"}], "id": "9612500000", "name": "USPS COLLECTION BOX - PO LOBBY", "address": {"city": "SIERRA CITY", "state": "CA", "street": "215 MAIN ST", "postcode": "96125"}}},
{"geometry": {"type": "Point", "coordinates": [-120.6359935104, 39.5655982644]}, "type": "Feature", "properties": {"collection_times": [{"days": "Mon-Fri", "time": "1:00pm"}, {"days": "Sat", "time": "11:45am"}, {"days": "Sun", "time": "Closed"}], "id": "9612500001", "name": "USPS COLLECTION BOX - BLUE BOX", "address": {"city": "SIERRA CITY", "state": "CA", "street": "215 MAIN ST", "postcode": "96125"}}},
{"geometry": {"type": "Point", "coordinates": [-120.3688414161, 39.5843570027]}, "type": "Feature", "properties": {"collection_times": [{"days": "Mon-Sat", "time": "11:00am"}, {"days": "Sun", "time": "Closed"}], "id": "9612600000", "name": "USPS COLLECTION BOX - PO LOBBY", "address": {"city": "SIERRAVILLE", "state": "CA", "street": "306 LINCOLN ST", "postcode": "96126"}}},
{"geometry": {"type": "Point", "coordinates": [-120.3683440648, 39.5854734121]}, "type": "Feature", "properties": {"collection_times": [{"days": "Mon-Fri", "time": "2:15pm"}, {"days": "Sat", "time": "1:15pm"}, {"days": "Sun", "time": "Closed"}], "id": "9612600001", "name": "USPS COLLECTION BOX - BLUE BOX", "address": {"city": "SIERRAVILLE", "state": "CA", "street": "306 LINCOLN ST", "postcode": "96126"}}},
{"geometry": {"type": "Point", "coordinates": [-120.6257059479, 40.4055747241]}, "type": "Feature", "properties": {"collection_times": [{"days": "Mon-Fri", "time": "4:00pm"}, {"days": "Sat", "time": "3:30pm"}, {"days": "Sun", "time": "Closed"}], "id": "9612700000", "name": "USPS COLLECTION BOX - BLUE BOX", "address": {"city": "SUSANVILLE", "state": "CA", "street": "4119 JOHNSTONVILLE RD", "postcode": "96127"}}},
{"geometry": {"type": "Point", "coordinates": [-120.6257059479, 40.4055747241]}, "type": "Feature", "properties": {"collection_times": [{"days": "Mon-Fri", "time": "4:00pm"}, {"days": "Sat", "time": "3:30pm"}, {"days": "Sun", "time": "Closed"}], "id": "9612700001", "name": "USPS COLLECTION BOX - PO LOBBY", "address": {"city": "SUSANVILLE", "state": "CA", "street": "4119 JOHNSTONVILLE RD", "postcode": "96127"}}},
{"geometry": {"type": "Point", "coordinates": [-120.6257059479, 40.4055747241]}, "type": "Feature", "properties": {"collection_times": [{"days": "Mon-Fri", "time": "4:00pm"}, {"days": "Sat", "time": "3:00pm"}, {"days": "Sun", "time": "Closed"}], "id": "9612700003", "name": "USPS COLLECTION BOX - BLUE BOX", "address": {"city": "SUSANVILLE", "state": "CA", "street": "4119 JOHNSTONVILLE RD", "postcode": "96127"}}},
{"geometry": {"type": "Point", "coordinates": [-120.424602097, 40.365135201]}, "type": "Feature", "properties": {"collection_times": [{"days": "Mon-Fri", "time": "4:15pm"}, {"days": "Sat", "time": "9:15am"}, {"days": "Sun", "time": "Closed"}], "id": "9612800000", "name": "USPS COLLECTION BOX - PO LOBBY", "address": {"city": "STANDISH", "state": "CA", "street": "718-650 US HIGHWAY 395 E", "postcode": "96128"}}},
{"geometry": {"type": "Point", "coordinates": [-120.6358839599, 40.4102018846]}, "type": "Feature", "properties": {"collection_times": [{"days": "Mon-Sat", "time": "10:30am"}, {"days": "Sun", "time": "Closed"}], "id": "9613000001", "name": "USPS COLLECTION BOX - BLUE BOX", "address": {"city": "SUSANVILLE", "state": "CA", "street": "2960 MAIN ST", "postcode": "96130"}}},
{"geometry": {"type": "Point", "coordinates": [-120.6628534303, 40.4164404508]}, "type": "Feature", "properties": {"collection_times": [{"days": "Mon-Sat", "time": "2:00pm"}, {"days": "Sun", "time": "Closed"}], "id": "9613000004", "name": "USPS COLLECTION BOX - BLUE BOX", "address": {"city": "SUSANVILLE", "state": "CA", "street": "220 S LASSEN ST", "postcode": "96130"}}},
{"geometry": {"type": "Point", "coordinates": [-120.661577665, 40.4192579045]}, "type": "Feature", "properties": {"collection_times": [{"days": "Mon-Fri", "time": "5:00pm"}, {"days": "Sat", "time": "3:00pm"}, {"days": "Sun", "time": "Closed"}], "id": "9613000005", "name": "USPS COLLECTION BOX - EXPRESS", "address": {"city": "SUSANVILLE", "state": "CA", "street": "65 N LASSEN ST", "postcode": "96130"}}},
{"geometry": {"type": "Point", "coordinates": [-120.661577665, 40.4192579045]}, "type": "Feature", "properties": {"collection_times": [{"days": "Mon-Fri", "time": "5:00pm"}, {"days": "Sat", "time": "3:00pm"}, {"days": "Sun", "time": "Closed"}], "id": "9613000006", "name": "USPS COLLECTION BOX - BLUE BOX", "address": {"city": "SUSANVILLE", "state": "CA", "street": "65 N LASSEN ST", "postcode": "96130"}}},
{"geometry": {"type": "Point", "coordinates": [-120.6332937168, 40.5365883542]}, "type": "Feature", "properties": {"collection_times": [{"days": "Mon-Sat", "time": "11:00am"}, {"days": "Sun", "time": "Closed"}], "id": "9613000007", "name": "USPS COLLECTION BOX - BLUE BOX", "address": {"city": "SUSANVILLE", "state": "CA", "street": "1 E LAKEVIEW", "postcode": "96130"}}},
{"geometry": {"type": "Point", "coordinates": [-120.5821540001, 40.3778161631]}, "type": "Feature", "properties": {"collection_times": [{"days": "Mon-Sat", "time": "11:00am"}, {"days": "Sun", "time": "Closed"}], "id": "9613000008", "name": "USPS COLLECTION BOX - BLUE BOX", "address": {"city": "SUSANVILLE", "state": "CA", "street": "472 E JOHNSTONVILLE RD", "postcode": "96130"}}},
{"geometry": {"type": "Point", "coordinates": [-120.661577665, 40.4192579045]}, "type": "Feature", "properties": {"collection_times": [{"days": "Mon-Fri", "time": "5:00pm"}, {"days": "Sat", "time": "3:00pm"}, {"days": "Sun", "time": "Closed"}], "id": "9613000010", "name": "USPS COLLECTION BOX - PO LOBBY", "address": {"city": "SUSANVILLE", "state": "CA", "street": "65 N LASSEN ST", "postcode": "96130"}}},
{"geometry": {"type": "Point", "coordinates": [-120.6332937168, 40.5365883542]}, "type": "Feature", "properties": {"collection_times": [{"days": "Mon-Fri", "time": "11:00am"}, {"days": "Sat", "time": "10:30am"}, {"days": "Sun", "time": "Closed"}], "id": "9613000028", "name": "USPS COLLECTION BOX - BLUE BOX", "address": {"city": "SUSANVILLE", "state": "CA", "street": "900 SKYLINE DR", "postcode": "96130"}}},
{"geometry": {"type": "Point", "coordinates": [-119.5188263316, 38.6108382942]}, "type": "Feature", "properties": {"collection_times": [{"days": "Mon-Fri", "time": "2:00pm"}, {"days": "Sat", "time": "9:30am"}, {"days": "Sun", "time": "Closed"}], "id": "9613300000", "name": "USPS COLLECTION BOX - PO LOBBY", "address": {"city": "TOPAZ", "state": "CA", "street": "11 TOPAZ LN", "postcode": "96133"}}},
{"geometry": {"type": "Point", "coordinates": [-119.5196953839, 38.6108055993]}, "type": "Feature", "properties": {"collection_times": [{"days": "Mon-Fri", "time": "2:00pm"}, {"days": "Sat", "time": "9:30am"}, {"days": "Sun", "time": "Closed"}], "id": "9613300001", "name": "USPS COLLECTION BOX - BLUE BOX", "address": {"city": "TOPAZ", "state": "CA", "street": "0 TOPAZ LN", "postcode": "96133"}}},
{"geometry": {"type": "Point", "coordinates": [-121.4728405254, 41.9544171029]}, "type": "Feature", "properties": {"collection_times": [{"days": "Mon-Sat", "time": "12:00pm"}, {"days": "Sun", "time": "Closed"}], "id": "9613400000", "name": "USPS COLLECTION BOX - PO LOBBY", "address": {"city": "TULELAKE", "state": "CA", "street": "541 MODOC AVE", "postcode": "96134"}}},
{"geometry": {"type": "Point", "coordinates": [-121.4728405254, 41.9544171029]}, "type": "Feature", "properties": {"collection_times": [{"days": "Mon-Sat", "time": "12:00pm"}, {"days": "Sun", "time": "Closed"}], "id": "9613400005", "name": "USPS COLLECTION BOX - BLUE BOX", "address": {"city": "TULELAKE", "state": "CA", "street": "541 MODOC AVE", "postcode": "96134"}}},
{"geometry": {"type": "Point", "coordinates": [-120.2907211385, 40.3391958508]}, "type": "Feature", "properties": {"collection_times": [{"days": "Mon-Sat", "time": "9:30am"}, {"days": "Sun", "time": "Closed"}], "id": "9613600001", "name": "USPS COLLECTION BOX - BLUE BOX", "address": {"city": "WENDEL", "state": "CA", "street": "100 MAIN ST", "postcode": "96136"}}},
{"geometry": {"type": "Point", "coordinates": [-121.0006146542, 40.3031669406]}, "type": "Feature", "properties": {"collection_times": [{"days": "Mon-Fri", "time": "4:00pm"}, {"days": "Sat", "time": "12:00pm"}, {"days": "Sun", "time": "Closed"}], "id": "9613700000", "name": "USPS COLLECTION BOX - PO LOBBY", "address": {"city": "WESTWOOD", "state": "CA", "street": "309 ASH ST", "postcode": "96137"}}},
{"geometry": {"type": "Point", "coordinates": [-121.1441971656, 40.242535077]}, "type": "Feature", "properties": {"collection_times": [{"days": "Mon-Fri", "time": "1:00pm"}, {"days": "Sat", "time": "11:30am"}, {"days": "Sun", "time": "Closed"}], "id": "9613700002", "name": "USPS COLLECTION BOX - BLUE BOX", "address": {"city": "WESTWOOD", "state": "CA", "street": "401 PENINSULA DR", "postcode": "96137"}}},
{"geometry": {"type": "Point", "coordinates": [-121.0006146542, 40.3031669406]}, "type": "Feature", "properties": {"collection_times": [{"days": "Mon-Fri", "time": "4:00pm"}, {"days": "Sat", "time": "12:00pm"}, {"days": "Sun", "time": "Closed"}], "id": "9613700003", "name": "USPS COLLECTION BOX - BLUE BOX", "address": {"city": "WESTWOOD", "state": "CA", "street": "309 ASH ST", "postcode": "96137"}}},
{"geometry": {"type": "Point", "coordinates": [-120.082140044, 39.226607368]}, "type": "Feature", "properties": {"collection_times": [{"days": "Mon-Fri", "time": "4:00pm"}, {"days": "Sat", "time": "11:00am"}, {"days": "Sun", "time": "Closed"}], "id": "9614000000", "name": "USPS COLLECTION BOX - PO LOBBY", "address": {"city": "CARNELIAN BAY", "state": "CA", "street": "5075 N LAKE BLVD", "postcode": "96140"}}},
{"geometry": {"type": "Point", "coordinates": [-120.1034844064, 39.2395522955]}, "type": "Feature", "properties": {"collection_times": [{"days": "Mon-Fri", "time": "4:00pm"}, {"days": "Sat", "time": "11:00am"}, {"days": "Sun", "time": "Closed"}], "id": "9614000001", "name": "USPS COLLECTION BOX - BLUE BOX", "address": {"city": "CARNELIAN BAY", "state": "CA", "street": "5075 N NORTH LAKE TAHOE BLVD", "postcode": "96140"}}},
{"geometry": {"type": "Point", "coordinates": [-120.1580273809, 39.0811998689]}, "type": "Feature", "properties": {"collection_times": [{"days": "Mon-Fri", "time": "3:45pm"}, {"days": "Sat", "time": "9:45am"}, {"days": "Sun", "time": "Closed"}], "id": "9614100000", "name": "USPS COLLECTION BOX - PO LOBBY", "address": {"city": "TAHOMA", "state": "CA", "street": "5375 WESTLAKE BLVD", "postcode": "96141"}}},
{"geometry": {"type": "Point", "coordinates": [-120.1580273809, 39.0811998689]}, "type": "Feature", "properties": {"collection_times": [{"days": "Mon-Fri", "time": "3:30pm"}, {"days": "Sat", "time": "1:00pm"}, {"days": "Sun", "time": "Closed"}], "id": "9614100001", "name": "USPS COLLECTION BOX - BLUE BOX", "address": {"city": "TAHOMA", "state": "CA", "street": "5375 WESTLAKE BLVD", "postcode": "96141"}}},
{"geometry": {"type": "Point", "coordinates": [-120.1206175775, 39.058267913]}, "type": "Feature", "properties": {"collection_times": [{"days": "Mon-Fri", "time": "3:45pm"}, {"days": "Sat", "time": "9:45am"}, {"days": "Sun", "time": "Closed"}], "id": "9614100002", "name": "USPS COLLECTION BOX - PO LOBBY", "address": {"city": "TAHOMA", "state": "CA", "street": "7000 WESTLAKE BLVD", "postcode": "96141"}}},
{"geometry": {"type": "Point", "coordinates": [-120.1206175775, 39.058267913]}, "type": "Feature", "properties": {"collection_times": [{"days": "Mon-Fri", "time": "3:30pm"}, {"days": "Sat", "time": "1:00pm"}, {"days": "Sun", "time": "Closed"}], "id": "9614100003", "name": "USPS COLLECTION BOX - BLUE BOX", "address": {"city": "TAHOMA", "state": "CA", "street": "7000 WESTLAKE BLVD", "postcode": "96141"}}},
{"geometry": {"type": "Point", "coordinates": [-120.0208397975, 39.2361585891]}, "type": "Feature", "properties": {"collection_times": [{"days": "Mon-Fri", "time": "4:00pm"}, {"days": "Sat", "time": "11:00am"}, {"days": "Sun", "time": "Closed"}], "id": "9614300000", "name": "USPS COLLECTION BOX - PO LOBBY", "address": {"city": "KINGS BEACH", "state": "CA", "street": "8669 SALMON AVE", "postcode": "96143"}}},
{"geometry": {"type": "Point", "coordinates": [-120.0208397975, 39.2361585891]}, "type": "Feature", "properties": {"collection_times": [{"days": "Mon-Fri", "time": "4:00pm"}, {"days": "Sat", "time": "11:00am"}, {"days": "Sun", "time": "Closed"}], "id": "9614300001", "name": "USPS COLLECTION BOX - BLUE BOX", "address": {"city": "KINGS BEACH", "state": "CA", "street": "8669 SALMON AVE", "postcode": "96143"}}},
{"geometry": {"type": "Point", "coordinates": [-120.1452608444, 39.1676414723]}, "type": "Feature", "properties": {"collection_times": [{"days": "Mon-Fri", "time": "2:30pm"}, {"days": "Sat", "time": "10:30am"}, {"days": "Sun", "time": "Closed"}], "id": "9614500002", "name": "USPS COLLECTION BOX - BLUE BOX", "address": {"city": "TAHOE CITY", "state": "CA", "street": "100 RIVER RD", "postcode": "96145"}}},
{"geometry": {"type": "Point", "coordinates": [-120.1414130556, 39.1706916067]}, "type": "Feature", "properties": {"collection_times": [{"days": "Mon-Fri", "time": "2:30pm"}, {"days": "Sat", "time": "10:30am"}, {"days": "Sun", "time": "Closed"}], "id": "9614500005", "name": "USPS COLLECTION BOX - BLUE BOX", "address": {"city": "TAHOE CITY", "state": "CA", "street": "475 NORTH LAKE BLVD", "postcode": "96145"}}},
{"geometry": {"type": "Point", "coordinates": [-120.0889682459, 39.1430738892]}, "type": "Feature", "properties": {"collection_times": [{"days": "Mon-Fri", "time": "2:30pm"}, {"days": "Sat", "time": "10:30am"}, {"days": "Sun", "time": "Closed"}], "id": "9614500006", "name": "USPS COLLECTION BOX - BLUE BOX", "address": {"city": "TAHOE CITY", "state": "CA", "street": "599 NORTHLAKE BLVD", "postcode": "96145"}}},
{"geometry": {"type": "Point", "coordinates": [-120.1054790343, 39.1915235967]}, "type": "Feature", "properties": {"collection_times": [{"days": "Mon-Fri", "time": "5:00pm"}, {"days": "Sat", "time": "2:00pm"}, {"days": "Sun", "time": "Closed"}], "id": "9614500007", "name": "USPS COLLECTION BOX - BLUE BOX", "address": {"city": "TAHOE CITY", "state": "CA", "street": "3210 NORTH LAKE BLVD", "postcode": "96145"}}},
{"geometry": {"type": "Point", "coordinates": [-120.1372110433, 39.1745472328]}, "type": "Feature", "properties": {"collection_times": [{"days": "Mon-Fri", "time": "4:45pm"}, {"days": "Sat", "time": "2:00pm"}, {"days": "Sun", "time": "Closed"}], "id": "9614500008", "name": "USPS COLLECTION BOX - PO LOBBY", "address": {"city": "TAHOE CITY", "state": "CA", "street": "950 N LAKE TAHOE BLVD STE 12", "postcode": "96145"}}},
{"geometry": {"type": "Point", "coordinates": [-120.1545009369, 39.1404286842]}, "type": "Feature", "properties": {"collection_times": [{"days": "Mon-Fri", "time": "3:30pm"}, {"days": "Sat", "time": "1:15pm"}, {"days": "Sun", "time": "Closed"}], "id": "9614500009", "name": "USPS COLLECTION BOX - BLUE BOX", "address": {"city": "TAHOE CITY", "state": "CA", "street": "1780 WEST LAKE BLVD", "postcode": "96145"}}},
{"geometry": {"type": "Point", "coordinates": [-120.1460344996, 39.1547957209]}, "type": "Feature", "properties": {"collection_times": [{"days": "Mon-Fri", "time": "3:30pm"}, {"days": "Sat", "time": "11:45am"}, {"days": "Sun", "time": "Closed"}], "id": "9614500010", "name": "USPS COLLECTION BOX - BLUE BOX", "address": {"city": "TAHOE CITY", "state": "CA", "street": "740 NORTH LAKE BLVD", "postcode": "96145"}}},
{"geometry": {"type": "Point", "coordinates": [-120.1372110433, 39.1745472328]}, "type": "Feature", "properties": {"collection_times": [{"days": "Mon-Fri", "time": "4:45pm"}, {"days": "Sat", "time": "2:00pm"}, {"days": "Sun", "time": "Closed"}], "id": "9614500011", "name": "USPS COLLECTION BOX - BLUE BOX", "address": {"city": "TAHOE CITY", "state": "CA", "street": "950 N LAKE TAHOE BLVD STE 12", "postcode": "96145"}}},
{"geometry": {"type": "Point", "coordinates": [-120.1372110433, 39.1745472328]}, "type": "Feature", "properties": {"collection_times": [{"days": "Mon-Fri", "time": "4:45pm"}, {"days": "Sat", "time": "2:00pm"}, {"days": "Sun", "time": "Closed"}], "id": "9614500012", "name": "USPS COLLECTION BOX - PO LOBBY", "address": {"city": "TAHOE CITY", "state": "CA", "street": "950 N LAKE TAHOE BLVD STE 12", "postcode": "96145"}}},
{"geometry": {"type": "Point", "coordinates": [-120.1373347914, 39.1743687205]}, "type": "Feature", "properties": {"collection_times": [{"days": "Mon-Fri", "time": "4:45pm"}, {"days": "Sat", "time": "2:00pm"}, {"days": "Sun", "time": "Closed"}], "id": "9614500013", "name": "USPS COLLECTION BOX - BLUE BOX", "address": {"city": "TAHOE CITY", "state": "CA", "street": "950 NORTH LAKE #12 BLVD", "postcode": "96145"}}},
{"geometry": {"type": "Point", "coordinates": [-120.228054637, 39.1994376719]}, "type": "Feature", "properties": {"collection_times": [{"days": "Mon-Fri", "time": "3:00pm"}, {"days": "Sat", "time": "11:00am"}, {"days": "Sun", "time": "Closed"}], "id": "9614600000", "name": "USPS COLLECTION BOX - PO LOBBY", "address": {"city": "ALPINE MEADOWS", "state": "CA", "street": "1600 SQUAW VALLEY RD", "postcode": "96146"}}},
{"geometry": {"type": "Point", "coordinates": [-120.228054637, 39.1994376719]}, "type": "Feature", "properties": {"collection_times": [{"days": "Mon-Fri", "time": "3:00pm"}, {"days": "Sat", "time": "11:00am"}, {"days": "Sun", "time": "Closed"}], "id": "9614600002", "name": "USPS COLLECTION BOX - BLUE BOX", "address": {"city": "ALPINE MEADOWS", "state": "CA", "street": "1600 SQUAW VALLEY RD", "postcode": "96146"}}},
{"geometry": {"type": "Point", "coordinates": [-120.1962854135, 39.186935533]}, "type": "Feature", "properties": {"collection_times": [{"days": "Mon-Fri", "time": "3:00pm"}, {"days": "Sat", "time": "11:15am"}, {"days": "Sun", "time": "Closed"}], "id": "9614600003", "name": "USPS COLLECTION BOX - BLUE BOX", "address": {"city": "ALPINE MEADOWS", "state": "CA", "street": "150 ALPINE MEADOWS RD", "postcode": "96146"}}},
{"geometry": {"type": "Point", "coordinates": [-120.0481972731, 39.2396281098]}, "type": "Feature", "properties": {"collection_times": [{"days": "Mon-Fri", "time": "4:30pm"}, {"days": "Sat", "time": "10:00am"}, {"days": "Sun", "time": "Closed"}], "id": "9614800000", "name": "USPS COLLECTION BOX - BLUE BOX", "address": {"city": "TAHOE VISTA", "state": "CA", "street": "7005 N LAKE BLVD", "postcode": "96148"}}},
{"geometry": {"type": "Point", "coordinates": [-120.0481972731, 39.2396281098]}, "type": "Feature", "properties": {"collection_times": [{"days": "Mon-Fri", "time": "4:30pm"}, {"days": "Sat", "time": "10:00am"}, {"days": "Sun", "time": "Closed"}], "id": "9614800001", "name": "USPS COLLECTION BOX - PO LOBBY", "address": {"city": "TAHOE VISTA", "state": "CA", "street": "7005 N LAKE BLVD", "postcode": "96148"}}},
{"geometry": {"type": "Point", "coordinates": [-120.0050683775, 38.9306131674]}, "type": "Feature", "properties": {"collection_times": [{"days": "Mon-Fri", "time": "1:30pm"}, {"days": "Sat", "time": "10:00am"}, {"days": "Sun", "time": "Closed"}], "id": "9615000004", "name": "USPS COLLECTION BOX - BLUE BOX", "address": {"city": "S LAKE TAHOE", "state": "CA", "street": "591 TAHOE KEYS BLVD", "postcode": "96150"}}},
{"geometry": {"type": "Point", "coordinates": [-120.0059477079, 38.9147975616]}, "type": "Feature", "properties": {"collection_times": [{"days": "Mon-Fri", "time": "5:00pm"}, {"days": "Sat", "time": "10:00am"}, {"days": "Sun", "time": "Closed"}], "id": "9615000010", "name": "USPS COLLECTION BOX - BLUE BOX", "address": {"city": "S LAKE TAHOE", "state": "CA", "street": "950 EMERALD BAY RD", "postcode": "96150"}}},
{"geometry": {"type": "Point", "coordinates": [-120.0163912875, 38.8542376269]}, "type": "Feature", "properties": {"collection_times": [{"days": "Mon-Fri", "time": "4:45pm"}, {"days": "Sat", "time": "10:00am"}, {"days": "Sun", "time": "Closed"}], "id": "9615000011", "name": "USPS COLLECTION BOX - BLUE BOX", "address": {"city": "S LAKE TAHOE", "state": "CA", "street": "1285 APACHE AVE", "postcode": "96150"}}},
{"geometry": {"type": "Point", "coordinates": [-119.9705861008, 38.9334329631]}, "type": "Feature", "properties": {"collection_times": [{"days": "Mon-Sat", "time": "9:30am"}, {"days": "Sun", "time": "Closed"}], "id": "9615000021", "name": "USPS COLLECTION BOX - BLUE BOX", "address": {"city": "S LAKE TAHOE", "state": "CA", "street": "1354 JOHNSON BLVD", "postcode": "96150"}}},
{"geometry": {"type": "Point", "coordinates": [-119.9734187924, 38.933907003]}, "type": "Feature", "properties": {"collection_times": [{"days": "Mon-Sat", "time": "5:00pm"}, {"days": "Sun", "time": "Closed"}], "id": "9615000023", "name": "USPS COLLECTION BOX - BLUE BOX", "address": {"city": "S LAKE TAHOE", "state": "CA", "street": "1046 AL TAHOE BLVD", "postcode": "96150"}}},
{"geometry": {"type": "Point", "coordinates": [-119.9716568845, 38.926818235]}, "type": "Feature", "properties": {"collection_times": [{"days": "Mon-Fri", "time": "10:00am"}, {"days": "Sat-Sun", "time": "Closed"}], "id": "9615000024", "name": "USPS COLLECTION BOX - BLUE BOX", "address": {"city": "S LAKE TAHOE", "state": "CA", "street": "1 COLLEGE DR", "postcode": "96150"}}},
{"geometry": {"type": "Point", "coordinates": [-119.9857352791, 38.9256021532]}, "type": "Feature", "properties": {"collection_times": [{"days": "Mon-Fri", "time": "12:00pm"}, {"days": "Sat", "time": "10:30am"}, {"days": "Sun", "time": "Closed"}], "id": "9615000028", "name": "USPS COLLECTION BOX - BLUE BOX", "address": {"city": "S LAKE TAHOE", "state": "CA", "street": "2568 LAKE TAHOE BLVD", "postcode": "96150"}}},
{"geometry": {"type": "Point", "coordinates": [-120.0059477079, 38.9147975616]}, "type": "Feature", "properties": {"collection_times": [{"days": "Mon-Fri", "time": "5:00pm"}, {"days": "Sat", "time": "10:00am"}, {"days": "Sun", "time": "Closed"}], "id": "9615000031", "name": "USPS COLLECTION BOX - BLUE BOX", "address": {"city": "S LAKE TAHOE", "state": "CA", "street": "950 EMERALD BAY RD", "postcode": "96150"}}},
{"geometry": {"type": "Point", "coordinates": [-119.9734187924, 38.933907003]}, "type": "Feature", "properties": {"collection_times": [{"days": "Mon-Sat", "time": "5:00pm"}, {"days": "Sun", "time": "Closed"}], "id": "9615000032", "name": "USPS COLLECTION BOX - BLUE BOX", "address": {"city": "S LAKE TAHOE", "state": "CA", "street": "1046 AL TAHOE BLVD", "postcode": "96150"}}},
{"geometry": {"type": "Point", "coordinates": [-119.9652487958, 38.9458307515]}, "type": "Feature", "properties": {"collection_times": [{"days": "Mon-Sat", "time": "12:00pm"}, {"days": "Sun", "time": "Closed"}], "id": "9615000033", "name": "USPS COLLECTION BOX - BLUE BOX", "address": {"city": "S LAKE TAHOE", "state": "CA", "street": "3443 LAKE TAHOE BLVD", "postcode": "96150"}}},
{"geometry": {"type": "Point", "coordinates": [-119.9695488516, 38.9457160045]}, "type": "Feature", "properties": {"collection_times": [{"days": "Mon-Sat", "time": "12:00pm"}, {"days": "Sun", "time": "Closed"}], "id": "9615000034", "name": "USPS COLLECTION BOX - BLUE BOX", "address": {"city": "S LAKE TAHOE", "state": "CA", "street": "3351 LAKE TAHOE BLVD", "postcode": "96150"}}},
{"geometry": {"type": "Point", "coordinates": [-119.9734187924, 38.933907003]}, "type": "Feature", "properties": {"collection_times": [{"days": "Mon-Sat", "time": "5:00pm"}, {"days": "Sun", "time": "Closed"}], "id": "9615000035", "name": "USPS COLLECTION BOX - PO LOBBY", "address": {"city": "S LAKE TAHOE", "state": "CA", "street": "1046 AL TAHOE BLVD", "postcode": "96150"}}},
{"geometry": {"type": "Point", "coordinates": [-120.0059477079, 38.9147975616]}, "type": "Feature", "properties": {"collection_times": [{"days": "Mon-Fri", "time": "5:00pm"}, {"days": "Sat", "time": "10:00am"}, {"days": "Sun", "time": "Closed"}], "id": "9615000036", "name": "USPS COLLECTION BOX - PO LOBBY", "address": {"city": "S LAKE TAHOE", "state": "CA", "street": "950 EMERALD BAY RD", "postcode": "96150"}}},
{"geometry": {"type": "Point", "coordinates": [-120.0163912875, 38.8542376269]}, "type": "Feature", "properties": {"collection_times": [{"days": "Mon-Fri", "time": "4:45pm"}, {"days": "Sat", "time": "10:00am"}, {"days": "Sun", "time": "Closed"}], "id": "9615000038", "name": "USPS COLLECTION BOX - PO LOBBY", "address": {"city": "S LAKE TAHOE", "state": "CA", "street": "1285 APACHE AVE", "postcode": "96150"}}},
{"geometry": {"type": "Point", "coordinates": [-120.0163912875, 38.8542376269]}, "type": "Feature", "properties": {"collection_times": [{"days": "Mon-Fri", "time": "4:45pm"}, {"days": "Sat", "time": "10:00am"}, {"days": "Sun", "time": "Closed"}], "id": "9615000039", "name": "USPS COLLECTION BOX - BLUE BOX", "address": {"city": "S LAKE TAHOE", "state": "CA", "street": "1285 APACHE AVE", "postcode": "96150"}}},
{"geometry": {"type": "Point", "coordinates": [-119.9984435808, 38.8939586473]}, "type": "Feature", "properties": {"collection_times": [{"days": "Mon-Sat", "time": "10:00am"}, {"days": "Sun", "time": "Closed"}], "id": "9615000040", "name": "USPS COLLECTION BOX - BLUE BOX", "address": {"city": "S LAKE TAHOE", "state": "CA", "street": "1901 AIRPORT RD", "postcode": "96150"}}},
{"geometry": {"type": "Point", "coordinates": [-119.9442808481, 38.9558385844]}, "type": "Feature", "properties": {"collection_times": [{"days": "Mon-Sat", "time": "10:00am"}, {"days": "Sun", "time": "Closed"}], "id": "9615000041", "name": "USPS COLLECTION BOX - BLUE BOX", "address": {"city": "S LAKE TAHOE", "state": "CA", "street": "4039 LAKE TAHOE BLVD", "postcode": "96150"}}},
{"geometry": {"type": "Point", "coordinates": [-120.0018874008, 38.9148798132]}, "type": "Feature", "properties": {"collection_times": [{"days": "Mon-Fri", "time": "1:30pm"}, {"days": "Sat", "time": "10:00am"}, {"days": "Sun", "time": "Closed"}], "id": "9615000042", "name": "USPS COLLECTION BOX - BLUE BOX", "address": {"city": "S LAKE TAHOE", "state": "CA", "street": "2074 LAKE TAHOE BLVD", "postcode": "96150"}}},
{"geometry": {"type": "Point", "coordinates": [-120.2037727649, 39.3261309486]}, "type": "Feature", "properties": {"collection_times": [{"days": "Mon-Sat", "time": "10:00am"}, {"days": "Sun", "time": "Closed"}], "id": "9616100003", "name": "USPS COLLECTION BOX - BLUE BOX", "address": {"city": "TRUCKEE", "state": "CA", "street": "11012 DONNER PASS RD", "postcode": "96161"}}},
{"geometry": {"type": "Point", "coordinates": [-120.2088163819, 39.3261590995]}, "type": "Feature", "properties": {"collection_times": [{"days": "Mon-Fri", "time": "11:00am"}, {"days": "Sat", "time": "10:00am"}, {"days": "Sun", "time": "Closed"}], "id": "9616100005", "name": "USPS COLLECTION BOX - BLUE BOX", "address": {"city": "TRUCKEE", "state": "CA", "street": "11260 DONNER PASS RD", "postcode": "96161"}}},
{"geometry": {"type": "Point", "coordinates": [-120.2234158078, 39.3254515859]}, "type": "Feature", "properties": {"collection_times": [{"days": "Mon-Fri", "time": "2:00pm"}, {"days": "Sat", "time": "10:00am"}, {"days": "Sun", "time": "Closed"}], "id": "9616100007", "name": "USPS COLLECTION BOX - BLUE BOX", "address": {"city": "TRUCKEE", "state": "CA", "street": "12030 DONNER PASS RD", "postcode": "96161"}}},
{"geometry": {"type": "Point", "coordinates": [-120.2131466651, 39.3260590437]}, "type": "Feature", "properties": {"collection_times": [{"days": "Mon-Sat", "time": "10:00am"}, {"days": "Sun", "time": "Closed"}], "id": "9616100009", "name": "USPS COLLECTION BOX - BLUE BOX", "address": {"city": "TRUCKEE", "state": "CA", "street": "11479 DONNER PASS RD", "postcode": "96161"}}},
{"geometry": {"type": "Point", "coordinates": [-120.2107436396, 39.3260574109]}, "type": "Feature", "properties": {"collection_times": [{"days": "Mon-Sat", "time": "10:00am"}, {"days": "Sun", "time": "Closed"}], "id": "9616100010", "name": "USPS COLLECTION BOX - BLUE BOX", "address": {"city": "TRUCKEE", "state": "CA", "street": "11357 DONNER PASS RD", "postcode": "96161"}}},
{"geometry": {"type": "Point", "coordinates": [-120.298473973, 39.3231423974]}, "type": "Feature", "properties": {"collection_times": [{"days": "Mon-Sat", "time": "10:00am"}, {"days": "Sun", "time": "Closed"}], "id": "9616100012", "name": "USPS COLLECTION BOX - BLUE BOX", "address": {"city": "TRUCKEE", "state": "CA", "street": "15695 DONNER PASS RD", "postcode": "96161"}}},
{"geometry": {"type": "Point", "coordinates": [-120.1941532227, 39.3312511809]}, "type": "Feature", "properties": {"collection_times": [{"days": "Mon-Fri", "time": "12:00pm"}, {"days": "Sat", "time": "10:00am"}, {"days": "Sun", "time": "Closed"}], "id": "9616100018", "name": "USPS COLLECTION BOX - BLUE BOX", "address": {"city": "TRUCKEE", "state": "CA", "street": "10181 TRUCKEE AIRPORT RD", "postcode": "96161"}}},
{"geometry": {"type": "Point", "coordinates": [-120.1484323574, 39.3158295589]}, "type": "Feature", "properties": {"collection_times": [{"days": "Mon-Sat", "time": "12:00pm"}, {"days": "Sun", "time": "Closed"}], "id": "9616100019", "name": "USPS COLLECTION BOX - BLUE BOX", "address": {"city": "TRUCKEE", "state": "CA", "street": "12242 BUSINESS PARK DR", "postcode": "96161"}}},
{"geometry": {"type": "Point", "coordinates": [-120.1843981356, 39.3288147224]}, "type": "Feature", "properties": {"collection_times": [{"days": "Mon-Fri", "time": "5:00pm"}, {"days": "Sat", "time": "2:00pm"}, {"days": "Sun", "time": "Closed"}], "id": "9616100025", "name": "USPS COLLECTION BOX - PO LOBBY", "address": {"city": "TRUCKEE", "state": "CA", "street": "10050 BRIDGE ST", "postcode": "96161"}}},
{"geometry": {"type": "Point", "coordinates": [-120.1843981356, 39.3288147224]}, "type": "Feature", "properties": {"collection_times": [{"days": "Mon-Fri", "time": "4:45pm"}, {"days": "Sat", "time": "2:00pm"}, {"days": "Sun", "time": "Closed"}], "id": "9616100028", "name": "USPS COLLECTION BOX - BLUE BOX", "address": {"city": "TRUCKEE", "state": "CA", "street": "10050 BRIDGE ST", "postcode": "96161"}}},
{"geometry": {"type": "Point", "coordinates": [-120.2098601316, 39.3208829934]}, "type": "Feature", "properties": {"collection_times": [{"days": "Mon-Fri", "time": "4:30pm"}, {"days": "Sat", "time": "2:00pm"}, {"days": "Sun", "time": "Closed"}], "id": "9616100030", "name": "USPS COLLECTION BOX - BLUE BOX", "address": {"city": "TRUCKEE", "state": "CA", "street": "11415 DEERFIELD DR", "postcode": "96161"}}},
{"geometry": {"type": "Point", "coordinates": [-120.2098601316, 39.3208829934]}, "type": "Feature", "properties": {"collection_times": [{"days": "Mon-Fri", "time": "4:30pm"}, {"days": "Sat", "time": "2:00pm"}, {"days": "Sun", "time": "Closed"}], "id": "9616100031", "name": "USPS COLLECTION BOX - PO LOBBY", "address": {"city": "TRUCKEE", "state": "CA", "street": "11415 DEERFIELD DR", "postcode": "96161"}}},
{"geometry": {"type": "Point", "coordinates": [-120.2098601316, 39.3208829934]}, "type": "Feature", "properties": {"collection_times": [{"days": "Mon-Fri", "time": "4:30pm"}, {"days": "Sat", "time": "2:00pm"}, {"days": "Sun", "time": "Closed"}], "id": "9616100033", "name": "USPS COLLECTION BOX - PO LOBBY", "address": {"city": "TRUCKEE", "state": "CA", "street": "11415 DEERFIELD DR", "postcode": "96161"}}},
{"geometry": {"type": "Point", "coordinates": [-120.1085163263, 39.3547467459]}, "type": "Feature", "properties": {"collection_times": [{"days": "Mon-Sat", "time": "10:00am"}, {"days": "Sun", "time": "Closed"}], "id": "9616100034", "name": "USPS COLLECTION BOX - BLUE BOX", "address": {"city": "TRUCKEE", "state": "CA", "street": "10095 DORCHESTER DR", "postcode": "96161"}}},
{"geometry": {"type": "Point", "coordinates": [-120.1606162963, 39.3267667556]}, "type": "Feature", "properties": {"collection_times": [{"days": "Mon-Sat", "time": "10:00am"}, {"days": "Sun", "time": "Closed"}], "id": "9616100035", "name": "USPS COLLECTION BOX - BLUE BOX", "address": {"city": "TRUCKEE", "state": "CA", "street": "10040 ESTATES DR", "postcode": "96161"}}},
{"geometry": {"type": "Point", "coordinates": [-120.2319870065, 39.3528445259]}, "type": "Feature", "properties": {"collection_times": [{"days": "Mon-Sat", "time": "10:00am"}, {"days": "Sun", "time": "Closed"}], "id": "9616100036", "name": "USPS COLLECTION BOX - BLUE BOX", "address": {"city": "TRUCKEE", "state": "CA", "street": "12716 NORTHWOODS BLVD", "postcode": "96161"}}},
{"geometry": {"type": "Point", "coordinates": [-120.2169868474, 39.3435159157]}, "type": "Feature", "properties": {"collection_times": [{"days": "Mon-Sat", "time": "10:00am"}, {"days": "Sun", "time": "Closed"}], "id": "9616100037", "name": "USPS COLLECTION BOX - BLUE BOX", "address": {"city": "TRUCKEE", "state": "CA", "street": "11509 NORTHWOODS BLVD", "postcode": "96161"}}},
{"geometry": {"type": "Point", "coordinates": [-120.2579262498, 39.3288174856]}, "type": "Feature", "properties": {"collection_times": [{"days": "Mon-Sat", "time": "10:00am"}, {"days": "Sun", "time": "Closed"}], "id": "9616100040", "name": "USPS COLLECTION BOX - BLUE BOX", "address": {"city": "TRUCKEE", "state": "CA", "street": "13710 DONNER PASS RD", "postcode": "96161"}}},
{"geometry": {"type": "Point", "coordinates": [-120.2355299036, 39.3579775608]}, "type": "Feature", "properties": {"collection_times": [{"days": "Mon-Sat", "time": "11:00am"}, {"days": "Sun", "time": "Closed"}], "id": "9616100041", "name": "USPS COLLECTION BOX - BLUE BOX", "address": {"city": "TRUCKEE", "state": "CA", "street": "14800 HANSEL AVE", "postcode": "96161"}}},
{"geometry": {"type": "Point", "coordinates": [-120.2157330576, 39.3412693457]}, "type": "Feature", "properties": {"collection_times": [{"days": "Mon-Sat", "time": "11:00am"}, {"days": "Sun", "time": "Closed"}], "id": "9616100042", "name": "USPS COLLECTION BOX - BLUE BOX", "address": {"city": "TRUCKEE", "state": "CA", "street": "17400 NORTHWOODS BLVD", "postcode": "96161"}}},
{"geometry": {"type": "Point", "coordinates": [-120.2272369771, 39.36783291]}, "type": "Feature", "properties": {"collection_times": [{"days": "Mon-Sat", "time": "10:00am"}, {"days": "Sun", "time": "Closed"}], "id": "9616100043", "name": "USPS COLLECTION BOX - BLUE BOX", "address": {"city": "TRUCKEE", "state": "CA", "street": "14903 ALDER CREEK RD", "postcode": "96161"}}},
{"geometry": {"type": "Point", "coordinates": [-120.1941532227, 39.3312511809]}, "type": "Feature", "properties": {"collection_times": [{"days": "Mon-Sat", "time": "10:00am"}, {"days": "Sun", "time": "Closed"}], "id": "9616100047", "name": "USPS COLLECTION BOX - BLUE BOX", "address": {"city": "TRUCKEE", "state": "CA", "street": "700 NORTHSTAR DR", "postcode": "96161"}}},
{"geometry": {"type": "Point", "coordinates": [-120.2027862874, 39.3261679579]}, "type": "Feature", "properties": {"collection_times": [{"days": "Mon-Sat", "time": "10:00am"}, {"days": "Sun", "time": "Closed"}], "id": "9616100048", "name": "USPS COLLECTION BOX - BLUE BOX", "address": {"city": "TRUCKEE", "state": "CA", "street": "10956 DONNER PASS RD", "postcode": "96161"}}},
{"geometry": {"type": "Point", "coordinates": [-120.1870754509, 39.3327122437]}, "type": "Feature", "properties": {"collection_times": [{"days": "Mon-Sat", "time": "11:00am"}, {"days": "Sun", "time": "Closed"}], "id": "9616100050", "name": "USPS COLLECTION BOX - BLUE BOX", "address": {"city": "TRUCKEE", "state": "CA", "street": "10875 PIONEER TRL", "postcode": "96161"}}},
{"geometry": {"type": "Point", "coordinates": [-120.1843981356, 39.3288147224]}, "type": "Feature", "properties": {"collection_times": [{"days": "Mon-Fri", "time": "4:45pm"}, {"days": "Sat", "time": "2:00pm"}, {"days": "Sun", "time": "Closed"}], "id": "9616100051", "name": "USPS COLLECTION BOX - BLUE BOX", "address": {"city": "TRUCKEE", "state": "CA", "street": "10050 BRIDGE ST", "postcode": "96161"}}}
]}
