{"type": "FeatureCollection", "features": [
{"geometry": {"type": "Point", "coordinates": [-82.6123813894, 40.0889464756]}, "type": "Feature", "properties": {"collection_times": [{"days": "Mon-Fri", "time": "4:15pm"}, {"days": "Sat", "time": "9:45am"}, {"days": "Sun", "time": "Closed"}], "id": "4300100001", "name": "USPS COLLECTION BOX - PO LOBBY", "address": {"city": "ALEXANDRIA", "state": "OH", "street": "2 W MAIN ST", "postcode": "43001"}}},
{"geometry": {"type": "Point", "coordinates": [-82.6123813894, 40.0889464756]}, "type": "Feature", "properties": {"collection_times": [{"days": "Mon-Fri", "time": "4:15pm"}, {"days": "Sat", "time": "9:45am"}, {"days": "Sun", "time": "Closed"}], "id": "4300100002", "name": "USPS COLLECTION BOX - BLUE BOX", "address": {"city": "ALEXANDRIA", "state": "OH", "street": "2 W MAIN ST", "postcode": "43001"}}},
{"geometry": {"type": "Point", "coordinates": [-83.1803010996, 40.0749383632]}, "type": "Feature", "properties": {"collection_times": [{"days": "Mon-Fri", "time": "4:00pm"}, {"days": "Sat", "time": "9:45am"}, {"days": "Sun", "time": "Closed"}], "id": "4300200002", "name": "USPS COLLECTION BOX - BLUE BOX", "address": {"city": "AMLIN", "state": "OH", "street": "6931 RINGS RD", "postcode": "43002"}}},
{"geometry": {"type": "Point", "coordinates": [-83.1803010996, 40.0749383632]}, "type": "Feature", "properties": {"collection_times": [{"days": "Mon-Fri", "time": "4:00pm"}, {"days": "Sat", "time": "9:45am"}, {"days": "Sun", "time": "Closed"}], "id": "4300200003", "name": "USPS COLLECTION BOX - PO LOBBY", "address": {"city": "AMLIN", "state": "OH", "street": "6931 RINGS RD", "postcode": "43002"}}},
{"geometry": {"type": "Point", "coordinates": [-82.954495488, 40.4090457079]}, "type": "Feature", "properties": {"collection_times": [{"days": "Mon-Fri", "time": "4:15pm"}, {"days": "Sat", "time": "10:45am"}, {"days": "Sun", "time": "Closed"}], "id": "4300300000", "name": "USPS COLLECTION BOX - BLUE BOX", "address": {"city": "ASHLEY", "state": "OH", "street": "100 E HIGH ST", "postcode": "43003"}}},
{"geometry": {"type": "Point", "coordinates": [-82.959079597, 40.4107784984]}, "type": "Feature", "properties": {"collection_times": [{"days": "Mon-Sat", "time": "10:00am"}, {"days": "Sun", "time": "Closed"}], "id": "4300300001", "name": "USPS COLLECTION BOX - BLUE BOX", "address": {"city": "ASHLEY", "state": "OH", "street": "200 CENTER ST", "postcode": "43003"}}},
{"geometry": {"type": "Point", "coordinates": [-82.954495488, 40.4090457079]}, "type": "Feature", "properties": {"collection_times": [{"days": "Mon-Fri", "time": "4:15pm"}, {"days": "Sat", "time": "10:45am"}, {"days": "Sun", "time": "Closed"}], "id": "4300300002", "name": "USPS COLLECTION BOX - PO LOBBY", "address": {"city": "ASHLEY", "state": "OH", "street": "100 E HIGH ST", "postcode": "43003"}}},
{"geometry": {"type": "Point", "coordinates": [-82.8169386536, 39.9856114612]}, "type": "Feature", "properties": {"collection_times": [{"days": "Mon-Fri", "time": "4:30pm"}, {"days": "Sat", "time": "1:45pm"}, {"days": "Sun", "time": "Closed"}], "id": "4300400005", "name": "USPS COLLECTION BOX - PO LOBBY", "address": {"city": "BLACKLICK", "state": "OH", "street": "450 N BRICE RD", "postcode": "43004"}}},
{"geometry": {"type": "Point", "coordinates": [-82.8169386536, 39.9856114612]}, "type": "Feature", "properties": {"collection_times": [{"days": "Mon-Fri", "time": "4:30pm"}, {"days": "Sat", "time": "1:45pm"}, {"days": "Sun", "time": "Closed"}], "id": "4300400006", "name": "USPS COLLECTION BOX - BLUE BOX", "address": {"city": "BLACKLICK", "state": "OH", "street": "450 N BRICE RD", "postcode": "43004"}}},
{"geometry": {"type": "Point", "coordinates": [-82.2833483441, 40.2846718375]}, "type": "Feature", "properties": {"collection_times": [{"days": "Mon-Fri", "time": "12:30pm"}, {"days": "Sat", "time": "11:45am"}, {"days": "Sun", "time": "Closed"}], "id": "4300500000", "name": "USPS COLLECTION BOX - BLUE BOX", "address": {"city": "BLADENSBURG", "state": "OH", "street": "25941 NEW GUILFORD RD", "postcode": "43005"}}},
{"geometry": {"type": "Point", "coordinates": [-82.2833483441, 40.2846718375]}, "type": "Feature", "properties": {"collection_times": [{"days": "Mon-Fri", "time": "12:30pm"}, {"days": "Sat", "time": "11:45am"}, {"days": "Sun", "time": "Closed"}], "id": "4300500001", "name": "USPS COLLECTION BOX - PO LOBBY", "address": {"city": "BLADENSBURG", "state": "OH", "street": "25941 NEW GUILFORD RD", "postcode": "43005"}}},
{"geometry": {"type": "Point", "coordinates": [-82.1924273376, 40.4687061599]}, "type": "Feature", "properties": {"collection_times": [{"days": "Mon-Fri", "time": "4:15pm"}, {"days": "Sat", "time": "10:15am"}, {"days": "Sun", "time": "Closed"}], "id": "4300600000", "name": "USPS COLLECTION BOX - BLUE BOX", "address": {"city": "BRINKHAVEN", "state": "OH", "street": "204 HIGH ST", "postcode": "43006"}}},
{"geometry": {"type": "Point", "coordinates": [-82.1924273376, 40.4687061599]}, "type": "Feature", "properties": {"collection_times": [{"days": "Mon-Fri", "time": "4:15pm"}, {"days": "Sat", "time": "10:15am"}, {"days": "Sun", "time": "Closed"}], "id": "4300600001", "name": "USPS COLLECTION BOX - PO LOBBY", "address": {"city": "BRINKHAVEN", "state": "OH", "street": "204 HIGH ST", "postcode": "43006"}}},
{"geometry": {"type": "Point", "coordinates": [-82.5046071993, 39.9270134095]}, "type": "Feature", "properties": {"collection_times": [{"days": "Mon-Fri", "time": "4:00pm"}, {"days": "Sat", "time": "10:45am"}, {"days": "Sun", "time": "Closed"}], "id": "4300800000", "name": "USPS COLLECTION BOX - BLUE BOX", "address": {"city": "BUCKEYE LAKE", "state": "OH", "street": "4717 WALNUT RD SE", "postcode": "43008"}}},
{"geometry": {"type": "Point", "coordinates": [-82.5046071993, 39.9270134095]}, "type": "Feature", "properties": {"collection_times": [{"days": "Mon-Fri", "time": "4:00pm"}, {"days": "Sat", "time": "10:45am"}, {"days": "Sun", "time": "Closed"}], "id": "4300800001", "name": "USPS COLLECTION BOX - PO LOBBY", "address": {"city": "BUCKEYE LAKE", "state": "OH", "street": "4717 WALNUT RD SE", "postcode": "43008"}}},
{"geometry": {"type": "Point", "coordinates": [-83.6281551399, 40.1712134785]}, "type": "Feature", "properties": {"collection_times": [{"days": "Mon-Fri", "time": "3:45pm"}, {"days": "Sat", "time": "10:45am"}, {"days": "Sun", "time": "Closed"}], "id": "4300900000", "name": "USPS COLLECTION BOX - BLUE BOX", "address": {"city": "CABLE", "state": "OH", "street": "3582 MAIN ST", "postcode": "43009"}}},
{"geometry": {"type": "Point", "coordinates": [-83.6281551399, 40.1712134785]}, "type": "Feature", "properties": {"collection_times": [{"days": "Mon-Fri", "time": "3:45pm"}, {"days": "Sat", "time": "10:45am"}, {"days": "Sun", "time": "Closed"}], "id": "4300900001", "name": "USPS COLLECTION BOX - PO LOBBY", "address": {"city": "CABLE", "state": "OH", "street": "3582 MAIN ST", "postcode": "43009"}}},
{"geometry": {"type": "Point", "coordinates": [-83.6217375774, 39.9990770831]}, "type": "Feature", "properties": {"collection_times": [{"days": "Mon-Fri", "time": "12:30pm"}, {"days": "Sat", "time": "10:45am"}, {"days": "Sun", "time": "Closed"}], "id": "4301000000", "name": "USPS COLLECTION BOX - BLUE BOX", "address": {"city": "CATAWBA", "state": "OH", "street": "7 W PLEASANT ST", "postcode": "43010"}}},
{"geometry": {"type": "Point", "coordinates": [-83.6217375774, 39.9990770831]}, "type": "Feature", "properties": {"collection_times": [{"days": "Mon-Fri", "time": "12:30pm"}, {"days": "Sat", "time": "10:45am"}, {"days": "Sun", "time": "Closed"}], "id": "4301000001", "name": "USPS COLLECTION BOX - PO LOBBY", "address": {"city": "CATAWBA", "state": "OH", "street": "7 W PLEASANT ST", "postcode": "43010"}}},
{"geometry": {"type": "Point", "coordinates": [-82.6946014917, 40.3045348586]}, "type": "Feature", "properties": {"collection_times": [{"days": "Mon-Fri", "time": "4:30pm"}, {"days": "Sat", "time": "11:45am"}, {"days": "Sun", "time": "Closed"}], "id": "4301100000", "name": "USPS COLLECTION BOX - BLUE BOX", "address": {"city": "CENTERBURG", "state": "OH", "street": "55 N CLAYTON ST", "postcode": "43011"}}},
{"geometry": {"type": "Point", "coordinates": [-82.6946014917, 40.3045348586]}, "type": "Feature", "properties": {"collection_times": [{"days": "Mon-Fri", "time": "4:30pm"}, {"days": "Sat", "time": "11:45am"}, {"days": "Sun", "time": "Closed"}], "id": "4301100001", "name": "USPS COLLECTION BOX - PO LOBBY", "address": {"city": "CENTERBURG", "state": "OH", "street": "55 N CLAYTON ST", "postcode": "43011"}}},
{"geometry": {"type": "Point", "coordinates": [-82.6870024409, 40.2387587649]}, "type": "Feature", "properties": {"collection_times": [{"days": "Mon-Fri", "time": "11:30am"}, {"days": "Sat", "time": "9:45am"}, {"days": "Sun", "time": "Closed"}], "id": "4301300000", "name": "USPS COLLECTION BOX - BLUE BOX", "address": {"city": "CROTON", "state": "OH", "street": "14 S HIGH ST", "postcode": "43013"}}},
{"geometry": {"type": "Point", "coordinates": [-82.6870024409, 40.2387587649]}, "type": "Feature", "properties": {"collection_times": [{"days": "Mon-Fri", "time": "11:30am"}, {"days": "Sat", "time": "9:45am"}, {"days": "Sun", "time": "Closed"}], "id": "4301300001", "name": "USPS COLLECTION BOX - PO LOBBY", "address": {"city": "CROTON", "state": "OH", "street": "14 S HIGH ST", "postcode": "43013"}}},
{"geometry": {"type": "Point", "coordinates": [-82.2602955029, 40.4479741378]}, "type": "Feature", "properties": {"collection_times": [{"days": "Mon-Fri", "time": "4:00pm"}, {"days": "Sat", "time": "10:15am"}, {"days": "Sun", "time": "Closed"}], "id": "4301400000", "name": "USPS COLLECTION BOX - BLUE BOX", "address": {"city": "DANVILLE", "state": "OH", "street": "414 S MARKET ST", "postcode": "43014"}}},
{"geometry": {"type": "Point", "coordinates": [-82.2602955029, 40.4479741378]}, "type": "Feature", "properties": {"collection_times": [{"days": "Mon-Fri", "time": "4:00pm"}, {"days": "Sat", "time": "10:15am"}, {"days": "Sun", "time": "Closed"}], "id": "4301400001", "name": "USPS COLLECTION BOX - PO LOBBY", "address": {"city": "DANVILLE", "state": "OH", "street": "414 S MARKET ST", "postcode": "43014"}}},
{"geometry": {"type": "Point", "coordinates": [-83.0692117507, 40.2646217967]}, "type": "Feature", "properties": {"collection_times": [{"days": "Mon-Fri", "time": "2:30pm"}, {"days": "Sat", "time": "2:00pm"}, {"days": "Sun", "time": "Closed"}], "id": "4301500005", "name": "USPS COLLECTION BOX - BLUE BOX", "address": {"city": "DELAWARE", "state": "OH", "street": "1840 COLUMBUS PIKE", "postcode": "43015"}}},
{"geometry": {"type": "Point", "coordinates": [-83.0705875319, 40.3070013017]}, "type": "Feature", "properties": {"collection_times": [{"days": "Mon-Fri", "time": "3:30pm"}, {"days": "Sat", "time": "2:15pm"}, {"days": "Sun", "time": "Closed"}], "id": "4301500011", "name": "USPS COLLECTION BOX - BLUE BOX", "address": {"city": "DELAWARE", "state": "OH", "street": "248 N WASHINGTON ST", "postcode": "43015"}}},
{"geometry": {"type": "Point", "coordinates": [-83.0768808736, 40.3317121315]}, "type": "Feature", "properties": {"collection_times": [{"days": "Mon-Sat", "time": "10:15am"}, {"days": "Sun", "time": "Closed"}], "id": "4301500014", "name": "USPS COLLECTION BOX - BLUE BOX", "address": {"city": "DELAWARE", "state": "OH", "street": "2281 BRUCE RD", "postcode": "43015"}}},
{"geometry": {"type": "Point", "coordinates": [-83.0675071068, 40.3018814553]}, "type": "Feature", "properties": {"collection_times": [{"days": "Mon-Fri", "time": "4:25pm"}, {"days": "Sat", "time": "2:25pm"}, {"days": "Sun", "time": "Closed"}], "id": "4301500017", "name": "USPS COLLECTION BOX - BLUE BOX", "address": {"city": "DELAWARE", "state": "OH", "street": "91 N SANDUSKY ST", "postcode": "43015"}}},
{"geometry": {"type": "Point", "coordinates": [-83.0671723294, 40.3057331696]}, "type": "Feature", "properties": {"collection_times": [{"days": "Mon-Fri", "time": "2:00pm"}, {"days": "Sat", "time": "2:20pm"}, {"days": "Sun", "time": "Closed"}], "id": "4301500018", "name": "USPS COLLECTION BOX - BLUE BOX", "address": {"city": "DELAWARE", "state": "OH", "street": "219 N SANDUSKY ST", "postcode": "43015"}}},
{"geometry": {"type": "Point", "coordinates": [-83.0959135004, 40.3071692818]}, "type": "Feature", "properties": {"collection_times": [{"days": "Mon-Sat", "time": "3:00pm"}, {"days": "Sun", "time": "Closed"}], "id": "4301500019", "name": "USPS COLLECTION BOX - BLUE BOX", "address": {"city": "DELAWARE", "state": "OH", "street": "800 W CENTRAL AVE", "postcode": "43015"}}},
{"geometry": {"type": "Point", "coordinates": [-83.0903263852, 40.3068404192]}, "type": "Feature", "properties": {"collection_times": [{"days": "Mon-Sat", "time": "3:00pm"}, {"days": "Sun", "time": "Closed"}], "id": "4301500020", "name": "USPS COLLECTION BOX - BLUE BOX", "address": {"city": "DELAWARE", "state": "OH", "street": "12 TROY RD", "postcode": "43015"}}},
{"geometry": {"type": "Point", "coordinates": [-83.0413885558, 40.349398551]}, "type": "Feature", "properties": {"collection_times": [{"days": "Mon-Sat", "time": "9:15am"}, {"days": "Sun", "time": "Closed"}], "id": "4301500026", "name": "USPS COLLECTION BOX - BLUE BOX", "address": {"city": "DELAWARE", "state": "OH", "street": "1330 HANOVER RD", "postcode": "43015"}}},
{"geometry": {"type": "Point", "coordinates": [-83.0884769449, 40.3058717143]}, "type": "Feature", "properties": {"collection_times": [{"days": "Mon-Sat", "time": "3:00pm"}, {"days": "Sun", "time": "Closed"}], "id": "4301500027", "name": "USPS COLLECTION BOX - BLUE BOX", "address": {"city": "DELAWARE", "state": "OH", "street": "551 W CENTRAL AVE", "postcode": "43015"}}},
{"geometry": {"type": "Point", "coordinates": [-83.0730800265, 40.2983171999]}, "type": "Feature", "properties": {"collection_times": [{"days": "Mon-Fri", "time": "4:45pm"}, {"days": "Sat", "time": "2:45pm"}, {"days": "Sun", "time": "Closed"}], "id": "4301500033", "name": "USPS COLLECTION BOX - BLUE BOX", "address": {"city": "DELAWARE", "state": "OH", "street": "35 S LIBERTY ST", "postcode": "43015"}}},
{"geometry": {"type": "Point", "coordinates": [-83.0425786125, 40.2965723354]}, "type": "Feature", "properties": {"collection_times": [{"days": "Mon-Sat", "time": "1:00pm"}, {"days": "Sun", "time": "Closed"}], "id": "4301500037", "name": "USPS COLLECTION BOX - BLUE BOX", "address": {"city": "DELAWARE", "state": "OH", "street": "585 SUNBURY RD", "postcode": "43015"}}},
{"geometry": {"type": "Point", "coordinates": [-83.0730800265, 40.2983171999]}, "type": "Feature", "properties": {"collection_times": [{"days": "Mon-Sat", "time": "5:10pm"}, {"days": "Sun", "time": "Closed"}], "id": "4301500040", "name": "USPS COLLECTION BOX - PO LOBBY", "address": {"city": "DELAWARE", "state": "OH", "street": "35 S LIBERTY ST", "postcode": "43015"}}},
{"geometry": {"type": "Point", "coordinates": [-83.0676384152, 40.3002868266]}, "type": "Feature", "properties": {"collection_times": [{"days": "Mon-Fri", "time": "4:30pm"}, {"days": "Sat", "time": "2:50pm"}, {"days": "Sun", "time": "Closed"}], "id": "4301500042", "name": "USPS COLLECTION BOX - BLUE BOX", "address": {"city": "DELAWARE", "state": "OH", "street": "43 N SANDUSKY ST", "postcode": "43015"}}},
{"geometry": {"type": "Point", "coordinates": [-83.0676384152, 40.3002868266]}, "type": "Feature", "properties": {"collection_times": [{"days": "Mon-Fri", "time": "4:30pm"}, {"days": "Sat", "time": "2:50pm"}, {"days": "Sun", "time": "Closed"}], "id": "4301500043", "name": "USPS COLLECTION BOX - BLUE BOX", "address": {"city": "DELAWARE", "state": "OH", "street": "43 N SANDUSKY ST", "postcode": "43015"}}},
{"geometry": {"type": "Point", "coordinates": [-83.0730800265, 40.2983171999]}, "type": "Feature", "properties": {"collection_times": [{"days": "Mon-Fri", "time": "4:45pm"}, {"days": "Sat", "time": "2:45pm"}, {"days": "Sun", "time": "Closed"}], "id": "4301500045", "name": "USPS COLLECTION BOX - BLUE BOX", "address": {"city": "DELAWARE", "state": "OH", "street": "35 S LIBERTY ST", "postcode": "43015"}}},
{"geometry": {"type": "Point", "coordinates": [-83.1091437135, 40.3129030839]}, "type": "Feature", "properties": {"collection_times": [{"days": "Mon-Sat", "time": "1:00pm"}, {"days": "Sun", "time": "Closed"}], "id": "4301500046", "name": "USPS COLLECTION BOX - BLUE BOX", "address": {"city": "DELAWARE", "state": "OH", "street": "801 N HOUK RD", "postcode": "43015"}}},
{"geometry": {"type": "Point", "coordinates": [-83.0730800265, 40.2983171999]}, "type": "Feature", "properties": {"collection_times": [{"days": "Mon-Sat", "time": "5:10pm"}, {"days": "Sun", "time": "Closed"}], "id": "4301500047", "name": "USPS COLLECTION BOX - APC", "address": {"city": "DELAWARE", "state": "OH", "street": "35 S LIBERTY ST", "postcode": "43015"}}},
{"geometry": {"type": "Point", "coordinates": [-83.1210419148, 40.1012859206]}, "type": "Feature", "properties": {"collection_times": [{"days": "Mon-Fri", "time": "4:00pm"}, {"days": "Sat", "time": "2:10pm"}, {"days": "Sun", "time": "Closed"}], "id": "4301700001", "name": "USPS COLLECTION BOX - BLUE BOX", "address": {"city": "DUBLIN", "state": "OH", "street": "715 SHAWAN FALLS DR", "postcode": "43017"}}},
{"geometry": {"type": "Point", "coordinates": [-83.1248072731, 40.0884188759]}, "type": "Feature", "properties": {"collection_times": [{"days": "Mon-Fri", "time": "12:00pm"}, {"days": "Sat-Sun", "time": "Closed"}], "id": "4301700008", "name": "USPS COLLECTION BOX - BLUE BOX", "address": {"city": "DUBLIN", "state": "OH", "street": "4900 BLAZER MEMORIAL PKWY", "postcode": "43017"}}},
{"geometry": {"type": "Point", "coordinates": [-83.1243810292, 40.0907786675]}, "type": "Feature", "properties": {"collection_times": [{"days": "Mon-Fri", "time": "12:00pm"}, {"days": "Sat-Sun", "time": "Closed"}], "id": "4301700009", "name": "USPS COLLECTION BOX - BLUE BOX", "address": {"city": "DUBLIN", "state": "OH", "street": "6063 FRANTZ RD", "postcode": "43017"}}},
{"geometry": {"type": "Point", "coordinates": [-83.109445368, 40.0889866962]}, "type": "Feature", "properties": {"collection_times": [{"days": "Mon-Fri", "time": "12:40pm"}, {"days": "Sat-Sun", "time": "Closed"}], "id": "4301700011", "name": "USPS COLLECTION BOX - BLUE BOX", "address": {"city": "DUBLIN", "state": "OH", "street": "6000 RIVERSIDE DR", "postcode": "43017"}}},
{"geometry": {"type": "Point", "coordinates": [-83.0918701467, 40.0881917478]}, "type": "Feature", "properties": {"collection_times": [{"days": "Mon-Fri", "time": "12:50pm"}, {"days": "Sat", "time": "2:00pm"}, {"days": "Sun", "time": "Closed"}], "id": "4301700016", "name": "USPS COLLECTION BOX - BLUE BOX", "address": {"city": "DUBLIN", "state": "OH", "street": "5900 SAWMILL RD", "postcode": "43017"}}},
{"geometry": {"type": "Point", "coordinates": [-83.1199441288, 40.0708377398]}, "type": "Feature", "properties": {"collection_times": [{"days": "Mon-Fri", "time": "12:30pm"}, {"days": "Sat", "time": "1:15pm"}, {"days": "Sun", "time": "Closed"}], "id": "4301700017", "name": "USPS COLLECTION BOX - BLUE BOX", "address": {"city": "DUBLIN", "state": "OH", "street": "5800 FRANTZ RD", "postcode": "43017"}}},
{"geometry": {"type": "Point", "coordinates": [-83.1231605943, 40.081497383]}, "type": "Feature", "properties": {"collection_times": [{"days": "Mon-Fri", "time": "12:20pm"}, {"days": "Sat-Sun", "time": "Closed"}], "id": "4301700018", "name": "USPS COLLECTION BOX - BLUE BOX", "address": {"city": "DUBLIN", "state": "OH", "street": "4925 BRADENTON AVE", "postcode": "43017"}}},
{"geometry": {"type": "Point", "coordinates": [-83.0953532651, 40.0968207729]}, "type": "Feature", "properties": {"collection_times": [{"days": "Mon-Fri", "time": "12:00pm"}, {"days": "Sat-Sun", "time": "Closed"}], "id": "4301700020", "name": "USPS COLLECTION BOX - BLUE BOX", "address": {"city": "DUBLIN", "state": "OH", "street": "3895 STONERIDGE LN", "postcode": "43017"}}},
{"geometry": {"type": "Point", "coordinates": [-83.1270778699, 40.093224133]}, "type": "Feature", "properties": {"collection_times": [{"days": "Mon-Fri", "time": "12:00pm"}, {"days": "Sat-Sun", "time": "Closed"}], "id": "4301700029", "name": "USPS COLLECTION BOX - BLUE BOX", "address": {"city": "DUBLIN", "state": "OH", "street": "475 METRO PL S", "postcode": "43017"}}},
{"geometry": {"type": "Point", "coordinates": [-83.0905665259, 40.1144676323]}, "type": "Feature", "properties": {"collection_times": [{"days": "Mon-Fri", "time": "12:00pm"}, {"days": "Sat-Sun", "time": "Closed"}], "id": "4301700037", "name": "USPS COLLECTION BOX - BLUE BOX", "address": {"city": "DUBLIN", "state": "OH", "street": "7251 SAWMILL RD", "postcode": "43017"}}},
{"geometry": {"type": "Point", "coordinates": [-83.1414124681, 40.0817599999]}, "type": "Feature", "properties": {"collection_times": [{"days": "Mon-Fri", "time": "5:00pm"}, {"days": "Sat", "time": "4:30pm"}, {"days": "Sun", "time": "Closed"}], "id": "4301700038", "name": "USPS COLLECTION BOX - BLUE BOX", "address": {"city": "DUBLIN", "state": "OH", "street": "6400 EMERALD PKWY", "postcode": "43017"}}},
{"geometry": {"type": "Point", "coordinates": [-83.0998716811, 40.1076336784]}, "type": "Feature", "properties": {"collection_times": [{"days": "Mon-Fri", "time": "12:00pm"}, {"days": "Sat-Sun", "time": "Closed"}], "id": "4301700040", "name": "USPS COLLECTION BOX - BLUE BOX", "address": {"city": "DUBLIN", "state": "OH", "street": "4140 TULLER RD", "postcode": "43017"}}},
{"geometry": {"type": "Point", "coordinates": [-83.1414124681, 40.0817599999]}, "type": "Feature", "properties": {"collection_times": [{"days": "Mon-Fri", "time": "5:00pm"}, {"days": "Sat", "time": "4:30pm"}, {"days": "Sun", "time": "Closed"}], "id": "4301700049", "name": "USPS COLLECTION BOX - BLUE BOX", "address": {"city": "DUBLIN", "state": "OH", "street": "6400 EMERALD PKWY", "postcode": "43017"}}},
{"geometry": {"type": "Point", "coordinates": [-83.0900251751, 40.1240576749]}, "type": "Feature", "properties": {"collection_times": [{"days": "Mon-Fri", "time": "12:00pm"}, {"days": "Sat", "time": "1:45pm"}, {"days": "Sun", "time": "Closed"}], "id": "4301700056", "name": "USPS COLLECTION BOX - BLUE BOX", "address": {"city": "DUBLIN", "state": "OH", "street": "7740 SAWMILL RD", "postcode": "43017"}}},
{"geometry": {"type": "Point", "coordinates": [-83.1636549563, 40.1054034703]}, "type": "Feature", "properties": {"collection_times": [{"days": "Mon-Fri", "time": "12:00pm"}, {"days": "Sat", "time": "1:25pm"}, {"days": "Sun", "time": "Closed"}], "id": "4301700058", "name": "USPS COLLECTION BOX - BLUE BOX", "address": {"city": "DUBLIN", "state": "OH", "street": "6700 PERIMETER DR", "postcode": "43017"}}},
{"geometry": {"type": "Point", "coordinates": [-83.1210419148, 40.1012859206]}, "type": "Feature", "properties": {"collection_times": [{"days": "Mon-Fri", "time": "4:00pm"}, {"days": "Sat", "time": "12:00pm"}, {"days": "Sun", "time": "Closed"}], "id": "4301700059", "name": "USPS COLLECTION BOX - PO LOBBY", "address": {"city": "DUBLIN", "state": "OH", "street": "715 SHAWAN FALLS DR", "postcode": "43017"}}},
{"geometry": {"type": "Point", "coordinates": [-83.1210419148, 40.1012859206]}, "type": "Feature", "properties": {"collection_times": [{"days": "Mon-Fri", "time": "4:00pm"}, {"days": "Sat", "time": "12:00pm"}, {"days": "Sun", "time": "Closed"}], "id": "4301700060", "name": "USPS COLLECTION BOX - PO LOBBY", "address": {"city": "DUBLIN", "state": "OH", "street": "715 SHAWAN FALLS DR", "postcode": "43017"}}},
{"geometry": {"type": "Point", "coordinates": [-83.1414124681, 40.0817599999]}, "type": "Feature", "properties": {"collection_times": [{"days": "Mon-Fri", "time": "5:00pm"}, {"days": "Sat", "time": "4:30pm"}, {"days": "Sun", "time": "Closed"}], "id": "4301700061", "name": "USPS COLLECTION BOX - PO LOBBY", "address": {"city": "DUBLIN", "state": "OH", "street": "6400 EMERALD PKWY", "postcode": "43017"}}},
{"geometry": {"type": "Point", "coordinates": [-83.1414124681, 40.0817599999]}, "type": "Feature", "properties": {"collection_times": [{"days": "Mon-Fri", "time": "5:00pm"}, {"days": "Sat", "time": "4:30pm"}, {"days": "Sun", "time": "Closed"}], "id": "4301700062", "name": "USPS COLLECTION BOX - PO LOBBY", "address": {"city": "DUBLIN", "state": "OH", "street": "6400 EMERALD PKWY", "postcode": "43017"}}},
{"geometry": {"type": "Point", "coordinates": [-83.1511893267, 40.0941218039]}, "type": "Feature", "properties": {"collection_times": [{"days": "Mon-Fri", "time": "12:00pm"}, {"days": "Sat-Sun", "time": "Closed"}], "id": "4301700064", "name": "USPS COLLECTION BOX - BLUE BOX", "address": {"city": "DUBLIN", "state": "OH", "street": "5900 WILCOX PL", "postcode": "43017"}}},
{"geometry": {"type": "Point", "coordinates": [-83.1331258406, 40.09467318]}, "type": "Feature", "properties": {"collection_times": [{"days": "Mon-Fri", "time": "3:05pm"}, {"days": "Sat-Sun", "time": "Closed"}], "id": "4301700067", "name": "USPS COLLECTION BOX - BLUE BOX", "address": {"city": "DUBLIN", "state": "OH", "street": "655 METRO PL S", "postcode": "43017"}}},
{"geometry": {"type": "Point", "coordinates": [-83.1296798811, 40.1059846336]}, "type": "Feature", "properties": {"collection_times": [{"days": "Mon-Fri", "time": "11:45am"}, {"days": "Sat-Sun", "time": "Closed"}], "id": "4301700071", "name": "USPS COLLECTION BOX - BLUE BOX", "address": {"city": "DUBLIN", "state": "OH", "street": "5175 EMERALD PKWY", "postcode": "43017"}}},
{"geometry": {"type": "Point", "coordinates": [-83.1482132992, 40.1359454353]}, "type": "Feature", "properties": {"collection_times": [{"days": "Mon-Fri", "time": "11:35am"}, {"days": "Sat", "time": "1:35pm"}, {"days": "Sun", "time": "Closed"}], "id": "4301700072", "name": "USPS COLLECTION BOX - BLUE BOX", "address": {"city": "DUBLIN", "state": "OH", "street": "6105 MEMORIAL DR", "postcode": "43017"}}},
{"geometry": {"type": "Point", "coordinates": [-83.1434873782, 40.1026439575]}, "type": "Feature", "properties": {"collection_times": [{"days": "Mon-Fri", "time": "12:00pm"}, {"days": "Sat-Sun", "time": "Closed"}], "id": "4301700074", "name": "USPS COLLECTION BOX - BLUE BOX", "address": {"city": "DUBLIN", "state": "OH", "street": "5747 PERIMETER DR", "postcode": "43017"}}},
{"geometry": {"type": "Point", "coordinates": [-83.0918157306, 40.0922244549]}, "type": "Feature", "properties": {"collection_times": [{"days": "Mon-Sat", "time": "12:00pm"}, {"days": "Sun", "time": "Closed"}], "id": "4301700075", "name": "USPS COLLECTION BOX - BLUE BOX", "address": {"city": "DUBLIN", "state": "OH", "street": "6175 SAWMILL RD", "postcode": "43017"}}},
{"geometry": {"type": "Point", "coordinates": [-83.1414124681, 40.0817599999]}, "type": "Feature", "properties": {"collection_times": [{"days": "Mon-Fri", "time": "5:00pm"}, {"days": "Sat", "time": "4:30pm"}, {"days": "Sun", "time": "Closed"}], "id": "4301700076", "name": "USPS COLLECTION BOX - APC", "address": {"city": "DUBLIN", "state": "OH", "street": "6400 EMERALD PKWY", "postcode": "43017"}}},
{"geometry": {"type": "Point", "coordinates": [-83.1210419148, 40.1012859206]}, "type": "Feature", "properties": {"collection_times": [{"days": "Mon-Fri", "time": "4:00pm"}, {"days": "Sat", "time": "12:00pm"}, {"days": "Sun", "time": "Closed"}], "id": "4301700077", "name": "USPS COLLECTION BOX - APC", "address": {"city": "DUBLIN", "state": "OH", "street": "715 SHAWAN FALLS DR", "postcode": "43017"}}},
{"geometry": {"type": "Point", "coordinates": [-82.6824011998, 39.9573371461]}, "type": "Feature", "properties": {"collection_times": [{"days": "Mon-Fri", "time": "4:00pm"}, {"days": "Sat", "time": "10:45am"}, {"days": "Sun", "time": "Closed"}], "id": "4301800000", "name": "USPS COLLECTION BOX - BLUE BOX", "address": {"city": "ETNA", "state": "OH", "street": "1045 PIKE ST SW", "postcode": "43018"}}},
{"geometry": {"type": "Point", "coordinates": [-82.6824011998, 39.9573371461]}, "type": "Feature", "properties": {"collection_times": [{"days": "Mon-Fri", "time": "4:00pm"}, {"days": "Sat", "time": "10:45am"}, {"days": "Sun", "time": "Closed"}], "id": "4301800001", "name": "USPS COLLECTION BOX - PO LOBBY", "address": {"city": "ETNA", "state": "OH", "street": "1045 PIKE ST SW", "postcode": "43018"}}},
{"geometry": {"type": "Point", "coordinates": [-82.5409254719, 40.4751038766]}, "type": "Feature", "properties": {"collection_times": [{"days": "Mon-Sat", "time": "2:00pm"}, {"days": "Sun", "time": "Closed"}], "id": "4301900001", "name": "USPS COLLECTION BOX - BLUE BOX", "address": {"city": "FREDERICKTOWN", "state": "OH", "street": "128 S MAIN ST", "postcode": "43019"}}},
{"geometry": {"type": "Point", "coordinates": [-82.5422791041, 40.4828132091]}, "type": "Feature", "properties": {"collection_times": [{"days": "Mon-Fri", "time": "3:45pm"}, {"days": "Sat", "time": "2:30pm"}, {"days": "Sun", "time": "Closed"}], "id": "4301900003", "name": "USPS COLLECTION BOX - BLUE BOX", "address": {"city": "FREDERICKTOWN", "state": "OH", "street": "67 N PLEASANT ST", "postcode": "43019"}}},
{"geometry": {"type": "Point", "coordinates": [-82.5514196979, 40.4874389879]}, "type": "Feature", "properties": {"collection_times": [{"days": "Mon-Sat", "time": "11:30am"}, {"days": "Sun", "time": "Closed"}], "id": "4301900004", "name": "USPS COLLECTION BOX - BLUE BOX", "address": {"city": "FREDERICKTOWN", "state": "OH", "street": "14 COLONY DR", "postcode": "43019"}}},
{"geometry": {"type": "Point", "coordinates": [-82.5422791041, 40.4828132091]}, "type": "Feature", "properties": {"collection_times": [{"days": "Mon-Fri", "time": "3:45pm"}, {"days": "Sat", "time": "11:30am"}, {"days": "Sun", "time": "Closed"}], "id": "4301900005", "name": "USPS COLLECTION BOX - PO LOBBY", "address": {"city": "FREDERICKTOWN", "state": "OH", "street": "67 N PLEASANT ST", "postcode": "43019"}}},
{"geometry": {"type": "Point", "coordinates": [-82.5491626869, 40.4812090709]}, "type": "Feature", "properties": {"collection_times": [{"days": "Mon-Fri", "time": "12:30pm"}, {"days": "Sat", "time": "11:30am"}, {"days": "Sun", "time": "Closed"}], "id": "4301900006", "name": "USPS COLLECTION BOX - BLUE BOX", "address": {"city": "FREDERICKTOWN", "state": "OH", "street": "250 W SANDUSKY ST", "postcode": "43019"}}},
{"geometry": {"type": "Point", "coordinates": [-82.8802967528, 40.2155183531]}, "type": "Feature", "properties": {"collection_times": [{"days": "Mon-Fri", "time": "4:15pm"}, {"days": "Sat", "time": "11:45am"}, {"days": "Sun", "time": "Closed"}], "id": "4302100000", "name": "USPS COLLECTION BOX - BLUE BOX", "address": {"city": "GALENA", "state": "OH", "street": "34 W PARK ST", "postcode": "43021"}}},
{"geometry": {"type": "Point", "coordinates": [-82.8802967528, 40.2155183531]}, "type": "Feature", "properties": {"collection_times": [{"days": "Mon-Fri", "time": "4:15pm"}, {"days": "Sat", "time": "11:45am"}, {"days": "Sun", "time": "Closed"}], "id": "4302100001", "name": "USPS COLLECTION BOX - PO LOBBY", "address": {"city": "GALENA", "state": "OH", "street": "34 W PARK ST", "postcode": "43021"}}},
{"geometry": {"type": "Point", "coordinates": [-82.3971380144, 40.3768978713]}, "type": "Feature", "properties": {"collection_times": [{"days": "Mon-Fri", "time": "4:15pm"}, {"days": "Sat", "time": "12:15pm"}, {"days": "Sun", "time": "Closed"}], "id": "4302200000", "name": "USPS COLLECTION BOX - BLUE BOX", "address": {"city": "GAMBIER", "state": "OH", "street": "107 CHASE AVE", "postcode": "43022"}}},
{"geometry": {"type": "Point", "coordinates": [-82.3971380144, 40.3768978713]}, "type": "Feature", "properties": {"collection_times": [{"days": "Mon-Fri", "time": "4:15pm"}, {"days": "Sat", "time": "12:15pm"}, {"days": "Sun", "time": "Closed"}], "id": "4302200001", "name": "USPS COLLECTION BOX - PO LOBBY", "address": {"city": "GAMBIER", "state": "OH", "street": "107 CHASE AVE", "postcode": "43022"}}},
{"geometry": {"type": "Point", "coordinates": [-82.5225551412, 40.0408342482]}, "type": "Feature", "properties": {"collection_times": [{"days": "Mon-Fri", "time": "12:45pm"}, {"days": "Sat", "time": "12:05pm"}, {"days": "Sun", "time": "Closed"}], "id": "4302300004", "name": "USPS COLLECTION BOX - BLUE BOX", "address": {"city": "GRANVILLE", "state": "OH", "street": "1715 LANCASTER RD", "postcode": "43023"}}},
{"geometry": {"type": "Point", "coordinates": [-82.5183417093, 40.0678010051]}, "type": "Feature", "properties": {"collection_times": [{"days": "Mon-Fri", "time": "4:15pm"}, {"days": "Sat", "time": "12:05pm"}, {"days": "Sun", "time": "Closed"}], "id": "4302300006", "name": "USPS COLLECTION BOX - BLUE BOX", "address": {"city": "GRANVILLE", "state": "OH", "street": "203 BROADWAY E", "postcode": "43023"}}},
{"geometry": {"type": "Point", "coordinates": [-82.4951160377, 40.0639363377]}, "type": "Feature", "properties": {"collection_times": [{"days": "Mon-Fri", "time": "12:30pm"}, {"days": "Sat", "time": "9:00am"}, {"days": "Sun", "time": "Closed"}], "id": "4302300008", "name": "USPS COLLECTION BOX - BLUE BOX", "address": {"city": "GRANVILLE", "state": "OH", "street": "1917 NEWARK GRANVILLE RD", "postcode": "43023"}}},
{"geometry": {"type": "Point", "coordinates": [-82.5225961136, 40.0707952551]}, "type": "Feature", "properties": {"collection_times": [{"days": "Mon-Sat", "time": "9:00am"}, {"days": "Sun", "time": "Closed"}], "id": "4302300009", "name": "USPS COLLECTION BOX - BLUE BOX", "address": {"city": "GRANVILLE", "state": "OH", "street": "1 RIDGE RD", "postcode": "43023"}}},
{"geometry": {"type": "Point", "coordinates": [-82.5183417093, 40.0678010051]}, "type": "Feature", "properties": {"collection_times": [{"days": "Mon-Fri", "time": "4:15pm"}, {"days": "Sat", "time": "12:05pm"}, {"days": "Sun", "time": "Closed"}], "id": "4302300010", "name": "USPS COLLECTION BOX - PO LOBBY", "address": {"city": "GRANVILLE", "state": "OH", "street": "203 BROADWAY E", "postcode": "43023"}}},
{"geometry": {"type": "Point", "coordinates": [-82.5376906666, 39.9369908812]}, "type": "Feature", "properties": {"collection_times": [{"days": "Mon-Sat", "time": "9:45am"}, {"days": "Sun", "time": "Closed"}], "id": "4302500000", "name": "USPS COLLECTION BOX - BLUE BOX", "address": {"city": "HEBRON", "state": "OH", "street": "10679 LANCASTER RD", "postcode": "43025"}}},
{"geometry": {"type": "Point", "coordinates": [-82.5352879536, 39.944276509]}, "type": "Feature", "properties": {"collection_times": [{"days": "Mon-Sat", "time": "9:45am"}, {"days": "Sun", "time": "Closed"}], "id": "4302500002", "name": "USPS COLLECTION BOX - BLUE BOX", "address": {"city": "HEBRON", "state": "OH", "street": "10258 LANCASTER RD", "postcode": "43025"}}},
{"geometry": {"type": "Point", "coordinates": [-82.4916340068, 39.9632635248]}, "type": "Feature", "properties": {"collection_times": [{"days": "Mon-Fri", "time": "4:00pm"}, {"days": "Sat", "time": "12:00pm"}, {"days": "Sun", "time": "Closed"}], "id": "4302500004", "name": "USPS COLLECTION BOX - BLUE BOX", "address": {"city": "HEBRON", "state": "OH", "street": "146 N HIGH ST", "postcode": "43025"}}},
{"geometry": {"type": "Point", "coordinates": [-82.4916340068, 39.9632635248]}, "type": "Feature", "properties": {"collection_times": [{"days": "Mon-Fri", "time": "4:00pm"}, {"days": "Sat", "time": "12:00pm"}, {"days": "Sun", "time": "Closed"}], "id": "4302500006", "name": "USPS COLLECTION BOX - PO LOBBY", "address": {"city": "HEBRON", "state": "OH", "street": "146 N HIGH ST", "postcode": "43025"}}},
{"geometry": {"type": "Point", "coordinates": [-82.4873580108, 39.9618213641]}, "type": "Feature", "properties": {"collection_times": [{"days": "Mon-Sat", "time": "9:00am"}, {"days": "Sun", "time": "Closed"}], "id": "4302500007", "name": "USPS COLLECTION BOX - BLUE BOX", "address": {"city": "HEBRON", "state": "OH", "street": "600 E MAIN ST", "postcode": "43025"}}},
{"geometry": {"type": "Point", "coordinates": [-83.1566684776, 40.0387395079]}, "type": "Feature", "properties": {"collection_times": [{"days": "Mon-Fri", "time": "2:00pm"}, {"days": "Sat", "time": "9:00am"}, {"days": "Sun", "time": "Closed"}], "id": "4302600000", "name": "USPS COLLECTION BOX - BLUE BOX", "address": {"city": "HILLIARD", "state": "OH", "street": "4235 AVERY RD", "postcode": "43026"}}},
{"geometry": {"type": "Point", "coordinates": [-83.1168903918, 40.0291488368]}, "type": "Feature", "properties": {"collection_times": [{"days": "Mon-Fri", "time": "2:00pm"}, {"days": "Sat", "time": "12:00pm"}, {"days": "Sun", "time": "Closed"}], "id": "4302600014", "name": "USPS COLLECTION BOX - BLUE BOX", "address": {"city": "HILLIARD", "state": "OH", "street": "3670 FISHINGER BLVD", "postcode": "43026"}}},
{"geometry": {"type": "Point", "coordinates": [-83.1112552952, 40.0272539827]}, "type": "Feature", "properties": {"collection_times": [{"days": "Mon-Fri", "time": "2:00pm"}, {"days": "Sat", "time": "12:00pm"}, {"days": "Sun", "time": "Closed"}], "id": "4302600015", "name": "USPS COLLECTION BOX - BLUE BOX", "address": {"city": "HILLIARD", "state": "OH", "street": "3535 FISHINGER BLVD", "postcode": "43026"}}},
{"geometry": {"type": "Point", "coordinates": [-83.13922636, 40.034826103]}, "type": "Feature", "properties": {"collection_times": [{"days": "Mon-Fri", "time": "5:00pm"}, {"days": "Sat", "time": "3:00pm"}, {"days": "Sun", "time": "Closed"}], "id": "4302600019", "name": "USPS COLLECTION BOX - BLUE BOX", "address": {"city": "HILLIARD", "state": "OH", "street": "4000 LEAP RD", "postcode": "43026"}}},
{"geometry": {"type": "Point", "coordinates": [-83.1536939481, 40.0023692579]}, "type": "Feature", "properties": {"collection_times": [{"days": "Mon-Sat", "time": "11:00am"}, {"days": "Sun", "time": "Closed"}], "id": "4302600021", "name": "USPS COLLECTION BOX - BLUE BOX", "address": {"city": "HILLIARD", "state": "OH", "street": "2525 HILLIARD ROME RD", "postcode": "43026"}}},
{"geometry": {"type": "Point", "coordinates": [-83.1544296959, 40.022070934]}, "type": "Feature", "properties": {"collection_times": [{"days": "Mon-Fri", "time": "5:00pm"}, {"days": "Sat", "time": "3:00pm"}, {"days": "Sun", "time": "Closed"}], "id": "4302600023", "name": "USPS COLLECTION BOX - EXPRESS", "address": {"city": "HILLIARD", "state": "OH", "street": "4000 LEAP RD", "postcode": "43026"}}},
{"geometry": {"type": "Point", "coordinates": [-83.13922636, 40.034826103]}, "type": "Feature", "properties": {"collection_times": [{"days": "Mon-Fri", "time": "5:00pm"}, {"days": "Sat", "time": "3:00pm"}, {"days": "Sun", "time": "Closed"}], "id": "4302600024", "name": "USPS COLLECTION BOX - BLUE BOX", "address": {"city": "HILLIARD", "state": "OH", "street": "4000 LEAP RD", "postcode": "43026"}}},
{"geometry": {"type": "Point", "coordinates": [-83.13922636, 40.034826103]}, "type": "Feature", "properties": {"collection_times": [{"days": "Mon-Fri", "time": "5:00pm"}, {"days": "Sat", "time": "3:00pm"}, {"days": "Sun", "time": "Closed"}], "id": "4302600025", "name": "USPS COLLECTION BOX - PO LOBBY", "address": {"city": "HILLIARD", "state": "OH", "street": "4000 LEAP RD", "postcode": "43026"}}},
{"geometry": {"type": "Point", "coordinates": [-83.1188546236, 40.0243510014]}, "type": "Feature", "properties": {"collection_times": [{"days": "Mon-Fri", "time": "2:00pm"}, {"days": "Sat", "time": "12:00pm"}, {"days": "Sun", "time": "Closed"}], "id": "4302600027", "name": "USPS COLLECTION BOX - BLUE BOX", "address": {"city": "HILLIARD", "state": "OH", "street": "3455 MILL RUN DR", "postcode": "43026"}}},
{"geometry": {"type": "Point", "coordinates": [-83.1637798562, 40.0291325215]}, "type": "Feature", "properties": {"collection_times": [{"days": "Mon-Sat", "time": "9:00am"}, {"days": "Sun", "time": "Closed"}], "id": "4302600031", "name": "USPS COLLECTION BOX - BLUE BOX", "address": {"city": "HILLIARD", "state": "OH", "street": "3801 STURBRIDGE CT", "postcode": "43026"}}},
{"geometry": {"type": "Point", "coordinates": [-83.1520023168, 40.0037000867]}, "type": "Feature", "properties": {"collection_times": [{"days": "Mon-Sat", "time": "10:00am"}, {"days": "Sun", "time": "Closed"}], "id": "4302600032", "name": "USPS COLLECTION BOX - BLUE BOX", "address": {"city": "HILLIARD", "state": "OH", "street": "5378 ROBERTS RD", "postcode": "43026"}}},
{"geometry": {"type": "Point", "coordinates": [-83.13922636, 40.034826103]}, "type": "Feature", "properties": {"collection_times": [{"days": "Mon-Fri", "time": "5:00pm"}, {"days": "Sat", "time": "3:00pm"}, {"days": "Sun", "time": "Closed"}], "id": "4302600033", "name": "USPS COLLECTION BOX - APC", "address": {"city": "HILLIARD", "state": "OH", "street": "4000 LEAP RD", "postcode": "43026"}}},
{"geometry": {"type": "Point", "coordinates": [-82.5203905918, 40.2528408208]}, "type": "Feature", "properties": {"collection_times": [{"days": "Mon-Fri", "time": "11:30am"}, {"days": "Sat", "time": "9:45am"}, {"days": "Sun", "time": "Closed"}], "id": "4302700000", "name": "USPS COLLECTION BOX - BLUE BOX", "address": {"city": "HOMER", "state": "OH", "street": "1080 HOMER RD NW", "postcode": "43027"}}},
{"geometry": {"type": "Point", "coordinates": [-82.5203905918, 40.2528408208]}, "type": "Feature", "properties": {"collection_times": [{"days": "Mon-Fri", "time": "11:30am"}, {"days": "Sat", "time": "9:45am"}, {"days": "Sun", "time": "Closed"}], "id": "4302700001", "name": "USPS COLLECTION BOX - PO LOBBY", "address": {"city": "HOMER", "state": "OH", "street": "1080 HOMER RD NW", "postcode": "43027"}}},
{"geometry": {"type": "Point", "coordinates": [-82.3225294688, 40.4065377057]}, "type": "Feature", "properties": {"collection_times": [{"days": "Mon-Fri", "time": "4:00pm"}, {"days": "Sat", "time": "10:15am"}, {"days": "Sun", "time": "Closed"}], "id": "4302800000", "name": "USPS COLLECTION BOX - BLUE BOX", "address": {"city": "HOWARD", "state": "OH", "street": "23359 COSHOCTON RD", "postcode": "43028"}}},
{"geometry": {"type": "Point", "coordinates": [-82.3529440606, 40.4095356791]}, "type": "Feature", "properties": {"collection_times": [{"days": "Mon-Fri", "time": "11:30am"}, {"days": "Sat", "time": "10:15am"}, {"days": "Sun", "time": "Closed"}], "id": "4302800002", "name": "USPS COLLECTION BOX - BLUE BOX", "address": {"city": "HOWARD", "state": "OH", "street": "23 APPLE VALLEY BLVD", "postcode": "43028"}}},
{"geometry": {"type": "Point", "coordinates": [-82.3225294688, 40.4065377057]}, "type": "Feature", "properties": {"collection_times": [{"days": "Mon-Fri", "time": "4:15pm"}, {"days": "Sat", "time": "10:15am"}, {"days": "Sun", "time": "Closed"}], "id": "4302800003", "name": "USPS COLLECTION BOX - PO LOBBY", "address": {"city": "HOWARD", "state": "OH", "street": "23359 COSHOCTON RD", "postcode": "43028"}}},
{"geometry": {"type": "Point", "coordinates": [-83.4888000436, 40.1225812065]}, "type": "Feature", "properties": {"collection_times": [{"days": "Mon-Fri", "time": "3:45pm"}, {"days": "Sat", "time": "10:00am"}, {"days": "Sun", "time": "Closed"}], "id": "4302900000", "name": "USPS COLLECTION BOX - BLUE BOX", "address": {"city": "IRWIN", "state": "OH", "street": "24176 STATE ROUTE 161", "postcode": "43029"}}},
{"geometry": {"type": "Point", "coordinates": [-83.4888000436, 40.1225812065]}, "type": "Feature", "properties": {"collection_times": [{"days": "Mon-Fri", "time": "3:45pm"}, {"days": "Sat", "time": "10:00am"}, {"days": "Sun", "time": "Closed"}], "id": "4302900001", "name": "USPS COLLECTION BOX - PO LOBBY", "address": {"city": "IRWIN", "state": "OH", "street": "24176 STATE ROUTE 161", "postcode": "43029"}}},
{"geometry": {"type": "Point", "coordinates": [-82.4141314153, 39.9594114922]}, "type": "Feature", "properties": {"collection_times": [{"days": "Mon-Fri", "time": "11:30am"}, {"days": "Sat", "time": "10:15am"}, {"days": "Sun", "time": "Closed"}], "id": "4303000000", "name": "USPS COLLECTION BOX - BLUE BOX", "address": {"city": "JACKSONTOWN", "state": "OH", "street": "6686 NATIONAL RD SE", "postcode": "43030"}}},
{"geometry": {"type": "Point", "coordinates": [-82.4141314153, 39.9594114922]}, "type": "Feature", "properties": {"collection_times": [{"days": "Mon-Fri", "time": "11:30am"}, {"days": "Sat", "time": "10:15am"}, {"days": "Sun", "time": "Closed"}], "id": "4303000001", "name": "USPS COLLECTION BOX - PO LOBBY", "address": {"city": "JACKSONTOWN", "state": "OH", "street": "6686 NATIONAL RD SE", "postcode": "43030"}}},
{"geometry": {"type": "Point", "coordinates": [-82.6816224964, 40.1504048828]}, "type": "Feature", "properties": {"collection_times": [{"days": "Mon-Sat", "time": "9:30am"}, {"days": "Sun", "time": "Closed"}], "id": "4303100004", "name": "USPS COLLECTION BOX - BLUE BOX", "address": {"city": "JOHNSTOWN", "state": "OH", "street": "145 S MAIN ST", "postcode": "43031"}}},
{"geometry": {"type": "Point", "coordinates": [-82.6822368381, 40.1510373601]}, "type": "Feature", "properties": {"collection_times": [{"days": "Mon-Sat", "time": "9:30am"}, {"days": "Sun", "time": "Closed"}], "id": "4303100006", "name": "USPS COLLECTION BOX - BLUE BOX", "address": {"city": "JOHNSTOWN", "state": "OH", "street": "39 S MAIN ST", "postcode": "43031"}}},
{"geometry": {"type": "Point", "coordinates": [-82.6870356607, 40.1525249713]}, "type": "Feature", "properties": {"collection_times": [{"days": "Mon-Fri", "time": "4:15pm"}, {"days": "Sat", "time": "11:45am"}, {"days": "Sun", "time": "Closed"}], "id": "4303100012", "name": "USPS COLLECTION BOX - BLUE BOX", "address": {"city": "JOHNSTOWN", "state": "OH", "street": "211 W COSHOCTON ST", "postcode": "43031"}}},
{"geometry": {"type": "Point", "coordinates": [-82.6983757575, 40.1486128091]}, "type": "Feature", "properties": {"collection_times": [{"days": "Mon-Sat", "time": "8:30am"}, {"days": "Sun", "time": "Closed"}], "id": "4303100014", "name": "USPS COLLECTION BOX - BLUE BOX", "address": {"city": "JOHNSTOWN", "state": "OH", "street": "625 W COSHOCTON ST", "postcode": "43031"}}},
{"geometry": {"type": "Point", "coordinates": [-82.6870356607, 40.1525249713]}, "type": "Feature", "properties": {"collection_times": [{"days": "Mon-Fri", "time": "4:15pm"}, {"days": "Sat", "time": "11:45am"}, {"days": "Sun", "time": "Closed"}], "id": "4303100016", "name": "USPS COLLECTION BOX - BLUE BOX", "address": {"city": "JOHNSTOWN", "state": "OH", "street": "211 W COSHOCTON ST", "postcode": "43031"}}},
{"geometry": {"type": "Point", "coordinates": [-82.6870356607, 40.1525249713]}, "type": "Feature", "properties": {"collection_times": [{"days": "Mon-Fri", "time": "4:15pm"}, {"days": "Sat", "time": "11:45am"}, {"days": "Sun", "time": "Closed"}], "id": "4303100018", "name": "USPS COLLECTION BOX - PO LOBBY", "address": {"city": "JOHNSTOWN", "state": "OH", "street": "211 W COSHOCTON ST", "postcode": "43031"}}},
{"geometry": {"type": "Point", "coordinates": [-82.9574111884, 40.3300630447]}, "type": "Feature", "properties": {"collection_times": [{"days": "Mon-Fri", "time": "4:00pm"}, {"days": "Sat", "time": "10:30am"}, {"days": "Sun", "time": "Closed"}], "id": "4303200000", "name": "USPS COLLECTION BOX - BLUE BOX", "address": {"city": "KILBOURNE", "state": "OH", "street": "3922 MAIN ST", "postcode": "43032"}}},
{"geometry": {"type": "Point", "coordinates": [-82.9574111884, 40.3300630447]}, "type": "Feature", "properties": {"collection_times": [{"days": "Mon-Fri", "time": "4:00pm"}, {"days": "Sat", "time": "10:30am"}, {"days": "Sun", "time": "Closed"}], "id": "4303200001", "name": "USPS COLLECTION BOX - PO LOBBY", "address": {"city": "KILBOURNE", "state": "OH", "street": "3922 MAIN ST", "postcode": "43032"}}},
{"geometry": {"type": "Point", "coordinates": [-82.5991389357, 39.9590577168]}, "type": "Feature", "properties": {"collection_times": [{"days": "Mon-Fri", "time": "4:30pm"}, {"days": "Sat", "time": "10:15am"}, {"days": "Sun", "time": "Closed"}], "id": "4303300000", "name": "USPS COLLECTION BOX - BLUE BOX", "address": {"city": "KIRKERSVILLE", "state": "OH", "street": "145 W MAIN ST", "postcode": "43033"}}},
{"geometry": {"type": "Point", "coordinates": [-82.5991389357, 39.9590577168]}, "type": "Feature", "properties": {"collection_times": [{"days": "Mon-Fri", "time": "4:30pm"}, {"days": "Sat", "time": "10:15am"}, {"days": "Sun", "time": "Closed"}], "id": "4303300001", "name": "USPS COLLECTION BOX - PO LOBBY", "address": {"city": "KIRKERSVILLE", "state": "OH", "street": "145 W MAIN ST", "postcode": "43033"}}},
{"geometry": {"type": "Point", "coordinates": [-83.0174880529, 40.1749606049]}, "type": "Feature", "properties": {"collection_times": [{"days": "Mon-Fri", "time": "4:30pm"}, {"days": "Sat", "time": "2:00pm"}, {"days": "Sun", "time": "Closed"}], "id": "4303500000", "name": "USPS COLLECTION BOX - BLUE BOX", "address": {"city": "LEWIS CENTER", "state": "OH", "street": "393 E ORANGE RD", "postcode": "43035"}}},
{"geometry": {"type": "Point", "coordinates": [-83.0018209496, 40.1579852494]}, "type": "Feature", "properties": {"collection_times": [{"days": "Mon-Sat", "time": "11:00am"}, {"days": "Sun", "time": "Closed"}], "id": "4303500001", "name": "USPS COLLECTION BOX - BLUE BOX", "address": {"city": "LEWIS CENTER", "state": "OH", "street": "8690 OAK CREEK DR", "postcode": "43035"}}},
{"geometry": {"type": "Point", "coordinates": [-83.002667943, 40.1537229426]}, "type": "Feature", "properties": {"collection_times": [{"days": "Mon-Fri", "time": "11:00am"}, {"days": "Sat", "time": "10:00am"}, {"days": "Sun", "time": "Closed"}], "id": "4303500002", "name": "USPS COLLECTION BOX - BLUE BOX", "address": {"city": "LEWIS CENTER", "state": "OH", "street": "1151 BAYRIDGE DR", "postcode": "43035"}}},
{"geometry": {"type": "Point", "coordinates": [-83.0099786294, 40.1725402709]}, "type": "Feature", "properties": {"collection_times": [{"days": "Mon-Fri", "time": "11:30am"}, {"days": "Sat", "time": "11:00am"}, {"days": "Sun", "time": "Closed"}], "id": "4303500007", "name": "USPS COLLECTION BOX - BLUE BOX", "address": {"city": "LEWIS CENTER", "state": "OH", "street": "8145 STRAWBERRY HILL RD", "postcode": "43035"}}},
{"geometry": {"type": "Point", "coordinates": [-83.034448018, 40.2198004796]}, "type": "Feature", "properties": {"collection_times": [{"days": "Mon-Sat", "time": "10:15am"}, {"days": "Sun", "time": "Closed"}], "id": "4303500008", "name": "USPS COLLECTION BOX - BLUE BOX", "address": {"city": "LEWIS CENTER", "state": "OH", "street": "5277 COLUMBUS PIKE", "postcode": "43035"}}},
{"geometry": {"type": "Point", "coordinates": [-82.9978059816, 40.1499895241]}, "type": "Feature", "properties": {"collection_times": [{"days": "Mon-Fri", "time": "12:00pm"}, {"days": "Sat", "time": "10:30am"}, {"days": "Sun", "time": "Closed"}], "id": "4303500009", "name": "USPS COLLECTION BOX - BLUE BOX", "address": {"city": "LEWIS CENTER", "state": "OH", "street": "9151 S OLD STATE RD", "postcode": "43035"}}},
{"geometry": {"type": "Point", "coordinates": [-83.0191749524, 40.1610525564]}, "type": "Feature", "properties": {"collection_times": [{"days": "Mon-Sat", "time": "9:30am"}, {"days": "Sun", "time": "Closed"}], "id": "4303500011", "name": "USPS COLLECTION BOX - BLUE BOX", "address": {"city": "LEWIS CENTER", "state": "OH", "street": "8870 COLUMBUS PIKE", "postcode": "43035"}}},
{"geometry": {"type": "Point", "coordinates": [-83.0198303116, 40.1646854234]}, "type": "Feature", "properties": {"collection_times": [{"days": "Mon-Sat", "time": "11:30am"}, {"days": "Sun", "time": "Closed"}], "id": "4303500012", "name": "USPS COLLECTION BOX - BLUE BOX", "address": {"city": "LEWIS CENTER", "state": "OH", "street": "8659 COLUMBUS PIKE", "postcode": "43035"}}},
{"geometry": {"type": "Point", "coordinates": [-83.0174880529, 40.1749606049]}, "type": "Feature", "properties": {"collection_times": [{"days": "Mon-Fri", "time": "4:30pm"}, {"days": "Sat", "time": "2:00pm"}, {"days": "Sun", "time": "Closed"}], "id": "4303500015", "name": "USPS COLLECTION BOX - BLUE BOX", "address": {"city": "LEWIS CENTER", "state": "OH", "street": "393 E ORANGE RD", "postcode": "43035"}}},
{"geometry": {"type": "Point", "coordinates": [-83.0174880529, 40.1749606049]}, "type": "Feature", "properties": {"collection_times": [{"days": "Mon-Fri", "time": "4:30pm"}, {"days": "Sat", "time": "2:00pm"}, {"days": "Sun", "time": "Closed"}], "id": "4303500016", "name": "USPS COLLECTION BOX - BLUE BOX", "address": {"city": "LEWIS CENTER", "state": "OH", "street": "393 E ORANGE RD", "postcode": "43035"}}},
{"geometry": {"type": "Point", "coordinates": [-83.0174880529, 40.1749606049]}, "type": "Feature", "properties": {"collection_times": [{"days": "Mon-Fri", "time": "5:00pm"}, {"days": "Sat", "time": "2:00pm"}, {"days": "Sun", "time": "Closed"}], "id": "4303500018", "name": "USPS COLLECTION BOX - PO LOBBY", "address": {"city": "LEWIS CENTER", "state": "OH", "street": "393 E ORANGE RD", "postcode": "43035"}}},
{"geometry": {"type": "Point", "coordinates": [-83.0124746728, 40.1558558177]}, "type": "Feature", "properties": {"collection_times": [{"days": "Mon-Sat", "time": "12:30pm"}, {"days": "Sun", "time": "Closed"}], "id": "4303500019", "name": "USPS COLLECTION BOX - BLUE BOX", "address": {"city": "LEWIS CENTER", "state": "OH", "street": "737 ENTERPRISE DR", "postcode": "43035"}}},
{"geometry": {"type": "Point", "coordinates": [-83.0174880529, 40.1749606049]}, "type": "Feature", "properties": {"collection_times": [{"days": "Mon-Fri", "time": "5:00pm"}, {"days": "Sat", "time": "2:00pm"}, {"days": "Sun", "time": "Closed"}], "id": "4303500020", "name": "USPS COLLECTION BOX - APC", "address": {"city": "LEWIS CENTER", "state": "OH", "street": "393 E ORANGE RD", "postcode": "43035"}}},
{"geometry": {"type": "Point", "coordinates": [-83.2622351055, 40.3542768201]}, "type": "Feature", "properties": {"collection_times": [{"days": "Mon-Fri", "time": "10:30am"}, {"days": "Sat", "time": "11:00am"}, {"days": "Sun", "time": "Closed"}], "id": "4303600000", "name": "USPS COLLECTION BOX - BLUE BOX", "address": {"city": "MAGNETIC SPGS", "state": "OH", "street": "57 S MAIN ST", "postcode": "43036"}}},
{"geometry": {"type": "Point", "coordinates": [-83.2622351055, 40.3542768201]}, "type": "Feature", "properties": {"collection_times": [{"days": "Mon-Fri", "time": "10:30am"}, {"days": "Sat", "time": "11:00am"}, {"days": "Sun", "time": "Closed"}], "id": "4303600001", "name": "USPS COLLECTION BOX - PO LOBBY", "address": {"city": "MAGNETIC SPGS", "state": "OH", "street": "57 S MAIN ST", "postcode": "43036"}}},
{"geometry": {"type": "Point", "coordinates": [-82.352859769, 40.2698791907]}, "type": "Feature", "properties": {"collection_times": [{"days": "Mon-Fri", "time": "3:15pm"}, {"days": "Sat", "time": "10:45am"}, {"days": "Sun", "time": "Closed"}], "id": "4303700000", "name": "USPS COLLECTION BOX - BLUE BOX", "address": {"city": "MARTINSBURG", "state": "OH", "street": "110 E LIBERTY ST", "postcode": "43037"}}},
{"geometry": {"type": "Point", "coordinates": [-82.352859769, 40.2698791907]}, "type": "Feature", "properties": {"collection_times": [{"days": "Mon-Fri", "time": "3:30pm"}, {"days": "Sat", "time": "10:45am"}, {"days": "Sun", "time": "Closed"}], "id": "4303700001", "name": "USPS COLLECTION BOX - PO LOBBY", "address": {"city": "MARTINSBURG", "state": "OH", "street": "110 E LIBERTY ST", "postcode": "43037"}}},
{"geometry": {"type": "Point", "coordinates": [-83.3706414173, 40.229540412]}, "type": "Feature", "properties": {"collection_times": [{"days": "Mon-Fri", "time": "1:30pm"}, {"days": "Sat", "time": "12:00pm"}, {"days": "Sun", "time": "Closed"}], "id": "4304000003", "name": "USPS COLLECTION BOX - BLUE BOX", "address": {"city": "MARYSVILLE", "state": "OH", "street": "700 STOCKDALE DR", "postcode": "43040"}}},
{"geometry": {"type": "Point", "coordinates": [-83.3755177437, 40.223515427]}, "type": "Feature", "properties": {"collection_times": [{"days": "Mon-Fri", "time": "1:30pm"}, {"days": "Sat", "time": "12:00pm"}, {"days": "Sun", "time": "Closed"}], "id": "4304000004", "name": "USPS COLLECTION BOX - BLUE BOX", "address": {"city": "MARYSVILLE", "state": "OH", "street": "376 ROSEHILL DR", "postcode": "43040"}}},
{"geometry": {"type": "Point", "coordinates": [-83.3695981547, 40.2355139084]}, "type": "Feature", "properties": {"collection_times": [{"days": "Mon-Fri", "time": "2:45pm"}, {"days": "Sat", "time": "12:00pm"}, {"days": "Sun", "time": "Closed"}], "id": "4304000013", "name": "USPS COLLECTION BOX - BLUE BOX", "address": {"city": "MARYSVILLE", "state": "OH", "street": "233 W 6TH ST", "postcode": "43040"}}},
{"geometry": {"type": "Point", "coordinates": [-83.3721391506, 40.2367560154]}, "type": "Feature", "properties": {"collection_times": [{"days": "Mon-Sat", "time": "9:15am"}, {"days": "Sun", "time": "Closed"}], "id": "4304000015", "name": "USPS COLLECTION BOX - BLUE BOX", "address": {"city": "MARYSVILLE", "state": "OH", "street": "332 W 5TH ST", "postcode": "43040"}}},
{"geometry": {"type": "Point", "coordinates": [-83.3662788877, 40.2435041034]}, "type": "Feature", "properties": {"collection_times": [{"days": "Mon-Sat", "time": "11:00am"}, {"days": "Sun", "time": "Closed"}], "id": "4304000016", "name": "USPS COLLECTION BOX - BLUE BOX", "address": {"city": "MARYSVILLE", "state": "OH", "street": "546 N MAIN ST", "postcode": "43040"}}},
{"geometry": {"type": "Point", "coordinates": [-83.3447607483, 40.2413257858]}, "type": "Feature", "properties": {"collection_times": [{"days": "Mon-Sat", "time": "9:15am"}, {"days": "Sun", "time": "Closed"}], "id": "4304000017", "name": "USPS COLLECTION BOX - BLUE BOX", "address": {"city": "MARYSVILLE", "state": "OH", "street": "16495 SQUARE DR", "postcode": "43040"}}},
{"geometry": {"type": "Point", "coordinates": [-83.3870255062, 40.2401546565]}, "type": "Feature", "properties": {"collection_times": [{"days": "Mon-Sat", "time": "10:00am"}, {"days": "Sun", "time": "Closed"}], "id": "4304000018", "name": "USPS COLLECTION BOX - BLUE BOX", "address": {"city": "MARYSVILLE", "state": "OH", "street": "1169 W 5TH ST", "postcode": "43040"}}},
{"geometry": {"type": "Point", "coordinates": [-83.3688588054, 40.2365454487]}, "type": "Feature", "properties": {"collection_times": [{"days": "Mon-Fri", "time": "2:45pm"}, {"days": "Sat", "time": "12:00pm"}, {"days": "Sun", "time": "Closed"}], "id": "4304000019", "name": "USPS COLLECTION BOX - BLUE BOX", "address": {"city": "MARYSVILLE", "state": "OH", "street": "215 W 5TH ST", "postcode": "43040"}}},
{"geometry": {"type": "Point", "coordinates": [-83.3667838953, 40.2377686282]}, "type": "Feature", "properties": {"collection_times": [{"days": "Mon-Sat", "time": "4:30pm"}, {"days": "Sun", "time": "Closed"}], "id": "4304000021", "name": "USPS COLLECTION BOX - BLUE BOX", "address": {"city": "MARYSVILLE", "state": "OH", "street": "202 N MAIN ST", "postcode": "43040"}}},
{"geometry": {"type": "Point", "coordinates": [-83.3683203146, 40.2232634329]}, "type": "Feature", "properties": {"collection_times": [{"days": "Mon-Sat", "time": "10:15am"}, {"days": "Sun", "time": "Closed"}], "id": "4304000023", "name": "USPS COLLECTION BOX - BLUE BOX", "address": {"city": "MARYSVILLE", "state": "OH", "street": "220 GREENWOOD BLVD", "postcode": "43040"}}},
{"geometry": {"type": "Point", "coordinates": [-83.3633675099, 40.2639132043]}, "type": "Feature", "properties": {"collection_times": [{"days": "Mon-Sat", "time": "10:00am"}, {"days": "Sun", "time": "Closed"}], "id": "4304000024", "name": "USPS COLLECTION BOX - BLUE BOX", "address": {"city": "MARYSVILLE", "state": "OH", "street": "18000 STATE ROUTE 4", "postcode": "43040"}}},
{"geometry": {"type": "Point", "coordinates": [-83.3667838953, 40.2377686282]}, "type": "Feature", "properties": {"collection_times": [{"days": "Mon-Sat", "time": "4:30pm"}, {"days": "Sun", "time": "Closed"}], "id": "4304000027", "name": "USPS COLLECTION BOX - BLUE BOX", "address": {"city": "MARYSVILLE", "state": "OH", "street": "202 N MAIN ST", "postcode": "43040"}}},
{"geometry": {"type": "Point", "coordinates": [-83.3410344276, 40.240081313]}, "type": "Feature", "properties": {"collection_times": [{"days": "Mon-Sat", "time": "9:00am"}, {"days": "Sun", "time": "Closed"}], "id": "4304000030", "name": "USPS COLLECTION BOX - BLUE BOX", "address": {"city": "MARYSVILLE", "state": "OH", "street": "15715 US HIGHWAY 36", "postcode": "43040"}}},
{"geometry": {"type": "Point", "coordinates": [-83.3667838953, 40.2377686282]}, "type": "Feature", "properties": {"collection_times": [{"days": "Mon-Sat", "time": "4:30pm"}, {"days": "Sun", "time": "Closed"}], "id": "4304000031", "name": "USPS COLLECTION BOX - PO LOBBY", "address": {"city": "MARYSVILLE", "state": "OH", "street": "202 N MAIN ST", "postcode": "43040"}}},
{"geometry": {"type": "Point", "coordinates": [-83.3197246048, 40.2108965324]}, "type": "Feature", "properties": {"collection_times": [{"days": "Mon-Sat", "time": "12:00pm"}, {"days": "Sun", "time": "Closed"}], "id": "4304000032", "name": "USPS COLLECTION BOX - BLUE BOX", "address": {"city": "MARYSVILLE", "state": "OH", "street": "14200 INDUSTRIAL PKWY", "postcode": "43040"}}},
{"geometry": {"type": "Point", "coordinates": [-83.3667838953, 40.2377686282]}, "type": "Feature", "properties": {"collection_times": [{"days": "Mon-Sat", "time": "4:30pm"}, {"days": "Sun", "time": "Closed"}], "id": "4304000033", "name": "USPS COLLECTION BOX - BLUE BOX", "address": {"city": "MARYSVILLE", "state": "OH", "street": "202 N MAIN ST", "postcode": "43040"}}},
{"geometry": {"type": "Point", "coordinates": [-83.3690303344, 40.2307761578]}, "type": "Feature", "properties": {"collection_times": [{"days": "Mon-Sat", "time": "11:00am"}, {"days": "Sun", "time": "Closed"}], "id": "4304000034", "name": "USPS COLLECTION BOX - BLUE BOX", "address": {"city": "MARYSVILLE", "state": "OH", "street": "500 LONDON AVE", "postcode": "43040"}}},
{"geometry": {"type": "Point", "coordinates": [-83.5511061945, 40.0676140303]}, "type": "Feature", "properties": {"collection_times": [{"days": "Mon-Fri", "time": "4:30pm"}, {"days": "Sat", "time": "11:45am"}, {"days": "Sun", "time": "Closed"}], "id": "4304400007", "name": "USPS COLLECTION BOX - BLUE BOX", "address": {"city": "MECHANICSBURG", "state": "OH", "street": "40 S MAIN ST", "postcode": "43044"}}},
{"geometry": {"type": "Point", "coordinates": [-83.5511061945, 40.0676140303]}, "type": "Feature", "properties": {"collection_times": [{"days": "Mon-Fri", "time": "4:30pm"}, {"days": "Sat", "time": "11:45am"}, {"days": "Sun", "time": "Closed"}], "id": "4304400009", "name": "USPS COLLECTION BOX - PO LOBBY", "address": {"city": "MECHANICSBURG", "state": "OH", "street": "40 S MAIN ST", "postcode": "43044"}}},
{"geometry": {"type": "Point", "coordinates": [-83.4342101904, 40.17862068]}, "type": "Feature", "properties": {"collection_times": [{"days": "Mon-Fri", "time": "4:00pm"}, {"days": "Sat", "time": "10:15am"}, {"days": "Sun", "time": "Closed"}], "id": "4304500000", "name": "USPS COLLECTION BOX - BLUE BOX", "address": {"city": "MILFORD CENTER", "state": "OH", "street": "21 E STATE ST", "postcode": "43045"}}},
{"geometry": {"type": "Point", "coordinates": [-83.4342101904, 40.17862068]}, "type": "Feature", "properties": {"collection_times": [{"days": "Mon-Fri", "time": "4:00pm"}, {"days": "Sat", "time": "10:15am"}, {"days": "Sun", "time": "Closed"}], "id": "4304500001", "name": "USPS COLLECTION BOX - PO LOBBY", "address": {"city": "MILFORD CENTER", "state": "OH", "street": "21 E STATE ST", "postcode": "43045"}}},
{"geometry": {"type": "Point", "coordinates": [-82.5348453154, 39.8983185336]}, "type": "Feature", "properties": {"collection_times": [{"days": "Mon-Fri", "time": "3:45pm"}, {"days": "Sat", "time": "10:45am"}, {"days": "Sun", "time": "Closed"}], "id": "4304600000", "name": "USPS COLLECTION BOX - BLUE BOX", "address": {"city": "MILLERSPORT", "state": "OH", "street": "12050 LANCASTER ST", "postcode": "43046"}}},
{"geometry": {"type": "Point", "coordinates": [-82.6003835742, 39.9427134867]}, "type": "Feature", "properties": {"collection_times": [{"days": "Mon-Sat", "time": "12:00pm"}, {"days": "Sun", "time": "Closed"}], "id": "4304600001", "name": "USPS COLLECTION BOX - BLUE BOX", "address": {"city": "MILLERSPORT", "state": "OH", "street": "10480 BALTIMORE RD NE", "postcode": "43046"}}},
{"geometry": {"type": "Point", "coordinates": [-82.5348453154, 39.8983185336]}, "type": "Feature", "properties": {"collection_times": [{"days": "Mon-Fri", "time": "3:45pm"}, {"days": "Sat", "time": "10:45am"}, {"days": "Sun", "time": "Closed"}], "id": "4304600002", "name": "USPS COLLECTION BOX - PO LOBBY", "address": {"city": "MILLERSPORT", "state": "OH", "street": "12050 LANCASTER ST", "postcode": "43046"}}},
{"geometry": {"type": "Point", "coordinates": [-82.6306121653, 40.3466279772]}, "type": "Feature", "properties": {"collection_times": [{"days": "Mon-Fri", "time": "4:15pm"}, {"days": "Sat", "time": "9:45am"}, {"days": "Sun", "time": "Closed"}], "id": "4304800000", "name": "USPS COLLECTION BOX - BLUE BOX", "address": {"city": "MOUNT LIBERTY", "state": "OH", "street": "7088 COLUMBUS RD", "postcode": "43048"}}},
{"geometry": {"type": "Point", "coordinates": [-82.6306121653, 40.3466279772]}, "type": "Feature", "properties": {"collection_times": [{"days": "Mon-Fri", "time": "4:15pm"}, {"days": "Sat", "time": "9:45am"}, {"days": "Sun", "time": "Closed"}], "id": "4304800001", "name": "USPS COLLECTION BOX - PO LOBBY", "address": {"city": "MOUNT LIBERTY", "state": "OH", "street": "7088 COLUMBUS RD", "postcode": "43048"}}},
{"geometry": {"type": "Point", "coordinates": [-82.4854452921, 40.3926914632]}, "type": "Feature", "properties": {"collection_times": [{"days": "Mon-Sat", "time": "3:00pm"}, {"days": "Sun", "time": "Closed"}], "id": "4305000002", "name": "USPS COLLECTION BOX - BLUE BOX", "address": {"city": "MOUNT VERNON", "state": "OH", "street": "100 S MAIN ST", "postcode": "43050"}}},
{"geometry": {"type": "Point", "coordinates": [-82.4854296675, 40.3932261763]}, "type": "Feature", "properties": {"collection_times": [{"days": "Mon-Fri", "time": "2:45pm"}, {"days": "Sat", "time": "11:45am"}, {"days": "Sun", "time": "Closed"}], "id": "4305000006", "name": "USPS COLLECTION BOX - BLUE BOX", "address": {"city": "MOUNT VERNON", "state": "OH", "street": "1 PUBLIC SQ", "postcode": "43050"}}},
{"geometry": {"type": "Point", "coordinates": [-82.5168370693, 40.3662684287]}, "type": "Feature", "properties": {"collection_times": [{"days": "Mon-Sat", "time": "11:45am"}, {"days": "Sun", "time": "Closed"}], "id": "4305000008", "name": "USPS COLLECTION BOX - BLUE BOX", "address": {"city": "MOUNT VERNON", "state": "OH", "street": "8927 COLUMBUS RD", "postcode": "43050"}}},
{"geometry": {"type": "Point", "coordinates": [-82.5079465217, 40.3787945877]}, "type": "Feature", "properties": {"collection_times": [{"days": "Mon-Sat", "time": "12:15pm"}, {"days": "Sun", "time": "Closed"}], "id": "4305000010", "name": "USPS COLLECTION BOX - BLUE BOX", "address": {"city": "MOUNT VERNON", "state": "OH", "street": "900 HARCOURT RD", "postcode": "43050"}}},
{"geometry": {"type": "Point", "coordinates": [-82.4503375968, 40.4013672082]}, "type": "Feature", "properties": {"collection_times": [{"days": "Mon-Sat", "time": "10:15am"}, {"days": "Sun", "time": "Closed"}], "id": "4305000020", "name": "USPS COLLECTION BOX - BLUE BOX", "address": {"city": "MOUNT VERNON", "state": "OH", "street": "1320 COSHOCTON AVE", "postcode": "43050"}}},
{"geometry": {"type": "Point", "coordinates": [-82.4431544866, 40.4025285474]}, "type": "Feature", "properties": {"collection_times": [{"days": "Mon-Sat", "time": "11:00am"}, {"days": "Sun", "time": "Closed"}], "id": "4305000023", "name": "USPS COLLECTION BOX - BLUE BOX", "address": {"city": "MOUNT VERNON", "state": "OH", "street": "1530 COSHOCTON AVE", "postcode": "43050"}}},
{"geometry": {"type": "Point", "coordinates": [-82.493476005, 40.4094873138]}, "type": "Feature", "properties": {"collection_times": [{"days": "Mon-Sat", "time": "9:45am"}, {"days": "Sun", "time": "Closed"}], "id": "4305000024", "name": "USPS COLLECTION BOX - BLUE BOX", "address": {"city": "MOUNT VERNON", "state": "OH", "street": "49 CLARENCE CT", "postcode": "43050"}}},
{"geometry": {"type": "Point", "coordinates": [-82.4617031963, 40.4032677482]}, "type": "Feature", "properties": {"collection_times": [{"days": "Mon-Sat", "time": "9:45am"}, {"days": "Sun", "time": "Closed"}], "id": "4305000025", "name": "USPS COLLECTION BOX - BLUE BOX", "address": {"city": "MOUNT VERNON", "state": "OH", "street": "1000 BEECH ST", "postcode": "43050"}}},
{"geometry": {"type": "Point", "coordinates": [-82.4602909988, 40.4006260265]}, "type": "Feature", "properties": {"collection_times": [{"days": "Mon-Sat", "time": "10:45am"}, {"days": "Sun", "time": "Closed"}], "id": "4305000026", "name": "USPS COLLECTION BOX - BLUE BOX", "address": {"city": "MOUNT VERNON", "state": "OH", "street": "811 SHALIMAR DR", "postcode": "43050"}}},
{"geometry": {"type": "Point", "coordinates": [-82.4666651806, 40.3974994078]}, "type": "Feature", "properties": {"collection_times": [{"days": "Mon-Sat", "time": "2:15pm"}, {"days": "Sun", "time": "Closed"}], "id": "4305000035", "name": "USPS COLLECTION BOX - BLUE BOX", "address": {"city": "MOUNT VERNON", "state": "OH", "street": "855 COSHOCTON AVE", "postcode": "43050"}}},
{"geometry": {"type": "Point", "coordinates": [-82.4415296584, 40.4025117581]}, "type": "Feature", "properties": {"collection_times": [{"days": "Mon-Sat", "time": "11:00am"}, {"days": "Sun", "time": "Closed"}], "id": "4305000038", "name": "USPS COLLECTION BOX - BLUE BOX", "address": {"city": "MOUNT VERNON", "state": "OH", "street": "1575 COSHOCTON AVE", "postcode": "43050"}}},
{"geometry": {"type": "Point", "coordinates": [-82.4836342199, 40.3936110025]}, "type": "Feature", "properties": {"collection_times": [{"days": "Mon-Fri", "time": "2:45pm"}, {"days": "Sat", "time": "2:15pm"}, {"days": "Sun", "time": "Closed"}], "id": "4305000040", "name": "USPS COLLECTION BOX - BLUE BOX", "address": {"city": "MOUNT VERNON", "state": "OH", "street": "117 E HIGH  (REAR) ST", "postcode": "43050"}}},
{"geometry": {"type": "Point", "coordinates": [-82.4862891035, 40.3909739064]}, "type": "Feature", "properties": {"collection_times": [{"days": "Mon-Fri", "time": "2:45pm"}, {"days": "Sat", "time": "1:45pm"}, {"days": "Sun", "time": "Closed"}], "id": "4305000043", "name": "USPS COLLECTION BOX - BLUE BOX", "address": {"city": "MOUNT VERNON", "state": "OH", "street": "11 W OHIO AVE", "postcode": "43050"}}},
{"geometry": {"type": "Point", "coordinates": [-82.4866826381, 40.3937544158]}, "type": "Feature", "properties": {"collection_times": [{"days": "Mon-Fri", "time": "5:00pm"}, {"days": "Sat", "time": "3:00pm"}, {"days": "Sun", "time": "Closed"}], "id": "4305000045", "name": "USPS COLLECTION BOX - BLUE BOX", "address": {"city": "MOUNT VERNON", "state": "OH", "street": "101 W HIGH ST", "postcode": "43050"}}},
{"geometry": {"type": "Point", "coordinates": [-82.4866826381, 40.3937544158]}, "type": "Feature", "properties": {"collection_times": [{"days": "Mon-Fri", "time": "5:00pm"}, {"days": "Sat", "time": "3:00pm"}, {"days": "Sun", "time": "Closed"}], "id": "4305000047", "name": "USPS COLLECTION BOX - PO LOBBY", "address": {"city": "MOUNT VERNON", "state": "OH", "street": "101 W HIGH ST", "postcode": "43050"}}},
{"geometry": {"type": "Point", "coordinates": [-82.8110136734, 40.0818289287]}, "type": "Feature", "properties": {"collection_times": [{"days": "Mon-Fri", "time": "4:30pm"}, {"days": "Sat", "time": "2:15pm"}, {"days": "Sun", "time": "Closed"}], "id": "4305400001", "name": "USPS COLLECTION BOX - PO LOBBY", "address": {"city": "NEW ALBANY", "state": "OH", "street": "102 W MAIN ST", "postcode": "43054"}}},
{"geometry": {"type": "Point", "coordinates": [-82.8110136734, 40.0818289287]}, "type": "Feature", "properties": {"collection_times": [{"days": "Mon-Fri", "time": "4:30pm"}, {"days": "Sat", "time": "2:15pm"}, {"days": "Sun", "time": "Closed"}], "id": "4305400002", "name": "USPS COLLECTION BOX - BLUE BOX", "address": {"city": "NEW ALBANY", "state": "OH", "street": "102 W MAIN ST", "postcode": "43054"}}},
{"geometry": {"type": "Point", "coordinates": [-82.8254227727, 40.0957402367]}, "type": "Feature", "properties": {"collection_times": [{"days": "Mon-Sat", "time": "9:00am"}, {"days": "Sun", "time": "Closed"}], "id": "4305400004", "name": "USPS COLLECTION BOX - BLUE BOX", "address": {"city": "NEW ALBANY", "state": "OH", "street": "5525 NEW ALBANY RD", "postcode": "43054"}}},
{"geometry": {"type": "Point", "coordinates": [-82.4039688619, 40.0573295314]}, "type": "Feature", "properties": {"collection_times": [{"days": "Mon-Fri", "time": "1:00pm"}, {"days": "Sat-Sun", "time": "Closed"}], "id": "4305500000", "name": "USPS COLLECTION BOX - BLUE BOX", "address": {"city": "NEWARK", "state": "OH", "street": "40 W MAIN ST", "postcode": "43055"}}},
{"geometry": {"type": "Point", "coordinates": [-82.3866485691, 40.0583387503]}, "type": "Feature", "properties": {"collection_times": [{"days": "Mon-Sat", "time": "11:00am"}, {"days": "Sun", "time": "Closed"}], "id": "4305500010", "name": "USPS COLLECTION BOX - BLUE BOX", "address": {"city": "NEWARK", "state": "OH", "street": "379 E MAIN ST", "postcode": "43055"}}},
{"geometry": {"type": "Point", "coordinates": [-82.4696854216, 40.043382552]}, "type": "Feature", "properties": {"collection_times": [{"days": "Mon-Sat", "time": "9:15am"}, {"days": "Sun", "time": "Closed"}], "id": "4305500015", "name": "USPS COLLECTION BOX - BLUE BOX", "address": {"city": "NEWARK", "state": "OH", "street": "1890 CHERRY VALLEY RD", "postcode": "43055"}}},
{"geometry": {"type": "Point", "coordinates": [-82.413506323, 40.0717821419]}, "type": "Feature", "properties": {"collection_times": [{"days": "Mon-Fri", "time": "1:00pm"}, {"days": "Sat", "time": "12:00pm"}, {"days": "Sun", "time": "Closed"}], "id": "4305500016", "name": "USPS COLLECTION BOX - BLUE BOX", "address": {"city": "NEWARK", "state": "OH", "street": "108 W NATIONAL DR", "postcode": "43055"}}},
{"geometry": {"type": "Point", "coordinates": [-82.4288571356, 40.0714741717]}, "type": "Feature", "properties": {"collection_times": [{"days": "Mon-Sat", "time": "9:00am"}, {"days": "Sun", "time": "Closed"}], "id": "4305500020", "name": "USPS COLLECTION BOX - BLUE BOX", "address": {"city": "NEWARK", "state": "OH", "street": "843 N 21ST ST", "postcode": "43055"}}},
{"geometry": {"type": "Point", "coordinates": [-82.413506323, 40.0717821419]}, "type": "Feature", "properties": {"collection_times": [{"days": "Mon-Fri", "time": "1:00pm"}, {"days": "Sat", "time": "12:00pm"}, {"days": "Sun", "time": "Closed"}], "id": "4305500021", "name": "USPS COLLECTION BOX - BLUE BOX", "address": {"city": "NEWARK", "state": "OH", "street": "253 DEO DR", "postcode": "43055"}}},
{"geometry": {"type": "Point", "coordinates": [-82.4655058518, 40.0387450001]}, "type": "Feature", "properties": {"collection_times": [{"days": "Mon-Sat", "time": "9:30am"}, {"days": "Sun", "time": "Closed"}], "id": "4305500026", "name": "USPS COLLECTION BOX - BLUE BOX", "address": {"city": "NEWARK", "state": "OH", "street": "1930 TAMARACK RD", "postcode": "43055"}}},
{"geometry": {"type": "Point", "coordinates": [-82.4005725867, 40.05774475]}, "type": "Feature", "properties": {"collection_times": [{"days": "Mon-Fri", "time": "1:00pm"}, {"days": "Sat-Sun", "time": "Closed"}], "id": "4305500031", "name": "USPS COLLECTION BOX - BLUE BOX", "address": {"city": "NEWARK", "state": "OH", "street": "20 S 2ND ST", "postcode": "43055"}}},
{"geometry": {"type": "Point", "coordinates": [-82.413506323, 40.0717821419]}, "type": "Feature", "properties": {"collection_times": [{"days": "Mon-Fri", "time": "1:00pm"}, {"days": "Sat-Sun", "time": "Closed"}], "id": "4305500036", "name": "USPS COLLECTION BOX - BLUE BOX", "address": {"city": "NEWARK", "state": "OH", "street": "224 UNION ST", "postcode": "43055"}}},
{"geometry": {"type": "Point", "coordinates": [-82.7112131521, 40.4130547318]}, "type": "Feature", "properties": {"collection_times": [{"days": "Mon-Fri", "time": "4:15pm"}, {"days": "Sat", "time": "12:00pm"}, {"days": "Sun", "time": "Closed"}], "id": "4305500043", "name": "USPS COLLECTION BOX - BLUE BOX", "address": {"city": "NEWARK", "state": "OH", "street": "789 HEBRON RD REAR", "postcode": "43055"}}},
{"geometry": {"type": "Point", "coordinates": [-82.4027985389, 40.0581335514]}, "type": "Feature", "properties": {"collection_times": [{"days": "Mon-Fri", "time": "1:00pm"}, {"days": "Sat", "time": "12:00pm"}, {"days": "Sun", "time": "Closed"}], "id": "4305500044", "name": "USPS COLLECTION BOX - BLUE BOX", "address": {"city": "NEWARK", "state": "OH", "street": "597 HEBRON RD", "postcode": "43055"}}},
{"geometry": {"type": "Point", "coordinates": [-82.7112131521, 40.4130547318]}, "type": "Feature", "properties": {"collection_times": [{"days": "Mon-Fri", "time": "4:15pm"}, {"days": "Sat", "time": "12:00pm"}, {"days": "Sun", "time": "Closed"}], "id": "4305500057", "name": "USPS COLLECTION BOX - BLUE BOX", "address": {"city": "NEWARK", "state": "OH", "street": "789 HEBRON RD REAR", "postcode": "43055"}}},
{"geometry": {"type": "Point", "coordinates": [-82.400276847, 40.0598977353]}, "type": "Feature", "properties": {"collection_times": [{"days": "Mon-Fri", "time": "5:00pm"}, {"days": "Sat", "time": "4:00pm"}, {"days": "Sun", "time": "Closed"}], "id": "4305500062", "name": "USPS COLLECTION BOX - BLUE BOX", "address": {"city": "NEWARK", "state": "OH", "street": "70 E CHURCH ST", "postcode": "43055"}}},
{"geometry": {"type": "Point", "coordinates": [-82.400276847, 40.0598977353]}, "type": "Feature", "properties": {"collection_times": [{"days": "Mon-Fri", "time": "5:00pm"}, {"days": "Sat", "time": "4:00pm"}, {"days": "Sun", "time": "Closed"}], "id": "4305500065", "name": "USPS COLLECTION BOX - PO LOBBY", "address": {"city": "NEWARK", "state": "OH", "street": "70 E CHURCH ST", "postcode": "43055"}}},
{"geometry": {"type": "Point", "coordinates": [-82.4061750804, 40.0582605201]}, "type": "Feature", "properties": {"collection_times": [{"days": "Mon-Fri", "time": "1:00pm"}, {"days": "Sat", "time": "9:00am"}, {"days": "Sun", "time": "Closed"}], "id": "4305500068", "name": "USPS COLLECTION BOX - BLUE BOX", "address": {"city": "NEWARK", "state": "OH", "street": "68 W CHURCH ST", "postcode": "43055"}}},
{"geometry": {"type": "Point", "coordinates": [-82.4026088312, 40.0591905077]}, "type": "Feature", "properties": {"collection_times": [{"days": "Mon-Fri", "time": "1:00pm"}, {"days": "Sat", "time": "9:00am"}, {"days": "Sun", "time": "Closed"}], "id": "4305500069", "name": "USPS COLLECTION BOX - BLUE BOX", "address": {"city": "NEWARK", "state": "OH", "street": "15 E CHURCH ST", "postcode": "43055"}}},
{"geometry": {"type": "Point", "coordinates": [-82.4531670597, 40.0589378612]}, "type": "Feature", "properties": {"collection_times": [{"days": "Mon-Fri", "time": "1:00pm"}, {"days": "Sat", "time": "12:00pm"}, {"days": "Sun", "time": "Closed"}], "id": "4305500071", "name": "USPS COLLECTION BOX - BLUE BOX", "address": {"city": "NEWARK", "state": "OH", "street": "1485 GRANVILLE RD", "postcode": "43055"}}},
{"geometry": {"type": "Point", "coordinates": [-82.3634293068, 40.0610896117]}, "type": "Feature", "properties": {"collection_times": [{"days": "Mon-Fri", "time": "1:00pm"}, {"days": "Sat", "time": "12:00pm"}, {"days": "Sun", "time": "Closed"}], "id": "4305500080", "name": "USPS COLLECTION BOX - BLUE BOX", "address": {"city": "NEWARK", "state": "OH", "street": "998 E MAIN ST", "postcode": "43055"}}},
{"geometry": {"type": "Point", "coordinates": [-82.4490508391, 40.047268893]}, "type": "Feature", "properties": {"collection_times": [{"days": "Mon-Fri", "time": "12:00pm"}, {"days": "Sat", "time": "9:30am"}, {"days": "Sun", "time": "Closed"}], "id": "4305500083", "name": "USPS COLLECTION BOX - BLUE BOX", "address": {"city": "NEWARK", "state": "OH", "street": "1272 W MAIN ST", "postcode": "43055"}}},
{"geometry": {"type": "Point", "coordinates": [-82.44037679, 40.0483236648]}, "type": "Feature", "properties": {"collection_times": [{"days": "Mon-Fri", "time": "1:00pm"}, {"days": "Sat", "time": "12:00pm"}, {"days": "Sun", "time": "Closed"}], "id": "4305500089", "name": "USPS COLLECTION BOX - BLUE BOX", "address": {"city": "NEWARK", "state": "OH", "street": "29 S 29TH ST", "postcode": "43055"}}},
{"geometry": {"type": "Point", "coordinates": [-82.3641108215, 40.0609880787]}, "type": "Feature", "properties": {"collection_times": [{"days": "Mon-Fri", "time": "1:00pm"}, {"days": "Sat", "time": "12:00pm"}, {"days": "Sun", "time": "Closed"}], "id": "4305500090", "name": "USPS COLLECTION BOX - BLUE BOX", "address": {"city": "NEWARK", "state": "OH", "street": "998 E MAIN ST", "postcode": "43055"}}},
{"geometry": {"type": "Point", "coordinates": [-82.400276847, 40.0598977353]}, "type": "Feature", "properties": {"collection_times": [{"days": "Mon-Fri", "time": "5:00pm"}, {"days": "Sat", "time": "4:00pm"}, {"days": "Sun", "time": "Closed"}], "id": "4305500091", "name": "USPS COLLECTION BOX - APC", "address": {"city": "NEWARK", "state": "OH", "street": "70 E CHURCH ST", "postcode": "43055"}}},
{"geometry": {"type": "Point", "coordinates": [-82.3822021137, 40.0987947643]}, "type": "Feature", "properties": {"collection_times": [{"days": "Mon-Fri", "time": "4:15pm"}, {"days": "Sat", "time": "12:00pm"}, {"days": "Sun", "time": "Closed"}], "id": "4305500092", "name": "USPS COLLECTION BOX - PO LOBBY", "address": {"city": "NEWARK", "state": "OH", "street": "789 HEBRON RD", "postcode": "43055"}}},
{"geometry": {"type": "Point", "coordinates": [-83.5561931733, 40.2231027576]}, "type": "Feature", "properties": {"collection_times": [{"days": "Mon-Fri", "time": "3:30pm"}, {"days": "Sat", "time": "10:45am"}, {"days": "Sun", "time": "Closed"}], "id": "4306000000", "name": "USPS COLLECTION BOX - BLUE BOX", "address": {"city": "NORTH LEWISBURG", "state": "OH", "street": "24 E MAPLE ST", "postcode": "43060"}}},
{"geometry": {"type": "Point", "coordinates": [-83.5561931733, 40.2231027576]}, "type": "Feature", "properties": {"collection_times": [{"days": "Mon-Fri", "time": "4:30pm"}, {"days": "Sat", "time": "10:45am"}, {"days": "Sun", "time": "Closed"}], "id": "4306000001", "name": "USPS COLLECTION BOX - PO LOBBY", "address": {"city": "NORTH LEWISBURG", "state": "OH", "street": "24 E MAPLE ST", "postcode": "43060"}}},
{"geometry": {"type": "Point", "coordinates": [-83.2198663067, 40.2657917431]}, "type": "Feature", "properties": {"collection_times": [{"days": "Mon-Fri", "time": "4:15pm"}, {"days": "Sat", "time": "11:00am"}, {"days": "Sun", "time": "Closed"}], "id": "4306100000", "name": "USPS COLLECTION BOX - BLUE BOX", "address": {"city": "OSTRANDER", "state": "OH", "street": "420 W NORTH ST", "postcode": "43061"}}},
{"geometry": {"type": "Point", "coordinates": [-83.2198663067, 40.2657917431]}, "type": "Feature", "properties": {"collection_times": [{"days": "Mon-Fri", "time": "4:15pm"}, {"days": "Sat", "time": "11:00am"}, {"days": "Sun", "time": "Closed"}], "id": "4306100001", "name": "USPS COLLECTION BOX - PO LOBBY", "address": {"city": "OSTRANDER", "state": "OH", "street": "420 W NORTH ST", "postcode": "43061"}}},
{"geometry": {"type": "Point", "coordinates": [-82.6905199119, 40.0005063351]}, "type": "Feature", "properties": {"collection_times": [{"days": "Mon-Sat", "time": "12:00pm"}, {"days": "Sun", "time": "Closed"}], "id": "4306200000", "name": "USPS COLLECTION BOX - BLUE BOX", "address": {"city": "PATASKALA", "state": "OH", "street": "621 BROAD ST SW", "postcode": "43062"}}},
{"geometry": {"type": "Point", "coordinates": [-82.6752887812, 39.9940175676]}, "type": "Feature", "properties": {"collection_times": [{"days": "Mon-Sat", "time": "11:00am"}, {"days": "Sun", "time": "Closed"}], "id": "4306200002", "name": "USPS COLLECTION BOX - BLUE BOX", "address": {"city": "PATASKALA", "state": "OH", "street": "430 S MAIN ST", "postcode": "43062"}}},
{"geometry": {"type": "Point", "coordinates": [-82.6715971245, 40.0037668775]}, "type": "Feature", "properties": {"collection_times": [{"days": "Mon-Fri", "time": "5:00pm"}, {"days": "Sat", "time": "12:00pm"}, {"days": "Sun", "time": "Closed"}], "id": "4306200004", "name": "USPS COLLECTION BOX - BLUE BOX", "address": {"city": "PATASKALA", "state": "OH", "street": "175 E BROAD ST", "postcode": "43062"}}},
{"geometry": {"type": "Point", "coordinates": [-82.6715971245, 40.0037668775]}, "type": "Feature", "properties": {"collection_times": [{"days": "Mon-Fri", "time": "5:00pm"}, {"days": "Sat", "time": "12:00pm"}, {"days": "Sun", "time": "Closed"}], "id": "4306200005", "name": "USPS COLLECTION BOX - BLUE BOX", "address": {"city": "PATASKALA", "state": "OH", "street": "175 E BROAD ST", "postcode": "43062"}}},
{"geometry": {"type": "Point", "coordinates": [-82.6715971245, 40.0037668775]}, "type": "Feature", "properties": {"collection_times": [{"days": "Mon-Fri", "time": "5:00pm"}, {"days": "Sat", "time": "12:00pm"}, {"days": "Sun", "time": "Closed"}], "id": "4306200007", "name": "USPS COLLECTION BOX - BLUE BOX", "address": {"city": "PATASKALA", "state": "OH", "street": "175 E BROAD ST", "postcode": "43062"}}},
{"geometry": {"type": "Point", "coordinates": [-82.6715971245, 40.0037668775]}, "type": "Feature", "properties": {"collection_times": [{"days": "Mon-Fri", "time": "5:00pm"}, {"days": "Sat", "time": "12:00pm"}, {"days": "Sun", "time": "Closed"}], "id": "4306200008", "name": "USPS COLLECTION BOX - PO LOBBY", "address": {"city": "PATASKALA", "state": "OH", "street": "175 E BROAD ST", "postcode": "43062"}}},
{"geometry": {"type": "Point", "coordinates": [-83.3408725482, 40.1391059348]}, "type": "Feature", "properties": {"collection_times": [{"days": "Mon-Sat", "time": "12:00pm"}, {"days": "Sun", "time": "Closed"}], "id": "4306400003", "name": "USPS COLLECTION BOX - BLUE BOX", "address": {"city": "PLAIN CITY", "state": "OH", "street": "111 W MAIN ST", "postcode": "43064"}}},
{"geometry": {"type": "Point", "coordinates": [-83.26830869, 40.1063086978]}, "type": "Feature", "properties": {"collection_times": [{"days": "Mon-Fri", "time": "4:15pm"}, {"days": "Sat", "time": "3:15pm"}, {"days": "Sun", "time": "Closed"}], "id": "4306400008", "name": "USPS COLLECTION BOX - BLUE BOX", "address": {"city": "PLAIN CITY", "state": "OH", "street": "219 MAPLE ST", "postcode": "43064"}}},
{"geometry": {"type": "Point", "coordinates": [-83.26830869, 40.1063086978]}, "type": "Feature", "properties": {"collection_times": [{"days": "Mon-Fri", "time": "4:15pm"}, {"days": "Sat", "time": "3:15pm"}, {"days": "Sun", "time": "Closed"}], "id": "4306400009", "name": "USPS COLLECTION BOX - BLUE BOX", "address": {"city": "PLAIN CITY", "state": "OH", "street": "219 MAPLE ST", "postcode": "43064"}}},
{"geometry": {"type": "Point", "coordinates": [-83.26830869, 40.1063086978]}, "type": "Feature", "properties": {"collection_times": [{"days": "Mon-Fri", "time": "4:30pm"}, {"days": "Sat", "time": "3:45pm"}, {"days": "Sun", "time": "Closed"}], "id": "4306400010", "name": "USPS COLLECTION BOX - PO LOBBY", "address": {"city": "PLAIN CITY", "state": "OH", "street": "219 MAPLE ST", "postcode": "43064"}}},
{"geometry": {"type": "Point", "coordinates": [-83.26830869, 40.1063086978]}, "type": "Feature", "properties": {"collection_times": [{"days": "Mon-Fri", "time": "4:30pm"}, {"days": "Sat", "time": "3:45pm"}, {"days": "Sun", "time": "Closed"}], "id": "4306400011", "name": "USPS COLLECTION BOX - PO LOBBY", "address": {"city": "PLAIN CITY", "state": "OH", "street": "219 MAPLE ST", "postcode": "43064"}}},
{"geometry": {"type": "Point", "coordinates": [-83.073324899, 40.1630399274]}, "type": "Feature", "properties": {"collection_times": [{"days": "Mon-Fri", "time": "5:00pm"}, {"days": "Sat", "time": "2:00pm"}, {"days": "Sun", "time": "Closed"}], "id": "4306500001", "name": "USPS COLLECTION BOX - BLUE BOX", "address": {"city": "POWELL", "state": "OH", "street": "40 GRACE DR", "postcode": "43065"}}},
{"geometry": {"type": "Point", "coordinates": [-83.0888145637, 40.1502899957]}, "type": "Feature", "properties": {"collection_times": [{"days": "Mon-Sat", "time": "9:45am"}, {"days": "Sun", "time": "Closed"}], "id": "4306500003", "name": "USPS COLLECTION BOX - BLUE BOX", "address": {"city": "POWELL", "state": "OH", "street": "10134 SAWMILL RD", "postcode": "43065"}}},
{"geometry": {"type": "Point", "coordinates": [-83.0910468072, 40.1417028966]}, "type": "Feature", "properties": {"collection_times": [{"days": "Mon-Sat", "time": "9:45am"}, {"days": "Sun", "time": "Closed"}], "id": "4306500004", "name": "USPS COLLECTION BOX - BLUE BOX", "address": {"city": "POWELL", "state": "OH", "street": "10655 SAWMILL PKWY", "postcode": "43065"}}},
{"geometry": {"type": "Point", "coordinates": [-83.073324899, 40.1630399274]}, "type": "Feature", "properties": {"collection_times": [{"days": "Mon-Fri", "time": "5:00pm"}, {"days": "Sat", "time": "2:00pm"}, {"days": "Sun", "time": "Closed"}], "id": "4306500005", "name": "USPS COLLECTION BOX - PO LOBBY", "address": {"city": "POWELL", "state": "OH", "street": "40 GRACE DR", "postcode": "43065"}}},
{"geometry": {"type": "Point", "coordinates": [-83.0908326917, 40.1456279544]}, "type": "Feature", "properties": {"collection_times": [{"days": "Mon-Sat", "time": "10:15am"}, {"days": "Sun", "time": "Closed"}], "id": "4306500006", "name": "USPS COLLECTION BOX - BLUE BOX", "address": {"city": "POWELL", "state": "OH", "street": "4022 N HAMPTON DR", "postcode": "43065"}}},
{"geometry": {"type": "Point", "coordinates": [-83.073324899, 40.1630399274]}, "type": "Feature", "properties": {"collection_times": [{"days": "Mon-Fri", "time": "5:00pm"}, {"days": "Sat", "time": "2:00pm"}, {"days": "Sun", "time": "Closed"}], "id": "4306500007", "name": "USPS COLLECTION BOX - APC", "address": {"city": "POWELL", "state": "OH", "street": "40 GRACE DR", "postcode": "43065"}}},
{"geometry": {"type": "Point", "coordinates": [-83.1501545349, 40.3829780241]}, "type": "Feature", "properties": {"collection_times": [{"days": "Mon-Fri", "time": "2:30pm"}, {"days": "Sat", "time": "12:30pm"}, {"days": "Sun", "time": "Closed"}], "id": "4306600000", "name": "USPS COLLECTION BOX - BLUE BOX", "address": {"city": "RADNOR", "state": "OH", "street": "4355 STATE ROUTE 203", "postcode": "43066"}}},
{"geometry": {"type": "Point", "coordinates": [-83.1501545349, 40.3829780241]}, "type": "Feature", "properties": {"collection_times": [{"days": "Mon-Fri", "time": "2:30pm"}, {"days": "Sat", "time": "12:30pm"}, {"days": "Sun", "time": "Closed"}], "id": "4306600001", "name": "USPS COLLECTION BOX - PO LOBBY", "address": {"city": "RADNOR", "state": "OH", "street": "4355 STATE ROUTE 203", "postcode": "43066"}}},
{"geometry": {"type": "Point", "coordinates": [-83.4668291009, 40.3348067521]}, "type": "Feature", "properties": {"collection_times": [{"days": "Mon-Fri", "time": "2:30pm"}, {"days": "Sat", "time": "10:30am"}, {"days": "Sun", "time": "Closed"}], "id": "4306700000", "name": "USPS COLLECTION BOX - BLUE BOX", "address": {"city": "RAYMOND", "state": "OH", "street": "21655 MAIN ST", "postcode": "43067"}}},
{"geometry": {"type": "Point", "coordinates": [-83.4668291009, 40.3348067521]}, "type": "Feature", "properties": {"collection_times": [{"days": "Mon-Fri", "time": "2:30pm"}, {"days": "Sat", "time": "10:30am"}, {"days": "Sun", "time": "Closed"}], "id": "4306700001", "name": "USPS COLLECTION BOX - PO LOBBY", "address": {"city": "RAYMOND", "state": "OH", "street": "21655 MAIN ST", "postcode": "43067"}}},
{"geometry": {"type": "Point", "coordinates": [-83.4153824698, 40.3409014412]}, "type": "Feature", "properties": {"collection_times": [{"days": "Mon-Sat", "time": "11:00am"}, {"days": "Sun", "time": "Closed"}], "id": "4306700002", "name": "USPS COLLECTION BOX - BLUE BOX", "address": {"city": "RAYMOND", "state": "OH", "street": "18992 STATE ROUTE 347", "postcode": "43067"}}},
{"geometry": {"type": "Point", "coordinates": [-82.8265620248, 39.9548734554]}, "type": "Feature", "properties": {"collection_times": [{"days": "Mon-Sat", "time": "8:45am"}, {"days": "Sun", "time": "Closed"}], "id": "4306800004", "name": "USPS COLLECTION BOX - BLUE BOX", "address": {"city": "REYNOLDSBURG", "state": "OH", "street": "6400 E MAIN ST", "postcode": "43068"}}},
{"geometry": {"type": "Point", "coordinates": [-82.8290284942, 39.951771737]}, "type": "Feature", "properties": {"collection_times": [{"days": "Mon-Sat", "time": "10:00am"}, {"days": "Sun", "time": "Closed"}], "id": "4306800006", "name": "USPS COLLECTION BOX - BLUE BOX", "address": {"city": "REYNOLDSBURG", "state": "OH", "street": "1402 BRICE RD", "postcode": "43068"}}},
{"geometry": {"type": "Point", "coordinates": [-82.7951434506, 39.9456467079]}, "type": "Feature", "properties": {"collection_times": [{"days": "Mon-Fri", "time": "3:00pm"}, {"days": "Sat", "time": "1:00pm"}, {"days": "Sun", "time": "Closed"}], "id": "4306800009", "name": "USPS COLLECTION BOX - BLUE BOX", "address": {"city": "REYNOLDSBURG", "state": "OH", "street": "7542 SLATE RIDGE BLVD", "postcode": "43068"}}},
{"geometry": {"type": "Point", "coordinates": [-82.8062186795, 39.9552165135]}, "type": "Feature", "properties": {"collection_times": [{"days": "Mon-Fri", "time": "5:00pm"}, {"days": "Sat", "time": "4:00pm"}, {"days": "Sun", "time": "Closed"}], "id": "4306800013", "name": "USPS COLLECTION BOX - BLUE BOX", "address": {"city": "REYNOLDSBURG", "state": "OH", "street": "7185 E MAIN ST", "postcode": "43068"}}},
{"geometry": {"type": "Point", "coordinates": [-82.8098858523, 39.9551514508]}, "type": "Feature", "properties": {"collection_times": [{"days": "Mon-Sat", "time": "12:00pm"}, {"days": "Sun", "time": "Closed"}], "id": "4306800029", "name": "USPS COLLECTION BOX - BLUE BOX", "address": {"city": "REYNOLDSBURG", "state": "OH", "street": "7058 E MAIN ST", "postcode": "43068"}}},
{"geometry": {"type": "Point", "coordinates": [-82.8062186795, 39.9552165135]}, "type": "Feature", "properties": {"collection_times": [{"days": "Mon-Fri", "time": "5:00pm"}, {"days": "Sat", "time": "4:00pm"}, {"days": "Sun", "time": "Closed"}], "id": "4306800033", "name": "USPS COLLECTION BOX - BLUE BOX", "address": {"city": "REYNOLDSBURG", "state": "OH", "street": "7185 E MAIN ST", "postcode": "43068"}}},
{"geometry": {"type": "Point", "coordinates": [-82.8062186795, 39.9552165135]}, "type": "Feature", "properties": {"collection_times": [{"days": "Mon-Fri", "time": "5:00pm"}, {"days": "Sat", "time": "4:00pm"}, {"days": "Sun", "time": "Closed"}], "id": "4306800040", "name": "USPS COLLECTION BOX - PO LOBBY", "address": {"city": "REYNOLDSBURG", "state": "OH", "street": "7185 E MAIN ST", "postcode": "43068"}}},
{"geometry": {"type": "Point", "coordinates": [-82.8061583486, 39.9552176965]}, "type": "Feature", "properties": {"collection_times": [{"days": "Mon-Fri", "time": "5:00pm"}, {"days": "Sat", "time": "4:00pm"}, {"days": "Sun", "time": "Closed"}], "id": "4306800041", "name": "USPS COLLECTION BOX - PO LOBBY", "address": {"city": "REYNOLDSBURG", "state": "OH", "street": "7185 E MAIN ST", "postcode": "43068"}}},
{"geometry": {"type": "Point", "coordinates": [-82.8062186795, 39.9552165135]}, "type": "Feature", "properties": {"collection_times": [{"days": "Mon-Fri", "time": "5:00pm"}, {"days": "Sat", "time": "4:00pm"}, {"days": "Sun", "time": "Closed"}], "id": "4306800042", "name": "USPS COLLECTION BOX - BLUE BOX", "address": {"city": "REYNOLDSBURG", "state": "OH", "street": "7185 E MAIN ST", "postcode": "43068"}}},
{"geometry": {"type": "Point", "coordinates": [-82.8302327465, 39.939001695]}, "type": "Feature", "properties": {"collection_times": [{"days": "Mon-Fri", "time": "1:00pm"}, {"days": "Sat", "time": "11:00am"}, {"days": "Sun", "time": "Closed"}], "id": "4306800043", "name": "USPS COLLECTION BOX - BLUE BOX", "address": {"city": "REYNOLDSBURG", "state": "OH", "street": "2040 BRICE RD", "postcode": "43068"}}},
{"geometry": {"type": "Point", "coordinates": [-82.788014124, 39.9856575966]}, "type": "Feature", "properties": {"collection_times": [{"days": "Mon-Fri", "time": "2:00pm"}, {"days": "Sat", "time": "12:00pm"}, {"days": "Sun", "time": "Closed"}], "id": "4306800045", "name": "USPS COLLECTION BOX - BLUE BOX", "address": {"city": "REYNOLDSBURG", "state": "OH", "street": "8000 E BROAD ST", "postcode": "43068"}}},
{"geometry": {"type": "Point", "coordinates": [-82.8062186795, 39.9552165135]}, "type": "Feature", "properties": {"collection_times": [{"days": "Mon-Fri", "time": "5:00pm"}, {"days": "Sat", "time": "4:00pm"}, {"days": "Sun", "time": "Closed"}], "id": "4306800046", "name": "USPS COLLECTION BOX - BLUE BOX", "address": {"city": "REYNOLDSBURG", "state": "OH", "street": "7185 E MAIN ST", "postcode": "43068"}}},
{"geometry": {"type": "Point", "coordinates": [-82.8061583486, 39.9552176965]}, "type": "Feature", "properties": {"collection_times": [{"days": "Mon-Fri", "time": "5:00pm"}, {"days": "Sat", "time": "4:00pm"}, {"days": "Sun", "time": "Closed"}], "id": "4306800047", "name": "USPS COLLECTION BOX - APC", "address": {"city": "REYNOLDSBURG", "state": "OH", "street": "7185 E MAIN ST", "postcode": "43068"}}},
{"geometry": {"type": "Point", "coordinates": [-83.9602569102, 40.2185005851]}, "type": "Feature", "properties": {"collection_times": [{"days": "Mon-Fri", "time": "3:45pm"}, {"days": "Sat", "time": "11:15am"}, {"days": "Sun", "time": "Closed"}], "id": "4307000000", "name": "USPS COLLECTION BOX - BLUE BOX", "address": {"city": "ROSEWOOD", "state": "OH", "street": "6492 KISER LAKE RD", "postcode": "43070"}}},
{"geometry": {"type": "Point", "coordinates": [-83.9602569102, 40.2185005851]}, "type": "Feature", "properties": {"collection_times": [{"days": "Mon-Fri", "time": "3:45pm"}, {"days": "Sat", "time": "11:15am"}, {"days": "Sun", "time": "Closed"}], "id": "4307000001", "name": "USPS COLLECTION BOX - PO LOBBY", "address": {"city": "ROSEWOOD", "state": "OH", "street": "6492 KISER LAKE RD", "postcode": "43070"}}},
{"geometry": {"type": "Point", "coordinates": [-82.4189010684, 40.1732949313]}, "type": "Feature", "properties": {"collection_times": [{"days": "Mon-Fri", "time": "4:00pm"}, {"days": "Sat", "time": "10:15am"}, {"days": "Sun", "time": "Closed"}], "id": "4307100000", "name": "USPS COLLECTION BOX - BLUE BOX", "address": {"city": "SAINT LOUISVL", "state": "OH", "street": "27 N SUGAR ST", "postcode": "43071"}}},
{"geometry": {"type": "Point", "coordinates": [-82.4189010684, 40.1732949313]}, "type": "Feature", "properties": {"collection_times": [{"days": "Mon-Fri", "time": "4:15pm"}, {"days": "Sat", "time": "10:15am"}, {"days": "Sun", "time": "Closed"}], "id": "4307100001", "name": "USPS COLLECTION BOX - PO LOBBY", "address": {"city": "SAINT LOUISVL", "state": "OH", "street": "27 N SUGAR ST", "postcode": "43071"}}},
{"geometry": {"type": "Point", "coordinates": [-83.9584154783, 40.1283319757]}, "type": "Feature", "properties": {"collection_times": [{"days": "Mon-Fri", "time": "4:00pm"}, {"days": "Sat", "time": "10:45am"}, {"days": "Sun", "time": "Closed"}], "id": "4307200002", "name": "USPS COLLECTION BOX - PO LOBBY", "address": {"city": "SAINT PARIS", "state": "OH", "street": "131 E MAIN ST", "postcode": "43072"}}},
{"geometry": {"type": "Point", "coordinates": [-83.9584154783, 40.1283319757]}, "type": "Feature", "properties": {"collection_times": [{"days": "Mon-Fri", "time": "3:30pm"}, {"days": "Sat", "time": "11:00am"}, {"days": "Sun", "time": "Closed"}], "id": "4307200003", "name": "USPS COLLECTION BOX - BLUE BOX", "address": {"city": "SAINT PARIS", "state": "OH", "street": "131 E MAIN ST", "postcode": "43072"}}},
{"geometry": {"type": "Point", "coordinates": [-82.7490885859, 40.0259837948]}, "type": "Feature", "properties": {"collection_times": [{"days": "Mon-Fri", "time": "11:30am"}, {"days": "Sat", "time": "10:15am"}, {"days": "Sun", "time": "Closed"}], "id": "4307300000", "name": "USPS COLLECTION BOX - BLUE BOX", "address": {"city": "SUMMIT STATION", "state": "OH", "street": "6396 SUMMIT RD SW", "postcode": "43073"}}},
{"geometry": {"type": "Point", "coordinates": [-82.7490885859, 40.0259837948]}, "type": "Feature", "properties": {"collection_times": [{"days": "Mon-Fri", "time": "11:30am"}, {"days": "Sat", "time": "10:15am"}, {"days": "Sun", "time": "Closed"}], "id": "4307300001", "name": "USPS COLLECTION BOX - PO LOBBY", "address": {"city": "SUMMIT STATION", "state": "OH", "street": "6396 SUMMIT RD SW", "postcode": "43073"}}},
{"geometry": {"type": "Point", "coordinates": [-82.9250220654, 40.2663903204]}, "type": "Feature", "properties": {"collection_times": [{"days": "Mon-Sat", "time": "10:15am"}, {"days": "Sun", "time": "Closed"}], "id": "4307400001", "name": "USPS COLLECTION BOX - BLUE BOX", "address": {"city": "SUNBURY", "state": "OH", "street": "7735 E STATE ROUTE 37", "postcode": "43074"}}},
{"geometry": {"type": "Point", "coordinates": [-82.8678070721, 40.2500181683]}, "type": "Feature", "properties": {"collection_times": [{"days": "Mon-Sat", "time": "9:00am"}, {"days": "Sun", "time": "Closed"}], "id": "4307400002", "name": "USPS COLLECTION BOX - BLUE BOX", "address": {"city": "SUNBURY", "state": "OH", "street": "150 REED WAY", "postcode": "43074"}}},
{"geometry": {"type": "Point", "coordinates": [-82.8649999104, 40.2417161623]}, "type": "Feature", "properties": {"collection_times": [{"days": "Mon-Fri", "time": "4:15pm"}, {"days": "Sat", "time": "12:00pm"}, {"days": "Sun", "time": "Closed"}], "id": "4307400003", "name": "USPS COLLECTION BOX - BLUE BOX", "address": {"city": "SUNBURY", "state": "OH", "street": "267 W GRANVILLE ST", "postcode": "43074"}}},
{"geometry": {"type": "Point", "coordinates": [-82.8649999104, 40.2417161623]}, "type": "Feature", "properties": {"collection_times": [{"days": "Mon-Fri", "time": "4:15pm"}, {"days": "Sat", "time": "12:00pm"}, {"days": "Sun", "time": "Closed"}], "id": "4307400005", "name": "USPS COLLECTION BOX - PO LOBBY", "address": {"city": "SUNBURY", "state": "OH", "street": "267 W GRANVILLE ST", "postcode": "43074"}}},
{"geometry": {"type": "Point", "coordinates": [-82.8649999104, 40.2417161623]}, "type": "Feature", "properties": {"collection_times": [{"days": "Mon-Fri", "time": "4:15pm"}, {"days": "Sat", "time": "12:00pm"}, {"days": "Sun", "time": "Closed"}], "id": "4307400007", "name": "USPS COLLECTION BOX - BLUE BOX", "address": {"city": "SUNBURY", "state": "OH", "street": "267 W GRANVILLE ST", "postcode": "43074"}}},
{"geometry": {"type": "Point", "coordinates": [-82.8585362227, 40.2429227804]}, "type": "Feature", "properties": {"collection_times": [{"days": "Mon-Fri", "time": "10:00am"}, {"days": "Sat-Sun", "time": "Closed"}], "id": "4307400008", "name": "USPS COLLECTION BOX - BLUE BOX", "address": {"city": "SUNBURY", "state": "OH", "street": "50 E CHERRY ST", "postcode": "43074"}}},
{"geometry": {"type": "Point", "coordinates": [-82.4210721403, 39.8969200089]}, "type": "Feature", "properties": {"collection_times": [{"days": "Mon-Fri", "time": "3:30pm"}, {"days": "Sat", "time": "11:45am"}, {"days": "Sun", "time": "Closed"}], "id": "4307600000", "name": "USPS COLLECTION BOX - BLUE BOX", "address": {"city": "THORNVILLE", "state": "OH", "street": "11 MAIN ST N", "postcode": "43076"}}},
{"geometry": {"type": "Point", "coordinates": [-82.4210721403, 39.8969200089]}, "type": "Feature", "properties": {"collection_times": [{"days": "Mon-Fri", "time": "3:30pm"}, {"days": "Sat", "time": "11:45am"}, {"days": "Sun", "time": "Closed"}], "id": "4307600001", "name": "USPS COLLECTION BOX - PO LOBBY", "address": {"city": "THORNVILLE", "state": "OH", "street": "11 MAIN ST N", "postcode": "43076"}}},
{"geometry": {"type": "Point", "coordinates": [-83.3394148131, 40.138693249]}, "type": "Feature", "properties": {"collection_times": [{"days": "Mon-Fri", "time": "4:00pm"}, {"days": "Sat", "time": "10:45am"}, {"days": "Sun", "time": "Closed"}], "id": "4307700000", "name": "USPS COLLECTION BOX - BLUE BOX", "address": {"city": "UNIONVLLE CTR", "state": "OH", "street": "110 W MAIN ST", "postcode": "43077"}}},
{"geometry": {"type": "Point", "coordinates": [-83.3394148131, 40.138693249]}, "type": "Feature", "properties": {"collection_times": [{"days": "Mon-Fri", "time": "4:00pm"}, {"days": "Sat", "time": "10:45am"}, {"days": "Sun", "time": "Closed"}], "id": "4307700001", "name": "USPS COLLECTION BOX - PO LOBBY", "address": {"city": "UNIONVLLE CTR", "state": "OH", "street": "110 W MAIN ST", "postcode": "43077"}}},
{"geometry": {"type": "Point", "coordinates": [-83.7319406267, 40.1067785144]}, "type": "Feature", "properties": {"collection_times": [{"days": "Mon-Sat", "time": "2:15pm"}, {"days": "Sun", "time": "Closed"}], "id": "4307800011", "name": "USPS COLLECTION BOX - BLUE BOX", "address": {"city": "URBANA", "state": "OH", "street": "848 SCIOTO ST", "postcode": "43078"}}},
{"geometry": {"type": "Point", "coordinates": [-83.7821590332, 40.0283916721]}, "type": "Feature", "properties": {"collection_times": [{"days": "Mon-Sat", "time": "10:15am"}, {"days": "Sun", "time": "Closed"}], "id": "4307800019", "name": "USPS COLLECTION BOX - BLUE BOX", "address": {"city": "URBANA", "state": "OH", "street": "5646 SPRINGFIELD URBANA PIKE", "postcode": "43078"}}},
{"geometry": {"type": "Point", "coordinates": [-83.7621412523, 40.1039294799]}, "type": "Feature", "properties": {"collection_times": [{"days": "Mon-Fri", "time": "9:00am"}, {"days": "Sat-Sun", "time": "Closed"}], "id": "4307800022", "name": "USPS COLLECTION BOX - BLUE BOX", "address": {"city": "URBANA", "state": "OH", "street": "579 COLLEGE WAY - STUDENT CENTER", "postcode": "43078"}}},
{"geometry": {"type": "Point", "coordinates": [-83.7517214814, 40.1080311292]}, "type": "Feature", "properties": {"collection_times": [{"days": "Mon-Sat", "time": "2:45pm"}, {"days": "Sun", "time": "Closed"}], "id": "4307800023", "name": "USPS COLLECTION BOX - BLUE BOX", "address": {"city": "URBANA", "state": "OH", "street": "126 SCIOTO ST", "postcode": "43078"}}},
{"geometry": {"type": "Point", "coordinates": [-83.7527023384, 40.1069843389]}, "type": "Feature", "properties": {"collection_times": [{"days": "Mon-Fri", "time": "5:00pm"}, {"days": "Sat", "time": "4:30pm"}, {"days": "Sun", "time": "Closed"}], "id": "4307800029", "name": "USPS COLLECTION BOX - BLUE BOX", "address": {"city": "URBANA", "state": "OH", "street": "200 S MAIN ST", "postcode": "43078"}}},
{"geometry": {"type": "Point", "coordinates": [-83.7527023384, 40.1069843389]}, "type": "Feature", "properties": {"collection_times": [{"days": "Mon-Sat", "time": "4:30pm"}, {"days": "Sun", "time": "Closed"}], "id": "4307800034", "name": "USPS COLLECTION BOX - PO LOBBY", "address": {"city": "URBANA", "state": "OH", "street": "200 S MAIN ST", "postcode": "43078"}}},
{"geometry": {"type": "Point", "coordinates": [-83.7593361545, 40.0855232398]}, "type": "Feature", "properties": {"collection_times": [{"days": "Mon-Fri", "time": "1:00pm"}, {"days": "Sat", "time": "12:00pm"}, {"days": "Sun", "time": "Closed"}], "id": "4307800039", "name": "USPS COLLECTION BOX - BLUE BOX", "address": {"city": "URBANA", "state": "OH", "street": "1512 S US HIGHWAY 68", "postcode": "43078"}}},
{"geometry": {"type": "Point", "coordinates": [-83.7528995308, 40.1082597892]}, "type": "Feature", "properties": {"collection_times": [{"days": "Mon-Sat", "time": "2:45pm"}, {"days": "Sun", "time": "Closed"}], "id": "4307800040", "name": "USPS COLLECTION BOX - BLUE BOX", "address": {"city": "URBANA", "state": "OH", "street": "40 MONUMENT SQ", "postcode": "43078"}}},
{"geometry": {"type": "Point", "coordinates": [-83.7523595008, 40.108620924]}, "type": "Feature", "properties": {"collection_times": [{"days": "Mon-Sat", "time": "2:45pm"}, {"days": "Sun", "time": "Closed"}], "id": "4307800041", "name": "USPS COLLECTION BOX - BLUE BOX", "address": {"city": "URBANA", "state": "OH", "street": "127 N MAIN ST", "postcode": "43078"}}},
{"geometry": {"type": "Point", "coordinates": [-83.7185093783, 40.1059211536]}, "type": "Feature", "properties": {"collection_times": [{"days": "Mon-Sat", "time": "9:45am"}, {"days": "Sun", "time": "Closed"}], "id": "4307800042", "name": "USPS COLLECTION BOX - BLUE BOX", "address": {"city": "URBANA", "state": "OH", "street": "1637 E US HIGHWAY 36", "postcode": "43078"}}},
{"geometry": {"type": "Point", "coordinates": [-82.4526051594, 40.2347271623]}, "type": "Feature", "properties": {"collection_times": [{"days": "Mon-Fri", "time": "3:30pm"}, {"days": "Sat", "time": "11:00am"}, {"days": "Sun", "time": "Closed"}], "id": "4308000000", "name": "USPS COLLECTION BOX - BLUE BOX", "address": {"city": "UTICA", "state": "OH", "street": "20 N MAIN ST", "postcode": "43080"}}},
{"geometry": {"type": "Point", "coordinates": [-82.4527638439, 40.2322927913]}, "type": "Feature", "properties": {"collection_times": [{"days": "Mon-Fri", "time": "4:00pm"}, {"days": "Sat", "time": "11:00am"}, {"days": "Sun", "time": "Closed"}], "id": "4308000002", "name": "USPS COLLECTION BOX - PO LOBBY", "address": {"city": "UTICA", "state": "OH", "street": "20 N MAIN ST", "postcode": "43080"}}},
{"geometry": {"type": "Point", "coordinates": [-82.884441841, 40.1326603583]}, "type": "Feature", "properties": {"collection_times": [{"days": "Mon-Sat", "time": "1:00pm"}, {"days": "Sun", "time": "Closed"}], "id": "4308100013", "name": "USPS COLLECTION BOX - BLUE BOX", "address": {"city": "WESTERVILLE", "state": "OH", "street": "275 S SUNBURY RD", "postcode": "43081"}}},
{"geometry": {"type": "Point", "coordinates": [-82.8912793439, 40.097383339]}, "type": "Feature", "properties": {"collection_times": [{"days": "Mon-Sat", "time": "1:00pm"}, {"days": "Sun", "time": "Closed"}], "id": "4308100014", "name": "USPS COLLECTION BOX - BLUE BOX", "address": {"city": "WESTERVILLE", "state": "OH", "street": "1165 COLONY DR", "postcode": "43081"}}},
{"geometry": {"type": "Point", "coordinates": [-82.9217843067, 40.1170121771]}, "type": "Feature", "properties": {"collection_times": [{"days": "Mon-Fri", "time": "4:30pm"}, {"days": "Sat", "time": "3:00pm"}, {"days": "Sun", "time": "Closed"}], "id": "4308100016", "name": "USPS COLLECTION BOX - BLUE BOX", "address": {"city": "WESTERVILLE", "state": "OH", "street": "336 S OTTERBEIN AVE", "postcode": "43081"}}},
{"geometry": {"type": "Point", "coordinates": [-82.9139075718, 40.1100443067]}, "type": "Feature", "properties": {"collection_times": [{"days": "Mon-Sat", "time": "1:00pm"}, {"days": "Sun", "time": "Closed"}], "id": "4308100017", "name": "USPS COLLECTION BOX - BLUE BOX", "address": {"city": "WESTERVILLE", "state": "OH", "street": "50 E SCHROCK RD", "postcode": "43081"}}},
{"geometry": {"type": "Point", "coordinates": [-82.9236320886, 40.1096234154]}, "type": "Feature", "properties": {"collection_times": [{"days": "Mon-Sat", "time": "1:00pm"}, {"days": "Sun", "time": "Closed"}], "id": "4308100019", "name": "USPS COLLECTION BOX - BLUE BOX", "address": {"city": "WESTERVILLE", "state": "OH", "street": "55 W SCHROCK RD", "postcode": "43081"}}},
{"geometry": {"type": "Point", "coordinates": [-82.9318264453, 40.1075650668]}, "type": "Feature", "properties": {"collection_times": [{"days": "Mon-Fri", "time": "5:00pm"}, {"days": "Sat", "time": "3:00pm"}, {"days": "Sun", "time": "Closed"}], "id": "4308100020", "name": "USPS COLLECTION BOX - BLUE BOX", "address": {"city": "WESTERVILLE", "state": "OH", "street": "700 BROOKSEDGE BLVD", "postcode": "43081"}}},
{"geometry": {"type": "Point", "coordinates": [-82.8776740952, 40.0815585135]}, "type": "Feature", "properties": {"collection_times": [{"days": "Mon-Sat", "time": "1:00pm"}, {"days": "Sun", "time": "Closed"}], "id": "4308100022", "name": "USPS COLLECTION BOX - BLUE BOX", "address": {"city": "WESTERVILLE", "state": "OH", "street": "5151 LITTLE TURTLE WAY W", "postcode": "43081"}}},
{"geometry": {"type": "Point", "coordinates": [-82.9172239999, 40.1008032733]}, "type": "Feature", "properties": {"collection_times": [{"days": "Mon-Fri", "time": "4:30pm"}, {"days": "Sat", "time": "3:00pm"}, {"days": "Sun", "time": "Closed"}], "id": "4308100023", "name": "USPS COLLECTION BOX - BLUE BOX", "address": {"city": "WESTERVILLE", "state": "OH", "street": "936 EASTWIND DR", "postcode": "43081"}}},
{"geometry": {"type": "Point", "coordinates": [-82.895542728, 40.0839354615]}, "type": "Feature", "properties": {"collection_times": [{"days": "Mon-Sat", "time": "1:00pm"}, {"days": "Sun", "time": "Closed"}], "id": "4308100026", "name": "USPS COLLECTION BOX - BLUE BOX", "address": {"city": "WESTERVILLE", "state": "OH", "street": "5973 SUNBURY PLZ", "postcode": "43081"}}},
{"geometry": {"type": "Point", "coordinates": [-82.8999315057, 40.0836539172]}, "type": "Feature", "properties": {"collection_times": [{"days": "Mon-Fri", "time": "4:30pm"}, {"days": "Sat", "time": "3:00pm"}, {"days": "Sun", "time": "Closed"}], "id": "4308100027", "name": "USPS COLLECTION BOX - BLUE BOX", "address": {"city": "WESTERVILLE", "state": "OH", "street": "4151 EXECUTIVE PKWY", "postcode": "43081"}}},
{"geometry": {"type": "Point", "coordinates": [-82.9424789908, 40.1144960234]}, "type": "Feature", "properties": {"collection_times": [{"days": "Mon-Sat", "time": "1:00pm"}, {"days": "Sun", "time": "Closed"}], "id": "4308100029", "name": "USPS COLLECTION BOX - BLUE BOX", "address": {"city": "WESTERVILLE", "state": "OH", "street": "495 COOPER RD", "postcode": "43081"}}},
{"geometry": {"type": "Point", "coordinates": [-82.947461614, 40.145898852]}, "type": "Feature", "properties": {"collection_times": [{"days": "Mon-Fri", "time": "4:00pm"}, {"days": "Sat", "time": "3:00pm"}, {"days": "Sun", "time": "Closed"}], "id": "4308100031", "name": "USPS COLLECTION BOX - BLUE BOX", "address": {"city": "WESTERVILLE", "state": "OH", "street": "550 POLARIS PKWY", "postcode": "43081"}}},
{"geometry": {"type": "Point", "coordinates": [-82.9440475944, 40.1242483371]}, "type": "Feature", "properties": {"collection_times": [{"days": "Mon-Fri", "time": "4:30pm"}, {"days": "Sat", "time": "3:00pm"}, {"days": "Sun", "time": "Closed"}], "id": "4308100033", "name": "USPS COLLECTION BOX - BLUE BOX", "address": {"city": "WESTERVILLE", "state": "OH", "street": "33 COLLEGEVIEW RD", "postcode": "43081"}}},
{"geometry": {"type": "Point", "coordinates": [-82.9254325521, 40.0947264131]}, "type": "Feature", "properties": {"collection_times": [{"days": "Mon-Fri", "time": "5:00pm"}, {"days": "Sat", "time": "3:00pm"}, {"days": "Sun", "time": "Closed"}], "id": "4308100037", "name": "USPS COLLECTION BOX - BLUE BOX", "address": {"city": "WESTERVILLE", "state": "OH", "street": "5992 WESTERVILLE RD STE H", "postcode": "43081"}}},
{"geometry": {"type": "Point", "coordinates": [-82.9289030712, 40.1188001927]}, "type": "Feature", "properties": {"collection_times": [{"days": "Mon-Fri", "time": "5:00pm"}, {"days": "Sat", "time": "3:00pm"}, {"days": "Sun", "time": "Closed"}], "id": "4308100038", "name": "USPS COLLECTION BOX - PO LOBBY", "address": {"city": "WESTERVILLE", "state": "OH", "street": "260 S STATE ST", "postcode": "43081"}}},
{"geometry": {"type": "Point", "coordinates": [-82.8776740952, 40.0815585135]}, "type": "Feature", "properties": {"collection_times": [{"days": "Mon-Sat", "time": "1:00pm"}, {"days": "Sun", "time": "Closed"}], "id": "4308100047", "name": "USPS COLLECTION BOX - BLUE BOX", "address": {"city": "WESTERVILLE", "state": "OH", "street": "5151 LITTLE TURTLE WAY W", "postcode": "43081"}}},
{"geometry": {"type": "Point", "coordinates": [-82.9318264453, 40.1075650668]}, "type": "Feature", "properties": {"collection_times": [{"days": "Mon-Fri", "time": "5:00pm"}, {"days": "Sat", "time": "3:00pm"}, {"days": "Sun", "time": "Closed"}], "id": "4308100051", "name": "USPS COLLECTION BOX - BLUE BOX", "address": {"city": "WESTERVILLE", "state": "OH", "street": "700 BROOKSEDGE BLVD", "postcode": "43081"}}},
{"geometry": {"type": "Point", "coordinates": [-82.9318264453, 40.1075650668]}, "type": "Feature", "properties": {"collection_times": [{"days": "Mon-Fri", "time": "5:00pm"}, {"days": "Sat", "time": "3:00pm"}, {"days": "Sun", "time": "Closed"}], "id": "4308100052", "name": "USPS COLLECTION BOX - BLUE BOX", "address": {"city": "WESTERVILLE", "state": "OH", "street": "700 BROOKSEDGE BLVD", "postcode": "43081"}}},
{"geometry": {"type": "Point", "coordinates": [-82.8999315057, 40.0836539172]}, "type": "Feature", "properties": {"collection_times": [{"days": "Mon-Fri", "time": "4:30pm"}, {"days": "Sat", "time": "3:00pm"}, {"days": "Sun", "time": "Closed"}], "id": "4308100058", "name": "USPS COLLECTION BOX - BLUE BOX", "address": {"city": "WESTERVILLE", "state": "OH", "street": "4151 EXECUTIVE PKWY", "postcode": "43081"}}},
{"geometry": {"type": "Point", "coordinates": [-82.9313828357, 40.1253236468]}, "type": "Feature", "properties": {"collection_times": [{"days": "Mon-Fri", "time": "5:00pm"}, {"days": "Sat", "time": "3:00pm"}, {"days": "Sun", "time": "Closed"}], "id": "4308100060", "name": "USPS COLLECTION BOX - BLUE BOX", "address": {"city": "WESTERVILLE", "state": "OH", "street": "21 S STATE ST", "postcode": "43081"}}},
{"geometry": {"type": "Point", "coordinates": [-82.9289030712, 40.1188001927]}, "type": "Feature", "properties": {"collection_times": [{"days": "Mon-Fri", "time": "5:00pm"}, {"days": "Sat", "time": "3:00pm"}, {"days": "Sun", "time": "Closed"}], "id": "4308100065", "name": "USPS COLLECTION BOX - BLUE BOX", "address": {"city": "WESTERVILLE", "state": "OH", "street": "260 S STATE ST", "postcode": "43081"}}},
{"geometry": {"type": "Point", "coordinates": [-82.9289030712, 40.1188001927]}, "type": "Feature", "properties": {"collection_times": [{"days": "Mon-Fri", "time": "5:00pm"}, {"days": "Sat", "time": "3:00pm"}, {"days": "Sun", "time": "Closed"}], "id": "4308100066", "name": "USPS COLLECTION BOX - BLUE BOX", "address": {"city": "WESTERVILLE", "state": "OH", "street": "260 S STATE ST", "postcode": "43081"}}},
{"geometry": {"type": "Point", "coordinates": [-82.9254325521, 40.0947264131]}, "type": "Feature", "properties": {"collection_times": [{"days": "Mon-Fri", "time": "5:00pm"}, {"days": "Sat", "time": "3:00pm"}, {"days": "Sun", "time": "Closed"}], "id": "4308100067", "name": "USPS COLLECTION BOX - BLUE BOX", "address": {"city": "WESTERVILLE", "state": "OH", "street": "5992 WESTERVILLE RD STE H", "postcode": "43081"}}},
{"geometry": {"type": "Point", "coordinates": [-82.8999315057, 40.0836539172]}, "type": "Feature", "properties": {"collection_times": [{"days": "Mon-Fri", "time": "4:30pm"}, {"days": "Sat", "time": "3:00pm"}, {"days": "Sun", "time": "Closed"}], "id": "4308100069", "name": "USPS COLLECTION BOX - BLUE BOX", "address": {"city": "WESTERVILLE", "state": "OH", "street": "4151 EXECUTIVE PKWY", "postcode": "43081"}}},
{"geometry": {"type": "Point", "coordinates": [-82.93153966, 40.1257734052]}, "type": "Feature", "properties": {"collection_times": [{"days": "Mon-Sat", "time": "1:00pm"}, {"days": "Sun", "time": "Closed"}], "id": "4308100071", "name": "USPS COLLECTION BOX - BLUE BOX", "address": {"city": "WESTERVILLE", "state": "OH", "street": "7345 STATE ROUTE 3", "postcode": "43081"}}},
{"geometry": {"type": "Point", "coordinates": [-82.9486773332, 40.1166643535]}, "type": "Feature", "properties": {"collection_times": [{"days": "Mon-Fri", "time": "1:00pm"}, {"days": "Sat-Sun", "time": "Closed"}], "id": "4308100072", "name": "USPS COLLECTION BOX - BLUE BOX", "address": {"city": "WESTERVILLE", "state": "OH", "street": "370 S CLEVELAND AVE", "postcode": "43081"}}},
{"geometry": {"type": "Point", "coordinates": [-82.9201482744, 40.1415491119]}, "type": "Feature", "properties": {"collection_times": [{"days": "Mon-Fri", "time": "5:00pm"}, {"days": "Sat", "time": "3:00pm"}, {"days": "Sun", "time": "Closed"}], "id": "4308100074", "name": "USPS COLLECTION BOX - BLUE BOX", "address": {"city": "WESTERVILLE", "state": "OH", "street": "617 MCCORKLE BLVD", "postcode": "43081"}}},
{"geometry": {"type": "Point", "coordinates": [-82.9201482744, 40.1415491119]}, "type": "Feature", "properties": {"collection_times": [{"days": "Mon-Fri", "time": "5:00pm"}, {"days": "Sat", "time": "3:00pm"}, {"days": "Sun", "time": "Closed"}], "id": "4308100076", "name": "USPS COLLECTION BOX - BLUE BOX", "address": {"city": "WESTERVILLE", "state": "OH", "street": "617 MCCORKLE BLVD", "postcode": "43081"}}},
{"geometry": {"type": "Point", "coordinates": [-82.9201482744, 40.1415491119]}, "type": "Feature", "properties": {"collection_times": [{"days": "Mon-Fri", "time": "5:00pm"}, {"days": "Sat", "time": "3:00pm"}, {"days": "Sun", "time": "Closed"}], "id": "4308100077", "name": "USPS COLLECTION BOX - BLUE BOX", "address": {"city": "WESTERVILLE", "state": "OH", "street": "617 MCCORKLE BLVD", "postcode": "43081"}}},
{"geometry": {"type": "Point", "coordinates": [-82.9201482744, 40.1415491119]}, "type": "Feature", "properties": {"collection_times": [{"days": "Mon-Fri", "time": "5:00pm"}, {"days": "Sat", "time": "3:00pm"}, {"days": "Sun", "time": "Closed"}], "id": "4308100079", "name": "USPS COLLECTION BOX - PO LOBBY", "address": {"city": "WESTERVILLE", "state": "OH", "street": "617 MCCORKLE BLVD", "postcode": "43081"}}},
{"geometry": {"type": "Point", "coordinates": [-82.9201482744, 40.1415491119]}, "type": "Feature", "properties": {"collection_times": [{"days": "Mon-Fri", "time": "5:00pm"}, {"days": "Sat", "time": "3:00pm"}, {"days": "Sun", "time": "Closed"}], "id": "4308100081", "name": "USPS COLLECTION BOX - PO LOBBY", "address": {"city": "WESTERVILLE", "state": "OH", "street": "617 MCCORKLE BLVD", "postcode": "43081"}}},
{"geometry": {"type": "Point", "coordinates": [-82.9201482744, 40.1415491119]}, "type": "Feature", "properties": {"collection_times": [{"days": "Mon-Fri", "time": "5:00pm"}, {"days": "Sat", "time": "3:00pm"}, {"days": "Sun", "time": "Closed"}], "id": "4308100082", "name": "USPS COLLECTION BOX - APC", "address": {"city": "WESTERVILLE", "state": "OH", "street": "617 MCCORKLE BLVD", "postcode": "43081"}}},
{"geometry": {"type": "Point", "coordinates": [-82.9289030712, 40.1188001927]}, "type": "Feature", "properties": {"collection_times": [{"days": "Mon-Fri", "time": "5:00pm"}, {"days": "Sat", "time": "3:00pm"}, {"days": "Sun", "time": "Closed"}], "id": "4308100083", "name": "USPS COLLECTION BOX - PO LOBBY", "address": {"city": "WESTERVILLE", "state": "OH", "street": "260 S STATE ST", "postcode": "43081"}}},
{"geometry": {"type": "Point", "coordinates": [-82.9289030712, 40.1188001927]}, "type": "Feature", "properties": {"collection_times": [{"days": "Mon-Fri", "time": "5:00pm"}, {"days": "Sat", "time": "3:00pm"}, {"days": "Sun", "time": "Closed"}], "id": "4308100084", "name": "USPS COLLECTION BOX - PO LOBBY", "address": {"city": "WESTERVILLE", "state": "OH", "street": "260 S STATE ST", "postcode": "43081"}}},
{"geometry": {"type": "Point", "coordinates": [-82.9277073822, 40.1215772157]}, "type": "Feature", "properties": {"collection_times": [{"days": "Mon-Fri", "time": "5:00pm"}, {"days": "Sat", "time": "3:00pm"}, {"days": "Sun", "time": "Closed"}], "id": "4308100087", "name": "USPS COLLECTION BOX - BLUE BOX", "address": {"city": "WESTERVILLE", "state": "OH", "street": "64 E WALNUT ST", "postcode": "43081"}}},
{"geometry": {"type": "Point", "coordinates": [-82.9254325521, 40.0947264131]}, "type": "Feature", "properties": {"collection_times": [{"days": "Mon-Fri", "time": "5:00pm"}, {"days": "Sat", "time": "3:00pm"}, {"days": "Sun", "time": "Closed"}], "id": "4308100088", "name": "USPS COLLECTION BOX - PO LOBBY", "address": {"city": "WESTERVILLE", "state": "OH", "street": "5992 WESTERVILLE RD STE H", "postcode": "43081"}}},
{"geometry": {"type": "Point", "coordinates": [-82.9277073822, 40.1215772157]}, "type": "Feature", "properties": {"collection_times": [{"days": "Mon-Fri", "time": "5:00pm"}, {"days": "Sat", "time": "3:00pm"}, {"days": "Sun", "time": "Closed"}], "id": "4308100089", "name": "USPS COLLECTION BOX - BLUE BOX", "address": {"city": "WESTERVILLE", "state": "OH", "street": "64 E WALNUT ST", "postcode": "43081"}}},
{"geometry": {"type": "Point", "coordinates": [-82.9263647238, 40.1475100422]}, "type": "Feature", "properties": {"collection_times": [{"days": "Mon-Sat", "time": "1:00pm"}, {"days": "Sun", "time": "Closed"}], "id": "4308100090", "name": "USPS COLLECTION BOX - BLUE BOX", "address": {"city": "WESTERVILLE", "state": "OH", "street": "100 POLARIS PKWY", "postcode": "43081"}}},
{"geometry": {"type": "Point", "coordinates": [-82.9624745462, 40.1400715962]}, "type": "Feature", "properties": {"collection_times": [{"days": "Mon-Fri", "time": "4:30pm"}, {"days": "Sat", "time": "3:00pm"}, {"days": "Sun", "time": "Closed"}], "id": "4308100091", "name": "USPS COLLECTION BOX - BLUE BOX", "address": {"city": "WESTERVILLE", "state": "OH", "street": "480 OLDE WORTHINGTON RD", "postcode": "43081"}}},
{"geometry": {"type": "Point", "coordinates": [-82.93153966, 40.1257734052]}, "type": "Feature", "properties": {"collection_times": [{"days": "Mon-Fri", "time": "4:30pm"}, {"days": "Sat", "time": "3:00pm"}, {"days": "Sun", "time": "Closed"}], "id": "4308100092", "name": "USPS COLLECTION BOX - BLUE BOX", "address": {"city": "WESTERVILLE", "state": "OH", "street": "480 OLDE WORTHINGTON RD", "postcode": "43081"}}},
{"geometry": {"type": "Point", "coordinates": [-82.9471800697, 40.1379363553]}, "type": "Feature", "properties": {"collection_times": [{"days": "Mon-Fri", "time": "3:00pm"}, {"days": "Sat", "time": "12:00pm"}, {"days": "Sun", "time": "Closed"}], "id": "4308100095", "name": "USPS COLLECTION BOX - BLUE BOX", "address": {"city": "WESTERVILLE", "state": "OH", "street": "444 CLEVELAND AVE", "postcode": "43081"}}},
{"geometry": {"type": "Point", "coordinates": [-83.8281847484, 40.1090173125]}, "type": "Feature", "properties": {"collection_times": [{"days": "Mon-Fri", "time": "4:15pm"}, {"days": "Sat", "time": "10:15am"}, {"days": "Sun", "time": "Closed"}], "id": "4308300000", "name": "USPS COLLECTION BOX - BLUE BOX", "address": {"city": "WESTVILLE", "state": "OH", "street": "3987 W US HIGHWAY 36", "postcode": "43083"}}},
{"geometry": {"type": "Point", "coordinates": [-83.8281847484, 40.1090173125]}, "type": "Feature", "properties": {"collection_times": [{"days": "Mon-Fri", "time": "4:30pm"}, {"days": "Sat", "time": "10:15am"}, {"days": "Sun", "time": "Closed"}], "id": "4308300001", "name": "USPS COLLECTION BOX - PO LOBBY", "address": {"city": "WESTVILLE", "state": "OH", "street": "3987 W US HIGHWAY 36", "postcode": "43083"}}},
{"geometry": {"type": "Point", "coordinates": [-83.5284802552, 40.1739759022]}, "type": "Feature", "properties": {"collection_times": [{"days": "Mon-Fri", "time": "3:30pm"}, {"days": "Sat", "time": "10:15am"}, {"days": "Sun", "time": "Closed"}], "id": "4308400000", "name": "USPS COLLECTION BOX - BLUE BOX", "address": {"city": "WOODSTOCK", "state": "OH", "street": "111 BURNWELL ST", "postcode": "43084"}}},
{"geometry": {"type": "Point", "coordinates": [-83.5284802552, 40.1739759022]}, "type": "Feature", "properties": {"collection_times": [{"days": "Mon-Fri", "time": "3:30pm"}, {"days": "Sat", "time": "10:15am"}, {"days": "Sun", "time": "Closed"}], "id": "4308400001", "name": "USPS COLLECTION BOX - PO LOBBY", "address": {"city": "WOODSTOCK", "state": "OH", "street": "111 BURNWELL ST", "postcode": "43084"}}},
{"geometry": {"type": "Point", "coordinates": [-83.0187372575, 40.0770246152]}, "type": "Feature", "properties": {"collection_times": [{"days": "Mon-Fri", "time": "10:00am"}, {"days": "Sat-Sun", "time": "Closed"}], "id": "4308500001", "name": "USPS COLLECTION BOX - BLUE BOX", "address": {"city": "COLUMBUS", "state": "OH", "street": "5596 N HIGH ST", "postcode": "43085"}}},
{"geometry": {"type": "Point", "coordinates": [-83.0170716513, 40.1052500161]}, "type": "Feature", "properties": {"collection_times": [{"days": "Mon-Fri", "time": "12:00pm"}, {"days": "Sat-Sun", "time": "Closed"}], "id": "4308500006", "name": "USPS COLLECTION BOX - BLUE BOX", "address": {"city": "COLUMBUS", "state": "OH", "street": "6895 N HIGH ST", "postcode": "43085"}}},
{"geometry": {"type": "Point", "coordinates": [-83.0044281859, 39.9815468142]}, "type": "Feature", "properties": {"collection_times": [{"days": "Mon-Fri", "time": "10:00am"}, {"days": "Sat-Sun", "time": "Closed"}], "id": "4308500007", "name": "USPS COLLECTION BOX - BLUE BOX", "address": {"city": "COLUMBUS", "state": "OH", "street": "940 HIGH ST", "postcode": "43085"}}},
{"geometry": {"type": "Point", "coordinates": [-83.0258716831, 40.1101604788]}, "type": "Feature", "properties": {"collection_times": [{"days": "Mon-Fri", "time": "11:45am"}, {"days": "Sat-Sun", "time": "Closed"}], "id": "4308500010", "name": "USPS COLLECTION BOX - BLUE BOX", "address": {"city": "COLUMBUS", "state": "OH", "street": "400 W WILSON BRIDGE RD", "postcode": "43085"}}},
{"geometry": {"type": "Point", "coordinates": [-83.0171605432, 40.1078719182]}, "type": "Feature", "properties": {"collection_times": [{"days": "Mon-Sat", "time": "1:00pm"}, {"days": "Sun", "time": "Closed"}], "id": "4308500011", "name": "USPS COLLECTION BOX - BLUE BOX", "address": {"city": "COLUMBUS", "state": "OH", "street": "60 WORTHINGTON MALL", "postcode": "43085"}}},
{"geometry": {"type": "Point", "coordinates": [-83.0213456821, 40.1099546439]}, "type": "Feature", "properties": {"collection_times": [{"days": "Mon-Fri", "time": "11:30am"}, {"days": "Sat-Sun", "time": "Closed"}], "id": "4308500012", "name": "USPS COLLECTION BOX - BLUE BOX", "address": {"city": "COLUMBUS", "state": "OH", "street": "200 W OLD WILSON BRIDGE RD", "postcode": "43085"}}},
{"geometry": {"type": "Point", "coordinates": [-83.031577986, 40.1089611666]}, "type": "Feature", "properties": {"collection_times": [{"days": "Mon-Fri", "time": "11:45am"}, {"days": "Sat-Sun", "time": "Closed"}], "id": "4308500014", "name": "USPS COLLECTION BOX - BLUE BOX", "address": {"city": "COLUMBUS", "state": "OH", "street": "500 W WILSON BRIDGE RD", "postcode": "43085"}}},
{"geometry": {"type": "Point", "coordinates": [-82.996670341, 40.1125039205]}, "type": "Feature", "properties": {"collection_times": [{"days": "Mon-Fri", "time": "12:30pm"}, {"days": "Sat-Sun", "time": "Closed"}], "id": "4308500015", "name": "USPS COLLECTION BOX - BLUE BOX", "address": {"city": "COLUMBUS", "state": "OH", "street": "733 LAKEVIEW PLAZA BLVD", "postcode": "43085"}}},
{"geometry": {"type": "Point", "coordinates": [-83.0174064287, 40.0997255977]}, "type": "Feature", "properties": {"collection_times": [{"days": "Mon-Fri", "time": "11:00am"}, {"days": "Sat-Sun", "time": "Closed"}], "id": "4308500017", "name": "USPS COLLECTION BOX - BLUE BOX", "address": {"city": "COLUMBUS", "state": "OH", "street": "6641 N HIGH ST", "postcode": "43085"}}},
{"geometry": {"type": "Point", "coordinates": [-83.0123847679, 40.1096565382]}, "type": "Feature", "properties": {"collection_times": [{"days": "Mon-Fri", "time": "11:15am"}, {"days": "Sat-Sun", "time": "Closed"}], "id": "4308500018", "name": "USPS COLLECTION BOX - BLUE BOX", "address": {"city": "COLUMBUS", "state": "OH", "street": "130 E WILSON BRIDGE RD", "postcode": "43085"}}},
{"geometry": {"type": "Point", "coordinates": [-82.9951516227, 40.1225545565]}, "type": "Feature", "properties": {"collection_times": [{"days": "Mon-Fri", "time": "12:00pm"}, {"days": "Sat-Sun", "time": "Closed"}], "id": "4308500020", "name": "USPS COLLECTION BOX - BLUE BOX", "address": {"city": "COLUMBUS", "state": "OH", "street": "800 MODOC RD", "postcode": "43085"}}},
{"geometry": {"type": "Point", "coordinates": [-82.9867616108, 40.1182369375]}, "type": "Feature", "properties": {"collection_times": [{"days": "Mon-Fri", "time": "12:30pm"}, {"days": "Sat-Sun", "time": "Closed"}], "id": "4308500021", "name": "USPS COLLECTION BOX - BLUE BOX", "address": {"city": "COLUMBUS", "state": "OH", "street": "1121 WORTHINGTON WOODS BLVD", "postcode": "43085"}}},
{"geometry": {"type": "Point", "coordinates": [-83.015840191, 40.091068704]}, "type": "Feature", "properties": {"collection_times": [{"days": "Mon-Fri", "time": "10:00am"}, {"days": "Sat-Sun", "time": "Closed"}], "id": "4308500022", "name": "USPS COLLECTION BOX - BLUE BOX", "address": {"city": "COLUMBUS", "state": "OH", "street": "796 HARTFORD ST", "postcode": "43085"}}},
{"geometry": {"type": "Point", "coordinates": [-82.9801929056, 40.1238070934]}, "type": "Feature", "properties": {"collection_times": [{"days": "Mon-Fri", "time": "12:30pm"}, {"days": "Sat-Sun", "time": "Closed"}], "id": "4308500023", "name": "USPS COLLECTION BOX - BLUE BOX", "address": {"city": "COLUMBUS", "state": "OH", "street": "1415 WORTHINGTON CENTRE DR", "postcode": "43085"}}},
{"geometry": {"type": "Point", "coordinates": [-83.0175330053, 40.0976234796]}, "type": "Feature", "properties": {"collection_times": [{"days": "Mon-Fri", "time": "12:00pm"}, {"days": "Sat-Sun", "time": "Closed"}], "id": "4308500024", "name": "USPS COLLECTION BOX - BLUE BOX", "address": {"city": "COLUMBUS", "state": "OH", "street": "6550 N HIGH ST", "postcode": "43085"}}},
{"geometry": {"type": "Point", "coordinates": [-83.0046801562, 40.1093596155]}, "type": "Feature", "properties": {"collection_times": [{"days": "Mon-Fri", "time": "11:00am"}, {"days": "Sat-Sun", "time": "Closed"}], "id": "4308500025", "name": "USPS COLLECTION BOX - BLUE BOX", "address": {"city": "COLUMBUS", "state": "OH", "street": "350 E WILSON BRIDGE RD", "postcode": "43085"}}},
{"geometry": {"type": "Point", "coordinates": [-82.9998868064, 40.1091549636]}, "type": "Feature", "properties": {"collection_times": [{"days": "Mon-Fri", "time": "11:30am"}, {"days": "Sat-Sun", "time": "Closed"}], "id": "4308500026", "name": "USPS COLLECTION BOX - BLUE BOX", "address": {"city": "COLUMBUS", "state": "OH", "street": "438 E WILSON BRIDGE RD", "postcode": "43085"}}},
{"geometry": {"type": "Point", "coordinates": [-83.0183125753, 40.085851855]}, "type": "Feature", "properties": {"collection_times": [{"days": "Mon-Fri", "time": "5:00pm"}, {"days": "Sat", "time": "12:00pm"}, {"days": "Sun", "time": "Closed"}], "id": "4308500032", "name": "USPS COLLECTION BOX - BLUE BOX", "address": {"city": "COLUMBUS", "state": "OH", "street": "597 HIGH ST", "postcode": "43085"}}},
{"geometry": {"type": "Point", "coordinates": [-83.0183125753, 40.085851855]}, "type": "Feature", "properties": {"collection_times": [{"days": "Mon-Fri", "time": "5:00pm"}, {"days": "Sat", "time": "12:00pm"}, {"days": "Sun", "time": "Closed"}], "id": "4308500035", "name": "USPS COLLECTION BOX - BLUE BOX", "address": {"city": "COLUMBUS", "state": "OH", "street": "597 HIGH ST", "postcode": "43085"}}},
{"geometry": {"type": "Point", "coordinates": [-83.0183125753, 40.085851855]}, "type": "Feature", "properties": {"collection_times": [{"days": "Mon-Fri", "time": "5:00pm"}, {"days": "Sat", "time": "12:00pm"}, {"days": "Sun", "time": "Closed"}], "id": "4308500036", "name": "USPS COLLECTION BOX - BLUE BOX", "address": {"city": "COLUMBUS", "state": "OH", "street": "597 HIGH ST", "postcode": "43085"}}},
{"geometry": {"type": "Point", "coordinates": [-83.0258716831, 40.1101604788]}, "type": "Feature", "properties": {"collection_times": [{"days": "Mon-Fri", "time": "11:45am"}, {"days": "Sat-Sun", "time": "Closed"}], "id": "4308500039", "name": "USPS COLLECTION BOX - BLUE BOX", "address": {"city": "COLUMBUS", "state": "OH", "street": "400 W WILSON BRIDGE RD", "postcode": "43085"}}},
{"geometry": {"type": "Point", "coordinates": [-83.0123847679, 40.1096565382]}, "type": "Feature", "properties": {"collection_times": [{"days": "Mon-Fri", "time": "11:15am"}, {"days": "Sat-Sun", "time": "Closed"}], "id": "4308500043", "name": "USPS COLLECTION BOX - BLUE BOX", "address": {"city": "COLUMBUS", "state": "OH", "street": "130 E WILSON BRIDGE RD", "postcode": "43085"}}},
{"geometry": {"type": "Point", "coordinates": [-83.0123847679, 40.1096565382]}, "type": "Feature", "properties": {"collection_times": [{"days": "Mon-Fri", "time": "11:15am"}, {"days": "Sat-Sun", "time": "Closed"}], "id": "4308500044", "name": "USPS COLLECTION BOX - BLUE BOX", "address": {"city": "COLUMBUS", "state": "OH", "street": "130 E WILSON BRIDGE RD", "postcode": "43085"}}},
{"geometry": {"type": "Point", "coordinates": [-83.0171605432, 40.1078719182]}, "type": "Feature", "properties": {"collection_times": [{"days": "Mon-Sat", "time": "1:00pm"}, {"days": "Sun", "time": "Closed"}], "id": "4308500045", "name": "USPS COLLECTION BOX - BLUE BOX", "address": {"city": "COLUMBUS", "state": "OH", "street": "60 WORTHINGTON MALL", "postcode": "43085"}}},
{"geometry": {"type": "Point", "coordinates": [-83.0046801562, 40.1093596155]}, "type": "Feature", "properties": {"collection_times": [{"days": "Mon-Fri", "time": "11:00am"}, {"days": "Sat-Sun", "time": "Closed"}], "id": "4308500051", "name": "USPS COLLECTION BOX - BLUE BOX", "address": {"city": "COLUMBUS", "state": "OH", "street": "350 E WILSON BRIDGE RD", "postcode": "43085"}}},
{"geometry": {"type": "Point", "coordinates": [-83.0183125753, 40.085851855]}, "type": "Feature", "properties": {"collection_times": [{"days": "Mon-Fri", "time": "5:00pm"}, {"days": "Sat", "time": "2:00pm"}, {"days": "Sun", "time": "Closed"}], "id": "4308500052", "name": "USPS COLLECTION BOX - PO LOBBY", "address": {"city": "COLUMBUS", "state": "OH", "street": "597 HIGH ST", "postcode": "43085"}}},
{"geometry": {"type": "Point", "coordinates": [-83.0183125753, 40.085851855]}, "type": "Feature", "properties": {"collection_times": [{"days": "Mon-Fri", "time": "5:00pm"}, {"days": "Sat", "time": "2:00pm"}, {"days": "Sun", "time": "Closed"}], "id": "4308500053", "name": "USPS COLLECTION BOX - PO LOBBY", "address": {"city": "COLUMBUS", "state": "OH", "street": "597 HIGH ST", "postcode": "43085"}}},
{"geometry": {"type": "Point", "coordinates": [-83.0230881806, 40.1100256214]}, "type": "Feature", "properties": {"collection_times": [{"days": "Mon-Fri", "time": "11:30am"}, {"days": "Sat-Sun", "time": "Closed"}], "id": "4308500054", "name": "USPS COLLECTION BOX - BLUE BOX", "address": {"city": "COLUMBUS", "state": "OH", "street": "250 W OLD WILSON BRIDGE RD", "postcode": "43085"}}},
{"geometry": {"type": "Point", "coordinates": [-82.9667781509, 40.1411220637]}, "type": "Feature", "properties": {"collection_times": [{"days": "Mon-Fri", "time": "12:00pm"}, {"days": "Sat-Sun", "time": "Closed"}], "id": "4308500056", "name": "USPS COLLECTION BOX - BLUE BOX", "address": {"city": "COLUMBUS", "state": "OH", "street": "8425 PULSAR PL", "postcode": "43085"}}},
{"geometry": {"type": "Point", "coordinates": [-82.9957594626, 40.1457427015]}, "type": "Feature", "properties": {"collection_times": [{"days": "Mon-Fri", "time": "12:00pm"}, {"days": "Sat-Sun", "time": "Closed"}], "id": "4308500058", "name": "USPS COLLECTION BOX - BLUE BOX", "address": {"city": "COLUMBUS", "state": "OH", "street": "8947 ANTARES AVE", "postcode": "43085"}}},
{"geometry": {"type": "Point", "coordinates": [-83.0182137831, 40.0878953213]}, "type": "Feature", "properties": {"collection_times": [{"days": "Mon-Fri", "time": "10:30am"}, {"days": "Sat-Sun", "time": "Closed"}], "id": "4308500059", "name": "USPS COLLECTION BOX - BLUE BOX", "address": {"city": "COLUMBUS", "state": "OH", "street": "693 HIGH ST", "postcode": "43085"}}},
{"geometry": {"type": "Point", "coordinates": [-82.9873852961, 40.1419903556]}, "type": "Feature", "properties": {"collection_times": [{"days": "Mon-Fri", "time": "12:15pm"}, {"days": "Sat", "time": "1:00pm"}, {"days": "Sun", "time": "Closed"}], "id": "4308500060", "name": "USPS COLLECTION BOX - BLUE BOX", "address": {"city": "COLUMBUS", "state": "OH", "street": "1215 POLARIS PKWY", "postcode": "43085"}}},
{"geometry": {"type": "Point", "coordinates": [-82.9873852961, 40.1419903556]}, "type": "Feature", "properties": {"collection_times": [{"days": "Mon-Fri", "time": "12:15pm"}, {"days": "Sat", "time": "1:00pm"}, {"days": "Sun", "time": "Closed"}], "id": "4308500061", "name": "USPS COLLECTION BOX - BLUE BOX", "address": {"city": "COLUMBUS", "state": "OH", "street": "1215 POLARIS PKWY", "postcode": "43085"}}},
{"geometry": {"type": "Point", "coordinates": [-82.9675518061, 40.1462620204]}, "type": "Feature", "properties": {"collection_times": [{"days": "Mon-Fri", "time": "12:15pm"}, {"days": "Sat-Sun", "time": "Closed"}], "id": "4308500063", "name": "USPS COLLECTION BOX - BLUE BOX", "address": {"city": "COLUMBUS", "state": "OH", "street": "8700 ORION PL", "postcode": "43085"}}},
{"geometry": {"type": "Point", "coordinates": [-82.9754717164, 40.1448412867]}, "type": "Feature", "properties": {"collection_times": [{"days": "Mon-Fri", "time": "12:15pm"}, {"days": "Sat-Sun", "time": "Closed"}], "id": "4308500065", "name": "USPS COLLECTION BOX - BLUE BOX", "address": {"city": "COLUMBUS", "state": "OH", "street": "8800 LYRA DR", "postcode": "43085"}}},
{"geometry": {"type": "Point", "coordinates": [-83.0076623957, 40.1094708137]}, "type": "Feature", "properties": {"collection_times": [{"days": "Mon-Fri", "time": "11:15am"}, {"days": "Sat-Sun", "time": "Closed"}], "id": "4308500066", "name": "USPS COLLECTION BOX - BLUE BOX", "address": {"city": "COLUMBUS", "state": "OH", "street": "250 E WILSON BRIDGE RD", "postcode": "43085"}}},
{"geometry": {"type": "Point", "coordinates": [-83.0183125753, 40.085851855]}, "type": "Feature", "properties": {"collection_times": [{"days": "Mon-Fri", "time": "5:00pm"}, {"days": "Sat", "time": "12:00pm"}, {"days": "Sun", "time": "Closed"}], "id": "4308500067", "name": "USPS COLLECTION BOX - APC", "address": {"city": "COLUMBUS", "state": "OH", "street": "597 HIGH ST", "postcode": "43085"}}}
]}
