{"type": "FeatureCollection", "features": [
{"geometry": {"type": "Point", "coordinates": [-82.7485427366, 39.4610140474]}, "type": "Feature", "properties": {"collection_times": [{"days": "Mon-Fri", "time": "11:00am"}, {"days": "Sat", "time": "10:15am"}, {"days": "Sun", "time": "Closed"}], "id": "4310100000", "name": "USPS COLLECTION BOX - BLUE BOX", "address": {"city": "ADELPHI", "state": "OH", "street": "19333 CONCORD ST", "postcode": "43101"}}},
{"geometry": {"type": "Point", "coordinates": [-82.7412987587, 39.6489879644]}, "type": "Feature", "properties": {"collection_times": [{"days": "Mon-Fri", "time": "3:45pm"}, {"days": "Sat", "time": "10:45am"}, {"days": "Sun", "time": "Closed"}], "id": "4310200000", "name": "USPS COLLECTION BOX - BLUE BOX", "address": {"city": "AMANDA", "state": "OH", "street": "144 E MAIN ST", "postcode": "43102"}}},
{"geometry": {"type": "Point", "coordinates": [-82.7412987587, 39.6489879644]}, "type": "Feature", "properties": {"collection_times": [{"days": "Mon-Fri", "time": "4:15pm"}, {"days": "Sat", "time": "10:45am"}, {"days": "Sun", "time": "Closed"}], "id": "4310200001", "name": "USPS COLLECTION BOX - PO LOBBY", "address": {"city": "AMANDA", "state": "OH", "street": "144 E MAIN ST", "postcode": "43102"}}},
{"geometry": {"type": "Point", "coordinates": [-82.9546349534, 39.7201770423]}, "type": "Feature", "properties": {"collection_times": [{"days": "Mon-Sat", "time": "11:00am"}, {"days": "Sun", "time": "Closed"}], "id": "4310300000", "name": "USPS COLLECTION BOX - BLUE BOX", "address": {"city": "S BLOOMFIELD", "state": "OH", "street": "363 RANDOLPH ST", "postcode": "43103"}}},
{"geometry": {"type": "Point", "coordinates": [-82.9493249464, 39.7139016093]}, "type": "Feature", "properties": {"collection_times": [{"days": "Mon-Sat", "time": "8:45am"}, {"days": "Sun", "time": "Closed"}], "id": "4310300001", "name": "USPS COLLECTION BOX - BLUE BOX", "address": {"city": "S BLOOMFIELD", "state": "OH", "street": "154 MAIN ST E", "postcode": "43103"}}},
{"geometry": {"type": "Point", "coordinates": [-82.9619222408, 39.7147498423]}, "type": "Feature", "properties": {"collection_times": [{"days": "Mon-Sat", "time": "9:00am"}, {"days": "Sun", "time": "Closed"}], "id": "4310300002", "name": "USPS COLLECTION BOX - BLUE BOX", "address": {"city": "S BLOOMFIELD", "state": "OH", "street": "99 MILLER AVE", "postcode": "43103"}}},
{"geometry": {"type": "Point", "coordinates": [-82.9573642227, 39.7139352357]}, "type": "Feature", "properties": {"collection_times": [{"days": "Mon-Fri", "time": "9:30am"}, {"days": "Sat", "time": "9:00am"}, {"days": "Sun", "time": "Closed"}], "id": "4310300003", "name": "USPS COLLECTION BOX - BLUE BOX", "address": {"city": "S BLOOMFIELD", "state": "OH", "street": "35 SCIOTO ST", "postcode": "43103"}}},
{"geometry": {"type": "Point", "coordinates": [-82.958266681, 39.7176404137]}, "type": "Feature", "properties": {"collection_times": [{"days": "Mon-Sat", "time": "9:30am"}, {"days": "Sun", "time": "Closed"}], "id": "4310300004", "name": "USPS COLLECTION BOX - BLUE BOX", "address": {"city": "S BLOOMFIELD", "state": "OH", "street": "238 JEFFERSON AVE", "postcode": "43103"}}},
{"geometry": {"type": "Point", "coordinates": [-82.9868991861, 39.7173245978]}, "type": "Feature", "properties": {"collection_times": [{"days": "Mon-Sat", "time": "1:00pm"}, {"days": "Sun", "time": "Closed"}], "id": "4310300005", "name": "USPS COLLECTION BOX - BLUE BOX", "address": {"city": "S BLOOMFIELD", "state": "OH", "street": "5003 S WALNUT ST", "postcode": "43103"}}},
{"geometry": {"type": "Point", "coordinates": [-82.9837003682, 39.7174172493]}, "type": "Feature", "properties": {"collection_times": [{"days": "Mon-Sat", "time": "11:00am"}, {"days": "Sun", "time": "Closed"}], "id": "4310300006", "name": "USPS COLLECTION BOX - BLUE BOX", "address": {"city": "S BLOOMFIELD", "state": "OH", "street": "5020 EAST ST", "postcode": "43103"}}},
{"geometry": {"type": "Point", "coordinates": [-82.9535117598, 39.7130384367]}, "type": "Feature", "properties": {"collection_times": [{"days": "Mon-Fri", "time": "4:15pm"}, {"days": "Sat", "time": "3:30pm"}, {"days": "Sun", "time": "Closed"}], "id": "4310300007", "name": "USPS COLLECTION BOX - BLUE BOX", "address": {"city": "S BLOOMFIELD", "state": "OH", "street": "3 MAIN ST E", "postcode": "43103"}}},
{"geometry": {"type": "Point", "coordinates": [-82.9535117598, 39.7130384367]}, "type": "Feature", "properties": {"collection_times": [{"days": "Mon-Fri", "time": "4:30pm"}, {"days": "Sat", "time": "3:30pm"}, {"days": "Sun", "time": "Closed"}], "id": "4310300008", "name": "USPS COLLECTION BOX - PO LOBBY", "address": {"city": "S BLOOMFIELD", "state": "OH", "street": "3 MAIN ST E", "postcode": "43103"}}},
{"geometry": {"type": "Point", "coordinates": [-82.6021733255, 39.8425649473]}, "type": "Feature", "properties": {"collection_times": [{"days": "Mon-Sat", "time": "1:30pm"}, {"days": "Sun", "time": "Closed"}], "id": "4310500001", "name": "USPS COLLECTION BOX - BLUE BOX", "address": {"city": "BALTIMORE", "state": "OH", "street": "505 S MAIN ST", "postcode": "43105"}}},
{"geometry": {"type": "Point", "coordinates": [-82.6178778195, 39.8456979505]}, "type": "Feature", "properties": {"collection_times": [{"days": "Mon-Sat", "time": "12:30pm"}, {"days": "Sun", "time": "Closed"}], "id": "4310500004", "name": "USPS COLLECTION BOX - BLUE BOX", "address": {"city": "BALTIMORE", "state": "OH", "street": "1301 W MARKET ST", "postcode": "43105"}}},
{"geometry": {"type": "Point", "coordinates": [-82.6012802258, 39.8462172066]}, "type": "Feature", "properties": {"collection_times": [{"days": "Mon-Sat", "time": "9:15am"}, {"days": "Sun", "time": "Closed"}], "id": "4310500010", "name": "USPS COLLECTION BOX - BLUE BOX", "address": {"city": "BALTIMORE", "state": "OH", "street": "200 N MAIN ST", "postcode": "43105"}}},
{"geometry": {"type": "Point", "coordinates": [-82.6061862333, 39.845598804]}, "type": "Feature", "properties": {"collection_times": [{"days": "Mon-Fri", "time": "4:20pm"}, {"days": "Sat", "time": "3:30pm"}, {"days": "Sun", "time": "Closed"}], "id": "4310500011", "name": "USPS COLLECTION BOX - BLUE BOX", "address": {"city": "BALTIMORE", "state": "OH", "street": "432 W MARKET ST", "postcode": "43105"}}},
{"geometry": {"type": "Point", "coordinates": [-82.6061862333, 39.845598804]}, "type": "Feature", "properties": {"collection_times": [{"days": "Mon-Fri", "time": "4:20pm"}, {"days": "Sat", "time": "3:30pm"}, {"days": "Sun", "time": "Closed"}], "id": "4310500012", "name": "USPS COLLECTION BOX - PO LOBBY", "address": {"city": "BALTIMORE", "state": "OH", "street": "432 W MARKET ST", "postcode": "43105"}}},
{"geometry": {"type": "Point", "coordinates": [-83.3952653226, 39.6047819152]}, "type": "Feature", "properties": {"collection_times": [{"days": "Mon-Fri", "time": "4:30pm"}, {"days": "Sat", "time": "11:15am"}, {"days": "Sun", "time": "Closed"}], "id": "4310600000", "name": "USPS COLLECTION BOX - BLUE BOX", "address": {"city": "BLOOMINGBURG", "state": "OH", "street": "50 MAIN ST", "postcode": "43106"}}},
{"geometry": {"type": "Point", "coordinates": [-83.3952653226, 39.6047819152]}, "type": "Feature", "properties": {"collection_times": [{"days": "Mon-Fri", "time": "4:30pm"}, {"days": "Sat", "time": "11:15am"}, {"days": "Sun", "time": "Closed"}], "id": "4310600001", "name": "USPS COLLECTION BOX - PO LOBBY", "address": {"city": "BLOOMINGBURG", "state": "OH", "street": "50 MAIN ST", "postcode": "43106"}}},
{"geometry": {"type": "Point", "coordinates": [-82.4272935866, 39.7020992386]}, "type": "Feature", "properties": {"collection_times": [{"days": "Mon-Fri", "time": "4:15pm"}, {"days": "Sat", "time": "10:45am"}, {"days": "Sun", "time": "Closed"}], "id": "4310700005", "name": "USPS COLLECTION BOX - BLUE BOX", "address": {"city": "BREMEN", "state": "OH", "street": "118 W MAIN ST", "postcode": "43107"}}},
{"geometry": {"type": "Point", "coordinates": [-82.4272935866, 39.7020992386]}, "type": "Feature", "properties": {"collection_times": [{"days": "Mon-Fri", "time": "4:15pm"}, {"days": "Sat", "time": "10:45am"}, {"days": "Sun", "time": "Closed"}], "id": "4310700007", "name": "USPS COLLECTION BOX - PO LOBBY", "address": {"city": "BREMEN", "state": "OH", "street": "118 W MAIN ST", "postcode": "43107"}}},
{"geometry": {"type": "Point", "coordinates": [-82.8324685735, 39.9162994344]}, "type": "Feature", "properties": {"collection_times": [{"days": "Mon-Fri", "time": "5:00pm"}, {"days": "Sat", "time": "12:00pm"}, {"days": "Sun", "time": "Closed"}], "id": "4310900000", "name": "USPS COLLECTION BOX - BLUE BOX", "address": {"city": "BRICE", "state": "OH", "street": "3045 BRICE RD", "postcode": "43109"}}},
{"geometry": {"type": "Point", "coordinates": [-82.8324685735, 39.9162994344]}, "type": "Feature", "properties": {"collection_times": [{"days": "Mon-Fri", "time": "5:00pm"}, {"days": "Sat", "time": "12:00pm"}, {"days": "Sun", "time": "Closed"}], "id": "4310900001", "name": "USPS COLLECTION BOX - BLUE BOX", "address": {"city": "BRICE", "state": "OH", "street": "3045 BRICE RD", "postcode": "43109"}}},
{"geometry": {"type": "Point", "coordinates": [-82.8324685735, 39.9162994344]}, "type": "Feature", "properties": {"collection_times": [{"days": "Mon-Fri", "time": "5:00pm"}, {"days": "Sat", "time": "12:00pm"}, {"days": "Sun", "time": "Closed"}], "id": "4310900002", "name": "USPS COLLECTION BOX - PO LOBBY", "address": {"city": "BRICE", "state": "OH", "street": "3045 BRICE RD", "postcode": "43109"}}},
{"geometry": {"type": "Point", "coordinates": [-82.8282418265, 39.8551168918]}, "type": "Feature", "properties": {"collection_times": [{"days": "Mon-Sat", "time": "10:30am"}, {"days": "Sun", "time": "Closed"}], "id": "4311000007", "name": "USPS COLLECTION BOX - BLUE BOX", "address": {"city": "CANAL WNCHSTR", "state": "OH", "street": "6193 GENDER RD", "postcode": "43110"}}},
{"geometry": {"type": "Point", "coordinates": [-82.8049174246, 39.8481409828]}, "type": "Feature", "properties": {"collection_times": [{"days": "Mon-Fri", "time": "4:30pm"}, {"days": "Sat", "time": "1:00pm"}, {"days": "Sun", "time": "Closed"}], "id": "4311000008", "name": "USPS COLLECTION BOX - PO LOBBY", "address": {"city": "CANAL WNCHSTR", "state": "OH", "street": "200 N HIGH ST", "postcode": "43110"}}},
{"geometry": {"type": "Point", "coordinates": [-82.8049174246, 39.8481409828]}, "type": "Feature", "properties": {"collection_times": [{"days": "Mon-Fri", "time": "4:30pm"}, {"days": "Sat", "time": "1:00pm"}, {"days": "Sun", "time": "Closed"}], "id": "4311000009", "name": "USPS COLLECTION BOX - BLUE BOX", "address": {"city": "CANAL WNCHSTR", "state": "OH", "street": "200 N HIGH ST", "postcode": "43110"}}},
{"geometry": {"type": "Point", "coordinates": [-82.2384271952, 39.4982275188]}, "type": "Feature", "properties": {"collection_times": [{"days": "Mon-Fri", "time": "2:30pm"}, {"days": "Sat", "time": "12:00pm"}, {"days": "Sun", "time": "Closed"}], "id": "4311100000", "name": "USPS COLLECTION BOX - BLUE BOX", "address": {"city": "CARBON HILL", "state": "OH", "street": "41769 HAWK ST", "postcode": "43111"}}},
{"geometry": {"type": "Point", "coordinates": [-82.2384271952, 39.4982275188]}, "type": "Feature", "properties": {"collection_times": [{"days": "Mon-Fri", "time": "2:30pm"}, {"days": "Sat", "time": "12:00pm"}, {"days": "Sun", "time": "Closed"}], "id": "4311100001", "name": "USPS COLLECTION BOX - PO LOBBY", "address": {"city": "CARBON HILL", "state": "OH", "street": "41769 HAWK ST", "postcode": "43111"}}},
{"geometry": {"type": "Point", "coordinates": [-82.702734513, 39.8008140719]}, "type": "Feature", "properties": {"collection_times": [{"days": "Mon-Fri", "time": "3:45pm"}, {"days": "Sat", "time": "11:15am"}, {"days": "Sun", "time": "Closed"}], "id": "4311200000", "name": "USPS COLLECTION BOX - BLUE BOX", "address": {"city": "CARROLL", "state": "OH", "street": "53 LOCK ST", "postcode": "43112"}}},
{"geometry": {"type": "Point", "coordinates": [-82.702734513, 39.8008140719]}, "type": "Feature", "properties": {"collection_times": [{"days": "Mon-Fri", "time": "4:00pm"}, {"days": "Sat", "time": "11:30am"}, {"days": "Sun", "time": "Closed"}], "id": "4311200001", "name": "USPS COLLECTION BOX - PO LOBBY", "address": {"city": "CARROLL", "state": "OH", "street": "53 LOCK ST", "postcode": "43112"}}},
{"geometry": {"type": "Point", "coordinates": [-82.9443884243, 39.6033808621]}, "type": "Feature", "properties": {"collection_times": [{"days": "Mon-Sat", "time": "9:00am"}, {"days": "Sun", "time": "Closed"}], "id": "4311300000", "name": "USPS COLLECTION BOX - BLUE BOX", "address": {"city": "CIRCLEVILLE", "state": "OH", "street": "233 N COURT ST", "postcode": "43113"}}},
{"geometry": {"type": "Point", "coordinates": [-82.9450423977, 39.6018135865]}, "type": "Feature", "properties": {"collection_times": [{"days": "Mon-Sat", "time": "8:30am"}, {"days": "Sun", "time": "Closed"}], "id": "4311300002", "name": "USPS COLLECTION BOX - BLUE BOX", "address": {"city": "CIRCLEVILLE", "state": "OH", "street": "101 E MAIN ST", "postcode": "43113"}}},
{"geometry": {"type": "Point", "coordinates": [-82.9387954278, 39.6207947046]}, "type": "Feature", "properties": {"collection_times": [{"days": "Mon-Sat", "time": "12:00pm"}, {"days": "Sun", "time": "Closed"}], "id": "4311300010", "name": "USPS COLLECTION BOX - BLUE BOX", "address": {"city": "CIRCLEVILLE", "state": "OH", "street": "120 MORRIS RD", "postcode": "43113"}}},
{"geometry": {"type": "Point", "coordinates": [-82.9587850875, 39.5883038678]}, "type": "Feature", "properties": {"collection_times": [{"days": "Mon-Sat", "time": "9:30am"}, {"days": "Sun", "time": "Closed"}], "id": "4311300011", "name": "USPS COLLECTION BOX - BLUE BOX", "address": {"city": "CIRCLEVILLE", "state": "OH", "street": "1470 CIRCLEVILLE PLAZA DR", "postcode": "43113"}}},
{"geometry": {"type": "Point", "coordinates": [-82.9261130393, 39.6014403419]}, "type": "Feature", "properties": {"collection_times": [{"days": "Mon-Sat", "time": "9:30am"}, {"days": "Sun", "time": "Closed"}], "id": "4311300012", "name": "USPS COLLECTION BOX - BLUE BOX", "address": {"city": "CIRCLEVILLE", "state": "OH", "street": "460 LANCASTER PIKE", "postcode": "43113"}}},
{"geometry": {"type": "Point", "coordinates": [-82.945664342, 39.6005542159]}, "type": "Feature", "properties": {"collection_times": [{"days": "Mon-Fri", "time": "4:00pm"}, {"days": "Sat", "time": "12:30pm"}, {"days": "Sun", "time": "Closed"}], "id": "4311300013", "name": "USPS COLLECTION BOX - BLUE BOX", "address": {"city": "CIRCLEVILLE", "state": "OH", "street": "224 S COURT ST", "postcode": "43113"}}},
{"geometry": {"type": "Point", "coordinates": [-82.945664342, 39.6005542159]}, "type": "Feature", "properties": {"collection_times": [{"days": "Mon-Fri", "time": "4:00pm"}, {"days": "Sat", "time": "12:30pm"}, {"days": "Sun", "time": "Closed"}], "id": "4311300014", "name": "USPS COLLECTION BOX - BLUE BOX", "address": {"city": "CIRCLEVILLE", "state": "OH", "street": "224 S COURT ST", "postcode": "43113"}}},
{"geometry": {"type": "Point", "coordinates": [-82.945664342, 39.6005542159]}, "type": "Feature", "properties": {"collection_times": [{"days": "Mon-Fri", "time": "4:00pm"}, {"days": "Sat", "time": "12:30pm"}, {"days": "Sun", "time": "Closed"}], "id": "4311300017", "name": "USPS COLLECTION BOX - BLUE BOX", "address": {"city": "CIRCLEVILLE", "state": "OH", "street": "224 S COURT ST", "postcode": "43113"}}},
{"geometry": {"type": "Point", "coordinates": [-82.945664342, 39.6005542159]}, "type": "Feature", "properties": {"collection_times": [{"days": "Mon-Fri", "time": "4:00pm"}, {"days": "Sat", "time": "12:30pm"}, {"days": "Sun", "time": "Closed"}], "id": "4311300018", "name": "USPS COLLECTION BOX - BLUE BOX", "address": {"city": "CIRCLEVILLE", "state": "OH", "street": "224 S COURT ST", "postcode": "43113"}}},
{"geometry": {"type": "Point", "coordinates": [-82.9400511123, 39.6201045394]}, "type": "Feature", "properties": {"collection_times": [{"days": "Mon-Sat", "time": "9:00am"}, {"days": "Sun", "time": "Closed"}], "id": "4311300019", "name": "USPS COLLECTION BOX - BLUE BOX", "address": {"city": "CIRCLEVILLE", "state": "OH", "street": "1180 N COURT ST", "postcode": "43113"}}},
{"geometry": {"type": "Point", "coordinates": [-82.9321107809, 39.5989821309]}, "type": "Feature", "properties": {"collection_times": [{"days": "Mon-Sat", "time": "9:00am"}, {"days": "Sun", "time": "Closed"}], "id": "4311300020", "name": "USPS COLLECTION BOX - BLUE BOX", "address": {"city": "CIRCLEVILLE", "state": "OH", "street": "175 LANCASTER PIKE", "postcode": "43113"}}},
{"geometry": {"type": "Point", "coordinates": [-82.9280892776, 39.5862930909]}, "type": "Feature", "properties": {"collection_times": [{"days": "Mon-Fri", "time": "4:00pm"}, {"days": "Sat", "time": "3:30pm"}, {"days": "Sun", "time": "Closed"}], "id": "4311300021", "name": "USPS COLLECTION BOX - BLUE BOX", "address": {"city": "CIRCLEVILLE", "state": "OH", "street": "1191 KINGSTON PIKE", "postcode": "43113"}}},
{"geometry": {"type": "Point", "coordinates": [-82.9280892776, 39.5862930909]}, "type": "Feature", "properties": {"collection_times": [{"days": "Mon-Fri", "time": "4:00pm"}, {"days": "Sat", "time": "3:30pm"}, {"days": "Sun", "time": "Closed"}], "id": "4311300022", "name": "USPS COLLECTION BOX - BLUE BOX", "address": {"city": "CIRCLEVILLE", "state": "OH", "street": "1191 KINGSTON PIKE", "postcode": "43113"}}},
{"geometry": {"type": "Point", "coordinates": [-82.945664342, 39.6005542159]}, "type": "Feature", "properties": {"collection_times": [{"days": "Mon-Fri", "time": "4:30pm"}, {"days": "Sat", "time": "12:00pm"}, {"days": "Sun", "time": "Closed"}], "id": "4311300023", "name": "USPS COLLECTION BOX - PO LOBBY", "address": {"city": "CIRCLEVILLE", "state": "OH", "street": "224 S COURT ST", "postcode": "43113"}}},
{"geometry": {"type": "Point", "coordinates": [-83.1540541706, 39.5053193735]}, "type": "Feature", "properties": {"collection_times": [{"days": "Mon-Fri", "time": "3:30pm"}, {"days": "Sat", "time": "10:15am"}, {"days": "Sun", "time": "Closed"}], "id": "4311500000", "name": "USPS COLLECTION BOX - BLUE BOX", "address": {"city": "CLARKSBURG", "state": "OH", "street": "17343 HIGH ST", "postcode": "43115"}}},
{"geometry": {"type": "Point", "coordinates": [-83.1540541706, 39.5053193735]}, "type": "Feature", "properties": {"collection_times": [{"days": "Mon-Fri", "time": "3:30pm"}, {"days": "Sat", "time": "10:15am"}, {"days": "Sun", "time": "Closed"}], "id": "4311500001", "name": "USPS COLLECTION BOX - PO LOBBY", "address": {"city": "CLARKSBURG", "state": "OH", "street": "17343 HIGH ST", "postcode": "43115"}}},
{"geometry": {"type": "Point", "coordinates": [-83.0578371162, 39.7682927885]}, "type": "Feature", "properties": {"collection_times": [{"days": "Mon-Fri", "time": "3:45pm"}, {"days": "Sat", "time": "9:45am"}, {"days": "Sun", "time": "Closed"}], "id": "4311600000", "name": "USPS COLLECTION BOX - BLUE BOX", "address": {"city": "COMMERCIAL POINT", "state": "OH", "street": "12 BELSHAZZAR ST", "postcode": "43116"}}},
{"geometry": {"type": "Point", "coordinates": [-83.0578371162, 39.7682927885]}, "type": "Feature", "properties": {"collection_times": [{"days": "Mon-Fri", "time": "4:00pm"}, {"days": "Sat", "time": "9:45am"}, {"days": "Sun", "time": "Closed"}], "id": "4311600001", "name": "USPS COLLECTION BOX - PO LOBBY", "address": {"city": "COMMERCIAL POINT", "state": "OH", "street": "12 BELSHAZZAR ST", "postcode": "43116"}}},
{"geometry": {"type": "Point", "coordinates": [-83.1553039553, 39.9419448969]}, "type": "Feature", "properties": {"collection_times": [{"days": "Mon-Fri", "time": "4:15pm"}, {"days": "Sat", "time": "12:45pm"}, {"days": "Sun", "time": "Closed"}], "id": "4311900002", "name": "USPS COLLECTION BOX - BLUE BOX", "address": {"city": "GALLOWAY", "state": "OH", "street": "5820 SULLIVANT AVE", "postcode": "43119"}}},
{"geometry": {"type": "Point", "coordinates": [-83.1553039553, 39.9419448969]}, "type": "Feature", "properties": {"collection_times": [{"days": "Mon-Fri", "time": "4:15pm"}, {"days": "Sat", "time": "12:45pm"}, {"days": "Sun", "time": "Closed"}], "id": "4311900003", "name": "USPS COLLECTION BOX - PO LOBBY", "address": {"city": "GALLOWAY", "state": "OH", "street": "5820 SULLIVANT AVE", "postcode": "43119"}}},
{"geometry": {"type": "Point", "coordinates": [-83.0938845581, 39.8819515054]}, "type": "Feature", "properties": {"collection_times": [{"days": "Mon-Sat", "time": "1:00pm"}, {"days": "Sun", "time": "Closed"}], "id": "4312300001", "name": "USPS COLLECTION BOX - BLUE BOX", "address": {"city": "GROVE CITY", "state": "OH", "street": "4035 BROADWAY", "postcode": "43123"}}},
{"geometry": {"type": "Point", "coordinates": [-83.0925456162, 39.8816553932]}, "type": "Feature", "properties": {"collection_times": [{"days": "Mon-Sat", "time": "10:00am"}, {"days": "Sun", "time": "Closed"}], "id": "4312300002", "name": "USPS COLLECTION BOX - BLUE BOX", "address": {"city": "GROVE CITY", "state": "OH", "street": "3360 PARK ST", "postcode": "43123"}}},
{"geometry": {"type": "Point", "coordinates": [-83.0856951009, 39.8759369696]}, "type": "Feature", "properties": {"collection_times": [{"days": "Mon-Sat", "time": "9:00am"}, {"days": "Sun", "time": "Closed"}], "id": "4312300004", "name": "USPS COLLECTION BOX - BLUE BOX", "address": {"city": "GROVE CITY", "state": "OH", "street": "4315 HAUGHN RD", "postcode": "43123"}}},
{"geometry": {"type": "Point", "coordinates": [-83.0681695638, 39.8811277935]}, "type": "Feature", "properties": {"collection_times": [{"days": "Mon-Sat", "time": "11:00am"}, {"days": "Sun", "time": "Closed"}], "id": "4312300008", "name": "USPS COLLECTION BOX - BLUE BOX", "address": {"city": "GROVE CITY", "state": "OH", "street": "2474 STRINGTOWN RD", "postcode": "43123"}}},
{"geometry": {"type": "Point", "coordinates": [-83.0832972431, 39.8906103926]}, "type": "Feature", "properties": {"collection_times": [{"days": "Mon-Sat", "time": "9:00am"}, {"days": "Sun", "time": "Closed"}], "id": "4312300011", "name": "USPS COLLECTION BOX - BLUE BOX", "address": {"city": "GROVE CITY", "state": "OH", "street": "3082 SOUTHWEST BLVD", "postcode": "43123"}}},
{"geometry": {"type": "Point", "coordinates": [-83.0706632413, 39.8795710195]}, "type": "Feature", "properties": {"collection_times": [{"days": "Mon-Fri", "time": "4:00pm"}, {"days": "Sat", "time": "2:30pm"}, {"days": "Sun", "time": "Closed"}], "id": "4312300014", "name": "USPS COLLECTION BOX - BLUE BOX", "address": {"city": "GROVE CITY", "state": "OH", "street": "2539 DARTMOOR RD", "postcode": "43123"}}},
{"geometry": {"type": "Point", "coordinates": [-83.0584489765, 39.8785943244]}, "type": "Feature", "properties": {"collection_times": [{"days": "Mon-Sat", "time": "1:00pm"}, {"days": "Sun", "time": "Closed"}], "id": "4312300020", "name": "USPS COLLECTION BOX - BLUE BOX", "address": {"city": "GROVE CITY", "state": "OH", "street": "2082 STRINGTOWN RD", "postcode": "43123"}}},
{"geometry": {"type": "Point", "coordinates": [-83.0584489765, 39.8785943244]}, "type": "Feature", "properties": {"collection_times": [{"days": "Mon-Sat", "time": "1:00pm"}, {"days": "Sun", "time": "Closed"}], "id": "4312300021", "name": "USPS COLLECTION BOX - BLUE BOX", "address": {"city": "GROVE CITY", "state": "OH", "street": "2082 STRINGTOWN RD", "postcode": "43123"}}},
{"geometry": {"type": "Point", "coordinates": [-83.0706632413, 39.8795710195]}, "type": "Feature", "properties": {"collection_times": [{"days": "Mon-Fri", "time": "4:00pm"}, {"days": "Sat", "time": "12:00pm"}, {"days": "Sun", "time": "Closed"}], "id": "4312300022", "name": "USPS COLLECTION BOX - PO LOBBY", "address": {"city": "GROVE CITY", "state": "OH", "street": "2539 DARTMOOR RD", "postcode": "43123"}}},
{"geometry": {"type": "Point", "coordinates": [-83.0584489765, 39.8785943244]}, "type": "Feature", "properties": {"collection_times": [{"days": "Mon-Fri", "time": "4:00pm"}, {"days": "Sat", "time": "12:00pm"}, {"days": "Sun", "time": "Closed"}], "id": "4312300023", "name": "USPS COLLECTION BOX - PO LOBBY", "address": {"city": "GROVE CITY", "state": "OH", "street": "2082 STRINGTOWN RD", "postcode": "43123"}}},
{"geometry": {"type": "Point", "coordinates": [-83.0733118864, 39.8406528526]}, "type": "Feature", "properties": {"collection_times": [{"days": "Mon-Sat", "time": "9:00am"}, {"days": "Sun", "time": "Closed"}], "id": "4312300026", "name": "USPS COLLECTION BOX - BLUE BOX", "address": {"city": "GROVE CITY", "state": "OH", "street": "5965 HOOVER RD", "postcode": "43123"}}},
{"geometry": {"type": "Point", "coordinates": [-83.0938845581, 39.8819515054]}, "type": "Feature", "properties": {"collection_times": [{"days": "Mon-Sat", "time": "1:00pm"}, {"days": "Sun", "time": "Closed"}], "id": "4312300027", "name": "USPS COLLECTION BOX - BLUE BOX", "address": {"city": "GROVE CITY", "state": "OH", "street": "4035 BROADWAY", "postcode": "43123"}}},
{"geometry": {"type": "Point", "coordinates": [-83.042494601, 39.8786659318]}, "type": "Feature", "properties": {"collection_times": [{"days": "Mon-Fri", "time": "11:00am"}, {"days": "Sat", "time": "10:00am"}, {"days": "Sun", "time": "Closed"}], "id": "4312300029", "name": "USPS COLLECTION BOX - BLUE BOX", "address": {"city": "GROVE CITY", "state": "OH", "street": "1693 STRINGTOWN RD", "postcode": "43123"}}},
{"geometry": {"type": "Point", "coordinates": [-83.0584489765, 39.8785943244]}, "type": "Feature", "properties": {"collection_times": [{"days": "Mon-Fri", "time": "4:00pm"}, {"days": "Sat", "time": "12:00pm"}, {"days": "Sun", "time": "Closed"}], "id": "4312300030", "name": "USPS COLLECTION BOX - APC", "address": {"city": "GROVE CITY", "state": "OH", "street": "2082 STRINGTOWN RD", "postcode": "43123"}}},
{"geometry": {"type": "Point", "coordinates": [-83.0757869907, 39.8544949443]}, "type": "Feature", "properties": {"collection_times": [{"days": "Mon-Sat", "time": "9:00am"}, {"days": "Sun", "time": "Closed"}], "id": "4312300033", "name": "USPS COLLECTION BOX - BLUE BOX", "address": {"city": "GROVE CITY", "state": "OH", "street": "5300 N MEADOWS DR", "postcode": "43123"}}},
{"geometry": {"type": "Point", "coordinates": [-82.9240638686, 39.8659409663]}, "type": "Feature", "properties": {"collection_times": [{"days": "Mon-Sat", "time": "10:00am"}, {"days": "Sun", "time": "Closed"}], "id": "4312500001", "name": "USPS COLLECTION BOX - BLUE BOX", "address": {"city": "GROVEPORT", "state": "OH", "street": "5215 GROVEPORT RD", "postcode": "43125"}}},
{"geometry": {"type": "Point", "coordinates": [-82.8804126828, 39.8948524835]}, "type": "Feature", "properties": {"collection_times": [{"days": "Mon-Sat", "time": "9:00am"}, {"days": "Sun", "time": "Closed"}], "id": "4312500002", "name": "USPS COLLECTION BOX - BLUE BOX", "address": {"city": "GROVEPORT", "state": "OH", "street": "4365 BAYSHIRE RD", "postcode": "43125"}}},
{"geometry": {"type": "Point", "coordinates": [-82.8940959692, 39.8535766792]}, "type": "Feature", "properties": {"collection_times": [{"days": "Mon-Fri", "time": "4:00pm"}, {"days": "Sat", "time": "2:00pm"}, {"days": "Sun", "time": "Closed"}], "id": "4312500004", "name": "USPS COLLECTION BOX - BLUE BOX", "address": {"city": "GROVEPORT", "state": "OH", "street": "189 MAIN ST", "postcode": "43125"}}},
{"geometry": {"type": "Point", "coordinates": [-82.8940959692, 39.8535766792]}, "type": "Feature", "properties": {"collection_times": [{"days": "Mon-Fri", "time": "4:00pm"}, {"days": "Sat", "time": "2:00pm"}, {"days": "Sun", "time": "Closed"}], "id": "4312500006", "name": "USPS COLLECTION BOX - BLUE BOX", "address": {"city": "GROVEPORT", "state": "OH", "street": "189 MAIN ST", "postcode": "43125"}}},
{"geometry": {"type": "Point", "coordinates": [-82.8940959692, 39.8535766792]}, "type": "Feature", "properties": {"collection_times": [{"days": "Mon-Fri", "time": "4:30pm"}, {"days": "Sat", "time": "2:00pm"}, {"days": "Sun", "time": "Closed"}], "id": "4312500007", "name": "USPS COLLECTION BOX - PO LOBBY", "address": {"city": "GROVEPORT", "state": "OH", "street": "189 MAIN ST", "postcode": "43125"}}},
{"geometry": {"type": "Point", "coordinates": [-82.897876706, 39.8549997789]}, "type": "Feature", "properties": {"collection_times": [{"days": "Mon-Fri", "time": "12:00pm"}, {"days": "Sat", "time": "10:00am"}, {"days": "Sun", "time": "Closed"}], "id": "4312500009", "name": "USPS COLLECTION BOX - BLUE BOX", "address": {"city": "GROVEPORT", "state": "OH", "street": "6011 GROVEPORT RD", "postcode": "43125"}}},
{"geometry": {"type": "Point", "coordinates": [-83.1711709839, 39.8092831467]}, "type": "Feature", "properties": {"collection_times": [{"days": "Mon-Fri", "time": "3:45pm"}, {"days": "Sat", "time": "9:45am"}, {"days": "Sun", "time": "Closed"}], "id": "4312600000", "name": "USPS COLLECTION BOX - BLUE BOX", "address": {"city": "HARRISBURG", "state": "OH", "street": "1019 COLUMBUS ST", "postcode": "43126"}}},
{"geometry": {"type": "Point", "coordinates": [-83.1711709839, 39.8092831467]}, "type": "Feature", "properties": {"collection_times": [{"days": "Mon-Fri", "time": "3:45pm"}, {"days": "Sat", "time": "9:45am"}, {"days": "Sun", "time": "Closed"}], "id": "4312600001", "name": "USPS COLLECTION BOX - PO LOBBY", "address": {"city": "HARRISBURG", "state": "OH", "street": "1019 COLUMBUS ST", "postcode": "43126"}}},
{"geometry": {"type": "Point", "coordinates": [-82.3181446006, 39.4727002744]}, "type": "Feature", "properties": {"collection_times": [{"days": "Mon-Fri", "time": "10:30am"}, {"days": "Sat", "time": "10:15am"}, {"days": "Sun", "time": "Closed"}], "id": "4312700000", "name": "USPS COLLECTION BOX - BLUE BOX", "address": {"city": "HAYDENVILLE", "state": "OH", "street": "16966 HAYDENVILLE RD", "postcode": "43127"}}},
{"geometry": {"type": "Point", "coordinates": [-82.3181446006, 39.4727002744]}, "type": "Feature", "properties": {"collection_times": [{"days": "Mon-Fri", "time": "10:30am"}, {"days": "Sat", "time": "10:15am"}, {"days": "Sun", "time": "Closed"}], "id": "4312700001", "name": "USPS COLLECTION BOX - PO LOBBY", "address": {"city": "HAYDENVILLE", "state": "OH", "street": "16966 HAYDENVILLE RD", "postcode": "43127"}}},
{"geometry": {"type": "Point", "coordinates": [-83.6029612902, 39.6188417899]}, "type": "Feature", "properties": {"collection_times": [{"days": "Mon-Sat", "time": "1:00pm"}, {"days": "Sun", "time": "Closed"}], "id": "4312800004", "name": "USPS COLLECTION BOX - BLUE BOX", "address": {"city": "JEFFERSONVILLE", "state": "OH", "street": "8365 FACTORY SHOPS BLVD", "postcode": "43128"}}},
{"geometry": {"type": "Point", "coordinates": [-83.6030950278, 39.6170524968]}, "type": "Feature", "properties": {"collection_times": [{"days": "Mon-Sat", "time": "1:00pm"}, {"days": "Sun", "time": "Closed"}], "id": "4312800005", "name": "USPS COLLECTION BOX - BLUE BOX", "address": {"city": "JEFFERSONVILLE", "state": "OH", "street": "12403 US HIGHWAY 35 NW", "postcode": "43128"}}},
{"geometry": {"type": "Point", "coordinates": [-83.5629274053, 39.6537324374]}, "type": "Feature", "properties": {"collection_times": [{"days": "Mon-Fri", "time": "3:45pm"}, {"days": "Sat", "time": "11:45am"}, {"days": "Sun", "time": "Closed"}], "id": "4312800006", "name": "USPS COLLECTION BOX - BLUE BOX", "address": {"city": "JEFFERSONVILLE", "state": "OH", "street": "12 S MAIN ST", "postcode": "43128"}}},
{"geometry": {"type": "Point", "coordinates": [-83.5368508196, 39.6463356347]}, "type": "Feature", "properties": {"collection_times": [{"days": "Mon-Sat", "time": "1:00pm"}, {"days": "Sun", "time": "Closed"}], "id": "4312800007", "name": "USPS COLLECTION BOX - BLUE BOX", "address": {"city": "JEFFERSONVILLE", "state": "OH", "street": "9735 STATE ROUTE 41", "postcode": "43128"}}},
{"geometry": {"type": "Point", "coordinates": [-83.6040437284, 39.6199166397]}, "type": "Feature", "properties": {"collection_times": [{"days": "Mon-Sat", "time": "1:00pm"}, {"days": "Sun", "time": "Closed"}], "id": "4312800008", "name": "USPS COLLECTION BOX - BLUE BOX", "address": {"city": "JEFFERSONVILLE", "state": "OH", "street": "8600 FACTORY SHOPS BLVD", "postcode": "43128"}}},
{"geometry": {"type": "Point", "coordinates": [-83.5629274053, 39.6537324374]}, "type": "Feature", "properties": {"collection_times": [{"days": "Mon-Fri", "time": "3:45pm"}, {"days": "Sat", "time": "11:45am"}, {"days": "Sun", "time": "Closed"}], "id": "4312800009", "name": "USPS COLLECTION BOX - PO LOBBY", "address": {"city": "JEFFERSONVILLE", "state": "OH", "street": "12 S MAIN ST", "postcode": "43128"}}},
{"geometry": {"type": "Point", "coordinates": [-83.6063605543, 39.6186396143]}, "type": "Feature", "properties": {"collection_times": [{"days": "Mon-Sat", "time": "1:00pm"}, {"days": "Sun", "time": "Closed"}], "id": "4312800010", "name": "USPS COLLECTION BOX - BLUE BOX", "address": {"city": "JEFFERSONVILLE", "state": "OH", "street": "13023 US 35 NW", "postcode": "43128"}}},
{"geometry": {"type": "Point", "coordinates": [-82.5875238727, 39.7233482757]}, "type": "Feature", "properties": {"collection_times": [{"days": "Mon-Sat", "time": "9:00am"}, {"days": "Sun", "time": "Closed"}], "id": "4313000000", "name": "USPS COLLECTION BOX - BLUE BOX", "address": {"city": "LANCASTER", "state": "OH", "street": "840 MADISON AVE", "postcode": "43130"}}},
{"geometry": {"type": "Point", "coordinates": [-82.5931583062, 39.7196467971]}, "type": "Feature", "properties": {"collection_times": [{"days": "Mon-Sat", "time": "9:00am"}, {"days": "Sun", "time": "Closed"}], "id": "4313000001", "name": "USPS COLLECTION BOX - BLUE BOX", "address": {"city": "LANCASTER", "state": "OH", "street": "508 E 6TH AVE", "postcode": "43130"}}},
{"geometry": {"type": "Point", "coordinates": [-82.5947682905, 39.7135685535]}, "type": "Feature", "properties": {"collection_times": [{"days": "Mon-Fri", "time": "3:00pm"}, {"days": "Sat", "time": "2:30pm"}, {"days": "Sun", "time": "Closed"}], "id": "4313000003", "name": "USPS COLLECTION BOX - BLUE BOX", "address": {"city": "LANCASTER", "state": "OH", "street": "443 E MAIN ST", "postcode": "43130"}}},
{"geometry": {"type": "Point", "coordinates": [-82.5881295476, 39.7147245048]}, "type": "Feature", "properties": {"collection_times": [{"days": "Mon-Sat", "time": "9:00am"}, {"days": "Sun", "time": "Closed"}], "id": "4313000004", "name": "USPS COLLECTION BOX - BLUE BOX", "address": {"city": "LANCASTER", "state": "OH", "street": "675 E WHEELING ST", "postcode": "43130"}}},
{"geometry": {"type": "Point", "coordinates": [-82.6143747473, 39.7081162362]}, "type": "Feature", "properties": {"collection_times": [{"days": "Mon-Sat", "time": "9:00am"}, {"days": "Sun", "time": "Closed"}], "id": "4313000006", "name": "USPS COLLECTION BOX - BLUE BOX", "address": {"city": "LANCASTER", "state": "OH", "street": "302 TALMADGE AVE", "postcode": "43130"}}},
{"geometry": {"type": "Point", "coordinates": [-82.6045466125, 39.7133964072]}, "type": "Feature", "properties": {"collection_times": [{"days": "Mon-Sat", "time": "9:00am"}, {"days": "Sun", "time": "Closed"}], "id": "4313000007", "name": "USPS COLLECTION BOX - BLUE BOX", "address": {"city": "LANCASTER", "state": "OH", "street": "134 S COLUMBUS ST", "postcode": "43130"}}},
{"geometry": {"type": "Point", "coordinates": [-82.5736749721, 39.7189796082]}, "type": "Feature", "properties": {"collection_times": [{"days": "Mon-Sat", "time": "9:00am"}, {"days": "Sun", "time": "Closed"}], "id": "4313000014", "name": "USPS COLLECTION BOX - BLUE BOX", "address": {"city": "LANCASTER", "state": "OH", "street": "803 LANRECO BLVD", "postcode": "43130"}}},
{"geometry": {"type": "Point", "coordinates": [-82.5688828053, 39.7144358628]}, "type": "Feature", "properties": {"collection_times": [{"days": "Mon-Sat", "time": "9:00am"}, {"days": "Sun", "time": "Closed"}], "id": "4313000015", "name": "USPS COLLECTION BOX - BLUE BOX", "address": {"city": "LANCASTER", "state": "OH", "street": "1601 E MAIN ST", "postcode": "43130"}}},
{"geometry": {"type": "Point", "coordinates": [-82.620811155, 39.7234322658]}, "type": "Feature", "properties": {"collection_times": [{"days": "Mon-Sat", "time": "9:00am"}, {"days": "Sun", "time": "Closed"}], "id": "4313000020", "name": "USPS COLLECTION BOX - BLUE BOX", "address": {"city": "LANCASTER", "state": "OH", "street": "801 N ROOSEVELT AVE", "postcode": "43130"}}},
{"geometry": {"type": "Point", "coordinates": [-82.5782926027, 39.7220424147]}, "type": "Feature", "properties": {"collection_times": [{"days": "Mon-Sat", "time": "9:00am"}, {"days": "Sun", "time": "Closed"}], "id": "4313000021", "name": "USPS COLLECTION BOX - BLUE BOX", "address": {"city": "LANCASTER", "state": "OH", "street": "805 SHERIDAN DR", "postcode": "43130"}}},
{"geometry": {"type": "Point", "coordinates": [-82.6058749737, 39.7215458191]}, "type": "Feature", "properties": {"collection_times": [{"days": "Mon-Sat", "time": "9:00am"}, {"days": "Sun", "time": "Closed"}], "id": "4313000024", "name": "USPS COLLECTION BOX - BLUE BOX", "address": {"city": "LANCASTER", "state": "OH", "street": "714 FOREST ROSE AVE", "postcode": "43130"}}},
{"geometry": {"type": "Point", "coordinates": [-82.5713149689, 39.732189711]}, "type": "Feature", "properties": {"collection_times": [{"days": "Mon-Sat", "time": "9:00am"}, {"days": "Sun", "time": "Closed"}], "id": "4313000026", "name": "USPS COLLECTION BOX - BLUE BOX", "address": {"city": "LANCASTER", "state": "OH", "street": "1248 SHERIDAN DR", "postcode": "43130"}}},
{"geometry": {"type": "Point", "coordinates": [-82.6032581493, 39.7137268373]}, "type": "Feature", "properties": {"collection_times": [{"days": "Mon-Fri", "time": "3:00pm"}, {"days": "Sat", "time": "2:00pm"}, {"days": "Sun", "time": "Closed"}], "id": "4313000029", "name": "USPS COLLECTION BOX - BLUE BOX", "address": {"city": "LANCASTER", "state": "OH", "street": "148 W MAIN ST", "postcode": "43130"}}},
{"geometry": {"type": "Point", "coordinates": [-82.5976576705, 39.7218596155]}, "type": "Feature", "properties": {"collection_times": [{"days": "Mon-Sat", "time": "9:00am"}, {"days": "Sun", "time": "Closed"}], "id": "4313000031", "name": "USPS COLLECTION BOX - BLUE BOX", "address": {"city": "LANCASTER", "state": "OH", "street": "750 N HIGH ST", "postcode": "43130"}}},
{"geometry": {"type": "Point", "coordinates": [-82.6288895817, 39.7250706639]}, "type": "Feature", "properties": {"collection_times": [{"days": "Mon-Sat", "time": "9:00am"}, {"days": "Sun", "time": "Closed"}], "id": "4313000032", "name": "USPS COLLECTION BOX - BLUE BOX", "address": {"city": "LANCASTER", "state": "OH", "street": "1826 W FAIR AVE", "postcode": "43130"}}},
{"geometry": {"type": "Point", "coordinates": [-82.610396956, 39.727624873]}, "type": "Feature", "properties": {"collection_times": [{"days": "Mon-Fri", "time": "3:00pm"}, {"days": "Sat", "time": "2:30pm"}, {"days": "Sun", "time": "Closed"}], "id": "4313000036", "name": "USPS COLLECTION BOX - BLUE BOX", "address": {"city": "LANCASTER", "state": "OH", "street": "1215 N MEMORIAL DR", "postcode": "43130"}}},
{"geometry": {"type": "Point", "coordinates": [-82.6150430471, 39.7243821818]}, "type": "Feature", "properties": {"collection_times": [{"days": "Mon-Fri", "time": "3:00pm"}, {"days": "Sat", "time": "2:15pm"}, {"days": "Sun", "time": "Closed"}], "id": "4313000037", "name": "USPS COLLECTION BOX - BLUE BOX", "address": {"city": "LANCASTER", "state": "OH", "street": "803 W FAIR AVE", "postcode": "43130"}}},
{"geometry": {"type": "Point", "coordinates": [-82.6079847432, 39.6964028747]}, "type": "Feature", "properties": {"collection_times": [{"days": "Mon-Sat", "time": "9:00am"}, {"days": "Sun", "time": "Closed"}], "id": "4313000039", "name": "USPS COLLECTION BOX - BLUE BOX", "address": {"city": "LANCASTER", "state": "OH", "street": "2445 COLS-LANCASTER RD NW", "postcode": "43130"}}},
{"geometry": {"type": "Point", "coordinates": [-82.6385294751, 39.7352188047]}, "type": "Feature", "properties": {"collection_times": [{"days": "Mon-Sat", "time": "9:00am"}, {"days": "Sun", "time": "Closed"}], "id": "4313000041", "name": "USPS COLLECTION BOX - BLUE BOX", "address": {"city": "LANCASTER", "state": "OH", "street": "2031 FARMVIEW DR", "postcode": "43130"}}},
{"geometry": {"type": "Point", "coordinates": [-82.5898262655, 39.6989696567]}, "type": "Feature", "properties": {"collection_times": [{"days": "Mon-Sat", "time": "9:00am"}, {"days": "Sun", "time": "Closed"}], "id": "4313000042", "name": "USPS COLLECTION BOX - BLUE BOX", "address": {"city": "LANCASTER", "state": "OH", "street": "1375 OLD LOGAN RD", "postcode": "43130"}}},
{"geometry": {"type": "Point", "coordinates": [-82.5834095414, 39.7134954104]}, "type": "Feature", "properties": {"collection_times": [{"days": "Mon-Sat", "time": "9:00am"}, {"days": "Sun", "time": "Closed"}], "id": "4313000047", "name": "USPS COLLECTION BOX - BLUE BOX", "address": {"city": "LANCASTER", "state": "OH", "street": "900 E MAIN ST", "postcode": "43130"}}},
{"geometry": {"type": "Point", "coordinates": [-82.6101183889, 39.732331666]}, "type": "Feature", "properties": {"collection_times": [{"days": "Mon-Sat", "time": "9:00am"}, {"days": "Sun", "time": "Closed"}], "id": "4313000048", "name": "USPS COLLECTION BOX - BLUE BOX", "address": {"city": "LANCASTER", "state": "OH", "street": "1450 N COLUMBUS ST", "postcode": "43130"}}},
{"geometry": {"type": "Point", "coordinates": [-82.6045360055, 39.7150722947]}, "type": "Feature", "properties": {"collection_times": [{"days": "Mon-Fri", "time": "3:00pm"}, {"days": "Sat", "time": "2:30pm"}, {"days": "Sun", "time": "Closed"}], "id": "4313000049", "name": "USPS COLLECTION BOX - BLUE BOX", "address": {"city": "LANCASTER", "state": "OH", "street": "200 N COLUMBUS ST", "postcode": "43130"}}},
{"geometry": {"type": "Point", "coordinates": [-82.601177585, 39.7149480841]}, "type": "Feature", "properties": {"collection_times": [{"days": "Mon-Fri", "time": "3:00pm"}, {"days": "Sat", "time": "2:30pm"}, {"days": "Sun", "time": "Closed"}], "id": "4313000050", "name": "USPS COLLECTION BOX - BLUE BOX", "address": {"city": "LANCASTER", "state": "OH", "street": "115 W WHEELING ST", "postcode": "43130"}}},
{"geometry": {"type": "Point", "coordinates": [-82.6242508278, 39.7089472782]}, "type": "Feature", "properties": {"collection_times": [{"days": "Mon-Sat", "time": "9:00am"}, {"days": "Sun", "time": "Closed"}], "id": "4313000052", "name": "USPS COLLECTION BOX - BLUE BOX", "address": {"city": "LANCASTER", "state": "OH", "street": "330 TRACE DR", "postcode": "43130"}}},
{"geometry": {"type": "Point", "coordinates": [-82.6293886381, 39.7303626833]}, "type": "Feature", "properties": {"collection_times": [{"days": "Mon-Sat", "time": "9:00am"}, {"days": "Sun", "time": "Closed"}], "id": "4313000053", "name": "USPS COLLECTION BOX - BLUE BOX", "address": {"city": "LANCASTER", "state": "OH", "street": "1635 RIVER VALLEY CIR S", "postcode": "43130"}}},
{"geometry": {"type": "Point", "coordinates": [-82.60201512, 39.7122426569]}, "type": "Feature", "properties": {"collection_times": [{"days": "Mon-Fri", "time": "5:00pm"}, {"days": "Sat", "time": "4:30pm"}, {"days": "Sun", "time": "Closed"}], "id": "4313000057", "name": "USPS COLLECTION BOX - BLUE BOX", "address": {"city": "LANCASTER", "state": "OH", "street": "204 S BROAD ST", "postcode": "43130"}}},
{"geometry": {"type": "Point", "coordinates": [-82.6020303338, 39.7134406512]}, "type": "Feature", "properties": {"collection_times": [{"days": "Mon-Fri", "time": "3:00pm"}, {"days": "Sat", "time": "2:30pm"}, {"days": "Sun", "time": "Closed"}], "id": "4313000064", "name": "USPS COLLECTION BOX - BLUE BOX", "address": {"city": "LANCASTER", "state": "OH", "street": "123 S BROAD ST", "postcode": "43130"}}},
{"geometry": {"type": "Point", "coordinates": [-82.6172617129, 39.7317783004]}, "type": "Feature", "properties": {"collection_times": [{"days": "Mon-Fri", "time": "3:00pm"}, {"days": "Sat", "time": "2:30pm"}, {"days": "Sun", "time": "Closed"}], "id": "4313000065", "name": "USPS COLLECTION BOX - BLUE BOX", "address": {"city": "LANCASTER", "state": "OH", "street": "1735 N MEMORIAL DR", "postcode": "43130"}}},
{"geometry": {"type": "Point", "coordinates": [-82.6202104065, 39.7305126007]}, "type": "Feature", "properties": {"collection_times": [{"days": "Mon-Sat", "time": "9:00am"}, {"days": "Sun", "time": "Closed"}], "id": "4313000069", "name": "USPS COLLECTION BOX - BLUE BOX", "address": {"city": "LANCASTER", "state": "OH", "street": "1430 RIVER VALLEY BLVD", "postcode": "43130"}}},
{"geometry": {"type": "Point", "coordinates": [-82.579832878, 39.7137143619]}, "type": "Feature", "properties": {"collection_times": [{"days": "Mon-Fri", "time": "3:00pm"}, {"days": "Sat", "time": "2:30pm"}, {"days": "Sun", "time": "Closed"}], "id": "4313000070", "name": "USPS COLLECTION BOX - BLUE BOX", "address": {"city": "LANCASTER", "state": "OH", "street": "1155 E MAIN ST", "postcode": "43130"}}},
{"geometry": {"type": "Point", "coordinates": [-82.6550240344, 39.7476592353]}, "type": "Feature", "properties": {"collection_times": [{"days": "Mon-Sat", "time": "9:00am"}, {"days": "Sun", "time": "Closed"}], "id": "4313000072", "name": "USPS COLLECTION BOX - BLUE BOX", "address": {"city": "LANCASTER", "state": "OH", "street": "2900 COLUMBUS LANCASTER RD NW", "postcode": "43130"}}},
{"geometry": {"type": "Point", "coordinates": [-82.5696186058, 39.7395524476]}, "type": "Feature", "properties": {"collection_times": [{"days": "Mon-Sat", "time": "9:00am"}, {"days": "Sun", "time": "Closed"}], "id": "4313000073", "name": "USPS COLLECTION BOX - BLUE BOX", "address": {"city": "LANCASTER", "state": "OH", "street": "1550 SHERIDAN DR", "postcode": "43130"}}},
{"geometry": {"type": "Point", "coordinates": [-82.5991330845, 39.7135941075]}, "type": "Feature", "properties": {"collection_times": [{"days": "Mon-Fri", "time": "3:00pm"}, {"days": "Sat", "time": "2:30pm"}, {"days": "Sun", "time": "Closed"}], "id": "4313000074", "name": "USPS COLLECTION BOX - BLUE BOX", "address": {"city": "LANCASTER", "state": "OH", "street": "210 E MAIN ST", "postcode": "43130"}}},
{"geometry": {"type": "Point", "coordinates": [-82.5769608015, 39.7144679915]}, "type": "Feature", "properties": {"collection_times": [{"days": "Mon-Sat", "time": "9:00am"}, {"days": "Sun", "time": "Closed"}], "id": "4313000075", "name": "USPS COLLECTION BOX - BLUE BOX", "address": {"city": "LANCASTER", "state": "OH", "street": "135 N EWING ST", "postcode": "43130"}}},
{"geometry": {"type": "Point", "coordinates": [-82.60201512, 39.7122426569]}, "type": "Feature", "properties": {"collection_times": [{"days": "Mon-Fri", "time": "5:00pm"}, {"days": "Sat", "time": "4:30pm"}, {"days": "Sun", "time": "Closed"}], "id": "4313000076", "name": "USPS COLLECTION BOX - PO LOBBY", "address": {"city": "LANCASTER", "state": "OH", "street": "204 S BROAD ST", "postcode": "43130"}}},
{"geometry": {"type": "Point", "coordinates": [-82.576449471, 39.7183527124]}, "type": "Feature", "properties": {"collection_times": [{"days": "Mon-Sat", "time": "9:00am"}, {"days": "Sun", "time": "Closed"}], "id": "4313000077", "name": "USPS COLLECTION BOX - BLUE BOX", "address": {"city": "LANCASTER", "state": "OH", "street": "401 N EWING ST", "postcode": "43130"}}},
{"geometry": {"type": "Point", "coordinates": [-82.5781820457, 39.7191239292]}, "type": "Feature", "properties": {"collection_times": [{"days": "Mon-Sat", "time": "9:00am"}, {"days": "Sun", "time": "Closed"}], "id": "4313000078", "name": "USPS COLLECTION BOX - BLUE BOX", "address": {"city": "LANCASTER", "state": "OH", "street": "618 PLEASANTVILLE RD", "postcode": "43130"}}},
{"geometry": {"type": "Point", "coordinates": [-82.60201512, 39.7122426569]}, "type": "Feature", "properties": {"collection_times": [{"days": "Mon-Fri", "time": "5:00pm"}, {"days": "Sat", "time": "4:30pm"}, {"days": "Sun", "time": "Closed"}], "id": "4313000079", "name": "USPS COLLECTION BOX - BLUE BOX", "address": {"city": "LANCASTER", "state": "OH", "street": "204 S BROAD ST", "postcode": "43130"}}},
{"geometry": {"type": "Point", "coordinates": [-82.7384656799, 39.4725809421]}, "type": "Feature", "properties": {"collection_times": [{"days": "Mon-Fri", "time": "3:45pm"}, {"days": "Sat", "time": "11:15am"}, {"days": "Sun", "time": "Closed"}], "id": "4313500000", "name": "USPS COLLECTION BOX - BLUE BOX", "address": {"city": "LAURELVILLE", "state": "OH", "street": "16088 PIKE ST", "postcode": "43135"}}},
{"geometry": {"type": "Point", "coordinates": [-82.7384656799, 39.4725809421]}, "type": "Feature", "properties": {"collection_times": [{"days": "Mon-Fri", "time": "3:45pm"}, {"days": "Sat", "time": "11:15am"}, {"days": "Sun", "time": "Closed"}], "id": "4313500001", "name": "USPS COLLECTION BOX - PO LOBBY", "address": {"city": "LAURELVILLE", "state": "OH", "street": "16088 PIKE ST", "postcode": "43135"}}},
{"geometry": {"type": "Point", "coordinates": [-82.7759423178, 39.5562203382]}, "type": "Feature", "properties": {"collection_times": [{"days": "Mon-Sat", "time": "10:00am"}, {"days": "Sun", "time": "Closed"}], "id": "4313500002", "name": "USPS COLLECTION BOX - BLUE BOX", "address": {"city": "LAURELVILLE", "state": "OH", "street": "25 HARRISON ST", "postcode": "43135"}}},
{"geometry": {"type": "Point", "coordinates": [-82.8119098951, 39.8065457797]}, "type": "Feature", "properties": {"collection_times": [{"days": "Mon-Fri", "time": "3:45pm"}, {"days": "Sat", "time": "10:15am"}, {"days": "Sun", "time": "Closed"}], "id": "4313600000", "name": "USPS COLLECTION BOX - BLUE BOX", "address": {"city": "LITHOPOLIS", "state": "OH", "street": "260 W COLUMBUS ST", "postcode": "43136"}}},
{"geometry": {"type": "Point", "coordinates": [-82.8119098951, 39.8065457797]}, "type": "Feature", "properties": {"collection_times": [{"days": "Mon-Fri", "time": "3:45pm"}, {"days": "Sat", "time": "10:15am"}, {"days": "Sun", "time": "Closed"}], "id": "4313600001", "name": "USPS COLLECTION BOX - PO LOBBY", "address": {"city": "LITHOPOLIS", "state": "OH", "street": "260 W COLUMBUS ST", "postcode": "43136"}}},
{"geometry": {"type": "Point", "coordinates": [-82.965885052, 39.8079111359]}, "type": "Feature", "properties": {"collection_times": [{"days": "Mon-Fri", "time": "4:00pm"}, {"days": "Sat", "time": "10:30am"}, {"days": "Sun", "time": "Closed"}], "id": "4313700005", "name": "USPS COLLECTION BOX - BLUE BOX", "address": {"city": "LOCKBOURNE", "state": "OH", "street": "1 MECHANIC ST", "postcode": "43137"}}},
{"geometry": {"type": "Point", "coordinates": [-82.965885052, 39.8079111359]}, "type": "Feature", "properties": {"collection_times": [{"days": "Mon-Fri", "time": "4:00pm"}, {"days": "Sat", "time": "10:30am"}, {"days": "Sun", "time": "Closed"}], "id": "4313700006", "name": "USPS COLLECTION BOX - PO LOBBY", "address": {"city": "LOCKBOURNE", "state": "OH", "street": "1 MECHANIC ST", "postcode": "43137"}}},
{"geometry": {"type": "Point", "coordinates": [-82.4136384029, 39.5206418231]}, "type": "Feature", "properties": {"collection_times": [{"days": "Mon-Sat", "time": "10:45am"}, {"days": "Sun", "time": "Closed"}], "id": "4313800010", "name": "USPS COLLECTION BOX - BLUE BOX", "address": {"city": "LOGAN", "state": "OH", "street": "62 HOCKING MALL", "postcode": "43138"}}},
{"geometry": {"type": "Point", "coordinates": [-82.4085336178, 39.5407919019]}, "type": "Feature", "properties": {"collection_times": [{"days": "Mon-Fri", "time": "4:45pm"}, {"days": "Sat", "time": "4:00pm"}, {"days": "Sun", "time": "Closed"}], "id": "4313800017", "name": "USPS COLLECTION BOX - BLUE BOX", "address": {"city": "LOGAN", "state": "OH", "street": "80 N MARKET ST", "postcode": "43138"}}},
{"geometry": {"type": "Point", "coordinates": [-82.4085336178, 39.5407919019]}, "type": "Feature", "properties": {"collection_times": [{"days": "Mon-Fri", "time": "4:45pm"}, {"days": "Sat", "time": "4:00pm"}, {"days": "Sun", "time": "Closed"}], "id": "4313800018", "name": "USPS COLLECTION BOX - BLUE BOX", "address": {"city": "LOGAN", "state": "OH", "street": "80 N MARKET ST", "postcode": "43138"}}},
{"geometry": {"type": "Point", "coordinates": [-82.4085336178, 39.5407919019]}, "type": "Feature", "properties": {"collection_times": [{"days": "Mon-Fri", "time": "4:45pm"}, {"days": "Sat", "time": "4:00pm"}, {"days": "Sun", "time": "Closed"}], "id": "4313800019", "name": "USPS COLLECTION BOX - BLUE BOX", "address": {"city": "LOGAN", "state": "OH", "street": "80 N MARKET ST", "postcode": "43138"}}},
{"geometry": {"type": "Point", "coordinates": [-82.4085336178, 39.5407919019]}, "type": "Feature", "properties": {"collection_times": [{"days": "Mon-Fri", "time": "4:45pm"}, {"days": "Sat", "time": "4:00pm"}, {"days": "Sun", "time": "Closed"}], "id": "4313800020", "name": "USPS COLLECTION BOX - BLUE BOX", "address": {"city": "LOGAN", "state": "OH", "street": "80 N MARKET ST", "postcode": "43138"}}},
{"geometry": {"type": "Point", "coordinates": [-82.4356068644, 39.5458425903]}, "type": "Feature", "properties": {"collection_times": [{"days": "Mon-Sat", "time": "9:30am"}, {"days": "Sun", "time": "Closed"}], "id": "4313800022", "name": "USPS COLLECTION BOX - BLUE BOX", "address": {"city": "LOGAN", "state": "OH", "street": "31550 CHIEFTAIN DR", "postcode": "43138"}}},
{"geometry": {"type": "Point", "coordinates": [-82.4085336178, 39.5407919019]}, "type": "Feature", "properties": {"collection_times": [{"days": "Mon-Fri", "time": "4:45pm"}, {"days": "Sat", "time": "4:00pm"}, {"days": "Sun", "time": "Closed"}], "id": "4313800023", "name": "USPS COLLECTION BOX - PO LOBBY", "address": {"city": "LOGAN", "state": "OH", "street": "80 N MARKET ST", "postcode": "43138"}}},
{"geometry": {"type": "Point", "coordinates": [-82.4085336178, 39.5407919019]}, "type": "Feature", "properties": {"collection_times": [{"days": "Mon-Fri", "time": "4:45pm"}, {"days": "Sat", "time": "4:00pm"}, {"days": "Sun", "time": "Closed"}], "id": "4313800024", "name": "USPS COLLECTION BOX - BLUE BOX", "address": {"city": "LOGAN", "state": "OH", "street": "80 N MARKET ST", "postcode": "43138"}}},
{"geometry": {"type": "Point", "coordinates": [-82.4391591939, 39.5408748016]}, "type": "Feature", "properties": {"collection_times": [{"days": "Mon-Sat", "time": "10:30am"}, {"days": "Sun", "time": "Closed"}], "id": "4313800025", "name": "USPS COLLECTION BOX - BLUE BOX", "address": {"city": "LOGAN", "state": "OH", "street": "12900 STATE ROUTE 664 S", "postcode": "43138"}}},
{"geometry": {"type": "Point", "coordinates": [-83.3869996372, 39.9457154994]}, "type": "Feature", "properties": {"collection_times": [{"days": "Mon-Sat", "time": "10:00am"}, {"days": "Sun", "time": "Closed"}], "id": "4314000004", "name": "USPS COLLECTION BOX - BLUE BOX", "address": {"city": "LONDON", "state": "OH", "street": "940 US HIGHWAY 42 NE", "postcode": "43140"}}},
{"geometry": {"type": "Point", "coordinates": [-83.4996667868, 39.9483295854]}, "type": "Feature", "properties": {"collection_times": [{"days": "Mon-Sat", "time": "11:00am"}, {"days": "Sun", "time": "Closed"}], "id": "4314000006", "name": "USPS COLLECTION BOX - BLUE BOX", "address": {"city": "LONDON", "state": "OH", "street": "3180 OLD COLUMBUS RD", "postcode": "43140"}}},
{"geometry": {"type": "Point", "coordinates": [-83.4484797364, 39.8863824185]}, "type": "Feature", "properties": {"collection_times": [{"days": "Mon-Sat", "time": "9:00am"}, {"days": "Sun", "time": "Closed"}], "id": "4314000007", "name": "USPS COLLECTION BOX - BLUE BOX", "address": {"city": "LONDON", "state": "OH", "street": "2 S MAIN ST", "postcode": "43140"}}},
{"geometry": {"type": "Point", "coordinates": [-83.4468064268, 39.8849049686]}, "type": "Feature", "properties": {"collection_times": [{"days": "Mon-Sat", "time": "9:00am"}, {"days": "Sun", "time": "Closed"}], "id": "4314000010", "name": "USPS COLLECTION BOX - BLUE BOX", "address": {"city": "LONDON", "state": "OH", "street": "100 S MAIN ST", "postcode": "43140"}}},
{"geometry": {"type": "Point", "coordinates": [-83.4530551759, 39.8903501908]}, "type": "Feature", "properties": {"collection_times": [{"days": "Mon-Sat", "time": "9:00am"}, {"days": "Sun", "time": "Closed"}], "id": "4314000011", "name": "USPS COLLECTION BOX - BLUE BOX", "address": {"city": "LONDON", "state": "OH", "street": "210 N MAIN ST", "postcode": "43140"}}},
{"geometry": {"type": "Point", "coordinates": [-83.4487596827, 39.8849289604]}, "type": "Feature", "properties": {"collection_times": [{"days": "Mon-Fri", "time": "4:30pm"}, {"days": "Sat", "time": "3:30pm"}, {"days": "Sun", "time": "Closed"}], "id": "4314000016", "name": "USPS COLLECTION BOX - BLUE BOX", "address": {"city": "LONDON", "state": "OH", "street": "25 S OAK ST", "postcode": "43140"}}},
{"geometry": {"type": "Point", "coordinates": [-83.4487596827, 39.8849289604]}, "type": "Feature", "properties": {"collection_times": [{"days": "Mon-Fri", "time": "4:30pm"}, {"days": "Sat", "time": "3:30pm"}, {"days": "Sun", "time": "Closed"}], "id": "4314000017", "name": "USPS COLLECTION BOX - PO LOBBY", "address": {"city": "LONDON", "state": "OH", "street": "25 S OAK ST", "postcode": "43140"}}},
{"geometry": {"type": "Point", "coordinates": [-83.5885523066, 39.5920590026]}, "type": "Feature", "properties": {"collection_times": [{"days": "Mon-Fri", "time": "3:45pm"}, {"days": "Sat", "time": "9:45am"}, {"days": "Sun", "time": "Closed"}], "id": "4314200000", "name": "USPS COLLECTION BOX - BLUE BOX", "address": {"city": "MILLEDGEVILLE", "state": "OH", "street": "8118 CHURCH ST", "postcode": "43142"}}},
{"geometry": {"type": "Point", "coordinates": [-83.5885523066, 39.5920590026]}, "type": "Feature", "properties": {"collection_times": [{"days": "Mon-Fri", "time": "3:45pm"}, {"days": "Sat", "time": "9:45am"}, {"days": "Sun", "time": "Closed"}], "id": "4314200001", "name": "USPS COLLECTION BOX - PO LOBBY", "address": {"city": "MILLEDGEVILLE", "state": "OH", "street": "8118 CHURCH ST", "postcode": "43142"}}},
{"geometry": {"type": "Point", "coordinates": [-83.2685027555, 39.7138631818]}, "type": "Feature", "properties": {"collection_times": [{"days": "Mon-Sat", "time": "10:30am"}, {"days": "Sun", "time": "Closed"}], "id": "4314300001", "name": "USPS COLLECTION BOX - BLUE BOX", "address": {"city": "MOUNT STERLING", "state": "OH", "street": "299 YANKEETOWN ST", "postcode": "43143"}}},
{"geometry": {"type": "Point", "coordinates": [-83.2668223628, 39.7206461862]}, "type": "Feature", "properties": {"collection_times": [{"days": "Mon-Fri", "time": "11:00am"}, {"days": "Sat", "time": "10:30am"}, {"days": "Sun", "time": "Closed"}], "id": "4314300002", "name": "USPS COLLECTION BOX - BLUE BOX", "address": {"city": "MOUNT STERLING", "state": "OH", "street": "47 N LONDON ST", "postcode": "43143"}}},
{"geometry": {"type": "Point", "coordinates": [-83.2659542351, 39.7187411253]}, "type": "Feature", "properties": {"collection_times": [{"days": "Mon-Fri", "time": "4:30pm"}, {"days": "Sat", "time": "10:30am"}, {"days": "Sun", "time": "Closed"}], "id": "4314300003", "name": "USPS COLLECTION BOX - BLUE BOX", "address": {"city": "MOUNT STERLING", "state": "OH", "street": "34 W COLUMBUS ST", "postcode": "43143"}}},
{"geometry": {"type": "Point", "coordinates": [-83.2659542351, 39.7187411253]}, "type": "Feature", "properties": {"collection_times": [{"days": "Mon-Fri", "time": "4:30pm"}, {"days": "Sat", "time": "10:30am"}, {"days": "Sun", "time": "Closed"}], "id": "4314300006", "name": "USPS COLLECTION BOX - BLUE BOX", "address": {"city": "MOUNT STERLING", "state": "OH", "street": "34 W COLUMBUS ST", "postcode": "43143"}}},
{"geometry": {"type": "Point", "coordinates": [-83.2659542351, 39.7187411253]}, "type": "Feature", "properties": {"collection_times": [{"days": "Mon-Fri", "time": "4:30pm"}, {"days": "Sat", "time": "10:30am"}, {"days": "Sun", "time": "Closed"}], "id": "4314300007", "name": "USPS COLLECTION BOX - PO LOBBY", "address": {"city": "MOUNT STERLING", "state": "OH", "street": "34 W COLUMBUS ST", "postcode": "43143"}}},
{"geometry": {"type": "Point", "coordinates": [-82.1637317944, 39.5115221694]}, "type": "Feature", "properties": {"collection_times": [{"days": "Mon-Fri", "time": "11:30am"}, {"days": "Sat", "time": "10:15am"}, {"days": "Sun", "time": "Closed"}], "id": "4314400000", "name": "USPS COLLECTION BOX - BLUE BOX", "address": {"city": "MURRAY CITY", "state": "OH", "street": "13990 LOCUST ST", "postcode": "43144"}}},
{"geometry": {"type": "Point", "coordinates": [-82.1637317944, 39.5115221694]}, "type": "Feature", "properties": {"collection_times": [{"days": "Mon-Fri", "time": "11:00am"}, {"days": "Sat", "time": "10:15am"}, {"days": "Sun", "time": "Closed"}], "id": "4314400001", "name": "USPS COLLECTION BOX - PO LOBBY", "address": {"city": "MURRAY CITY", "state": "OH", "street": "13990 LOCUST ST", "postcode": "43144"}}},
{"geometry": {"type": "Point", "coordinates": [-83.2570491983, 39.5545075012]}, "type": "Feature", "properties": {"collection_times": [{"days": "Mon-Fri", "time": "3:45pm"}, {"days": "Sat", "time": "10:30am"}, {"days": "Sun", "time": "Closed"}], "id": "4314500000", "name": "USPS COLLECTION BOX - BLUE BOX", "address": {"city": "NEW HOLLAND", "state": "OH", "street": "100 N MAIN ST", "postcode": "43145"}}},
{"geometry": {"type": "Point", "coordinates": [-83.2570491983, 39.5545075012]}, "type": "Feature", "properties": {"collection_times": [{"days": "Mon-Fri", "time": "3:45pm"}, {"days": "Sat", "time": "10:30am"}, {"days": "Sun", "time": "Closed"}], "id": "4314500001", "name": "USPS COLLECTION BOX - PO LOBBY", "address": {"city": "NEW HOLLAND", "state": "OH", "street": "100 N MAIN ST", "postcode": "43145"}}},
{"geometry": {"type": "Point", "coordinates": [-83.1491647377, 39.8084126546]}, "type": "Feature", "properties": {"collection_times": [{"days": "Mon-Fri", "time": "3:45pm"}, {"days": "Sat", "time": "10:45am"}, {"days": "Sun", "time": "Closed"}], "id": "4314600000", "name": "USPS COLLECTION BOX - BLUE BOX", "address": {"city": "ORIENT", "state": "OH", "street": "7820 STAHL RD", "postcode": "43146"}}},
{"geometry": {"type": "Point", "coordinates": [-83.1491647377, 39.8084126546]}, "type": "Feature", "properties": {"collection_times": [{"days": "Mon-Fri", "time": "3:45pm"}, {"days": "Sat", "time": "10:45am"}, {"days": "Sun", "time": "Closed"}], "id": "4314600001", "name": "USPS COLLECTION BOX - PO LOBBY", "address": {"city": "ORIENT", "state": "OH", "street": "7820 STAHL RD", "postcode": "43146"}}},
{"geometry": {"type": "Point", "coordinates": [-83.2129584211, 39.7744781695]}, "type": "Feature", "properties": {"collection_times": [{"days": "Mon-Sat", "time": "11:00am"}, {"days": "Sun", "time": "Closed"}], "id": "4314600002", "name": "USPS COLLECTION BOX - BLUE BOX", "address": {"city": "ORIENT", "state": "OH", "street": "11500 LONDON RD", "postcode": "43146"}}},
{"geometry": {"type": "Point", "coordinates": [-82.7867058475, 39.9269618035]}, "type": "Feature", "properties": {"collection_times": [{"days": "Mon-Sat", "time": "10:00am"}, {"days": "Sun", "time": "Closed"}], "id": "4314700001", "name": "USPS COLLECTION BOX - BLUE BOX", "address": {"city": "PICKERINGTON", "state": "OH", "street": "1740 HILL RD N", "postcode": "43147"}}},
{"geometry": {"type": "Point", "coordinates": [-82.7770185204, 39.9077136133]}, "type": "Feature", "properties": {"collection_times": [{"days": "Mon-Sat", "time": "10:00am"}, {"days": "Sun", "time": "Closed"}], "id": "4314700002", "name": "USPS COLLECTION BOX - BLUE BOX", "address": {"city": "PICKERINGTON", "state": "OH", "street": "1039 HILL RD N", "postcode": "43147"}}},
{"geometry": {"type": "Point", "coordinates": [-82.7793714258, 39.9148870765]}, "type": "Feature", "properties": {"collection_times": [{"days": "Mon-Sat", "time": "10:00am"}, {"days": "Sun", "time": "Closed"}], "id": "4314700003", "name": "USPS COLLECTION BOX - BLUE BOX", "address": {"city": "PICKERINGTON", "state": "OH", "street": "11295 STONE CREEK DR", "postcode": "43147"}}},
{"geometry": {"type": "Point", "coordinates": [-82.7478372886, 39.908300361]}, "type": "Feature", "properties": {"collection_times": [{"days": "Mon-Sat", "time": "10:00am"}, {"days": "Sun", "time": "Closed"}], "id": "4314700004", "name": "USPS COLLECTION BOX - BLUE BOX", "address": {"city": "PICKERINGTON", "state": "OH", "street": "8513 REFUGEE RD", "postcode": "43147"}}},
{"geometry": {"type": "Point", "coordinates": [-82.779517876, 39.9240235399]}, "type": "Feature", "properties": {"collection_times": [{"days": "Mon-Sat", "time": "10:00am"}, {"days": "Sun", "time": "Closed"}], "id": "4314700005", "name": "USPS COLLECTION BOX - BLUE BOX", "address": {"city": "PICKERINGTON", "state": "OH", "street": "12954 STONECREEK DR", "postcode": "43147"}}},
{"geometry": {"type": "Point", "coordinates": [-82.7645940434, 39.8975564306]}, "type": "Feature", "properties": {"collection_times": [{"days": "Mon-Fri", "time": "5:00pm"}, {"days": "Sat", "time": "3:00pm"}, {"days": "Sun", "time": "Closed"}], "id": "4314700008", "name": "USPS COLLECTION BOX - BLUE BOX", "address": {"city": "PICKERINGTON", "state": "OH", "street": "520 HILL RD N", "postcode": "43147"}}},
{"geometry": {"type": "Point", "coordinates": [-82.7645940434, 39.8975564306]}, "type": "Feature", "properties": {"collection_times": [{"days": "Mon-Fri", "time": "5:00pm"}, {"days": "Sat", "time": "3:00pm"}, {"days": "Sun", "time": "Closed"}], "id": "4314700011", "name": "USPS COLLECTION BOX - PO LOBBY", "address": {"city": "PICKERINGTON", "state": "OH", "street": "520 HILL RD N", "postcode": "43147"}}},
{"geometry": {"type": "Point", "coordinates": [-82.7645940434, 39.8975564306]}, "type": "Feature", "properties": {"collection_times": [{"days": "Mon-Fri", "time": "5:00pm"}, {"days": "Sat", "time": "3:00pm"}, {"days": "Sun", "time": "Closed"}], "id": "4314700012", "name": "USPS COLLECTION BOX - BLUE BOX", "address": {"city": "PICKERINGTON", "state": "OH", "street": "520 HILL RD N", "postcode": "43147"}}},
{"geometry": {"type": "Point", "coordinates": [-82.7339576311, 39.9075077785]}, "type": "Feature", "properties": {"collection_times": [{"days": "Mon-Sat", "time": "10:00am"}, {"days": "Sun", "time": "Closed"}], "id": "4314700013", "name": "USPS COLLECTION BOX - BLUE BOX", "address": {"city": "PICKERINGTON", "state": "OH", "street": "7833 REFUGEE RD", "postcode": "43147"}}},
{"geometry": {"type": "Point", "coordinates": [-82.7645940434, 39.8975564306]}, "type": "Feature", "properties": {"collection_times": [{"days": "Mon-Fri", "time": "5:00pm"}, {"days": "Sat", "time": "3:00pm"}, {"days": "Sun", "time": "Closed"}], "id": "4314700014", "name": "USPS COLLECTION BOX - APC", "address": {"city": "PICKERINGTON", "state": "OH", "street": "520 HILL RD N", "postcode": "43147"}}},
{"geometry": {"type": "Point", "coordinates": [-82.523111757, 39.809187327]}, "type": "Feature", "properties": {"collection_times": [{"days": "Mon-Fri", "time": "3:45pm"}, {"days": "Sat", "time": "10:45am"}, {"days": "Sun", "time": "Closed"}], "id": "4314800000", "name": "USPS COLLECTION BOX - BLUE BOX", "address": {"city": "PLEASANTVILLE", "state": "OH", "street": "103 S MAIN ST", "postcode": "43148"}}},
{"geometry": {"type": "Point", "coordinates": [-82.523111757, 39.809187327]}, "type": "Feature", "properties": {"collection_times": [{"days": "Mon-Fri", "time": "4:00pm"}, {"days": "Sat", "time": "11:00am"}, {"days": "Sun", "time": "Closed"}], "id": "4314800001", "name": "USPS COLLECTION BOX - PO LOBBY", "address": {"city": "PLEASANTVILLE", "state": "OH", "street": "103 S MAIN ST", "postcode": "43148"}}},
{"geometry": {"type": "Point", "coordinates": [-82.5227654123, 39.5834761983]}, "type": "Feature", "properties": {"collection_times": [{"days": "Mon-Fri", "time": "4:00pm"}, {"days": "Sat", "time": "9:45am"}, {"days": "Sun", "time": "Closed"}], "id": "4314900000", "name": "USPS COLLECTION BOX - BLUE BOX", "address": {"city": "ROCKBRIDGE", "state": "OH", "street": "26707 MAIN ST", "postcode": "43149"}}},
{"geometry": {"type": "Point", "coordinates": [-82.5227654123, 39.5834761983]}, "type": "Feature", "properties": {"collection_times": [{"days": "Mon-Fri", "time": "4:00pm"}, {"days": "Sat", "time": "9:45am"}, {"days": "Sun", "time": "Closed"}], "id": "4314900001", "name": "USPS COLLECTION BOX - PO LOBBY", "address": {"city": "ROCKBRIDGE", "state": "OH", "street": "26707 MAIN ST", "postcode": "43149"}}},
{"geometry": {"type": "Point", "coordinates": [-82.428589842, 39.7643695951]}, "type": "Feature", "properties": {"collection_times": [{"days": "Mon-Fri", "time": "3:45pm"}, {"days": "Sat", "time": "10:15am"}, {"days": "Sun", "time": "Closed"}], "id": "4315000000", "name": "USPS COLLECTION BOX - BLUE BOX", "address": {"city": "RUSHVILLE", "state": "OH", "street": "8525 MAIN ST", "postcode": "43150"}}},
{"geometry": {"type": "Point", "coordinates": [-82.428589842, 39.7643695951]}, "type": "Feature", "properties": {"collection_times": [{"days": "Mon-Fri", "time": "3:45pm"}, {"days": "Sat", "time": "10:15am"}, {"days": "Sun", "time": "Closed"}], "id": "4315000001", "name": "USPS COLLECTION BOX - PO LOBBY", "address": {"city": "RUSHVILLE", "state": "OH", "street": "8525 MAIN ST", "postcode": "43150"}}},
{"geometry": {"type": "Point", "coordinates": [-83.4768643968, 39.7333603344]}, "type": "Feature", "properties": {"collection_times": [{"days": "Mon-Fri", "time": "11:30am"}, {"days": "Sat", "time": "9:45am"}, {"days": "Sun", "time": "Closed"}], "id": "4315100000", "name": "USPS COLLECTION BOX - BLUE BOX", "address": {"city": "SEDALIA", "state": "OH", "street": "61 FEDERAL ST SW", "postcode": "43151"}}},
{"geometry": {"type": "Point", "coordinates": [-83.4768643968, 39.7333603344]}, "type": "Feature", "properties": {"collection_times": [{"days": "Mon-Fri", "time": "11:30am"}, {"days": "Sat", "time": "9:45am"}, {"days": "Sun", "time": "Closed"}], "id": "4315100001", "name": "USPS COLLECTION BOX - PO LOBBY", "address": {"city": "SEDALIA", "state": "OH", "street": "61 FEDERAL ST SW", "postcode": "43151"}}},
{"geometry": {"type": "Point", "coordinates": [-83.6114428212, 39.737482503]}, "type": "Feature", "properties": {"collection_times": [{"days": "Mon-Fri", "time": "11:30am"}, {"days": "Sat", "time": "9:45am"}, {"days": "Sun", "time": "Closed"}], "id": "4315300000", "name": "USPS COLLECTION BOX - BLUE BOX", "address": {"city": "SOUTH SOLON", "state": "OH", "street": "7230 E MAIN ST", "postcode": "43153"}}},
{"geometry": {"type": "Point", "coordinates": [-83.6114428212, 39.737482503]}, "type": "Feature", "properties": {"collection_times": [{"days": "Mon-Fri", "time": "11:30am"}, {"days": "Sat", "time": "9:45am"}, {"days": "Sun", "time": "Closed"}], "id": "4315300001", "name": "USPS COLLECTION BOX - PO LOBBY", "address": {"city": "SOUTH SOLON", "state": "OH", "street": "7230 E MAIN ST", "postcode": "43153"}}},
{"geometry": {"type": "Point", "coordinates": [-82.8287547211, 39.6050630924]}, "type": "Feature", "properties": {"collection_times": [{"days": "Mon-Fri", "time": "3:45pm"}, {"days": "Sat", "time": "10:15am"}, {"days": "Sun", "time": "Closed"}], "id": "4315400000", "name": "USPS COLLECTION BOX - BLUE BOX", "address": {"city": "STOUTSVILLE", "state": "OH", "street": "11438 MAIN ST", "postcode": "43154"}}},
{"geometry": {"type": "Point", "coordinates": [-82.8287547211, 39.6050630924]}, "type": "Feature", "properties": {"collection_times": [{"days": "Mon-Fri", "time": "3:45pm"}, {"days": "Sat", "time": "10:15am"}, {"days": "Sun", "time": "Closed"}], "id": "4315400001", "name": "USPS COLLECTION BOX - PO LOBBY", "address": {"city": "STOUTSVILLE", "state": "OH", "street": "11438 MAIN ST", "postcode": "43154"}}},
{"geometry": {"type": "Point", "coordinates": [-82.5496155353, 39.6259327863]}, "type": "Feature", "properties": {"collection_times": [{"days": "Mon-Fri", "time": "3:45pm"}, {"days": "Sat", "time": "9:45am"}, {"days": "Sun", "time": "Closed"}], "id": "4315500000", "name": "USPS COLLECTION BOX - BLUE BOX", "address": {"city": "SUGAR GROVE", "state": "OH", "street": "201 S ELM ST", "postcode": "43155"}}},
{"geometry": {"type": "Point", "coordinates": [-82.4712246286, 39.6468935434]}, "type": "Feature", "properties": {"collection_times": [{"days": "Mon-Sat", "time": "9:15am"}, {"days": "Sun", "time": "Closed"}], "id": "4315500001", "name": "USPS COLLECTION BOX - BLUE BOX", "address": {"city": "SUGAR GROVE", "state": "OH", "street": "29042 HIDE AWAY HILLS RD", "postcode": "43155"}}},
{"geometry": {"type": "Point", "coordinates": [-82.5496155353, 39.6259327863]}, "type": "Feature", "properties": {"collection_times": [{"days": "Mon-Fri", "time": "3:45pm"}, {"days": "Sat", "time": "9:45am"}, {"days": "Sun", "time": "Closed"}], "id": "4315500002", "name": "USPS COLLECTION BOX - PO LOBBY", "address": {"city": "SUGAR GROVE", "state": "OH", "street": "201 S ELM ST", "postcode": "43155"}}},
{"geometry": {"type": "Point", "coordinates": [-82.5470039792, 39.8409178354]}, "type": "Feature", "properties": {"collection_times": [{"days": "Mon-Fri", "time": "11:30am"}, {"days": "Sat", "time": "10:15am"}, {"days": "Sun", "time": "Closed"}], "id": "4315700000", "name": "USPS COLLECTION BOX - BLUE BOX", "address": {"city": "THURSTON", "state": "OH", "street": "8053 HIGH ST", "postcode": "43157"}}},
{"geometry": {"type": "Point", "coordinates": [-82.5470039792, 39.8409178354]}, "type": "Feature", "properties": {"collection_times": [{"days": "Mon-Fri", "time": "11:30am"}, {"days": "Sat", "time": "10:15am"}, {"days": "Sun", "time": "Closed"}], "id": "4315700001", "name": "USPS COLLECTION BOX - PO LOBBY", "address": {"city": "THURSTON", "state": "OH", "street": "8053 HIGH ST", "postcode": "43157"}}},
{"geometry": {"type": "Point", "coordinates": [-82.3561790154, 39.4610484165]}, "type": "Feature", "properties": {"collection_times": [{"days": "Mon-Fri", "time": "4:00pm"}, {"days": "Sat", "time": "10:15am"}, {"days": "Sun", "time": "Closed"}], "id": "4315800000", "name": "USPS COLLECTION BOX - BLUE BOX", "address": {"city": "UNION FURNACE", "state": "OH", "street": "18006 MAIN ST", "postcode": "43158"}}},
{"geometry": {"type": "Point", "coordinates": [-82.3561790154, 39.4610484165]}, "type": "Feature", "properties": {"collection_times": [{"days": "Mon-Fri", "time": "4:00pm"}, {"days": "Sat", "time": "10:15am"}, {"days": "Sun", "time": "Closed"}], "id": "4315800001", "name": "USPS COLLECTION BOX - PO LOBBY", "address": {"city": "UNION FURNACE", "state": "OH", "street": "18006 MAIN ST", "postcode": "43158"}}},
{"geometry": {"type": "Point", "coordinates": [-83.4395008776, 39.5355178552]}, "type": "Feature", "properties": {"collection_times": [{"days": "Mon-Sat", "time": "12:00pm"}, {"days": "Sun", "time": "Closed"}], "id": "4316000004", "name": "USPS COLLECTION BOX - BLUE BOX", "address": {"city": "WSHNGTN CT HS", "state": "OH", "street": "133 S MAIN ST", "postcode": "43160"}}},
{"geometry": {"type": "Point", "coordinates": [-83.4506551757, 39.4901844548]}, "type": "Feature", "properties": {"collection_times": [{"days": "Mon-Sat", "time": "11:00am"}, {"days": "Sun", "time": "Closed"}], "id": "4316000020", "name": "USPS COLLECTION BOX - BLUE BOX", "address": {"city": "WSHNGTN CT HS", "state": "OH", "street": "40 WASHINGTON SQ", "postcode": "43160"}}},
{"geometry": {"type": "Point", "coordinates": [-83.4413071588, 39.5364777271]}, "type": "Feature", "properties": {"collection_times": [{"days": "Mon-Fri", "time": "4:45pm"}, {"days": "Sat", "time": "3:45pm"}, {"days": "Sun", "time": "Closed"}], "id": "4316000021", "name": "USPS COLLECTION BOX - BLUE BOX", "address": {"city": "WSHNGTN CT HS", "state": "OH", "street": "129 W MARKET ST", "postcode": "43160"}}},
{"geometry": {"type": "Point", "coordinates": [-83.4413071588, 39.5364777271]}, "type": "Feature", "properties": {"collection_times": [{"days": "Mon-Fri", "time": "4:45pm"}, {"days": "Sat", "time": "3:45pm"}, {"days": "Sun", "time": "Closed"}], "id": "4316000023", "name": "USPS COLLECTION BOX - BLUE BOX", "address": {"city": "WSHNGTN CT HS", "state": "OH", "street": "129 W MARKET ST", "postcode": "43160"}}},
{"geometry": {"type": "Point", "coordinates": [-83.4397220491, 39.5358253605]}, "type": "Feature", "properties": {"collection_times": [{"days": "Mon-Sat", "time": "12:00pm"}, {"days": "Sun", "time": "Closed"}], "id": "4316000027", "name": "USPS COLLECTION BOX - BLUE BOX", "address": {"city": "WSHNGTN CT HS", "state": "OH", "street": "110 E COURT ST", "postcode": "43160"}}},
{"geometry": {"type": "Point", "coordinates": [-83.4413071588, 39.5364777271]}, "type": "Feature", "properties": {"collection_times": [{"days": "Mon-Fri", "time": "4:45pm"}, {"days": "Sat", "time": "3:45pm"}, {"days": "Sun", "time": "Closed"}], "id": "4316000030", "name": "USPS COLLECTION BOX - PO LOBBY", "address": {"city": "WSHNGTN CT HS", "state": "OH", "street": "129 W MARKET ST", "postcode": "43160"}}},
{"geometry": {"type": "Point", "coordinates": [-83.4392932052, 39.5361284532]}, "type": "Feature", "properties": {"collection_times": [{"days": "Mon-Fri", "time": "2:30pm"}, {"days": "Sat", "time": "2:00pm"}, {"days": "Sun", "time": "Closed"}], "id": "4316000031", "name": "USPS COLLECTION BOX - BLUE BOX", "address": {"city": "WSHNGTN CT HS", "state": "OH", "street": "150 E COURT ST", "postcode": "43160"}}},
{"geometry": {"type": "Point", "coordinates": [-83.454337328, 39.5270791]}, "type": "Feature", "properties": {"collection_times": [{"days": "Mon-Sat", "time": "9:00am"}, {"days": "Sun", "time": "Closed"}], "id": "4316000032", "name": "USPS COLLECTION BOX - BLUE BOX", "address": {"city": "WSHNGTN CT HS", "state": "OH", "street": "1397 LEESBURG AVE", "postcode": "43160"}}},
{"geometry": {"type": "Point", "coordinates": [-83.265028115, 39.9449937371]}, "type": "Feature", "properties": {"collection_times": [{"days": "Mon-Sat", "time": "9:00am"}, {"days": "Sun", "time": "Closed"}], "id": "4316200003", "name": "USPS COLLECTION BOX - BLUE BOX", "address": {"city": "WEST JEFFERSON", "state": "OH", "street": "139 E MAIN ST", "postcode": "43162"}}},
{"geometry": {"type": "Point", "coordinates": [-83.274685263, 39.9444800041]}, "type": "Feature", "properties": {"collection_times": [{"days": "Mon-Fri", "time": "4:00pm"}, {"days": "Sat", "time": "11:45am"}, {"days": "Sun", "time": "Closed"}], "id": "4316200010", "name": "USPS COLLECTION BOX - BLUE BOX", "address": {"city": "WEST JEFFERSON", "state": "OH", "street": "249 W MAIN ST", "postcode": "43162"}}},
{"geometry": {"type": "Point", "coordinates": [-83.274685263, 39.9444800041]}, "type": "Feature", "properties": {"collection_times": [{"days": "Mon-Fri", "time": "4:00pm"}, {"days": "Sat", "time": "11:45am"}, {"days": "Sun", "time": "Closed"}], "id": "4316200011", "name": "USPS COLLECTION BOX - PO LOBBY", "address": {"city": "WEST JEFFERSON", "state": "OH", "street": "249 W MAIN ST", "postcode": "43162"}}},
{"geometry": {"type": "Point", "coordinates": [-83.1202418395, 39.5854161354]}, "type": "Feature", "properties": {"collection_times": [{"days": "Mon-Fri", "time": "4:00pm"}, {"days": "Sat", "time": "10:15am"}, {"days": "Sun", "time": "Closed"}], "id": "4316400000", "name": "USPS COLLECTION BOX - BLUE BOX", "address": {"city": "WILLIAMSPORT", "state": "OH", "street": "109 S WATER ST", "postcode": "43164"}}},
{"geometry": {"type": "Point", "coordinates": [-83.1202418395, 39.5854161354]}, "type": "Feature", "properties": {"collection_times": [{"days": "Mon-Fri", "time": "4:00pm"}, {"days": "Sat", "time": "10:15am"}, {"days": "Sun", "time": "Closed"}], "id": "4316400001", "name": "USPS COLLECTION BOX - PO LOBBY", "address": {"city": "WILLIAMSPORT", "state": "OH", "street": "109 S WATER ST", "postcode": "43164"}}}
]}
