{"type": "FeatureCollection", "features": [
{"geometry": {"type": "Point", "coordinates": [-83.1272119749, 40.5861226435]}, "type": "Feature", "properties": {"collection_times": [{"days": "Mon-Sat", "time": "2:00pm"}, {"days": "Sun", "time": "Closed"}], "id": "4330200004", "name": "USPS COLLECTION BOX - BLUE BOX", "address": {"city": "MARION", "state": "OH", "street": "225 S STATE ST", "postcode": "43302"}}},
{"geometry": {"type": "Point", "coordinates": [-83.1266391053, 40.5874085205]}, "type": "Feature", "properties": {"collection_times": [{"days": "Mon-Sat", "time": "2:00pm"}, {"days": "Sun", "time": "Closed"}], "id": "4330200008", "name": "USPS COLLECTION BOX - BLUE BOX", "address": {"city": "MARION", "state": "OH", "street": "170 E CHURCH ST", "postcode": "43302"}}},
{"geometry": {"type": "Point", "coordinates": [-83.1300424514, 40.5850784246]}, "type": "Feature", "properties": {"collection_times": [{"days": "Mon-Sat", "time": "2:00pm"}, {"days": "Sun", "time": "Closed"}], "id": "4330200012", "name": "USPS COLLECTION BOX - BLUE BOX", "address": {"city": "MARION", "state": "OH", "street": "272 S PROSPECT ST", "postcode": "43302"}}},
{"geometry": {"type": "Point", "coordinates": [-83.1305851741, 40.5934752787]}, "type": "Feature", "properties": {"collection_times": [{"days": "Mon-Sat", "time": "10:00am"}, {"days": "Sun", "time": "Closed"}], "id": "4330200016", "name": "USPS COLLECTION BOX - BLUE BOX", "address": {"city": "MARION", "state": "OH", "street": "332 N PROSPECT ST", "postcode": "43302"}}},
{"geometry": {"type": "Point", "coordinates": [-83.1300010309, 40.6058961661]}, "type": "Feature", "properties": {"collection_times": [{"days": "Mon-Sat", "time": "12:00pm"}, {"days": "Sun", "time": "Closed"}], "id": "4330200017", "name": "USPS COLLECTION BOX - BLUE BOX", "address": {"city": "MARION", "state": "OH", "street": "910 N MAIN ST", "postcode": "43302"}}},
{"geometry": {"type": "Point", "coordinates": [-83.120171848, 40.6013439953]}, "type": "Feature", "properties": {"collection_times": [{"days": "Mon-Sat", "time": "10:00am"}, {"days": "Sun", "time": "Closed"}], "id": "4330200019", "name": "USPS COLLECTION BOX - BLUE BOX", "address": {"city": "MARION", "state": "OH", "street": "725 RICHMOND AVE", "postcode": "43302"}}},
{"geometry": {"type": "Point", "coordinates": [-83.1297752638, 40.5742556835]}, "type": "Feature", "properties": {"collection_times": [{"days": "Mon-Sat", "time": "2:00pm"}, {"days": "Sun", "time": "Closed"}], "id": "4330200021", "name": "USPS COLLECTION BOX - BLUE BOX", "address": {"city": "MARION", "state": "OH", "street": "1000 MCKINLEY PARK DR", "postcode": "43302"}}},
{"geometry": {"type": "Point", "coordinates": [-83.1229383345, 40.5709737247]}, "type": "Feature", "properties": {"collection_times": [{"days": "Mon-Sat", "time": "12:00pm"}, {"days": "Sun", "time": "Closed"}], "id": "4330200023", "name": "USPS COLLECTION BOX - BLUE BOX", "address": {"city": "MARION", "state": "OH", "street": "101 EXECUTIVE DR", "postcode": "43302"}}},
{"geometry": {"type": "Point", "coordinates": [-83.1311898422, 40.5769592262]}, "type": "Feature", "properties": {"collection_times": [{"days": "Mon-Sat", "time": "10:00am"}, {"days": "Sun", "time": "Closed"}], "id": "4330200024", "name": "USPS COLLECTION BOX - BLUE BOX", "address": {"city": "MARION", "state": "OH", "street": "682 S PROSPECT ST", "postcode": "43302"}}},
{"geometry": {"type": "Point", "coordinates": [-83.1216268758, 40.5862876926]}, "type": "Feature", "properties": {"collection_times": [{"days": "Mon-Sat", "time": "10:00am"}, {"days": "Sun", "time": "Closed"}], "id": "4330200026", "name": "USPS COLLECTION BOX - BLUE BOX", "address": {"city": "MARION", "state": "OH", "street": "380 MOUNT VERNON AVE", "postcode": "43302"}}},
{"geometry": {"type": "Point", "coordinates": [-83.1150784932, 40.5891244848]}, "type": "Feature", "properties": {"collection_times": [{"days": "Mon-Sat", "time": "10:00am"}, {"days": "Sun", "time": "Closed"}], "id": "4330200029", "name": "USPS COLLECTION BOX - BLUE BOX", "address": {"city": "MARION", "state": "OH", "street": "613 E CENTER ST", "postcode": "43302"}}},
{"geometry": {"type": "Point", "coordinates": [-83.1444963561, 40.5891795415]}, "type": "Feature", "properties": {"collection_times": [{"days": "Mon-Sat", "time": "9:00am"}, {"days": "Sun", "time": "Closed"}], "id": "4330200032", "name": "USPS COLLECTION BOX - BLUE BOX", "address": {"city": "MARION", "state": "OH", "street": "687 KENTON AVE", "postcode": "43302"}}},
{"geometry": {"type": "Point", "coordinates": [-83.1196196116, 40.563082112]}, "type": "Feature", "properties": {"collection_times": [{"days": "Mon-Sat", "time": "11:00am"}, {"days": "Sun", "time": "Closed"}], "id": "4330200033", "name": "USPS COLLECTION BOX - BLUE BOX", "address": {"city": "MARION", "state": "OH", "street": "1421 MARION WALDO RD", "postcode": "43302"}}},
{"geometry": {"type": "Point", "coordinates": [-83.0930384816, 40.5810618667]}, "type": "Feature", "properties": {"collection_times": [{"days": "Mon-Sat", "time": "10:00am"}, {"days": "Sun", "time": "Closed"}], "id": "4330200037", "name": "USPS COLLECTION BOX - BLUE BOX", "address": {"city": "MARION", "state": "OH", "street": "1348 MOUNT VERNON AVE", "postcode": "43302"}}},
{"geometry": {"type": "Point", "coordinates": [-83.0889083719, 40.5810246025]}, "type": "Feature", "properties": {"collection_times": [{"days": "Mon-Sat", "time": "10:30am"}, {"days": "Sun", "time": "Closed"}], "id": "4330200038", "name": "USPS COLLECTION BOX - BLUE BOX", "address": {"city": "MARION", "state": "OH", "street": "1465 MOUNT VERNON AVE", "postcode": "43302"}}},
{"geometry": {"type": "Point", "coordinates": [-83.0994255318, 40.5753400463]}, "type": "Feature", "properties": {"collection_times": [{"days": "Mon-Sat", "time": "10:00am"}, {"days": "Sun", "time": "Closed"}], "id": "4330200039", "name": "USPS COLLECTION BOX - BLUE BOX", "address": {"city": "MARION", "state": "OH", "street": "1051 CHATEAU DR", "postcode": "43302"}}},
{"geometry": {"type": "Point", "coordinates": [-83.1242405362, 40.5888232993]}, "type": "Feature", "properties": {"collection_times": [{"days": "Mon-Sat", "time": "2:00pm"}, {"days": "Sun", "time": "Closed"}], "id": "4330200040", "name": "USPS COLLECTION BOX - BLUE BOX", "address": {"city": "MARION", "state": "OH", "street": "267 E CENTER ST", "postcode": "43302"}}},
{"geometry": {"type": "Point", "coordinates": [-83.128844342, 40.5889340238]}, "type": "Feature", "properties": {"collection_times": [{"days": "Mon-Fri", "time": "2:00pm"}, {"days": "Sat-Sun", "time": "Closed"}], "id": "4330200046", "name": "USPS COLLECTION BOX - BLUE BOX", "address": {"city": "MARION", "state": "OH", "street": "100 N MAIN ST", "postcode": "43302"}}},
{"geometry": {"type": "Point", "coordinates": [-83.1018104979, 40.5897678669]}, "type": "Feature", "properties": {"collection_times": [{"days": "Mon-Sat", "time": "10:00am"}, {"days": "Sun", "time": "Closed"}], "id": "4330200048", "name": "USPS COLLECTION BOX - BLUE BOX", "address": {"city": "MARION", "state": "OH", "street": "1100 E CENTER ST", "postcode": "43302"}}},
{"geometry": {"type": "Point", "coordinates": [-83.0858789477, 40.581190642]}, "type": "Feature", "properties": {"collection_times": [{"days": "Mon-Sat", "time": "12:00pm"}, {"days": "Sun", "time": "Closed"}], "id": "4330200050", "name": "USPS COLLECTION BOX - BLUE BOX", "address": {"city": "MARION", "state": "OH", "street": "1598 MARION MOUNT GILEAD RD", "postcode": "43302"}}},
{"geometry": {"type": "Point", "coordinates": [-83.1275517797, 40.5887184023]}, "type": "Feature", "properties": {"collection_times": [{"days": "Mon-Sat", "time": "2:00pm"}, {"days": "Sun", "time": "Closed"}], "id": "4330200051", "name": "USPS COLLECTION BOX - BLUE BOX", "address": {"city": "MARION", "state": "OH", "street": "148 E CENTER ST", "postcode": "43302"}}},
{"geometry": {"type": "Point", "coordinates": [-83.1194694224, 40.5630837537]}, "type": "Feature", "properties": {"collection_times": [{"days": "Mon-Sat", "time": "11:00am"}, {"days": "Sun", "time": "Closed"}], "id": "4330200052", "name": "USPS COLLECTION BOX - BLUE BOX", "address": {"city": "MARION", "state": "OH", "street": "1428 MARION WALDO RD", "postcode": "43302"}}},
{"geometry": {"type": "Point", "coordinates": [-83.1237624607, 40.5640102595]}, "type": "Feature", "properties": {"collection_times": [{"days": "Mon-Sat", "time": "5:00pm"}, {"days": "Sun", "time": "Closed"}], "id": "4330200056", "name": "USPS COLLECTION BOX - BLUE BOX", "address": {"city": "MARION", "state": "OH", "street": "230 BARKS RD W", "postcode": "43302"}}},
{"geometry": {"type": "Point", "coordinates": [-83.1237624607, 40.5640102595]}, "type": "Feature", "properties": {"collection_times": [{"days": "Mon-Sat", "time": "5:00pm"}, {"days": "Sun", "time": "Closed"}], "id": "4330200058", "name": "USPS COLLECTION BOX - PO LOBBY", "address": {"city": "MARION", "state": "OH", "street": "230 BARKS RD W", "postcode": "43302"}}},
{"geometry": {"type": "Point", "coordinates": [-83.134429515, 40.5884235254]}, "type": "Feature", "properties": {"collection_times": [{"days": "Mon-Sat", "time": "10:00am"}, {"days": "Sun", "time": "Closed"}], "id": "4330200065", "name": "USPS COLLECTION BOX - BLUE BOX", "address": {"city": "MARION", "state": "OH", "street": "309 W CENTER ST", "postcode": "43302"}}},
{"geometry": {"type": "Point", "coordinates": [-83.1325110686, 40.5885377465]}, "type": "Feature", "properties": {"collection_times": [{"days": "Mon-Sat", "time": "2:00pm"}, {"days": "Sun", "time": "Closed"}], "id": "4330200066", "name": "USPS COLLECTION BOX - BLUE BOX", "address": {"city": "MARION", "state": "OH", "street": "222 W CENTER ST", "postcode": "43302"}}},
{"geometry": {"type": "Point", "coordinates": [-83.1429213736, 40.5746231362]}, "type": "Feature", "properties": {"collection_times": [{"days": "Mon-Sat", "time": "10:00am"}, {"days": "Sun", "time": "Closed"}], "id": "4330200069", "name": "USPS COLLECTION BOX - BLUE BOX", "address": {"city": "MARION", "state": "OH", "street": "800 BELLEFONTAINE AVE", "postcode": "43302"}}},
{"geometry": {"type": "Point", "coordinates": [-83.1325110686, 40.5885377465]}, "type": "Feature", "properties": {"collection_times": [{"days": "Mon-Sat", "time": "2:00pm"}, {"days": "Sun", "time": "Closed"}], "id": "4330200071", "name": "USPS COLLECTION BOX - BLUE BOX", "address": {"city": "MARION", "state": "OH", "street": "222 W CENTER ST", "postcode": "43302"}}},
{"geometry": {"type": "Point", "coordinates": [-83.7522383446, 40.5077108451]}, "type": "Feature", "properties": {"collection_times": [{"days": "Mon-Fri", "time": "4:20pm"}, {"days": "Sat", "time": "11:00am"}, {"days": "Sun", "time": "Closed"}], "id": "4331000000", "name": "USPS COLLECTION BOX - BLUE BOX", "address": {"city": "BELLE CENTER", "state": "OH", "street": "102 W MAIN ST", "postcode": "43310"}}},
{"geometry": {"type": "Point", "coordinates": [-83.7522383446, 40.5077108451]}, "type": "Feature", "properties": {"collection_times": [{"days": "Mon-Fri", "time": "4:20pm"}, {"days": "Sat", "time": "11:00am"}, {"days": "Sun", "time": "Closed"}], "id": "4331000001", "name": "USPS COLLECTION BOX - PO LOBBY", "address": {"city": "BELLE CENTER", "state": "OH", "street": "102 W MAIN ST", "postcode": "43310"}}},
{"geometry": {"type": "Point", "coordinates": [-83.7587523363, 40.3609176688]}, "type": "Feature", "properties": {"collection_times": [{"days": "Mon-Sat", "time": "12:00pm"}, {"days": "Sun", "time": "Closed"}], "id": "4331100000", "name": "USPS COLLECTION BOX - BLUE BOX", "address": {"city": "BELLEFONTAINE", "state": "OH", "street": "121 S OPERA ST", "postcode": "43311"}}},
{"geometry": {"type": "Point", "coordinates": [-83.7554890206, 40.376470683]}, "type": "Feature", "properties": {"collection_times": [{"days": "Mon-Sat", "time": "10:30am"}, {"days": "Sun", "time": "Closed"}], "id": "4331100026", "name": "USPS COLLECTION BOX - BLUE BOX", "address": {"city": "BELLEFONTAINE", "state": "OH", "street": "110 DOWELL AVE", "postcode": "43311"}}},
{"geometry": {"type": "Point", "coordinates": [-83.7613562364, 40.3305491988]}, "type": "Feature", "properties": {"collection_times": [{"days": "Mon-Sat", "time": "10:00am"}, {"days": "Sun", "time": "Closed"}], "id": "4331100030", "name": "USPS COLLECTION BOX - BLUE BOX", "address": {"city": "BELLEFONTAINE", "state": "OH", "street": "2115 S MAIN ST", "postcode": "43311"}}},
{"geometry": {"type": "Point", "coordinates": [-83.7617849531, 40.3604236991]}, "type": "Feature", "properties": {"collection_times": [{"days": "Mon-Sat", "time": "4:30pm"}, {"days": "Sun", "time": "Closed"}], "id": "4331100035", "name": "USPS COLLECTION BOX - BLUE BOX", "address": {"city": "BELLEFONTAINE", "state": "OH", "street": "132 S DETROIT ST", "postcode": "43311"}}},
{"geometry": {"type": "Point", "coordinates": [-83.7617849531, 40.3604236991]}, "type": "Feature", "properties": {"collection_times": [{"days": "Mon-Sat", "time": "4:30pm"}, {"days": "Sun", "time": "Closed"}], "id": "4331100041", "name": "USPS COLLECTION BOX - PO LOBBY", "address": {"city": "BELLEFONTAINE", "state": "OH", "street": "132 S DETROIT ST", "postcode": "43311"}}},
{"geometry": {"type": "Point", "coordinates": [-82.9687236067, 40.639550075]}, "type": "Feature", "properties": {"collection_times": [{"days": "Mon-Fri", "time": "4:30pm"}, {"days": "Sat", "time": "10:45am"}, {"days": "Sun", "time": "Closed"}], "id": "4331400000", "name": "USPS COLLECTION BOX - BLUE BOX", "address": {"city": "CALEDONIA", "state": "OH", "street": "128 S MAIN ST", "postcode": "43314"}}},
{"geometry": {"type": "Point", "coordinates": [-82.9687236067, 40.639550075]}, "type": "Feature", "properties": {"collection_times": [{"days": "Mon-Fri", "time": "4:30pm"}, {"days": "Sat", "time": "10:45am"}, {"days": "Sun", "time": "Closed"}], "id": "4331400002", "name": "USPS COLLECTION BOX - PO LOBBY", "address": {"city": "CALEDONIA", "state": "OH", "street": "128 S MAIN ST", "postcode": "43314"}}},
{"geometry": {"type": "Point", "coordinates": [-82.8942932684, 40.49881614]}, "type": "Feature", "properties": {"collection_times": [{"days": "Mon-Fri", "time": "3:55pm"}, {"days": "Sat", "time": "3:15pm"}, {"days": "Sun", "time": "Closed"}], "id": "4331500007", "name": "USPS COLLECTION BOX - BLUE BOX", "address": {"city": "CARDINGTON", "state": "OH", "street": "201 S MARION ST", "postcode": "43315"}}},
{"geometry": {"type": "Point", "coordinates": [-82.8942932684, 40.49881614]}, "type": "Feature", "properties": {"collection_times": [{"days": "Mon-Fri", "time": "4:15pm"}, {"days": "Sat", "time": "3:30pm"}, {"days": "Sun", "time": "Closed"}], "id": "4331500008", "name": "USPS COLLECTION BOX - PO LOBBY", "address": {"city": "CARDINGTON", "state": "OH", "street": "201 S MARION ST", "postcode": "43315"}}},
{"geometry": {"type": "Point", "coordinates": [-83.3825050263, 40.9529339734]}, "type": "Feature", "properties": {"collection_times": [{"days": "Mon-Fri", "time": "4:15pm"}, {"days": "Sat", "time": "10:45am"}, {"days": "Sun", "time": "Closed"}], "id": "4331600007", "name": "USPS COLLECTION BOX - BLUE BOX", "address": {"city": "CAREY", "state": "OH", "street": "128 N VANCE ST", "postcode": "43316"}}},
{"geometry": {"type": "Point", "coordinates": [-83.3825050263, 40.9529339734]}, "type": "Feature", "properties": {"collection_times": [{"days": "Mon-Fri", "time": "4:30pm"}, {"days": "Sat", "time": "11:00am"}, {"days": "Sun", "time": "Closed"}], "id": "4331600009", "name": "USPS COLLECTION BOX - PO LOBBY", "address": {"city": "CAREY", "state": "OH", "street": "128 N VANCE ST", "postcode": "43316"}}},
{"geometry": {"type": "Point", "coordinates": [-82.6843718521, 40.4804447285]}, "type": "Feature", "properties": {"collection_times": [{"days": "Mon-Fri", "time": "11:30am"}, {"days": "Sat", "time": "10:15am"}, {"days": "Sun", "time": "Closed"}], "id": "4331700000", "name": "USPS COLLECTION BOX - BLUE BOX", "address": {"city": "CHESTERVILLE", "state": "OH", "street": "44 E SANDUSKY ST", "postcode": "43317"}}},
{"geometry": {"type": "Point", "coordinates": [-82.6843718521, 40.4804447285]}, "type": "Feature", "properties": {"collection_times": [{"days": "Mon-Fri", "time": "11:30am"}, {"days": "Sat", "time": "10:15am"}, {"days": "Sun", "time": "Closed"}], "id": "4331700001", "name": "USPS COLLECTION BOX - PO LOBBY", "address": {"city": "CHESTERVILLE", "state": "OH", "street": "44 E SANDUSKY ST", "postcode": "43317"}}},
{"geometry": {"type": "Point", "coordinates": [-83.9156967534, 40.3106494917]}, "type": "Feature", "properties": {"collection_times": [{"days": "Mon-Fri", "time": "4:00pm"}, {"days": "Sat", "time": "10:15am"}, {"days": "Sun", "time": "Closed"}], "id": "4331800000", "name": "USPS COLLECTION BOX - BLUE BOX", "address": {"city": "DE GRAFF", "state": "OH", "street": "102 S MAIN ST", "postcode": "43318"}}},
{"geometry": {"type": "Point", "coordinates": [-83.9156967534, 40.3106494917]}, "type": "Feature", "properties": {"collection_times": [{"days": "Mon-Fri", "time": "4:00pm"}, {"days": "Sat", "time": "10:15am"}, {"days": "Sun", "time": "Closed"}], "id": "4331800001", "name": "USPS COLLECTION BOX - PO LOBBY", "address": {"city": "DE GRAFF", "state": "OH", "street": "102 S MAIN ST", "postcode": "43318"}}},
{"geometry": {"type": "Point", "coordinates": [-83.5809572118, 40.3299231936]}, "type": "Feature", "properties": {"collection_times": [{"days": "Mon-Fri", "time": "11:15am"}, {"days": "Sat", "time": "10:00am"}, {"days": "Sun", "time": "Closed"}], "id": "4331900000", "name": "USPS COLLECTION BOX - BLUE BOX", "address": {"city": "EAST LIBERTY", "state": "OH", "street": "3236 S MAIN ST", "postcode": "43319"}}},
{"geometry": {"type": "Point", "coordinates": [-83.5809572118, 40.3299231936]}, "type": "Feature", "properties": {"collection_times": [{"days": "Mon-Fri", "time": "11:15am"}, {"days": "Sat", "time": "10:00am"}, {"days": "Sun", "time": "Closed"}], "id": "4331900001", "name": "USPS COLLECTION BOX - PO LOBBY", "address": {"city": "EAST LIBERTY", "state": "OH", "street": "3236 S MAIN ST", "postcode": "43319"}}},
{"geometry": {"type": "Point", "coordinates": [-82.8626782243, 40.5578172992]}, "type": "Feature", "properties": {"collection_times": [{"days": "Mon-Fri", "time": "4:30pm"}, {"days": "Sat", "time": "9:45am"}, {"days": "Sun", "time": "Closed"}], "id": "4332000000", "name": "USPS COLLECTION BOX - BLUE BOX", "address": {"city": "EDISON", "state": "OH", "street": "101 N BOUNDARY ST", "postcode": "43320"}}},
{"geometry": {"type": "Point", "coordinates": [-82.8626782243, 40.5578172992]}, "type": "Feature", "properties": {"collection_times": [{"days": "Mon-Fri", "time": "4:30pm"}, {"days": "Sat", "time": "9:45am"}, {"days": "Sun", "time": "Closed"}], "id": "4332000001", "name": "USPS COLLECTION BOX - PO LOBBY", "address": {"city": "EDISON", "state": "OH", "street": "101 N BOUNDARY ST", "postcode": "43320"}}},
{"geometry": {"type": "Point", "coordinates": [-83.8912960708, 41.5893252708]}, "type": "Feature", "properties": {"collection_times": [{"days": "Mon-Fri", "time": "4:00pm"}, {"days": "Sat", "time": "9:45am"}, {"days": "Sun", "time": "Closed"}], "id": "4332100000", "name": "USPS COLLECTION BOX - BLUE BOX", "address": {"city": "FULTON", "state": "OH", "street": "114 E MAIN ST", "postcode": "43321"}}},
{"geometry": {"type": "Point", "coordinates": [-83.8912960708, 41.5893252708]}, "type": "Feature", "properties": {"collection_times": [{"days": "Mon-Fri", "time": "4:00pm"}, {"days": "Sat", "time": "9:45am"}, {"days": "Sun", "time": "Closed"}], "id": "4332100001", "name": "USPS COLLECTION BOX - PO LOBBY", "address": {"city": "FULTON", "state": "OH", "street": "114 E MAIN ST", "postcode": "43321"}}},
{"geometry": {"type": "Point", "coordinates": [-83.2100160655, 40.5329077515]}, "type": "Feature", "properties": {"collection_times": [{"days": "Mon-Fri", "time": "4:00pm"}, {"days": "Sat", "time": "10:15am"}, {"days": "Sun", "time": "Closed"}], "id": "4332200001", "name": "USPS COLLECTION BOX - PO LOBBY", "address": {"city": "GREEN CAMP", "state": "OH", "street": "216 MARION ST", "postcode": "43322"}}},
{"geometry": {"type": "Point", "coordinates": [-83.2100160655, 40.5329077515]}, "type": "Feature", "properties": {"collection_times": [{"days": "Mon-Fri", "time": "4:00pm"}, {"days": "Sat", "time": "10:15am"}, {"days": "Sun", "time": "Closed"}], "id": "4332200002", "name": "USPS COLLECTION BOX - BLUE BOX", "address": {"city": "GREEN CAMP", "state": "OH", "street": "216 MARION ST", "postcode": "43322"}}},
{"geometry": {"type": "Point", "coordinates": [-83.24883416, 40.7381300618]}, "type": "Feature", "properties": {"collection_times": [{"days": "Mon-Fri", "time": "4:30pm"}, {"days": "Sat", "time": "12:00pm"}, {"days": "Sun", "time": "Closed"}], "id": "4332300000", "name": "USPS COLLECTION BOX - BLUE BOX", "address": {"city": "HARPSTER", "state": "OH", "street": "7272 WYANDOT ST", "postcode": "43323"}}},
{"geometry": {"type": "Point", "coordinates": [-83.24883416, 40.7381300618]}, "type": "Feature", "properties": {"collection_times": [{"days": "Mon-Fri", "time": "4:30pm"}, {"days": "Sat", "time": "12:00pm"}, {"days": "Sun", "time": "Closed"}], "id": "4332300001", "name": "USPS COLLECTION BOX - PO LOBBY", "address": {"city": "HARPSTER", "state": "OH", "street": "7272 WYANDOT ST", "postcode": "43323"}}},
{"geometry": {"type": "Point", "coordinates": [-83.8059717677, 40.4431574662]}, "type": "Feature", "properties": {"collection_times": [{"days": "Mon-Fri", "time": "12:30pm"}, {"days": "Sat", "time": "11:00am"}, {"days": "Sun", "time": "Closed"}], "id": "4332400000", "name": "USPS COLLECTION BOX - BLUE BOX", "address": {"city": "HUNTSVILLE", "state": "OH", "street": "6493 LIMA ST", "postcode": "43324"}}},
{"geometry": {"type": "Point", "coordinates": [-83.8059717677, 40.4431574662]}, "type": "Feature", "properties": {"collection_times": [{"days": "Mon-Fri", "time": "12:30pm"}, {"days": "Sat", "time": "11:00am"}, {"days": "Sun", "time": "Closed"}], "id": "4332400001", "name": "USPS COLLECTION BOX - PO LOBBY", "address": {"city": "HUNTSVILLE", "state": "OH", "street": "6493 LIMA ST", "postcode": "43324"}}},
{"geometry": {"type": "Point", "coordinates": [-82.8459662328, 40.6697230138]}, "type": "Feature", "properties": {"collection_times": [{"days": "Mon-Fri", "time": "4:10pm"}, {"days": "Sat", "time": "9:45am"}, {"days": "Sun", "time": "Closed"}], "id": "4332500000", "name": "USPS COLLECTION BOX - BLUE BOX", "address": {"city": "IBERIA", "state": "OH", "street": "3570 STATE ROUTE 309", "postcode": "43325"}}},
{"geometry": {"type": "Point", "coordinates": [-82.8459662328, 40.6697230138]}, "type": "Feature", "properties": {"collection_times": [{"days": "Mon-Fri", "time": "4:15pm"}, {"days": "Sat", "time": "9:45am"}, {"days": "Sun", "time": "Closed"}], "id": "4332500001", "name": "USPS COLLECTION BOX - PO LOBBY", "address": {"city": "IBERIA", "state": "OH", "street": "3570 STATE ROUTE 309", "postcode": "43325"}}},
{"geometry": {"type": "Point", "coordinates": [-83.5962682456, 40.6457226112]}, "type": "Feature", "properties": {"collection_times": [{"days": "Mon-Fri", "time": "1:15pm"}, {"days": "Sat", "time": "12:00pm"}, {"days": "Sun", "time": "Closed"}], "id": "4332600002", "name": "USPS COLLECTION BOX - BLUE BOX", "address": {"city": "KENTON", "state": "OH", "street": "921 E FRANKLIN ST", "postcode": "43326"}}},
{"geometry": {"type": "Point", "coordinates": [-83.6038466496, 40.6468914608]}, "type": "Feature", "properties": {"collection_times": [{"days": "Mon-Fri", "time": "1:15pm"}, {"days": "Sat", "time": "12:00pm"}, {"days": "Sun", "time": "Closed"}], "id": "4332600005", "name": "USPS COLLECTION BOX - BLUE BOX", "address": {"city": "KENTON", "state": "OH", "street": "55 N MAIN ST", "postcode": "43326"}}},
{"geometry": {"type": "Point", "coordinates": [-83.6107792123, 40.6471828197]}, "type": "Feature", "properties": {"collection_times": [{"days": "Mon-Fri", "time": "4:30pm"}, {"days": "Sat", "time": "3:30pm"}, {"days": "Sun", "time": "Closed"}], "id": "4332600012", "name": "USPS COLLECTION BOX - BLUE BOX", "address": {"city": "KENTON", "state": "OH", "street": "305 W FRANKLIN ST", "postcode": "43326"}}},
{"geometry": {"type": "Point", "coordinates": [-83.6107792123, 40.6471828197]}, "type": "Feature", "properties": {"collection_times": [{"days": "Mon-Fri", "time": "4:30pm"}, {"days": "Sat", "time": "3:30pm"}, {"days": "Sun", "time": "Closed"}], "id": "4332600015", "name": "USPS COLLECTION BOX - PO LOBBY", "address": {"city": "KENTON", "state": "OH", "street": "305 W FRANKLIN ST", "postcode": "43326"}}},
{"geometry": {"type": "Point", "coordinates": [-83.6038466496, 40.6468914608]}, "type": "Feature", "properties": {"collection_times": [{"days": "Mon-Fri", "time": "1:15pm"}, {"days": "Sat", "time": "12:00pm"}, {"days": "Sun", "time": "Closed"}], "id": "4332600017", "name": "USPS COLLECTION BOX - BLUE BOX", "address": {"city": "KENTON", "state": "OH", "street": "55 N MAIN ST", "postcode": "43326"}}},
{"geometry": {"type": "Point", "coordinates": [-83.5953923779, 40.6505563946]}, "type": "Feature", "properties": {"collection_times": [{"days": "Mon-Sat", "time": "12:00pm"}, {"days": "Sun", "time": "Closed"}], "id": "4332600021", "name": "USPS COLLECTION BOX - BLUE BOX", "address": {"city": "KENTON", "state": "OH", "street": "987 E COLUMBUS ST", "postcode": "43326"}}},
{"geometry": {"type": "Point", "coordinates": [-83.6080716261, 40.647021247]}, "type": "Feature", "properties": {"collection_times": [{"days": "Mon-Fri", "time": "1:15pm"}, {"days": "Sat", "time": "12:00pm"}, {"days": "Sun", "time": "Closed"}], "id": "4332600032", "name": "USPS COLLECTION BOX - BLUE BOX", "address": {"city": "KENTON", "state": "OH", "street": "110 S MAIN ST", "postcode": "43326"}}},
{"geometry": {"type": "Point", "coordinates": [-83.5953923779, 40.6505563946]}, "type": "Feature", "properties": {"collection_times": [{"days": "Mon-Sat", "time": "12:00pm"}, {"days": "Sun", "time": "Closed"}], "id": "4332600033", "name": "USPS COLLECTION BOX - BLUE BOX", "address": {"city": "KENTON", "state": "OH", "street": "987 E COLUMBUS ST", "postcode": "43326"}}},
{"geometry": {"type": "Point", "coordinates": [-83.9240836598, 40.4839323537]}, "type": "Feature", "properties": {"collection_times": [{"days": "Mon-Fri", "time": "4:00pm"}, {"days": "Sat", "time": "11:00am"}, {"days": "Sun", "time": "Closed"}], "id": "4333100000", "name": "USPS COLLECTION BOX - PO LOBBY", "address": {"city": "LAKEVIEW", "state": "OH", "street": "160 S MAIN ST", "postcode": "43331"}}},
{"geometry": {"type": "Point", "coordinates": [-83.9240836598, 40.4839323537]}, "type": "Feature", "properties": {"collection_times": [{"days": "Mon-Fri", "time": "4:00pm"}, {"days": "Sat", "time": "11:00am"}, {"days": "Sun", "time": "Closed"}], "id": "4333100001", "name": "USPS COLLECTION BOX - BLUE BOX", "address": {"city": "LAKEVIEW", "state": "OH", "street": "160 S MAIN ST", "postcode": "43331"}}},
{"geometry": {"type": "Point", "coordinates": [-83.3842968301, 40.5752503939]}, "type": "Feature", "properties": {"collection_times": [{"days": "Mon-Fri", "time": "3:45pm"}, {"days": "Sat", "time": "11:15am"}, {"days": "Sun", "time": "Closed"}], "id": "4333200000", "name": "USPS COLLECTION BOX - BLUE BOX", "address": {"city": "LA RUE", "state": "OH", "street": "65 S HIGH ST", "postcode": "43332"}}},
{"geometry": {"type": "Point", "coordinates": [-83.3842968301, 40.5752503939]}, "type": "Feature", "properties": {"collection_times": [{"days": "Mon-Fri", "time": "3:45pm"}, {"days": "Sat", "time": "11:15am"}, {"days": "Sun", "time": "Closed"}], "id": "4333200001", "name": "USPS COLLECTION BOX - PO LOBBY", "address": {"city": "LA RUE", "state": "OH", "street": "65 S HIGH ST", "postcode": "43332"}}},
{"geometry": {"type": "Point", "coordinates": [-83.8845742917, 40.4219128725]}, "type": "Feature", "properties": {"collection_times": [{"days": "Mon-Fri", "time": "3:45pm"}, {"days": "Sat", "time": "9:45am"}, {"days": "Sun", "time": "Closed"}], "id": "4333300000", "name": "USPS COLLECTION BOX - BLUE BOX", "address": {"city": "LEWISTOWN", "state": "OH", "street": "7670 COUNTY ROAD 91", "postcode": "43333"}}},
{"geometry": {"type": "Point", "coordinates": [-83.8845742917, 40.4219128725]}, "type": "Feature", "properties": {"collection_times": [{"days": "Mon-Fri", "time": "3:45pm"}, {"days": "Sat", "time": "9:45am"}, {"days": "Sun", "time": "Closed"}], "id": "4333300001", "name": "USPS COLLECTION BOX - PO LOBBY", "address": {"city": "LEWISTOWN", "state": "OH", "street": "7670 COUNTY ROAD 91", "postcode": "43333"}}},
{"geometry": {"type": "Point", "coordinates": [-82.8111353494, 40.3975593767]}, "type": "Feature", "properties": {"collection_times": [{"days": "Mon-Fri", "time": "4:30pm"}, {"days": "Sat", "time": "11:45am"}, {"days": "Sun", "time": "Closed"}], "id": "4333400000", "name": "USPS COLLECTION BOX - BLUE BOX", "address": {"city": "MARENGO", "state": "OH", "street": "97 S MAIN ST", "postcode": "43334"}}},
{"geometry": {"type": "Point", "coordinates": [-82.810990355, 40.4003307953]}, "type": "Feature", "properties": {"collection_times": [{"days": "Mon-Sat", "time": "11:00am"}, {"days": "Sun", "time": "Closed"}], "id": "4333400001", "name": "USPS COLLECTION BOX - BLUE BOX", "address": {"city": "MARENGO", "state": "OH", "street": "19 S MAIN ST", "postcode": "43334"}}},
{"geometry": {"type": "Point", "coordinates": [-82.8111353494, 40.3975593767]}, "type": "Feature", "properties": {"collection_times": [{"days": "Mon-Fri", "time": "4:30pm"}, {"days": "Sat", "time": "11:45am"}, {"days": "Sun", "time": "Closed"}], "id": "4333400002", "name": "USPS COLLECTION BOX - PO LOBBY", "address": {"city": "MARENGO", "state": "OH", "street": "97 S MAIN ST", "postcode": "43334"}}},
{"geometry": {"type": "Point", "coordinates": [-83.581849043, 40.2925244839]}, "type": "Feature", "properties": {"collection_times": [{"days": "Mon-Fri", "time": "4:20pm"}, {"days": "Sat", "time": "10:15am"}, {"days": "Sun", "time": "Closed"}], "id": "4333600000", "name": "USPS COLLECTION BOX - BLUE BOX", "address": {"city": "MIDDLEBURG", "state": "OH", "street": "12020 GREEN ST", "postcode": "43336"}}},
{"geometry": {"type": "Point", "coordinates": [-83.581849043, 40.2925244839]}, "type": "Feature", "properties": {"collection_times": [{"days": "Mon-Fri", "time": "4:20pm"}, {"days": "Sat", "time": "10:15am"}, {"days": "Sun", "time": "Closed"}], "id": "4333600001", "name": "USPS COLLECTION BOX - PO LOBBY", "address": {"city": "MIDDLEBURG", "state": "OH", "street": "12020 GREEN ST", "postcode": "43336"}}},
{"geometry": {"type": "Point", "coordinates": [-83.213757813, 40.6878564081]}, "type": "Feature", "properties": {"collection_times": [{"days": "Mon-Fri", "time": "4:30pm"}, {"days": "Sat", "time": "12:00pm"}, {"days": "Sun", "time": "Closed"}], "id": "4333700000", "name": "USPS COLLECTION BOX - BLUE BOX", "address": {"city": "MORRAL", "state": "OH", "street": "150 W NEFF ST", "postcode": "43337"}}},
{"geometry": {"type": "Point", "coordinates": [-83.213757813, 40.6878564081]}, "type": "Feature", "properties": {"collection_times": [{"days": "Mon-Fri", "time": "4:30pm"}, {"days": "Sat", "time": "12:00pm"}, {"days": "Sun", "time": "Closed"}], "id": "4333700001", "name": "USPS COLLECTION BOX - PO LOBBY", "address": {"city": "MORRAL", "state": "OH", "street": "150 W NEFF ST", "postcode": "43337"}}},
{"geometry": {"type": "Point", "coordinates": [-82.827451145, 40.5491078661]}, "type": "Feature", "properties": {"collection_times": [{"days": "Mon-Fri", "time": "9:00am"}, {"days": "Sat-Sun", "time": "Closed"}], "id": "4333800008", "name": "USPS COLLECTION BOX - BLUE BOX", "address": {"city": "MOUNT GILEAD", "state": "OH", "street": "48 E HIGH ST", "postcode": "43338"}}},
{"geometry": {"type": "Point", "coordinates": [-82.8461438473, 40.5487334194]}, "type": "Feature", "properties": {"collection_times": [{"days": "Mon-Sat", "time": "9:45am"}, {"days": "Sun", "time": "Closed"}], "id": "4333800011", "name": "USPS COLLECTION BOX - BLUE BOX", "address": {"city": "MOUNT GILEAD", "state": "OH", "street": "555 W MARION RD", "postcode": "43338"}}},
{"geometry": {"type": "Point", "coordinates": [-82.8293362733, 40.549264332]}, "type": "Feature", "properties": {"collection_times": [{"days": "Mon-Fri", "time": "4:30pm"}, {"days": "Sat", "time": "3:00pm"}, {"days": "Sun", "time": "Closed"}], "id": "4333800013", "name": "USPS COLLECTION BOX - PO LOBBY", "address": {"city": "MOUNT GILEAD", "state": "OH", "street": "37 W HIGH ST", "postcode": "43338"}}},
{"geometry": {"type": "Point", "coordinates": [-82.8291099211, 40.5492324751]}, "type": "Feature", "properties": {"collection_times": [{"days": "Mon-Fri", "time": "4:30pm"}, {"days": "Sat", "time": "3:00pm"}, {"days": "Sun", "time": "Closed"}], "id": "4333800014", "name": "USPS COLLECTION BOX - BLUE BOX", "address": {"city": "MOUNT GILEAD", "state": "OH", "street": "27 W HIGH ST", "postcode": "43338"}}},
{"geometry": {"type": "Point", "coordinates": [-82.827451145, 40.5491078661]}, "type": "Feature", "properties": {"collection_times": [{"days": "Mon-Fri", "time": "9:00am"}, {"days": "Sat-Sun", "time": "Closed"}], "id": "4333800015", "name": "USPS COLLECTION BOX - BLUE BOX", "address": {"city": "MOUNT GILEAD", "state": "OH", "street": "48 E HIGH ST", "postcode": "43338"}}},
{"geometry": {"type": "Point", "coordinates": [-83.5208741415, 40.5342187272]}, "type": "Feature", "properties": {"collection_times": [{"days": "Mon-Fri", "time": "3:30pm"}, {"days": "Sat", "time": "10:15am"}, {"days": "Sun", "time": "Closed"}], "id": "4334000000", "name": "USPS COLLECTION BOX - BLUE BOX", "address": {"city": "MOUNT VICTORY", "state": "OH", "street": "115 S MAIN ST", "postcode": "43340"}}},
{"geometry": {"type": "Point", "coordinates": [-83.5208741415, 40.5342187272]}, "type": "Feature", "properties": {"collection_times": [{"days": "Mon-Fri", "time": "4:15pm"}, {"days": "Sat", "time": "10:15am"}, {"days": "Sun", "time": "Closed"}], "id": "4334000001", "name": "USPS COLLECTION BOX - PO LOBBY", "address": {"city": "MOUNT VICTORY", "state": "OH", "street": "115 S MAIN ST", "postcode": "43340"}}},
{"geometry": {"type": "Point", "coordinates": [-83.3147387967, 40.585364585]}, "type": "Feature", "properties": {"collection_times": [{"days": "Mon-Fri", "time": "12:30pm"}, {"days": "Sat", "time": "9:45am"}, {"days": "Sun", "time": "Closed"}], "id": "4334100000", "name": "USPS COLLECTION BOX - BLUE BOX", "address": {"city": "NEW BLOOMINGTON", "state": "OH", "street": "160 S MAIN ST", "postcode": "43341"}}},
{"geometry": {"type": "Point", "coordinates": [-83.3147387967, 40.585364585]}, "type": "Feature", "properties": {"collection_times": [{"days": "Mon-Fri", "time": "12:30pm"}, {"days": "Sat", "time": "9:45am"}, {"days": "Sun", "time": "Closed"}], "id": "4334100001", "name": "USPS COLLECTION BOX - PO LOBBY", "address": {"city": "NEW BLOOMINGTON", "state": "OH", "street": "160 S MAIN ST", "postcode": "43341"}}},
{"geometry": {"type": "Point", "coordinates": [-83.1894757948, 40.4506175348]}, "type": "Feature", "properties": {"collection_times": [{"days": "Mon-Fri", "time": "4:15pm"}, {"days": "Sat", "time": "10:45am"}, {"days": "Sun", "time": "Closed"}], "id": "4334200000", "name": "USPS COLLECTION BOX - BLUE BOX", "address": {"city": "PROSPECT", "state": "OH", "street": "120 N MAIN ST", "postcode": "43342"}}},
{"geometry": {"type": "Point", "coordinates": [-83.1894757948, 40.4506175348]}, "type": "Feature", "properties": {"collection_times": [{"days": "Mon-Fri", "time": "4:15pm"}, {"days": "Sat", "time": "10:45am"}, {"days": "Sun", "time": "Closed"}], "id": "4334200001", "name": "USPS COLLECTION BOX - PO LOBBY", "address": {"city": "PROSPECT", "state": "OH", "street": "120 N MAIN ST", "postcode": "43342"}}},
{"geometry": {"type": "Point", "coordinates": [-83.9685764481, 40.2980517297]}, "type": "Feature", "properties": {"collection_times": [{"days": "Mon-Fri", "time": "11:30am"}, {"days": "Sat", "time": "10:45am"}, {"days": "Sun", "time": "Closed"}], "id": "4334300000", "name": "USPS COLLECTION BOX - BLUE BOX", "address": {"city": "QUINCY", "state": "OH", "street": "103 S MIAMI ST", "postcode": "43343"}}},
{"geometry": {"type": "Point", "coordinates": [-83.9685764481, 40.2980517297]}, "type": "Feature", "properties": {"collection_times": [{"days": "Mon-Fri", "time": "11:30am"}, {"days": "Sat", "time": "10:45am"}, {"days": "Sun", "time": "Closed"}], "id": "4334300001", "name": "USPS COLLECTION BOX - PO LOBBY", "address": {"city": "QUINCY", "state": "OH", "street": "103 S MIAMI ST", "postcode": "43343"}}},
{"geometry": {"type": "Point", "coordinates": [-83.295529545, 40.4267333103]}, "type": "Feature", "properties": {"collection_times": [{"days": "Mon-Fri", "time": "3:45pm"}, {"days": "Sat", "time": "11:45am"}, {"days": "Sun", "time": "Closed"}], "id": "4334400002", "name": "USPS COLLECTION BOX - BLUE BOX", "address": {"city": "RICHWOOD", "state": "OH", "street": "12 E OTTAWA ST", "postcode": "43344"}}},
{"geometry": {"type": "Point", "coordinates": [-83.295529545, 40.4267333103]}, "type": "Feature", "properties": {"collection_times": [{"days": "Mon-Fri", "time": "3:45pm"}, {"days": "Sat", "time": "11:45am"}, {"days": "Sun", "time": "Closed"}], "id": "4334400003", "name": "USPS COLLECTION BOX - BLUE BOX", "address": {"city": "RICHWOOD", "state": "OH", "street": "12 E OTTAWA ST", "postcode": "43344"}}},
{"geometry": {"type": "Point", "coordinates": [-83.295529545, 40.4267333103]}, "type": "Feature", "properties": {"collection_times": [{"days": "Mon-Fri", "time": "3:45pm"}, {"days": "Sat", "time": "11:45am"}, {"days": "Sun", "time": "Closed"}], "id": "4334400004", "name": "USPS COLLECTION BOX - PO LOBBY", "address": {"city": "RICHWOOD", "state": "OH", "street": "12 E OTTAWA ST", "postcode": "43344"}}},
{"geometry": {"type": "Point", "coordinates": [-83.575762734, 40.514979685]}, "type": "Feature", "properties": {"collection_times": [{"days": "Mon-Fri", "time": "11:30am"}, {"days": "Sat", "time": "9:45am"}, {"days": "Sun", "time": "Closed"}], "id": "4334500000", "name": "USPS COLLECTION BOX - BLUE BOX", "address": {"city": "RIDGEWAY", "state": "OH", "street": "114 E HALE ST", "postcode": "43345"}}},
{"geometry": {"type": "Point", "coordinates": [-83.575762734, 40.514979685]}, "type": "Feature", "properties": {"collection_times": [{"days": "Mon-Fri", "time": "11:30am"}, {"days": "Sat", "time": "9:45am"}, {"days": "Sun", "time": "Closed"}], "id": "4334500001", "name": "USPS COLLECTION BOX - PO LOBBY", "address": {"city": "RIDGEWAY", "state": "OH", "street": "114 E HALE ST", "postcode": "43345"}}},
{"geometry": {"type": "Point", "coordinates": [-83.8475571521, 40.544334474]}, "type": "Feature", "properties": {"collection_times": [{"days": "Mon-Fri", "time": "4:00pm"}, {"days": "Sat", "time": "11:15am"}, {"days": "Sun", "time": "Closed"}], "id": "4334600000", "name": "USPS COLLECTION BOX - BLUE BOX", "address": {"city": "ROUNDHEAD", "state": "OH", "street": "17770 N MAIN ST", "postcode": "43346"}}},
{"geometry": {"type": "Point", "coordinates": [-83.8475571521, 40.544334474]}, "type": "Feature", "properties": {"collection_times": [{"days": "Mon-Fri", "time": "4:15pm"}, {"days": "Sat", "time": "11:15am"}, {"days": "Sun", "time": "Closed"}], "id": "4334600001", "name": "USPS COLLECTION BOX - PO LOBBY", "address": {"city": "ROUNDHEAD", "state": "OH", "street": "17770 N MAIN ST", "postcode": "43346"}}},
{"geometry": {"type": "Point", "coordinates": [-83.6709208231, 40.4613719474]}, "type": "Feature", "properties": {"collection_times": [{"days": "Mon-Fri", "time": "3:25pm"}, {"days": "Sat", "time": "10:15am"}, {"days": "Sun", "time": "Closed"}], "id": "4334700000", "name": "USPS COLLECTION BOX - BLUE BOX", "address": {"city": "RUSHSYLVANIA", "state": "OH", "street": "106 N SANDUSKY ST", "postcode": "43347"}}},
{"geometry": {"type": "Point", "coordinates": [-83.6709208231, 40.4613719474]}, "type": "Feature", "properties": {"collection_times": [{"days": "Mon-Fri", "time": "3:30pm"}, {"days": "Sat", "time": "10:15am"}, {"days": "Sun", "time": "Closed"}], "id": "4334700001", "name": "USPS COLLECTION BOX - PO LOBBY", "address": {"city": "RUSHSYLVANIA", "state": "OH", "street": "106 N SANDUSKY ST", "postcode": "43347"}}},
{"geometry": {"type": "Point", "coordinates": [-83.8950331003, 40.4633593043]}, "type": "Feature", "properties": {"collection_times": [{"days": "Mon-Fri", "time": "4:00pm"}, {"days": "Sat", "time": "11:45am"}, {"days": "Sun", "time": "Closed"}], "id": "4334800003", "name": "USPS COLLECTION BOX - PO LOBBY", "address": {"city": "RUSSELLS POINT", "state": "OH", "street": "901 STATE ROUTE 708", "postcode": "43348"}}},
{"geometry": {"type": "Point", "coordinates": [-82.6630557911, 40.6201404584]}, "type": "Feature", "properties": {"collection_times": [{"days": "Mon-Fri", "time": "10:00am"}, {"days": "Sat", "time": "11:00am"}, {"days": "Sun", "time": "Closed"}], "id": "4334900000", "name": "USPS COLLECTION BOX - BLUE BOX", "address": {"city": "SHAUCK", "state": "OH", "street": "7500 STATE ROUTE 314", "postcode": "43349"}}},
{"geometry": {"type": "Point", "coordinates": [-82.7006748919, 40.3948064419]}, "type": "Feature", "properties": {"collection_times": [{"days": "Mon-Fri", "time": "3:15pm"}, {"days": "Sat", "time": "10:15am"}, {"days": "Sun", "time": "Closed"}], "id": "4335000000", "name": "USPS COLLECTION BOX - BLUE BOX", "address": {"city": "SPARTA", "state": "OH", "street": "8 W MAIN ST", "postcode": "43350"}}},
{"geometry": {"type": "Point", "coordinates": [-82.7006748919, 40.3948064419]}, "type": "Feature", "properties": {"collection_times": [{"days": "Mon-Fri", "time": "3:15pm"}, {"days": "Sat", "time": "10:15am"}, {"days": "Sun", "time": "Closed"}], "id": "4335000001", "name": "USPS COLLECTION BOX - PO LOBBY", "address": {"city": "SPARTA", "state": "OH", "street": "8 W MAIN ST", "postcode": "43350"}}},
{"geometry": {"type": "Point", "coordinates": [-83.2620656404, 40.8295044301]}, "type": "Feature", "properties": {"collection_times": [{"days": "Mon-Sat", "time": "4:00pm"}, {"days": "Sun", "time": "Closed"}], "id": "4335100014", "name": "USPS COLLECTION BOX - BLUE BOX", "address": {"city": "UPPER SANDUSKY", "state": "OH", "street": "1155 E WYANDOT AVE", "postcode": "43351"}}},
{"geometry": {"type": "Point", "coordinates": [-83.2812988636, 40.8272926486]}, "type": "Feature", "properties": {"collection_times": [{"days": "Mon-Fri", "time": "4:10pm"}, {"days": "Sat", "time": "4:00pm"}, {"days": "Sun", "time": "Closed"}], "id": "4335100016", "name": "USPS COLLECTION BOX - BLUE BOX", "address": {"city": "UPPER SANDUSKY", "state": "OH", "street": "109 S SANDUSKY AVE", "postcode": "43351"}}},
{"geometry": {"type": "Point", "coordinates": [-83.2817537427, 40.8275714248]}, "type": "Feature", "properties": {"collection_times": [{"days": "Mon-Sat", "time": "5:00pm"}, {"days": "Sun", "time": "Closed"}], "id": "4335100017", "name": "USPS COLLECTION BOX - BLUE BOX", "address": {"city": "UPPER SANDUSKY", "state": "OH", "street": "122 W WYANDOT AVE", "postcode": "43351"}}},
{"geometry": {"type": "Point", "coordinates": [-83.2817537427, 40.8275714248]}, "type": "Feature", "properties": {"collection_times": [{"days": "Mon-Sat", "time": "4:30pm"}, {"days": "Sun", "time": "Closed"}], "id": "4335100018", "name": "USPS COLLECTION BOX - BLUE BOX", "address": {"city": "UPPER SANDUSKY", "state": "OH", "street": "122 W WYANDOT AVE", "postcode": "43351"}}},
{"geometry": {"type": "Point", "coordinates": [-83.2817537427, 40.8275714248]}, "type": "Feature", "properties": {"collection_times": [{"days": "Mon-Sat", "time": "5:00pm"}, {"days": "Sun", "time": "Closed"}], "id": "4335100022", "name": "USPS COLLECTION BOX - PO LOBBY", "address": {"city": "UPPER SANDUSKY", "state": "OH", "street": "122 W WYANDOT AVE", "postcode": "43351"}}},
{"geometry": {"type": "Point", "coordinates": [-83.2814399105, 40.8280513978]}, "type": "Feature", "properties": {"collection_times": [{"days": "Mon-Sat", "time": "11:30am"}, {"days": "Sun", "time": "Closed"}], "id": "4335100023", "name": "USPS COLLECTION BOX - BLUE BOX", "address": {"city": "UPPER SANDUSKY", "state": "OH", "street": "138 N MAIN ST", "postcode": "43351"}}},
{"geometry": {"type": "Point", "coordinates": [-83.0771656029, 40.458828535]}, "type": "Feature", "properties": {"collection_times": [{"days": "Mon-Fri", "time": "4:00pm"}, {"days": "Sat", "time": "12:30pm"}, {"days": "Sun", "time": "Closed"}], "id": "4335600000", "name": "USPS COLLECTION BOX - BLUE BOX", "address": {"city": "WALDO", "state": "OH", "street": "117 S MARION ST", "postcode": "43356"}}},
{"geometry": {"type": "Point", "coordinates": [-83.0771656029, 40.458828535]}, "type": "Feature", "properties": {"collection_times": [{"days": "Mon-Fri", "time": "4:00pm"}, {"days": "Sat", "time": "12:30pm"}, {"days": "Sun", "time": "Closed"}], "id": "4335600001", "name": "USPS COLLECTION BOX - PO LOBBY", "address": {"city": "WALDO", "state": "OH", "street": "117 S MARION ST", "postcode": "43356"}}},
{"geometry": {"type": "Point", "coordinates": [-83.7556879684, 40.2521993251]}, "type": "Feature", "properties": {"collection_times": [{"days": "Mon-Fri", "time": "3:45pm"}, {"days": "Sat", "time": "11:00am"}, {"days": "Sun", "time": "Closed"}], "id": "4335700004", "name": "USPS COLLECTION BOX - BLUE BOX", "address": {"city": "WEST LIBERTY", "state": "OH", "street": "116 E BAIRD ST", "postcode": "43357"}}},
{"geometry": {"type": "Point", "coordinates": [-83.7556879684, 40.2521993251]}, "type": "Feature", "properties": {"collection_times": [{"days": "Mon-Fri", "time": "3:45pm"}, {"days": "Sat", "time": "11:00am"}, {"days": "Sun", "time": "Closed"}], "id": "4335700005", "name": "USPS COLLECTION BOX - PO LOBBY", "address": {"city": "WEST LIBERTY", "state": "OH", "street": "116 E BAIRD ST", "postcode": "43357"}}},
{"geometry": {"type": "Point", "coordinates": [-83.5450420381, 40.40181279]}, "type": "Feature", "properties": {"collection_times": [{"days": "Mon-Fri", "time": "4:00pm"}, {"days": "Sat", "time": "10:15am"}, {"days": "Sun", "time": "Closed"}], "id": "4335800000", "name": "USPS COLLECTION BOX - BLUE BOX", "address": {"city": "WEST MANSFIELD", "state": "OH", "street": "105 W CENTER ST", "postcode": "43358"}}},
{"geometry": {"type": "Point", "coordinates": [-83.54490182, 40.4019376593]}, "type": "Feature", "properties": {"collection_times": [{"days": "Mon-Fri", "time": "4:00pm"}, {"days": "Sat", "time": "10:15am"}, {"days": "Sun", "time": "Closed"}], "id": "4335800001", "name": "USPS COLLECTION BOX - PO LOBBY", "address": {"city": "WEST MANSFIELD", "state": "OH", "street": "103 N MAIN ST", "postcode": "43358"}}},
{"geometry": {"type": "Point", "coordinates": [-83.4626865579, 40.8615110388]}, "type": "Feature", "properties": {"collection_times": [{"days": "Mon-Fri", "time": "11:00am"}, {"days": "Sat", "time": "9:45am"}, {"days": "Sun", "time": "Closed"}], "id": "4335900000", "name": "USPS COLLECTION BOX - BLUE BOX", "address": {"city": "WHARTON", "state": "OH", "street": "124 W SANDUSKY ST", "postcode": "43359"}}},
{"geometry": {"type": "Point", "coordinates": [-83.4626865579, 40.8615110388]}, "type": "Feature", "properties": {"collection_times": [{"days": "Mon-Fri", "time": "11:00am"}, {"days": "Sat", "time": "9:45am"}, {"days": "Sun", "time": "Closed"}], "id": "4335900001", "name": "USPS COLLECTION BOX - PO LOBBY", "address": {"city": "WHARTON", "state": "OH", "street": "124 W SANDUSKY ST", "postcode": "43359"}}},
{"geometry": {"type": "Point", "coordinates": [-83.6772783694, 40.3377270942]}, "type": "Feature", "properties": {"collection_times": [{"days": "Mon-Fri", "time": "3:45pm"}, {"days": "Sat", "time": "10:15am"}, {"days": "Sun", "time": "Closed"}], "id": "4336000000", "name": "USPS COLLECTION BOX - BLUE BOX", "address": {"city": "ZANESFIELD", "state": "OH", "street": "2856 SANDUSKY ST", "postcode": "43360"}}},
{"geometry": {"type": "Point", "coordinates": [-83.6772783694, 40.3377270942]}, "type": "Feature", "properties": {"collection_times": [{"days": "Mon-Fri", "time": "3:45pm"}, {"days": "Sat", "time": "10:15am"}, {"days": "Sun", "time": "Closed"}], "id": "4336000002", "name": "USPS COLLECTION BOX - PO LOBBY", "address": {"city": "ZANESFIELD", "state": "OH", "street": "2856 SANDUSKY ST", "postcode": "43360"}}}
]}
