{"type": "FeatureCollection", "features": [
{"geometry": {"type": "Point", "coordinates": [-83.6504361619, 41.3753137986]}, "type": "Feature", "properties": {"collection_times": [{"days": "Mon-Sat", "time": "9:00am"}, {"days": "Sun", "time": "Closed"}], "id": "4340200000", "name": "USPS COLLECTION BOX - BLUE BOX", "address": {"city": "BOWLING GREEN", "state": "OH", "street": "128 N MAIN ST", "postcode": "43402"}}},
{"geometry": {"type": "Point", "coordinates": [-83.6503494008, 41.3772499783]}, "type": "Feature", "properties": {"collection_times": [{"days": "Mon-Sat", "time": "9:00am"}, {"days": "Sun", "time": "Closed"}], "id": "4340200001", "name": "USPS COLLECTION BOX - BLUE BOX", "address": {"city": "BOWLING GREEN", "state": "OH", "street": "310 N MAIN ST", "postcode": "43402"}}},
{"geometry": {"type": "Point", "coordinates": [-83.6504984563, 41.3731555842]}, "type": "Feature", "properties": {"collection_times": [{"days": "Mon-Sat", "time": "9:00am"}, {"days": "Sun", "time": "Closed"}], "id": "4340200003", "name": "USPS COLLECTION BOX - BLUE BOX", "address": {"city": "BOWLING GREEN", "state": "OH", "street": "190 S MAIN ST", "postcode": "43402"}}},
{"geometry": {"type": "Point", "coordinates": [-83.650433796, 41.3744845443]}, "type": "Feature", "properties": {"collection_times": [{"days": "Mon-Sat", "time": "9:00am"}, {"days": "Sun", "time": "Closed"}], "id": "4340200004", "name": "USPS COLLECTION BOX - BLUE BOX", "address": {"city": "BOWLING GREEN", "state": "OH", "street": "130 S MAIN ST", "postcode": "43402"}}},
{"geometry": {"type": "Point", "coordinates": [-83.6504184175, 41.3590031604]}, "type": "Feature", "properties": {"collection_times": [{"days": "Mon-Sat", "time": "10:00am"}, {"days": "Sun", "time": "Closed"}], "id": "4340200009", "name": "USPS COLLECTION BOX - BLUE BOX", "address": {"city": "BOWLING GREEN", "state": "OH", "street": "1021 S MAIN ST", "postcode": "43402"}}},
{"geometry": {"type": "Point", "coordinates": [-83.6601149201, 41.356800039]}, "type": "Feature", "properties": {"collection_times": [{"days": "Mon-Sat", "time": "1:00pm"}, {"days": "Sun", "time": "Closed"}], "id": "4340200013", "name": "USPS COLLECTION BOX - BLUE BOX", "address": {"city": "BOWLING GREEN", "state": "OH", "street": "535 W GYPSY LANE RD", "postcode": "43402"}}},
{"geometry": {"type": "Point", "coordinates": [-83.6292806616, 41.3721819872]}, "type": "Feature", "properties": {"collection_times": [{"days": "Mon-Fri", "time": "11:00am"}, {"days": "Sat", "time": "9:00am"}, {"days": "Sun", "time": "Closed"}], "id": "4340200014", "name": "USPS COLLECTION BOX - BLUE BOX", "address": {"city": "BOWLING GREEN", "state": "OH", "street": "203 S MERCER RD", "postcode": "43402"}}},
{"geometry": {"type": "Point", "coordinates": [-83.6504654028, 41.3895717394]}, "type": "Feature", "properties": {"collection_times": [{"days": "Mon-Fri", "time": "10:00am"}, {"days": "Sat", "time": "9:30am"}, {"days": "Sun", "time": "Closed"}], "id": "4340200026", "name": "USPS COLLECTION BOX - BLUE BOX", "address": {"city": "BOWLING GREEN", "state": "OH", "street": "1070 N MAIN ST", "postcode": "43402"}}},
{"geometry": {"type": "Point", "coordinates": [-83.6504594914, 41.389250461]}, "type": "Feature", "properties": {"collection_times": [{"days": "Mon-Sat", "time": "10:00am"}, {"days": "Sun", "time": "Closed"}], "id": "4340200027", "name": "USPS COLLECTION BOX - BLUE BOX", "address": {"city": "BOWLING GREEN", "state": "OH", "street": "1048 N MAIN ST", "postcode": "43402"}}},
{"geometry": {"type": "Point", "coordinates": [-83.6227223047, 41.3744634541]}, "type": "Feature", "properties": {"collection_times": [{"days": "Mon-Sat", "time": "10:30am"}, {"days": "Sun", "time": "Closed"}], "id": "4340200029", "name": "USPS COLLECTION BOX - BLUE BOX", "address": {"city": "BOWLING GREEN", "state": "OH", "street": "1616 E WOOSTER ST", "postcode": "43402"}}},
{"geometry": {"type": "Point", "coordinates": [-83.622153443, 41.3724885982]}, "type": "Feature", "properties": {"collection_times": [{"days": "Mon-Sat", "time": "10:00am"}, {"days": "Sun", "time": "Closed"}], "id": "4340200031", "name": "USPS COLLECTION BOX - BLUE BOX", "address": {"city": "BOWLING GREEN", "state": "OH", "street": "1624 CLOUGH ST", "postcode": "43402"}}},
{"geometry": {"type": "Point", "coordinates": [-83.6504852048, 41.3629847545]}, "type": "Feature", "properties": {"collection_times": [{"days": "Mon-Fri", "time": "9:00am"}, {"days": "Sat", "time": "11:30am"}, {"days": "Sun", "time": "Closed"}], "id": "4340200032", "name": "USPS COLLECTION BOX - BLUE BOX", "address": {"city": "BOWLING GREEN", "state": "OH", "street": "840 S MAIN ST", "postcode": "43402"}}},
{"geometry": {"type": "Point", "coordinates": [-83.6469281731, 41.3638125601]}, "type": "Feature", "properties": {"collection_times": [{"days": "Mon-Fri", "time": "1:00pm"}, {"days": "Sat", "time": "9:30am"}, {"days": "Sun", "time": "Closed"}], "id": "4340200034", "name": "USPS COLLECTION BOX - BLUE BOX", "address": {"city": "BOWLING GREEN", "state": "OH", "street": "320 NAPOLEON RD", "postcode": "43402"}}},
{"geometry": {"type": "Point", "coordinates": [-83.6720358096, 41.3723008021]}, "type": "Feature", "properties": {"collection_times": [{"days": "Mon-Sat", "time": "10:00am"}, {"days": "Sun", "time": "Closed"}], "id": "4340200036", "name": "USPS COLLECTION BOX - BLUE BOX", "address": {"city": "BOWLING GREEN", "state": "OH", "street": "1220 W WOOSTER ST", "postcode": "43402"}}},
{"geometry": {"type": "Point", "coordinates": [-83.6376561875, 41.3746582874]}, "type": "Feature", "properties": {"collection_times": [{"days": "Mon-Sat", "time": "11:00am"}, {"days": "Sun", "time": "Closed"}], "id": "4340200042", "name": "USPS COLLECTION BOX - BLUE BOX", "address": {"city": "BOWLING GREEN", "state": "OH", "street": "1001 E WOOSTER ST", "postcode": "43402"}}},
{"geometry": {"type": "Point", "coordinates": [-83.6662570551, 41.3737357313]}, "type": "Feature", "properties": {"collection_times": [{"days": "Mon-Fri", "time": "10:00am"}, {"days": "Sat", "time": "9:00am"}, {"days": "Sun", "time": "Closed"}], "id": "4340200046", "name": "USPS COLLECTION BOX - BLUE BOX", "address": {"city": "BOWLING GREEN", "state": "OH", "street": "960 W WOOSTER ST", "postcode": "43402"}}},
{"geometry": {"type": "Point", "coordinates": [-83.6504278812, 41.374033837]}, "type": "Feature", "properties": {"collection_times": [{"days": "Mon-Sat", "time": "9:00am"}, {"days": "Sun", "time": "Closed"}], "id": "4340200047", "name": "USPS COLLECTION BOX - BLUE BOX", "address": {"city": "BOWLING GREEN", "state": "OH", "street": "139 S MAIN ST", "postcode": "43402"}}},
{"geometry": {"type": "Point", "coordinates": [-83.6509649445, 41.3721328219]}, "type": "Feature", "properties": {"collection_times": [{"days": "Mon-Fri", "time": "5:00pm"}, {"days": "Sat", "time": "12:30pm"}, {"days": "Sun", "time": "Closed"}], "id": "4340200049", "name": "USPS COLLECTION BOX - PO LOBBY", "address": {"city": "BOWLING GREEN", "state": "OH", "street": "111 W WASHINGTON ST", "postcode": "43402"}}},
{"geometry": {"type": "Point", "coordinates": [-83.6509649445, 41.3721328219]}, "type": "Feature", "properties": {"collection_times": [{"days": "Mon-Fri", "time": "5:00pm"}, {"days": "Sat", "time": "12:30pm"}, {"days": "Sun", "time": "Closed"}], "id": "4340200050", "name": "USPS COLLECTION BOX - PO LOBBY", "address": {"city": "BOWLING GREEN", "state": "OH", "street": "111 W WASHINGTON ST", "postcode": "43402"}}},
{"geometry": {"type": "Point", "coordinates": [-83.6509649445, 41.3721328219]}, "type": "Feature", "properties": {"collection_times": [{"days": "Mon-Fri", "time": "5:00pm"}, {"days": "Sat", "time": "12:30pm"}, {"days": "Sun", "time": "Closed"}], "id": "4340200052", "name": "USPS COLLECTION BOX - PO LOBBY", "address": {"city": "BOWLING GREEN", "state": "OH", "street": "111 W WASHINGTON ST", "postcode": "43402"}}},
{"geometry": {"type": "Point", "coordinates": [-83.6241939434, 41.356287864]}, "type": "Feature", "properties": {"collection_times": [{"days": "Mon-Fri", "time": "11:00am"}, {"days": "Sat", "time": "9:30am"}, {"days": "Sun", "time": "Closed"}], "id": "4340200057", "name": "USPS COLLECTION BOX - BLUE BOX", "address": {"city": "BOWLING GREEN", "state": "OH", "street": "1960 E GYPSY LANE RD", "postcode": "43402"}}},
{"geometry": {"type": "Point", "coordinates": [-83.6504723445, 41.3768085773]}, "type": "Feature", "properties": {"collection_times": [{"days": "Mon-Sat", "time": "9:00am"}, {"days": "Sun", "time": "Closed"}], "id": "4340200058", "name": "USPS COLLECTION BOX - BLUE BOX", "address": {"city": "BOWLING GREEN", "state": "OH", "street": "100 W OAK ST", "postcode": "43402"}}},
{"geometry": {"type": "Point", "coordinates": [-83.6509649445, 41.3721328219]}, "type": "Feature", "properties": {"collection_times": [{"days": "Mon-Fri", "time": "5:00pm"}, {"days": "Sat", "time": "12:30pm"}, {"days": "Sun", "time": "Closed"}], "id": "4340200059", "name": "USPS COLLECTION BOX - BLUE BOX", "address": {"city": "BOWLING GREEN", "state": "OH", "street": "111 W WASHINGTON ST", "postcode": "43402"}}},
{"geometry": {"type": "Point", "coordinates": [-83.6509649445, 41.3721328219]}, "type": "Feature", "properties": {"collection_times": [{"days": "Mon-Fri", "time": "5:00pm"}, {"days": "Sat", "time": "12:30pm"}, {"days": "Sun", "time": "Closed"}], "id": "4340200062", "name": "USPS COLLECTION BOX - APC", "address": {"city": "BOWLING GREEN", "state": "OH", "street": "111 W WASHINGTON ST", "postcode": "43402"}}},
{"geometry": {"type": "Point", "coordinates": [-83.4370587806, 41.3228833133]}, "type": "Feature", "properties": {"collection_times": [{"days": "Mon-Fri", "time": "4:00pm"}, {"days": "Sat", "time": "12:00pm"}, {"days": "Sun", "time": "Closed"}], "id": "4340600001", "name": "USPS COLLECTION BOX - PO LOBBY", "address": {"city": "BRADNER", "state": "OH", "street": "101 W CROCKER ST", "postcode": "43406"}}},
{"geometry": {"type": "Point", "coordinates": [-83.4370587806, 41.3228833133]}, "type": "Feature", "properties": {"collection_times": [{"days": "Mon-Fri", "time": "4:00pm"}, {"days": "Sat", "time": "12:00pm"}, {"days": "Sun", "time": "Closed"}], "id": "4340600002", "name": "USPS COLLECTION BOX - BLUE BOX", "address": {"city": "BRADNER", "state": "OH", "street": "101 W CROCKER ST", "postcode": "43406"}}},
{"geometry": {"type": "Point", "coordinates": [-83.2460048269, 41.2675004217]}, "type": "Feature", "properties": {"collection_times": [{"days": "Mon-Fri", "time": "4:45pm"}, {"days": "Sat", "time": "11:45am"}, {"days": "Sun", "time": "Closed"}], "id": "4340700000", "name": "USPS COLLECTION BOX - BLUE BOX", "address": {"city": "BURGOON", "state": "OH", "street": "3189 MAIN ST", "postcode": "43407"}}},
{"geometry": {"type": "Point", "coordinates": [-83.2460048269, 41.2675004217]}, "type": "Feature", "properties": {"collection_times": [{"days": "Mon-Fri", "time": "4:45pm"}, {"days": "Sat", "time": "11:45am"}, {"days": "Sun", "time": "Closed"}], "id": "4340700001", "name": "USPS COLLECTION BOX - PO LOBBY", "address": {"city": "BURGOON", "state": "OH", "street": "3189 MAIN ST", "postcode": "43407"}}},
{"geometry": {"type": "Point", "coordinates": [-83.3620993856, 41.5632737086]}, "type": "Feature", "properties": {"collection_times": [{"days": "Mon-Fri", "time": "4:00pm"}, {"days": "Sat", "time": "10:45am"}, {"days": "Sun", "time": "Closed"}], "id": "4340800001", "name": "USPS COLLECTION BOX - PO LOBBY", "address": {"city": "CLAY CENTER", "state": "OH", "street": "440 MAIN ST", "postcode": "43408"}}},
{"geometry": {"type": "Point", "coordinates": [-83.3620993856, 41.5632737086]}, "type": "Feature", "properties": {"collection_times": [{"days": "Mon-Fri", "time": "4:00pm"}, {"days": "Sat", "time": "10:45am"}, {"days": "Sun", "time": "Closed"}], "id": "4340800002", "name": "USPS COLLECTION BOX - BLUE BOX", "address": {"city": "CLAY CENTER", "state": "OH", "street": "440 MAIN ST", "postcode": "43408"}}},
{"geometry": {"type": "Point", "coordinates": [-82.9755285753, 41.3050116561]}, "type": "Feature", "properties": {"collection_times": [{"days": "Mon-Fri", "time": "4:30pm"}, {"days": "Sat", "time": "3:30pm"}, {"days": "Sun", "time": "Closed"}], "id": "4341000000", "name": "USPS COLLECTION BOX - BLUE BOX", "address": {"city": "CLYDE", "state": "OH", "street": "131 W BUCKEYE ST", "postcode": "43410"}}},
{"geometry": {"type": "Point", "coordinates": [-82.9755285753, 41.3050116561]}, "type": "Feature", "properties": {"collection_times": [{"days": "Mon-Fri", "time": "4:30pm"}, {"days": "Sat", "time": "3:30pm"}, {"days": "Sun", "time": "Closed"}], "id": "4341000002", "name": "USPS COLLECTION BOX - BLUE BOX", "address": {"city": "CLYDE", "state": "OH", "street": "131 W BUCKEYE ST", "postcode": "43410"}}},
{"geometry": {"type": "Point", "coordinates": [-82.9755285753, 41.3050116561]}, "type": "Feature", "properties": {"collection_times": [{"days": "Mon-Fri", "time": "4:30pm"}, {"days": "Sat", "time": "3:30pm"}, {"days": "Sun", "time": "Closed"}], "id": "4341000004", "name": "USPS COLLECTION BOX - BLUE BOX", "address": {"city": "CLYDE", "state": "OH", "street": "131 W BUCKEYE ST", "postcode": "43410"}}},
{"geometry": {"type": "Point", "coordinates": [-82.9755285753, 41.3050116561]}, "type": "Feature", "properties": {"collection_times": [{"days": "Mon-Fri", "time": "4:30pm"}, {"days": "Sat", "time": "3:30pm"}, {"days": "Sun", "time": "Closed"}], "id": "4341000005", "name": "USPS COLLECTION BOX - PO LOBBY", "address": {"city": "CLYDE", "state": "OH", "street": "131 W BUCKEYE ST", "postcode": "43410"}}},
{"geometry": {"type": "Point", "coordinates": [-82.9755285753, 41.3050116561]}, "type": "Feature", "properties": {"collection_times": [{"days": "Mon-Fri", "time": "4:30pm"}, {"days": "Sat", "time": "3:30pm"}, {"days": "Sun", "time": "Closed"}], "id": "4341000006", "name": "USPS COLLECTION BOX - PO LOBBY", "address": {"city": "CLYDE", "state": "OH", "street": "131 W BUCKEYE ST", "postcode": "43410"}}},
{"geometry": {"type": "Point", "coordinates": [-82.9755285753, 41.3050116561]}, "type": "Feature", "properties": {"collection_times": [{"days": "Mon-Fri", "time": "4:30pm"}, {"days": "Sat", "time": "3:30pm"}, {"days": "Sun", "time": "Closed"}], "id": "4341000007", "name": "USPS COLLECTION BOX - PO LOBBY", "address": {"city": "CLYDE", "state": "OH", "street": "131 W BUCKEYE ST", "postcode": "43410"}}},
{"geometry": {"type": "Point", "coordinates": [-82.9817829794, 41.302601071]}, "type": "Feature", "properties": {"collection_times": [{"days": "Mon-Sat", "time": "11:00am"}, {"days": "Sun", "time": "Closed"}], "id": "4341000008", "name": "USPS COLLECTION BOX - BLUE BOX", "address": {"city": "CLYDE", "state": "OH", "street": "505 W MAPLE ST", "postcode": "43410"}}},
{"geometry": {"type": "Point", "coordinates": [-82.9747700148, 41.3060619627]}, "type": "Feature", "properties": {"collection_times": [{"days": "Mon-Sat", "time": "3:00pm"}, {"days": "Sun", "time": "Closed"}], "id": "4341000010", "name": "USPS COLLECTION BOX - BLUE BOX", "address": {"city": "CLYDE", "state": "OH", "street": "100 S MAIN ST", "postcode": "43410"}}},
{"geometry": {"type": "Point", "coordinates": [-82.9989706665, 41.3161161063]}, "type": "Feature", "properties": {"collection_times": [{"days": "Mon-Sat", "time": "1:00pm"}, {"days": "Sun", "time": "Closed"}], "id": "4341000016", "name": "USPS COLLECTION BOX - BLUE BOX", "address": {"city": "CLYDE", "state": "OH", "street": "1005 W MCPHERSON HWY", "postcode": "43410"}}},
{"geometry": {"type": "Point", "coordinates": [-83.0117940435, 41.319830787]}, "type": "Feature", "properties": {"collection_times": [{"days": "Mon-Sat", "time": "1:00pm"}, {"days": "Sun", "time": "Closed"}], "id": "4341000021", "name": "USPS COLLECTION BOX - BLUE BOX", "address": {"city": "CLYDE", "state": "OH", "street": "1455 W MCPHERSON HWY", "postcode": "43410"}}},
{"geometry": {"type": "Point", "coordinates": [-82.9545604153, 41.3644059241]}, "type": "Feature", "properties": {"collection_times": [{"days": "Mon-Sat", "time": "11:00am"}, {"days": "Sun", "time": "Closed"}], "id": "4341000022", "name": "USPS COLLECTION BOX - BLUE BOX", "address": {"city": "CLYDE", "state": "OH", "street": "888 N COUNTY ROAD 260", "postcode": "43410"}}},
{"geometry": {"type": "Point", "coordinates": [-82.9544457806, 41.3700033916]}, "type": "Feature", "properties": {"collection_times": [{"days": "Mon-Sat", "time": "11:00am"}, {"days": "Sun", "time": "Closed"}], "id": "4341000023", "name": "USPS COLLECTION BOX - BLUE BOX", "address": {"city": "CLYDE", "state": "OH", "street": "1012 N COUNTY ROAD 260", "postcode": "43410"}}},
{"geometry": {"type": "Point", "coordinates": [-83.0005413168, 41.3167950742]}, "type": "Feature", "properties": {"collection_times": [{"days": "Mon-Sat", "time": "9:30am"}, {"days": "Sun", "time": "Closed"}], "id": "4341000024", "name": "USPS COLLECTION BOX - BLUE BOX", "address": {"city": "CLYDE", "state": "OH", "street": "1062 W MCPHERSON HWY", "postcode": "43410"}}},
{"geometry": {"type": "Point", "coordinates": [-83.3689879265, 41.6193590084]}, "type": "Feature", "properties": {"collection_times": [{"days": "Mon-Fri", "time": "4:30pm"}, {"days": "Sat", "time": "12:00pm"}, {"days": "Sun", "time": "Closed"}], "id": "4341200000", "name": "USPS COLLECTION BOX - BLUE BOX", "address": {"city": "CURTICE", "state": "OH", "street": "7160 N LAKE ST", "postcode": "43412"}}},
{"geometry": {"type": "Point", "coordinates": [-83.3689879265, 41.6193590084]}, "type": "Feature", "properties": {"collection_times": [{"days": "Mon-Fri", "time": "4:30pm"}, {"days": "Sat", "time": "12:00pm"}, {"days": "Sun", "time": "Closed"}], "id": "4341200001", "name": "USPS COLLECTION BOX - PO LOBBY", "address": {"city": "CURTICE", "state": "OH", "street": "7160 N LAKE ST", "postcode": "43412"}}},
{"geometry": {"type": "Point", "coordinates": [-83.6436159547, 41.2399593004]}, "type": "Feature", "properties": {"collection_times": [{"days": "Mon-Fri", "time": "2:30pm"}, {"days": "Sat", "time": "12:00pm"}, {"days": "Sun", "time": "Closed"}], "id": "4341300000", "name": "USPS COLLECTION BOX - PO LOBBY", "address": {"city": "CYGNET", "state": "OH", "street": "335 FRONT ST", "postcode": "43413"}}},
{"geometry": {"type": "Point", "coordinates": [-83.6436159547, 41.2399593004]}, "type": "Feature", "properties": {"collection_times": [{"days": "Mon-Fri", "time": "4:00pm"}, {"days": "Sat", "time": "12:00pm"}, {"days": "Sun", "time": "Closed"}], "id": "4341300001", "name": "USPS COLLECTION BOX - BLUE BOX", "address": {"city": "CYGNET", "state": "OH", "street": "335 FRONT ST", "postcode": "43413"}}},
{"geometry": {"type": "Point", "coordinates": [-83.6097404735, 41.4583070024]}, "type": "Feature", "properties": {"collection_times": [{"days": "Mon-Fri", "time": "4:30pm"}, {"days": "Sat", "time": "11:30am"}, {"days": "Sun", "time": "Closed"}], "id": "4341400000", "name": "USPS COLLECTION BOX - PO LOBBY", "address": {"city": "DUNBRIDGE", "state": "OH", "street": "10951 MIDDLETON PIKE", "postcode": "43414"}}},
{"geometry": {"type": "Point", "coordinates": [-83.6097404735, 41.4583070024]}, "type": "Feature", "properties": {"collection_times": [{"days": "Mon-Fri", "time": "4:30pm"}, {"days": "Sat", "time": "11:30am"}, {"days": "Sun", "time": "Closed"}], "id": "4341400001", "name": "USPS COLLECTION BOX - BLUE BOX", "address": {"city": "DUNBRIDGE", "state": "OH", "street": "10951 MIDDLETON PIKE", "postcode": "43414"}}},
{"geometry": {"type": "Point", "coordinates": [-83.2955640627, 41.4751256128]}, "type": "Feature", "properties": {"collection_times": [{"days": "Mon-Fri", "time": "4:15pm"}, {"days": "Sat", "time": "12:00pm"}, {"days": "Sun", "time": "Closed"}], "id": "4341600000", "name": "USPS COLLECTION BOX - BLUE BOX", "address": {"city": "ELMORE", "state": "OH", "street": "328 RICE ST", "postcode": "43416"}}},
{"geometry": {"type": "Point", "coordinates": [-83.2955640627, 41.4751256128]}, "type": "Feature", "properties": {"collection_times": [{"days": "Mon-Fri", "time": "2:15pm"}, {"days": "Sat", "time": "12:00pm"}, {"days": "Sun", "time": "Closed"}], "id": "4341600001", "name": "USPS COLLECTION BOX - PO LOBBY", "address": {"city": "ELMORE", "state": "OH", "street": "328 RICE ST", "postcode": "43416"}}},
{"geometry": {"type": "Point", "coordinates": [-83.1364696356, 41.3636524784]}, "type": "Feature", "properties": {"collection_times": [{"days": "Mon-Fri", "time": "1:00pm"}, {"days": "Sat", "time": "11:00am"}, {"days": "Sun", "time": "Closed"}], "id": "4342000002", "name": "USPS COLLECTION BOX - BLUE BOX", "address": {"city": "FREMONT", "state": "OH", "street": "1316 OAK HARBOR RD", "postcode": "43420"}}},
{"geometry": {"type": "Point", "coordinates": [-83.1047644756, 41.3396322933]}, "type": "Feature", "properties": {"collection_times": [{"days": "Mon-Sat", "time": "10:00am"}, {"days": "Sun", "time": "Closed"}], "id": "4342000012", "name": "USPS COLLECTION BOX - BLUE BOX", "address": {"city": "FREMONT", "state": "OH", "street": "465 MORRISON ST", "postcode": "43420"}}},
{"geometry": {"type": "Point", "coordinates": [-83.1334757532, 41.3463713765]}, "type": "Feature", "properties": {"collection_times": [{"days": "Mon-Fri", "time": "10:30am"}, {"days": "Sat", "time": "9:15am"}, {"days": "Sun", "time": "Closed"}], "id": "4342000020", "name": "USPS COLLECTION BOX - BLUE BOX", "address": {"city": "FREMONT", "state": "OH", "street": "101 S GRANVILLE BLVD", "postcode": "43420"}}},
{"geometry": {"type": "Point", "coordinates": [-83.1221973507, 41.355189634]}, "type": "Feature", "properties": {"collection_times": [{"days": "Mon-Fri", "time": "1:00pm"}, {"days": "Sat", "time": "10:00am"}, {"days": "Sun", "time": "Closed"}], "id": "4342000039", "name": "USPS COLLECTION BOX - BLUE BOX", "address": {"city": "FREMONT", "state": "OH", "street": "1073 HAZEL ST", "postcode": "43420"}}},
{"geometry": {"type": "Point", "coordinates": [-83.0927551438, 41.3417853826]}, "type": "Feature", "properties": {"collection_times": [{"days": "Mon-Sat", "time": "1:00pm"}, {"days": "Sun", "time": "Closed"}], "id": "4342000043", "name": "USPS COLLECTION BOX - BLUE BOX", "address": {"city": "FREMONT", "state": "OH", "street": "1315 E STATE ST", "postcode": "43420"}}},
{"geometry": {"type": "Point", "coordinates": [-83.1135578039, 41.3440911716]}, "type": "Feature", "properties": {"collection_times": [{"days": "Mon-Sat", "time": "11:00am"}, {"days": "Sun", "time": "Closed"}], "id": "4342000047", "name": "USPS COLLECTION BOX - BLUE BOX", "address": {"city": "FREMONT", "state": "OH", "street": "323 S FRONT ST", "postcode": "43420"}}},
{"geometry": {"type": "Point", "coordinates": [-83.1147147414, 41.3465688401]}, "type": "Feature", "properties": {"collection_times": [{"days": "Mon-Sat", "time": "9:00am"}, {"days": "Sun", "time": "Closed"}], "id": "4342000049", "name": "USPS COLLECTION BOX - BLUE BOX", "address": {"city": "FREMONT", "state": "OH", "street": "400 CROGHAN ST", "postcode": "43420"}}},
{"geometry": {"type": "Point", "coordinates": [-83.1367559659, 41.356843614]}, "type": "Feature", "properties": {"collection_times": [{"days": "Mon-Fri", "time": "1:00pm"}, {"days": "Sat", "time": "12:00pm"}, {"days": "Sun", "time": "Closed"}], "id": "4342000050", "name": "USPS COLLECTION BOX - BLUE BOX", "address": {"city": "FREMONT", "state": "OH", "street": "2001 W STATE ST", "postcode": "43420"}}},
{"geometry": {"type": "Point", "coordinates": [-83.1198446654, 41.3465332891]}, "type": "Feature", "properties": {"collection_times": [{"days": "Mon-Sat", "time": "10:00am"}, {"days": "Sun", "time": "Closed"}], "id": "4342000052", "name": "USPS COLLECTION BOX - BLUE BOX", "address": {"city": "FREMONT", "state": "OH", "street": "810 CROGHAN ST", "postcode": "43420"}}},
{"geometry": {"type": "Point", "coordinates": [-83.1172627003, 41.3465204525]}, "type": "Feature", "properties": {"collection_times": [{"days": "Mon-Fri", "time": "4:00pm"}, {"days": "Sat", "time": "11:00am"}, {"days": "Sun", "time": "Closed"}], "id": "4342000053", "name": "USPS COLLECTION BOX - BLUE BOX", "address": {"city": "FREMONT", "state": "OH", "street": "100 N PARK ST", "postcode": "43420"}}},
{"geometry": {"type": "Point", "coordinates": [-83.1322052381, 41.3273249203]}, "type": "Feature", "properties": {"collection_times": [{"days": "Mon-Sat", "time": "1:00pm"}, {"days": "Sun", "time": "Closed"}], "id": "4342000055", "name": "USPS COLLECTION BOX - BLUE BOX", "address": {"city": "FREMONT", "state": "OH", "street": "1600 RIVER ST", "postcode": "43420"}}},
{"geometry": {"type": "Point", "coordinates": [-83.1050501735, 41.3333093731]}, "type": "Feature", "properties": {"collection_times": [{"days": "Mon-Fri", "time": "11:00am"}, {"days": "Sat", "time": "10:30am"}, {"days": "Sun", "time": "Closed"}], "id": "4342000060", "name": "USPS COLLECTION BOX - BLUE BOX", "address": {"city": "FREMONT", "state": "OH", "street": "914 QUAIL DR", "postcode": "43420"}}},
{"geometry": {"type": "Point", "coordinates": [-83.096774157, 41.3535831625]}, "type": "Feature", "properties": {"collection_times": [{"days": "Mon-Sat", "time": "11:00am"}, {"days": "Sun", "time": "Closed"}], "id": "4342000063", "name": "USPS COLLECTION BOX - BLUE BOX", "address": {"city": "FREMONT", "state": "OH", "street": "607 WALNUT ST", "postcode": "43420"}}},
{"geometry": {"type": "Point", "coordinates": [-83.0845146914, 41.3395767134]}, "type": "Feature", "properties": {"collection_times": [{"days": "Mon-Fri", "time": "1:00pm"}, {"days": "Sat", "time": "12:00pm"}, {"days": "Sun", "time": "Closed"}], "id": "4342000065", "name": "USPS COLLECTION BOX - BLUE BOX", "address": {"city": "FREMONT", "state": "OH", "street": "1825 N STATE ROUTE 19", "postcode": "43420"}}},
{"geometry": {"type": "Point", "coordinates": [-83.1367658858, 41.3608691194]}, "type": "Feature", "properties": {"collection_times": [{"days": "Mon-Fri", "time": "1:00pm"}, {"days": "Sat", "time": "11:00am"}, {"days": "Sun", "time": "Closed"}], "id": "4342000067", "name": "USPS COLLECTION BOX - BLUE BOX", "address": {"city": "FREMONT", "state": "OH", "street": "1140 OAK HARBOR RD", "postcode": "43420"}}},
{"geometry": {"type": "Point", "coordinates": [-83.1288532505, 41.3613696829]}, "type": "Feature", "properties": {"collection_times": [{"days": "Mon-Sat", "time": "10:00am"}, {"days": "Sun", "time": "Closed"}], "id": "4342000074", "name": "USPS COLLECTION BOX - BLUE BOX", "address": {"city": "FREMONT", "state": "OH", "street": "1504 NORTH ST", "postcode": "43420"}}},
{"geometry": {"type": "Point", "coordinates": [-83.1078478972, 41.3676467855]}, "type": "Feature", "properties": {"collection_times": [{"days": "Mon-Fri", "time": "1:00pm"}, {"days": "Sat", "time": "11:00am"}, {"days": "Sun", "time": "Closed"}], "id": "4342000076", "name": "USPS COLLECTION BOX - BLUE BOX", "address": {"city": "FREMONT", "state": "OH", "street": "1730 PORT CLINTON RD", "postcode": "43420"}}},
{"geometry": {"type": "Point", "coordinates": [-83.1059436413, 41.3810062288]}, "type": "Feature", "properties": {"collection_times": [{"days": "Mon-Fri", "time": "1:00pm"}, {"days": "Sat", "time": "11:00am"}, {"days": "Sun", "time": "Closed"}], "id": "4342000078", "name": "USPS COLLECTION BOX - BLUE BOX", "address": {"city": "FREMONT", "state": "OH", "street": "2420 PORT CLINTON RD", "postcode": "43420"}}},
{"geometry": {"type": "Point", "coordinates": [-83.0468333817, 41.3283904573]}, "type": "Feature", "properties": {"collection_times": [{"days": "Mon-Sat", "time": "11:30am"}, {"days": "Sun", "time": "Closed"}], "id": "4342000081", "name": "USPS COLLECTION BOX - BLUE BOX", "address": {"city": "FREMONT", "state": "OH", "street": "740 COUNTY ROAD 212", "postcode": "43420"}}},
{"geometry": {"type": "Point", "coordinates": [-83.1148452503, 41.3759751219]}, "type": "Feature", "properties": {"collection_times": [{"days": "Mon-Fri", "time": "5:00pm"}, {"days": "Sat", "time": "3:00pm"}, {"days": "Sun", "time": "Closed"}], "id": "4342000083", "name": "USPS COLLECTION BOX - PO LOBBY", "address": {"city": "FREMONT", "state": "OH", "street": "2120 ENTERPRISE ST", "postcode": "43420"}}},
{"geometry": {"type": "Point", "coordinates": [-83.1135190587, 41.3451174977]}, "type": "Feature", "properties": {"collection_times": [{"days": "Mon-Fri", "time": "4:00pm"}, {"days": "Sat", "time": "1:00pm"}, {"days": "Sun", "time": "Closed"}], "id": "4342000085", "name": "USPS COLLECTION BOX - BLUE BOX", "address": {"city": "FREMONT", "state": "OH", "street": "227 S FRONT ST", "postcode": "43420"}}},
{"geometry": {"type": "Point", "coordinates": [-83.0810827084, 41.3565047409]}, "type": "Feature", "properties": {"collection_times": [{"days": "Mon-Sat", "time": "9:00am"}, {"days": "Sun", "time": "Closed"}], "id": "4342000086", "name": "USPS COLLECTION BOX - BLUE BOX", "address": {"city": "FREMONT", "state": "OH", "street": "2511 COUNTRYSIDE DR", "postcode": "43420"}}},
{"geometry": {"type": "Point", "coordinates": [-83.1148452503, 41.3759751219]}, "type": "Feature", "properties": {"collection_times": [{"days": "Mon-Fri", "time": "5:00pm"}, {"days": "Sat", "time": "3:00pm"}, {"days": "Sun", "time": "Closed"}], "id": "4342000087", "name": "USPS COLLECTION BOX - BLUE BOX", "address": {"city": "FREMONT", "state": "OH", "street": "2120 ENTERPRISE ST", "postcode": "43420"}}},
{"geometry": {"type": "Point", "coordinates": [-83.1137726236, 41.3453577099]}, "type": "Feature", "properties": {"collection_times": [{"days": "Mon-Fri", "time": "12:00pm"}, {"days": "Sat", "time": "11:00am"}, {"days": "Sun", "time": "Closed"}], "id": "4342000088", "name": "USPS COLLECTION BOX - BLUE BOX", "address": {"city": "FREMONT", "state": "OH", "street": "315 GARRISON ST", "postcode": "43420"}}},
{"geometry": {"type": "Point", "coordinates": [-83.1045090955, 41.3447694118]}, "type": "Feature", "properties": {"collection_times": [{"days": "Mon-Fri", "time": "11:00am"}, {"days": "Sat", "time": "10:00am"}, {"days": "Sun", "time": "Closed"}], "id": "4342000090", "name": "USPS COLLECTION BOX - BLUE BOX", "address": {"city": "FREMONT", "state": "OH", "street": "134 S 5TH ST", "postcode": "43420"}}},
{"geometry": {"type": "Point", "coordinates": [-83.1039314238, 41.3361952964]}, "type": "Feature", "properties": {"collection_times": [{"days": "Mon-Fri", "time": "11:00am"}, {"days": "Sat", "time": "10:00am"}, {"days": "Sun", "time": "Closed"}], "id": "4342000091", "name": "USPS COLLECTION BOX - BLUE BOX", "address": {"city": "FREMONT", "state": "OH", "street": "725 S BUCHANAN ST", "postcode": "43420"}}},
{"geometry": {"type": "Point", "coordinates": [-83.3573243876, 41.5184542721]}, "type": "Feature", "properties": {"collection_times": [{"days": "Mon-Fri", "time": "4:15pm"}, {"days": "Sat", "time": "12:00pm"}, {"days": "Sun", "time": "Closed"}], "id": "4343000000", "name": "USPS COLLECTION BOX - PO LOBBY", "address": {"city": "GENOA", "state": "OH", "street": "606 WASHINGTON ST", "postcode": "43430"}}},
{"geometry": {"type": "Point", "coordinates": [-83.3573243876, 41.5184542721]}, "type": "Feature", "properties": {"collection_times": [{"days": "Mon-Fri", "time": "4:15pm"}, {"days": "Sat", "time": "12:00pm"}, {"days": "Sun", "time": "Closed"}], "id": "4343000002", "name": "USPS COLLECTION BOX - BLUE BOX", "address": {"city": "GENOA", "state": "OH", "street": "606 WASHINGTON ST", "postcode": "43430"}}},
{"geometry": {"type": "Point", "coordinates": [-83.3643879421, 41.5140662649]}, "type": "Feature", "properties": {"collection_times": [{"days": "Mon-Sat", "time": "10:00am"}, {"days": "Sun", "time": "Closed"}], "id": "4343000004", "name": "USPS COLLECTION BOX - BLUE BOX", "address": {"city": "GENOA", "state": "OH", "street": "300 CHERRY ST", "postcode": "43430"}}},
{"geometry": {"type": "Point", "coordinates": [-83.3609615181, 41.4863945931]}, "type": "Feature", "properties": {"collection_times": [{"days": "Mon-Sat", "time": "9:00am"}, {"days": "Sun", "time": "Closed"}], "id": "4343000013", "name": "USPS COLLECTION BOX - BLUE BOX", "address": {"city": "GENOA", "state": "OH", "street": "6164 COUNTY ROAD 165", "postcode": "43430"}}},
{"geometry": {"type": "Point", "coordinates": [-83.3702497594, 41.4862413532]}, "type": "Feature", "properties": {"collection_times": [{"days": "Mon-Sat", "time": "9:00am"}, {"days": "Sun", "time": "Closed"}], "id": "4343000014", "name": "USPS COLLECTION BOX - BLUE BOX", "address": {"city": "GENOA", "state": "OH", "street": "6410 COUNTY ROAD 165", "postcode": "43430"}}},
{"geometry": {"type": "Point", "coordinates": [-83.3214546462, 41.3846945369]}, "type": "Feature", "properties": {"collection_times": [{"days": "Mon-Fri", "time": "4:30pm"}, {"days": "Sat", "time": "3:15pm"}, {"days": "Sun", "time": "Closed"}], "id": "4343100001", "name": "USPS COLLECTION BOX - PO LOBBY", "address": {"city": "GIBSONBURG", "state": "OH", "street": "112 N WEBSTER ST", "postcode": "43431"}}},
{"geometry": {"type": "Point", "coordinates": [-83.3199425955, 41.3845731961]}, "type": "Feature", "properties": {"collection_times": [{"days": "Mon-Sat", "time": "1:00pm"}, {"days": "Sun", "time": "Closed"}], "id": "4343100009", "name": "USPS COLLECTION BOX - BLUE BOX", "address": {"city": "GIBSONBURG", "state": "OH", "street": "101 N MAIN ST", "postcode": "43431"}}},
{"geometry": {"type": "Point", "coordinates": [-83.3214546462, 41.3846945369]}, "type": "Feature", "properties": {"collection_times": [{"days": "Mon-Fri", "time": "4:30pm"}, {"days": "Sat", "time": "3:15pm"}, {"days": "Sun", "time": "Closed"}], "id": "4343100015", "name": "USPS COLLECTION BOX - BLUE BOX", "address": {"city": "GIBSONBURG", "state": "OH", "street": "112 N WEBSTER ST", "postcode": "43431"}}},
{"geometry": {"type": "Point", "coordinates": [-83.2609601306, 41.5428007152]}, "type": "Feature", "properties": {"collection_times": [{"days": "Mon-Fri", "time": "4:30pm"}, {"days": "Sat", "time": "11:15am"}, {"days": "Sun", "time": "Closed"}], "id": "4343200000", "name": "USPS COLLECTION BOX - BLUE BOX", "address": {"city": "GRAYTOWN", "state": "OH", "street": "1778 N WALKER ST", "postcode": "43432"}}},
{"geometry": {"type": "Point", "coordinates": [-82.9414543519, 41.5118947507]}, "type": "Feature", "properties": {"collection_times": [{"days": "Mon-Fri", "time": "3:45pm"}, {"days": "Sat", "time": "12:00pm"}, {"days": "Sun", "time": "Closed"}], "id": "4343300000", "name": "USPS COLLECTION BOX - PO LOBBY", "address": {"city": "GYPSUM", "state": "OH", "street": "2 MACKEY LN", "postcode": "43433"}}},
{"geometry": {"type": "Point", "coordinates": [-82.9414543519, 41.5118947507]}, "type": "Feature", "properties": {"collection_times": [{"days": "Mon-Fri", "time": "3:45pm"}, {"days": "Sat", "time": "11:45am"}, {"days": "Sun", "time": "Closed"}], "id": "4343300001", "name": "USPS COLLECTION BOX - BLUE BOX", "address": {"city": "GYPSUM", "state": "OH", "street": "2 MACKEY LN", "postcode": "43433"}}},
{"geometry": {"type": "Point", "coordinates": [-83.4740384554, 41.6345326506]}, "type": "Feature", "properties": {"collection_times": [{"days": "Mon-Fri", "time": "3:30pm"}, {"days": "Sat", "time": "11:15am"}, {"days": "Sun", "time": "Closed"}], "id": "4343400000", "name": "USPS COLLECTION BOX - BLUE BOX", "address": {"city": "HARBOR VIEW", "state": "OH", "street": "327 LAKEVIEW DR", "postcode": "43434"}}},
{"geometry": {"type": "Point", "coordinates": [-83.292035885, 41.341368212]}, "type": "Feature", "properties": {"collection_times": [{"days": "Mon-Fri", "time": "4:00pm"}, {"days": "Sat", "time": "11:15am"}, {"days": "Sun", "time": "Closed"}], "id": "4343500000", "name": "USPS COLLECTION BOX - BLUE BOX", "address": {"city": "HELENA", "state": "OH", "street": "247 MAIN ST", "postcode": "43435"}}},
{"geometry": {"type": "Point", "coordinates": [-83.292035885, 41.341368212]}, "type": "Feature", "properties": {"collection_times": [{"days": "Mon-Fri", "time": "4:00pm"}, {"days": "Sat", "time": "11:15am"}, {"days": "Sun", "time": "Closed"}], "id": "4343500001", "name": "USPS COLLECTION BOX - PO LOBBY", "address": {"city": "HELENA", "state": "OH", "street": "247 MAIN ST", "postcode": "43435"}}},
{"geometry": {"type": "Point", "coordinates": [-83.60491975, 41.2537437971]}, "type": "Feature", "properties": {"collection_times": [{"days": "Mon-Fri", "time": "4:15pm"}, {"days": "Sat", "time": "11:45am"}, {"days": "Sun", "time": "Closed"}], "id": "4343700000", "name": "USPS COLLECTION BOX - BLUE BOX", "address": {"city": "JERRY CITY", "state": "OH", "street": "460 MAIN ST", "postcode": "43437"}}},
{"geometry": {"type": "Point", "coordinates": [-83.60491975, 41.2537437971]}, "type": "Feature", "properties": {"collection_times": [{"days": "Mon-Fri", "time": "4:15pm"}, {"days": "Sat", "time": "11:45am"}, {"days": "Sun", "time": "Closed"}], "id": "4343700001", "name": "USPS COLLECTION BOX - PO LOBBY", "address": {"city": "JERRY CITY", "state": "OH", "street": "460 MAIN ST", "postcode": "43437"}}},
{"geometry": {"type": "Point", "coordinates": [-82.7200582187, 41.5955709071]}, "type": "Feature", "properties": {"collection_times": [{"days": "Mon-Sat", "time": "8:00am"}, {"days": "Sun", "time": "Closed"}], "id": "4343800000", "name": "USPS COLLECTION BOX - BLUE BOX", "address": {"city": "KELLEY ISLAND", "state": "OH", "street": "427 W LAKESHORE DR", "postcode": "43438"}}},
{"geometry": {"type": "Point", "coordinates": [-82.7200582187, 41.5955709071]}, "type": "Feature", "properties": {"collection_times": [{"days": "Mon-Sat", "time": "8:00am"}, {"days": "Sun", "time": "Closed"}], "id": "4343800001", "name": "USPS COLLECTION BOX - PO LOBBY", "address": {"city": "KELLEY ISLAND", "state": "OH", "street": "427 W LAKESHORE DR", "postcode": "43438"}}},
{"geometry": {"type": "Point", "coordinates": [-83.0467743033, 41.5158104342]}, "type": "Feature", "properties": {"collection_times": [{"days": "Mon-Fri", "time": "4:00pm"}, {"days": "Sat", "time": "11:45am"}, {"days": "Sun", "time": "Closed"}], "id": "4343900000", "name": "USPS COLLECTION BOX - PO LOBBY", "address": {"city": "LACARNE", "state": "OH", "street": "89 N MONROE ST", "postcode": "43439"}}},
{"geometry": {"type": "Point", "coordinates": [-83.0467743033, 41.5158104342]}, "type": "Feature", "properties": {"collection_times": [{"days": "Mon-Fri", "time": "4:00pm"}, {"days": "Sat", "time": "11:30am"}, {"days": "Sun", "time": "Closed"}], "id": "4343900001", "name": "USPS COLLECTION BOX - BLUE BOX", "address": {"city": "LACARNE", "state": "OH", "street": "89 N MONROE ST", "postcode": "43439"}}},
{"geometry": {"type": "Point", "coordinates": [-82.7411822791, 41.5394099818]}, "type": "Feature", "properties": {"collection_times": [{"days": "Mon-Fri", "time": "3:45pm"}, {"days": "Sat", "time": "12:00pm"}, {"days": "Sun", "time": "Closed"}], "id": "4344000000", "name": "USPS COLLECTION BOX - PO LOBBY", "address": {"city": "LKSID MARBLHD", "state": "OH", "street": "1306 W MAIN ST", "postcode": "43440"}}},
{"geometry": {"type": "Point", "coordinates": [-82.7411822791, 41.5394099818]}, "type": "Feature", "properties": {"collection_times": [{"days": "Mon-Fri", "time": "3:45pm"}, {"days": "Sat", "time": "12:00pm"}, {"days": "Sun", "time": "Closed"}], "id": "4344000001", "name": "USPS COLLECTION BOX - PO LOBBY", "address": {"city": "LKSID MARBLHD", "state": "OH", "street": "1306 W MAIN ST", "postcode": "43440"}}},
{"geometry": {"type": "Point", "coordinates": [-82.7411822791, 41.5394099818]}, "type": "Feature", "properties": {"collection_times": [{"days": "Mon-Fri", "time": "3:45pm"}, {"days": "Sat", "time": "12:00pm"}, {"days": "Sun", "time": "Closed"}], "id": "4344000003", "name": "USPS COLLECTION BOX - BLUE BOX", "address": {"city": "LKSID MARBLHD", "state": "OH", "street": "1306 W MAIN ST", "postcode": "43440"}}},
{"geometry": {"type": "Point", "coordinates": [-82.7500879008, 41.5444687935]}, "type": "Feature", "properties": {"collection_times": [{"days": "Mon-Sat", "time": "9:00am"}, {"days": "Sun", "time": "Closed"}], "id": "4344000005", "name": "USPS COLLECTION BOX - BLUE BOX", "address": {"city": "LKSID MARBLHD", "state": "OH", "street": "236 WALNUT AVE", "postcode": "43440"}}},
{"geometry": {"type": "Point", "coordinates": [-82.753355056, 41.5419484766]}, "type": "Feature", "properties": {"collection_times": [{"days": "Mon-Sat", "time": "9:00am"}, {"days": "Sun", "time": "Closed"}], "id": "4344000015", "name": "USPS COLLECTION BOX - BLUE BOX", "address": {"city": "LKSID MARBLHD", "state": "OH", "street": "395 N ERIE BEACH RD", "postcode": "43440"}}},
{"geometry": {"type": "Point", "coordinates": [-82.7816180004, 41.5080005213]}, "type": "Feature", "properties": {"collection_times": [{"days": "Mon-Sat", "time": "10:00am"}, {"days": "Sun", "time": "Closed"}], "id": "4344000016", "name": "USPS COLLECTION BOX - BLUE BOX", "address": {"city": "LKSID MARBLHD", "state": "OH", "street": "7948 E BAYSHORE RD", "postcode": "43440"}}},
{"geometry": {"type": "Point", "coordinates": [-82.8218620903, 41.5312205258]}, "type": "Feature", "properties": {"collection_times": [{"days": "Mon-Sat", "time": "9:00am"}, {"days": "Sun", "time": "Closed"}], "id": "4344000017", "name": "USPS COLLECTION BOX - BLUE BOX", "address": {"city": "LKSID MARBLHD", "state": "OH", "street": "5706 EAST HARBOR RD", "postcode": "43440"}}},
{"geometry": {"type": "Point", "coordinates": [-82.8297836868, 41.5256612114]}, "type": "Feature", "properties": {"collection_times": [{"days": "Mon-Sat", "time": "11:00am"}, {"days": "Sun", "time": "Closed"}], "id": "4344000018", "name": "USPS COLLECTION BOX - BLUE BOX", "address": {"city": "LKSID MARBLHD", "state": "OH", "street": "259 S BRIDGE RD", "postcode": "43440"}}},
{"geometry": {"type": "Point", "coordinates": [-83.4726631355, 41.4950385573]}, "type": "Feature", "properties": {"collection_times": [{"days": "Mon-Fri", "time": "4:45pm"}, {"days": "Sat", "time": "11:15am"}, {"days": "Sun", "time": "Closed"}], "id": "4344100000", "name": "USPS COLLECTION BOX - BLUE BOX", "address": {"city": "LEMOYNE", "state": "OH", "street": "3930 FREMONT PIKE", "postcode": "43441"}}},
{"geometry": {"type": "Point", "coordinates": [-83.4726631355, 41.4950385573]}, "type": "Feature", "properties": {"collection_times": [{"days": "Mon-Fri", "time": "4:45pm"}, {"days": "Sat", "time": "11:15am"}, {"days": "Sun", "time": "Closed"}], "id": "4344100001", "name": "USPS COLLECTION BOX - PO LOBBY", "address": {"city": "LEMOYNE", "state": "OH", "street": "3930 FREMONT PIKE", "postcode": "43441"}}},
{"geometry": {"type": "Point", "coordinates": [-83.2208695964, 41.4202024776]}, "type": "Feature", "properties": {"collection_times": [{"days": "Mon-Fri", "time": "4:15pm"}, {"days": "Sat", "time": "12:00pm"}, {"days": "Sun", "time": "Closed"}], "id": "4344200000", "name": "USPS COLLECTION BOX - PO LOBBY", "address": {"city": "LINDSEY", "state": "OH", "street": "224 S MAIN ST", "postcode": "43442"}}},
{"geometry": {"type": "Point", "coordinates": [-83.2208695964, 41.4202024776]}, "type": "Feature", "properties": {"collection_times": [{"days": "Mon-Fri", "time": "4:15pm"}, {"days": "Sat", "time": "12:00pm"}, {"days": "Sun", "time": "Closed"}], "id": "4344200001", "name": "USPS COLLECTION BOX - BLUE BOX", "address": {"city": "LINDSEY", "state": "OH", "street": "224 S MAIN ST", "postcode": "43442"}}},
{"geometry": {"type": "Point", "coordinates": [-83.4653759292, 41.4669354298]}, "type": "Feature", "properties": {"collection_times": [{"days": "Mon-Fri", "time": "3:45pm"}, {"days": "Sat", "time": "11:30am"}, {"days": "Sun", "time": "Closed"}], "id": "4344300001", "name": "USPS COLLECTION BOX - BLUE BOX", "address": {"city": "LUCKEY", "state": "OH", "street": "201 OAK ST", "postcode": "43443"}}},
{"geometry": {"type": "Point", "coordinates": [-83.4858486039, 41.4506429885]}, "type": "Feature", "properties": {"collection_times": [{"days": "Mon-Fri", "time": "3:45pm"}, {"days": "Sat", "time": "11:30am"}, {"days": "Sun", "time": "Closed"}], "id": "4344300003", "name": "USPS COLLECTION BOX - PO LOBBY", "address": {"city": "LUCKEY", "state": "OH", "street": "248 MAIN ST", "postcode": "43443"}}},
{"geometry": {"type": "Point", "coordinates": [-83.3379698539, 41.557717502]}, "type": "Feature", "properties": {"collection_times": [{"days": "Mon-Fri", "time": "3:45pm"}, {"days": "Sat", "time": "10:15am"}, {"days": "Sun", "time": "Closed"}], "id": "4344500001", "name": "USPS COLLECTION BOX - PO LOBBY", "address": {"city": "MARTIN", "state": "OH", "street": "2918 1ST ST", "postcode": "43445"}}},
{"geometry": {"type": "Point", "coordinates": [-83.3379698539, 41.557717502]}, "type": "Feature", "properties": {"collection_times": [{"days": "Mon-Fri", "time": "3:45pm"}, {"days": "Sat", "time": "10:15am"}, {"days": "Sun", "time": "Closed"}], "id": "4344500002", "name": "USPS COLLECTION BOX - BLUE BOX", "address": {"city": "MARTIN", "state": "OH", "street": "2918 1ST ST", "postcode": "43445"}}},
{"geometry": {"type": "Point", "coordinates": [-82.8212175787, 41.6838154203]}, "type": "Feature", "properties": {"collection_times": [{"days": "Mon-Sat", "time": "8:45am"}, {"days": "Sun", "time": "Closed"}], "id": "4344600000", "name": "USPS COLLECTION BOX - BLUE BOX", "address": {"city": "MIDDLEBASS", "state": "OH", "street": "830 FOX RD", "postcode": "43446"}}},
{"geometry": {"type": "Point", "coordinates": [-83.4248248481, 41.5658121699]}, "type": "Feature", "properties": {"collection_times": [{"days": "Mon-Fri", "time": "4:15pm"}, {"days": "Sat", "time": "11:45am"}, {"days": "Sun", "time": "Closed"}], "id": "4344700000", "name": "USPS COLLECTION BOX - BLUE BOX", "address": {"city": "MILLBURY", "state": "OH", "street": "28506 MAIN ST", "postcode": "43447"}}},
{"geometry": {"type": "Point", "coordinates": [-83.4248248481, 41.5658121699]}, "type": "Feature", "properties": {"collection_times": [{"days": "Mon-Fri", "time": "4:30pm"}, {"days": "Sat", "time": "12:00pm"}, {"days": "Sun", "time": "Closed"}], "id": "4344700001", "name": "USPS COLLECTION BOX - PO LOBBY", "address": {"city": "MILLBURY", "state": "OH", "street": "28506 MAIN ST", "postcode": "43447"}}},
{"geometry": {"type": "Point", "coordinates": [-83.4634930544, 41.5440343943]}, "type": "Feature", "properties": {"collection_times": [{"days": "Mon-Sat", "time": "11:00am"}, {"days": "Sun", "time": "Closed"}], "id": "4344700004", "name": "USPS COLLECTION BOX - BLUE BOX", "address": {"city": "MILLBURY", "state": "OH", "street": "3491 LATCHA RD", "postcode": "43447"}}},
{"geometry": {"type": "Point", "coordinates": [-83.4729533538, 41.556754674]}, "type": "Feature", "properties": {"collection_times": [{"days": "Mon-Sat", "time": "11:15am"}, {"days": "Sun", "time": "Closed"}], "id": "4344700005", "name": "USPS COLLECTION BOX - BLUE BOX", "address": {"city": "MILLBURY", "state": "OH", "street": "27800 LEMOYNE RD", "postcode": "43447"}}},
{"geometry": {"type": "Point", "coordinates": [-83.1475054399, 41.5086108614]}, "type": "Feature", "properties": {"collection_times": [{"days": "Mon-Fri", "time": "4:30pm"}, {"days": "Sat", "time": "3:00pm"}, {"days": "Sun", "time": "Closed"}], "id": "4344900010", "name": "USPS COLLECTION BOX - BLUE BOX", "address": {"city": "OAK HARBOR", "state": "OH", "street": "126 N CHURCH ST", "postcode": "43449"}}},
{"geometry": {"type": "Point", "coordinates": [-83.1517689213, 41.5084777352]}, "type": "Feature", "properties": {"collection_times": [{"days": "Mon-Sat", "time": "9:00am"}, {"days": "Sun", "time": "Closed"}], "id": "4344900013", "name": "USPS COLLECTION BOX - BLUE BOX", "address": {"city": "OAK HARBOR", "state": "OH", "street": "404 W MAIN ST", "postcode": "43449"}}},
{"geometry": {"type": "Point", "coordinates": [-83.1449422001, 41.5135485217]}, "type": "Feature", "properties": {"collection_times": [{"days": "Mon-Sat", "time": "9:00am"}, {"days": "Sun", "time": "Closed"}], "id": "4344900015", "name": "USPS COLLECTION BOX - BLUE BOX", "address": {"city": "OAK HARBOR", "state": "OH", "street": "321 N LOCUST ST", "postcode": "43449"}}},
{"geometry": {"type": "Point", "coordinates": [-83.1493616516, 41.507716173]}, "type": "Feature", "properties": {"collection_times": [{"days": "Mon-Sat", "time": "9:30am"}, {"days": "Sun", "time": "Closed"}], "id": "4344900017", "name": "USPS COLLECTION BOX - BLUE BOX", "address": {"city": "OAK HARBOR", "state": "OH", "street": "279 W WATER ST", "postcode": "43449"}}},
{"geometry": {"type": "Point", "coordinates": [-83.1475054399, 41.5086108614]}, "type": "Feature", "properties": {"collection_times": [{"days": "Mon-Fri", "time": "4:30pm"}, {"days": "Sat", "time": "3:00pm"}, {"days": "Sun", "time": "Closed"}], "id": "4344900018", "name": "USPS COLLECTION BOX - PO LOBBY", "address": {"city": "OAK HARBOR", "state": "OH", "street": "126 N CHURCH ST", "postcode": "43449"}}},
{"geometry": {"type": "Point", "coordinates": [-83.4880871776, 41.4045814379]}, "type": "Feature", "properties": {"collection_times": [{"days": "Mon-Fri", "time": "4:15pm"}, {"days": "Sat", "time": "11:45am"}, {"days": "Sun", "time": "Closed"}], "id": "4345000000", "name": "USPS COLLECTION BOX - BLUE BOX", "address": {"city": "PEMBERVILLE", "state": "OH", "street": "130 CHERRY ST", "postcode": "43450"}}},
{"geometry": {"type": "Point", "coordinates": [-83.4880871776, 41.4045814379]}, "type": "Feature", "properties": {"collection_times": [{"days": "Mon-Fri", "time": "4:15pm"}, {"days": "Sat", "time": "11:45am"}, {"days": "Sun", "time": "Closed"}], "id": "4345000003", "name": "USPS COLLECTION BOX - PO LOBBY", "address": {"city": "PEMBERVILLE", "state": "OH", "street": "130 CHERRY ST", "postcode": "43450"}}},
{"geometry": {"type": "Point", "coordinates": [-83.6503260479, 41.3266433346]}, "type": "Feature", "properties": {"collection_times": [{"days": "Mon-Fri", "time": "3:45pm"}, {"days": "Sat", "time": "11:45am"}, {"days": "Sun", "time": "Closed"}], "id": "4345100000", "name": "USPS COLLECTION BOX - BLUE BOX", "address": {"city": "PORTAGE", "state": "OH", "street": "101 S FINDLAY PIKE", "postcode": "43451"}}},
{"geometry": {"type": "Point", "coordinates": [-83.6503260479, 41.3266433346]}, "type": "Feature", "properties": {"collection_times": [{"days": "Mon-Fri", "time": "3:45pm"}, {"days": "Sat", "time": "11:45am"}, {"days": "Sun", "time": "Closed"}], "id": "4345100001", "name": "USPS COLLECTION BOX - PO LOBBY", "address": {"city": "PORTAGE", "state": "OH", "street": "101 S FINDLAY PIKE", "postcode": "43451"}}},
{"geometry": {"type": "Point", "coordinates": [-82.9384729113, 41.5120039738]}, "type": "Feature", "properties": {"collection_times": [{"days": "Mon-Sat", "time": "12:45pm"}, {"days": "Sun", "time": "Closed"}], "id": "4345200000", "name": "USPS COLLECTION BOX - BLUE BOX", "address": {"city": "PORT CLINTON", "state": "OH", "street": "235 E 2ND ST", "postcode": "43452"}}},
{"geometry": {"type": "Point", "coordinates": [-82.9520191376, 41.5096795839]}, "type": "Feature", "properties": {"collection_times": [{"days": "Mon-Sat", "time": "10:00am"}, {"days": "Sun", "time": "Closed"}], "id": "4345200002", "name": "USPS COLLECTION BOX - BLUE BOX", "address": {"city": "PORT CLINTON", "state": "OH", "street": "715 BATAAN LN", "postcode": "43452"}}},
{"geometry": {"type": "Point", "coordinates": [-82.9410751938, 41.5118808196]}, "type": "Feature", "properties": {"collection_times": [{"days": "Mon-Sat", "time": "12:45pm"}, {"days": "Sun", "time": "Closed"}], "id": "4345200003", "name": "USPS COLLECTION BOX - BLUE BOX", "address": {"city": "PORT CLINTON", "state": "OH", "street": "201 MADISON ST", "postcode": "43452"}}},
{"geometry": {"type": "Point", "coordinates": [-82.9432459242, 41.5124687547]}, "type": "Feature", "properties": {"collection_times": [{"days": "Mon-Fri", "time": "4:15pm"}, {"days": "Sat", "time": "3:30pm"}, {"days": "Sun", "time": "Closed"}], "id": "4345200006", "name": "USPS COLLECTION BOX - BLUE BOX", "address": {"city": "PORT CLINTON", "state": "OH", "street": "120 MONROE ST", "postcode": "43452"}}},
{"geometry": {"type": "Point", "coordinates": [-82.9410204714, 41.5100671269]}, "type": "Feature", "properties": {"collection_times": [{"days": "Mon-Fri", "time": "3:00pm"}, {"days": "Sat-Sun", "time": "Closed"}], "id": "4345200009", "name": "USPS COLLECTION BOX - BLUE BOX", "address": {"city": "PORT CLINTON", "state": "OH", "street": "315 MADISON ST", "postcode": "43452"}}},
{"geometry": {"type": "Point", "coordinates": [-82.9215043575, 41.5144023381]}, "type": "Feature", "properties": {"collection_times": [{"days": "Mon-Sat", "time": "9:00am"}, {"days": "Sun", "time": "Closed"}], "id": "4345200010", "name": "USPS COLLECTION BOX - BLUE BOX", "address": {"city": "PORT CLINTON", "state": "OH", "street": "1634 E PERRY ST", "postcode": "43452"}}},
{"geometry": {"type": "Point", "coordinates": [-82.9120131878, 41.5147740544]}, "type": "Feature", "properties": {"collection_times": [{"days": "Mon-Sat", "time": "11:00am"}, {"days": "Sun", "time": "Closed"}], "id": "4345200011", "name": "USPS COLLECTION BOX - BLUE BOX", "address": {"city": "PORT CLINTON", "state": "OH", "street": "1860 E PERRY ST", "postcode": "43452"}}},
{"geometry": {"type": "Point", "coordinates": [-82.8610327997, 41.5232838768]}, "type": "Feature", "properties": {"collection_times": [{"days": "Mon-Sat", "time": "1:00pm"}, {"days": "Sun", "time": "Closed"}], "id": "4345200013", "name": "USPS COLLECTION BOX - BLUE BOX", "address": {"city": "PORT CLINTON", "state": "OH", "street": "3994 EAST HARBOR RD", "postcode": "43452"}}},
{"geometry": {"type": "Point", "coordinates": [-82.889196251, 41.5179184046]}, "type": "Feature", "properties": {"collection_times": [{"days": "Mon-Sat", "time": "10:00am"}, {"days": "Sun", "time": "Closed"}], "id": "4345200014", "name": "USPS COLLECTION BOX - BLUE BOX", "address": {"city": "PORT CLINTON", "state": "OH", "street": "2826 EAST HARBOR RD", "postcode": "43452"}}},
{"geometry": {"type": "Point", "coordinates": [-82.8593448504, 41.5082140885]}, "type": "Feature", "properties": {"collection_times": [{"days": "Mon-Sat", "time": "10:00am"}, {"days": "Sun", "time": "Closed"}], "id": "4345200015", "name": "USPS COLLECTION BOX - BLUE BOX", "address": {"city": "PORT CLINTON", "state": "OH", "street": "3800 E STATE RD", "postcode": "43452"}}},
{"geometry": {"type": "Point", "coordinates": [-82.9172486925, 41.5144741833]}, "type": "Feature", "properties": {"collection_times": [{"days": "Mon-Sat", "time": "9:00am"}, {"days": "Sun", "time": "Closed"}], "id": "4345200023", "name": "USPS COLLECTION BOX - BLUE BOX", "address": {"city": "PORT CLINTON", "state": "OH", "street": "100 MORNINGSIDE DR", "postcode": "43452"}}},
{"geometry": {"type": "Point", "coordinates": [-82.930213938, 41.5130110316]}, "type": "Feature", "properties": {"collection_times": [{"days": "Mon-Sat", "time": "12:50pm"}, {"days": "Sun", "time": "Closed"}], "id": "4345200028", "name": "USPS COLLECTION BOX - BLUE BOX", "address": {"city": "PORT CLINTON", "state": "OH", "street": "129 LINCOLN DR", "postcode": "43452"}}},
{"geometry": {"type": "Point", "coordinates": [-82.9432459242, 41.5124687547]}, "type": "Feature", "properties": {"collection_times": [{"days": "Mon-Fri", "time": "4:30pm"}, {"days": "Sat", "time": "3:30pm"}, {"days": "Sun", "time": "Closed"}], "id": "4345200035", "name": "USPS COLLECTION BOX - BLUE BOX", "address": {"city": "PORT CLINTON", "state": "OH", "street": "120 MONROE ST", "postcode": "43452"}}},
{"geometry": {"type": "Point", "coordinates": [-82.94152676, 41.511965295]}, "type": "Feature", "properties": {"collection_times": [{"days": "Mon-Fri", "time": "4:30pm"}, {"days": "Sat", "time": "3:30pm"}, {"days": "Sun", "time": "Closed"}], "id": "4345200036", "name": "USPS COLLECTION BOX - BLUE BOX", "address": {"city": "PORT CLINTON", "state": "OH", "street": "121 W 2ND ST", "postcode": "43452"}}},
{"geometry": {"type": "Point", "coordinates": [-82.94152676, 41.511965295]}, "type": "Feature", "properties": {"collection_times": [{"days": "Mon-Fri", "time": "4:30pm"}, {"days": "Sat", "time": "3:30pm"}, {"days": "Sun", "time": "Closed"}], "id": "4345200037", "name": "USPS COLLECTION BOX - PO LOBBY", "address": {"city": "PORT CLINTON", "state": "OH", "street": "121 W 2ND ST", "postcode": "43452"}}},
{"geometry": {"type": "Point", "coordinates": [-82.8653909267, 41.5224122565]}, "type": "Feature", "properties": {"collection_times": [{"days": "Mon-Sat", "time": "12:45pm"}, {"days": "Sun", "time": "Closed"}], "id": "4345200040", "name": "USPS COLLECTION BOX - BLUE BOX", "address": {"city": "PORT CLINTON", "state": "OH", "street": "3805 EAST HARBOR RD", "postcode": "43452"}}},
{"geometry": {"type": "Point", "coordinates": [-82.9052271307, 41.5157741659]}, "type": "Feature", "properties": {"collection_times": [{"days": "Mon-Sat", "time": "12:00pm"}, {"days": "Sun", "time": "Closed"}], "id": "4345200041", "name": "USPS COLLECTION BOX - BLUE BOX", "address": {"city": "PORT CLINTON", "state": "OH", "street": "2028 EAST HARBOR RD", "postcode": "43452"}}},
{"geometry": {"type": "Point", "coordinates": [-82.8365758583, 41.5845092327]}, "type": "Feature", "properties": {"collection_times": [{"days": "Mon-Sat", "time": "11:30am"}, {"days": "Sun", "time": "Closed"}], "id": "4345200042", "name": "USPS COLLECTION BOX - BLUE BOX", "address": {"city": "PORT CLINTON", "state": "OH", "street": "4184 N CROGAN ST", "postcode": "43452"}}},
{"geometry": {"type": "Point", "coordinates": [-82.81581, 41.64896]}, "type": "Feature", "properties": {"collection_times": [{"days": "Mon-Sat", "time": "7:45am"}, {"days": "Sun", "time": "Closed"}], "id": "4345600000", "name": "USPS COLLECTION BOX - BLUE BOX", "address": {"city": "PUT IN BAY", "state": "OH", "street": "425 LANGRAM RD", "postcode": "43456"}}},
{"geometry": {"type": "Point", "coordinates": [-82.8159493444, 41.6487569709]}, "type": "Feature", "properties": {"collection_times": [{"days": "Mon-Sat", "time": "8:45am"}, {"days": "Sun", "time": "Closed"}], "id": "4345600001", "name": "USPS COLLECTION BOX - PO LOBBY", "address": {"city": "PUT IN BAY", "state": "OH", "street": "425 LANGRAM RD", "postcode": "43456"}}},
{"geometry": {"type": "Point", "coordinates": [-82.8159493444, 41.6487569709]}, "type": "Feature", "properties": {"collection_times": [{"days": "Mon-Sat", "time": "8:45am"}, {"days": "Sun", "time": "Closed"}], "id": "4345600002", "name": "USPS COLLECTION BOX - PO LOBBY", "address": {"city": "PUT IN BAY", "state": "OH", "street": "425 LANGRAM RD", "postcode": "43456"}}},
{"geometry": {"type": "Point", "coordinates": [-83.4237421866, 41.268520995]}, "type": "Feature", "properties": {"collection_times": [{"days": "Mon-Fri", "time": "2:30pm"}, {"days": "Sat", "time": "12:00pm"}, {"days": "Sun", "time": "Closed"}], "id": "4345700000", "name": "USPS COLLECTION BOX - PO LOBBY", "address": {"city": "RISINGSUN", "state": "OH", "street": "356 MAIN ST", "postcode": "43457"}}},
{"geometry": {"type": "Point", "coordinates": [-83.4237421866, 41.268520995]}, "type": "Feature", "properties": {"collection_times": [{"days": "Mon-Fri", "time": "4:15pm"}, {"days": "Sat", "time": "12:00pm"}, {"days": "Sun", "time": "Closed"}], "id": "4345700001", "name": "USPS COLLECTION BOX - BLUE BOX", "address": {"city": "RISINGSUN", "state": "OH", "street": "356 MAIN ST", "postcode": "43457"}}},
{"geometry": {"type": "Point", "coordinates": [-83.2206144535, 41.5310582989]}, "type": "Feature", "properties": {"collection_times": [{"days": "Mon-Fri", "time": "4:30pm"}, {"days": "Sat", "time": "11:00am"}, {"days": "Sun", "time": "Closed"}], "id": "4345800000", "name": "USPS COLLECTION BOX - PO LOBBY", "address": {"city": "ROCKY RIDGE", "state": "OH", "street": "14800 W 3RD", "postcode": "43458"}}},
{"geometry": {"type": "Point", "coordinates": [-83.2206144535, 41.5310582989]}, "type": "Feature", "properties": {"collection_times": [{"days": "Mon-Fri", "time": "4:30pm"}, {"days": "Sat", "time": "11:00am"}, {"days": "Sun", "time": "Closed"}], "id": "4345800001", "name": "USPS COLLECTION BOX - BLUE BOX", "address": {"city": "ROCKY RIDGE", "state": "OH", "street": "14800 W 3RD", "postcode": "43458"}}},
{"geometry": {"type": "Point", "coordinates": [-83.5607442132, 41.6097372278]}, "type": "Feature", "properties": {"collection_times": [{"days": "Mon-Sat", "time": "2:30pm"}, {"days": "Sun", "time": "Closed"}], "id": "4346000001", "name": "USPS COLLECTION BOX - BLUE BOX", "address": {"city": "ROSSFORD", "state": "OH", "street": "133 OSBORNE ST", "postcode": "43460"}}},
{"geometry": {"type": "Point", "coordinates": [-83.5597001319, 41.6092727157]}, "type": "Feature", "properties": {"collection_times": [{"days": "Mon-Fri", "time": "2:45pm"}, {"days": "Sat", "time": "2:15pm"}, {"days": "Sun", "time": "Closed"}], "id": "4346000002", "name": "USPS COLLECTION BOX - BLUE BOX", "address": {"city": "ROSSFORD", "state": "OH", "street": "701 SUPERIOR ST", "postcode": "43460"}}},
{"geometry": {"type": "Point", "coordinates": [-83.5613155823, 41.6039986938]}, "type": "Feature", "properties": {"collection_times": [{"days": "Mon-Fri", "time": "2:45pm"}, {"days": "Sat", "time": "2:15pm"}, {"days": "Sun", "time": "Closed"}], "id": "4346000003", "name": "USPS COLLECTION BOX - BLUE BOX", "address": {"city": "ROSSFORD", "state": "OH", "street": "81 ROSSWAY AVE", "postcode": "43460"}}},
{"geometry": {"type": "Point", "coordinates": [-83.5673959914, 41.6066343264]}, "type": "Feature", "properties": {"collection_times": [{"days": "Mon-Fri", "time": "2:30pm"}, {"days": "Sat", "time": "2:00pm"}, {"days": "Sun", "time": "Closed"}], "id": "4346000006", "name": "USPS COLLECTION BOX - BLUE BOX", "address": {"city": "ROSSFORD", "state": "OH", "street": "222 COLONY RD", "postcode": "43460"}}},
{"geometry": {"type": "Point", "coordinates": [-83.557678728, 41.6066238716]}, "type": "Feature", "properties": {"collection_times": [{"days": "Mon-Fri", "time": "5:00pm"}, {"days": "Sat", "time": "4:15pm"}, {"days": "Sun", "time": "Closed"}], "id": "4346000018", "name": "USPS COLLECTION BOX - BLUE BOX", "address": {"city": "ROSSFORD", "state": "OH", "street": "313 GLENWOOD RD", "postcode": "43460"}}},
{"geometry": {"type": "Point", "coordinates": [-83.557678728, 41.6066238716]}, "type": "Feature", "properties": {"collection_times": [{"days": "Mon-Fri", "time": "5:00pm"}, {"days": "Sat", "time": "4:15pm"}, {"days": "Sun", "time": "Closed"}], "id": "4346000019", "name": "USPS COLLECTION BOX - BLUE BOX", "address": {"city": "ROSSFORD", "state": "OH", "street": "313 GLENWOOD RD", "postcode": "43460"}}},
{"geometry": {"type": "Point", "coordinates": [-83.5642984097, 41.6019323138]}, "type": "Feature", "properties": {"collection_times": [{"days": "Mon-Fri", "time": "5:00pm"}, {"days": "Sat", "time": "4:15pm"}, {"days": "Sun", "time": "Closed"}], "id": "4346000020", "name": "USPS COLLECTION BOX - EXPRESS", "address": {"city": "ROSSFORD", "state": "OH", "street": "313 GLENWOOD RD", "postcode": "43460"}}},
{"geometry": {"type": "Point", "coordinates": [-83.557678728, 41.6066238716]}, "type": "Feature", "properties": {"collection_times": [{"days": "Mon-Fri", "time": "5:00pm"}, {"days": "Sat", "time": "12:30pm"}, {"days": "Sun", "time": "Closed"}], "id": "4346000022", "name": "USPS COLLECTION BOX - PO LOBBY", "address": {"city": "ROSSFORD", "state": "OH", "street": "313 GLENWOOD RD", "postcode": "43460"}}},
{"geometry": {"type": "Point", "coordinates": [-83.557678728, 41.6066238716]}, "type": "Feature", "properties": {"collection_times": [{"days": "Mon-Fri", "time": "5:00pm"}, {"days": "Sat", "time": "12:30pm"}, {"days": "Sun", "time": "Closed"}], "id": "4346000023", "name": "USPS COLLECTION BOX - PO LOBBY", "address": {"city": "ROSSFORD", "state": "OH", "street": "313 GLENWOOD RD", "postcode": "43460"}}},
{"geometry": {"type": "Point", "coordinates": [-83.5637652913, 41.6036788833]}, "type": "Feature", "properties": {"collection_times": [{"days": "Mon-Fri", "time": "2:00pm"}, {"days": "Sat", "time": "3:00pm"}, {"days": "Sun", "time": "Closed"}], "id": "4346000024", "name": "USPS COLLECTION BOX - BLUE BOX", "address": {"city": "ROSSFORD", "state": "OH", "street": "9880 OLDE US 20", "postcode": "43460"}}},
{"geometry": {"type": "Point", "coordinates": [-83.6701913947, 41.2977969333]}, "type": "Feature", "properties": {"collection_times": [{"days": "Mon-Fri", "time": "3:45pm"}, {"days": "Sat", "time": "10:45am"}, {"days": "Sun", "time": "Closed"}], "id": "4346200000", "name": "USPS COLLECTION BOX - PO LOBBY", "address": {"city": "RUDOLPH", "state": "OH", "street": "14018 MERMILL RD", "postcode": "43462"}}},
{"geometry": {"type": "Point", "coordinates": [-83.6701913947, 41.2977969333]}, "type": "Feature", "properties": {"collection_times": [{"days": "Mon-Fri", "time": "3:45pm"}, {"days": "Sat", "time": "10:45am"}, {"days": "Sun", "time": "Closed"}], "id": "4346200001", "name": "USPS COLLECTION BOX - BLUE BOX", "address": {"city": "RUDOLPH", "state": "OH", "street": "14018 MERMILL RD", "postcode": "43462"}}},
{"geometry": {"type": "Point", "coordinates": [-83.5056693922, 41.5092350412]}, "type": "Feature", "properties": {"collection_times": [{"days": "Mon-Fri", "time": "4:30pm"}, {"days": "Sat", "time": "11:30am"}, {"days": "Sun", "time": "Closed"}], "id": "4346300000", "name": "USPS COLLECTION BOX - BLUE BOX", "address": {"city": "STONY RIDGE", "state": "OH", "street": "5725 FREMONT PIKE", "postcode": "43463"}}},
{"geometry": {"type": "Point", "coordinates": [-83.5056693922, 41.5092350412]}, "type": "Feature", "properties": {"collection_times": [{"days": "Mon-Fri", "time": "4:30pm"}, {"days": "Sat", "time": "11:30am"}, {"days": "Sun", "time": "Closed"}], "id": "4346300001", "name": "USPS COLLECTION BOX - PO LOBBY", "address": {"city": "STONY RIDGE", "state": "OH", "street": "5725 FREMONT PIKE", "postcode": "43463"}}},
{"geometry": {"type": "Point", "coordinates": [-82.934795277, 41.3866860625]}, "type": "Feature", "properties": {"collection_times": [{"days": "Mon-Fri", "time": "4:15pm"}, {"days": "Sat", "time": "11:15am"}, {"days": "Sun", "time": "Closed"}], "id": "4346400000", "name": "USPS COLLECTION BOX - BLUE BOX", "address": {"city": "VICKERY", "state": "OH", "street": "5110 COUNTY ROAD 247", "postcode": "43464"}}},
{"geometry": {"type": "Point", "coordinates": [-82.934795277, 41.3866860625]}, "type": "Feature", "properties": {"collection_times": [{"days": "Mon-Fri", "time": "4:15pm"}, {"days": "Sat", "time": "11:15am"}, {"days": "Sun", "time": "Closed"}], "id": "4346400001", "name": "USPS COLLECTION BOX - PO LOBBY", "address": {"city": "VICKERY", "state": "OH", "street": "5110 COUNTY ROAD 247", "postcode": "43464"}}},
{"geometry": {"type": "Point", "coordinates": [-83.4934581458, 41.5910918584]}, "type": "Feature", "properties": {"collection_times": [{"days": "Mon-Fri", "time": "4:45pm"}, {"days": "Sat", "time": "2:45pm"}, {"days": "Sun", "time": "Closed"}], "id": "4346500000", "name": "USPS COLLECTION BOX - BLUE BOX", "address": {"city": "WALBRIDGE", "state": "OH", "street": "419 N MAIN ST", "postcode": "43465"}}},
{"geometry": {"type": "Point", "coordinates": [-83.4934581458, 41.5910918584]}, "type": "Feature", "properties": {"collection_times": [{"days": "Mon-Fri", "time": "4:45pm"}, {"days": "Sat", "time": "2:45pm"}, {"days": "Sun", "time": "Closed"}], "id": "4346500002", "name": "USPS COLLECTION BOX - PO LOBBY", "address": {"city": "WALBRIDGE", "state": "OH", "street": "419 N MAIN ST", "postcode": "43465"}}},
{"geometry": {"type": "Point", "coordinates": [-83.4934581458, 41.5910918584]}, "type": "Feature", "properties": {"collection_times": [{"days": "Mon-Fri", "time": "4:45pm"}, {"days": "Sat", "time": "2:45pm"}, {"days": "Sun", "time": "Closed"}], "id": "4346500003", "name": "USPS COLLECTION BOX - PO LOBBY", "address": {"city": "WALBRIDGE", "state": "OH", "street": "419 N MAIN ST", "postcode": "43465"}}},
{"geometry": {"type": "Point", "coordinates": [-83.5116857219, 41.5587611601]}, "type": "Feature", "properties": {"collection_times": [{"days": "Mon-Sat", "time": "12:00pm"}, {"days": "Sun", "time": "Closed"}], "id": "4346500007", "name": "USPS COLLECTION BOX - BLUE BOX", "address": {"city": "WALBRIDGE", "state": "OH", "street": "28010 E BROADWAY ST", "postcode": "43465"}}},
{"geometry": {"type": "Point", "coordinates": [-83.4620215557, 41.3091142319]}, "type": "Feature", "properties": {"collection_times": [{"days": "Mon-Sat", "time": "1:00pm"}, {"days": "Sun", "time": "Closed"}], "id": "4346600000", "name": "USPS COLLECTION BOX - BLUE BOX", "address": {"city": "WAYNE", "state": "OH", "street": "3273 DEFIANCE PIKE", "postcode": "43466"}}},
{"geometry": {"type": "Point", "coordinates": [-83.473891366, 41.3008997649]}, "type": "Feature", "properties": {"collection_times": [{"days": "Mon-Fri", "time": "4:00pm"}, {"days": "Sat", "time": "11:30am"}, {"days": "Sun", "time": "Closed"}], "id": "4346600001", "name": "USPS COLLECTION BOX - PO LOBBY", "address": {"city": "WAYNE", "state": "OH", "street": "101 W MAIN ST", "postcode": "43466"}}},
{"geometry": {"type": "Point", "coordinates": [-83.473891366, 41.3008997649]}, "type": "Feature", "properties": {"collection_times": [{"days": "Mon-Fri", "time": "4:00pm"}, {"days": "Sat", "time": "11:30am"}, {"days": "Sun", "time": "Closed"}], "id": "4346600002", "name": "USPS COLLECTION BOX - BLUE BOX", "address": {"city": "WAYNE", "state": "OH", "street": "101 W MAIN ST", "postcode": "43466"}}},
{"geometry": {"type": "Point", "coordinates": [-83.4921870245, 41.2457668428]}, "type": "Feature", "properties": {"collection_times": [{"days": "Mon-Fri", "time": "3:45pm"}, {"days": "Sat", "time": "11:15am"}, {"days": "Sun", "time": "Closed"}], "id": "4346700000", "name": "USPS COLLECTION BOX - PO LOBBY", "address": {"city": "WEST MILLGROVE", "state": "OH", "street": "6491 MAIN ST", "postcode": "43467"}}},
{"geometry": {"type": "Point", "coordinates": [-83.4921870245, 41.2457668428]}, "type": "Feature", "properties": {"collection_times": [{"days": "Mon-Fri", "time": "3:45pm"}, {"days": "Sat", "time": "11:15am"}, {"days": "Sun", "time": "Closed"}], "id": "4346700001", "name": "USPS COLLECTION BOX - BLUE BOX", "address": {"city": "WEST MILLGROVE", "state": "OH", "street": "6491 MAIN ST", "postcode": "43467"}}},
{"geometry": {"type": "Point", "coordinates": [-83.3388052964, 41.6034302459]}, "type": "Feature", "properties": {"collection_times": [{"days": "Mon-Fri", "time": "4:00pm"}, {"days": "Sat", "time": "11:45am"}, {"days": "Sun", "time": "Closed"}], "id": "4346800000", "name": "USPS COLLECTION BOX - BLUE BOX", "address": {"city": "WILLISTON", "state": "OH", "street": "21062 W TOLEDO ST", "postcode": "43468"}}},
{"geometry": {"type": "Point", "coordinates": [-83.338527986, 41.6034520878]}, "type": "Feature", "properties": {"collection_times": [{"days": "Mon-Fri", "time": "4:15pm"}, {"days": "Sat", "time": "11:45am"}, {"days": "Sun", "time": "Closed"}], "id": "4346800001", "name": "USPS COLLECTION BOX - PO LOBBY", "address": {"city": "WILLISTON", "state": "OH", "street": "21062 W TOLEDO ST", "postcode": "43468"}}},
{"geometry": {"type": "Point", "coordinates": [-83.3632675258, 41.450617066]}, "type": "Feature", "properties": {"collection_times": [{"days": "Mon-Fri", "time": "4:00pm"}, {"days": "Sat", "time": "11:45am"}, {"days": "Sun", "time": "Closed"}], "id": "4346900004", "name": "USPS COLLECTION BOX - BLUE BOX", "address": {"city": "WOODVILLE", "state": "OH", "street": "108 W MAIN ST", "postcode": "43469"}}},
{"geometry": {"type": "Point", "coordinates": [-83.3632675258, 41.450617066]}, "type": "Feature", "properties": {"collection_times": [{"days": "Mon-Fri", "time": "4:00pm"}, {"days": "Sat", "time": "1:00pm"}, {"days": "Sun", "time": "Closed"}], "id": "4346900005", "name": "USPS COLLECTION BOX - BLUE BOX", "address": {"city": "WOODVILLE", "state": "OH", "street": "108 W MAIN ST", "postcode": "43469"}}},
{"geometry": {"type": "Point", "coordinates": [-83.3632675258, 41.450617066]}, "type": "Feature", "properties": {"collection_times": [{"days": "Mon-Fri", "time": "4:00pm"}, {"days": "Sat", "time": "11:45am"}, {"days": "Sun", "time": "Closed"}], "id": "4346900006", "name": "USPS COLLECTION BOX - PO LOBBY", "address": {"city": "WOODVILLE", "state": "OH", "street": "108 W MAIN ST", "postcode": "43469"}}}
]}
