{"type": "FeatureCollection", "features": [
{"geometry": {"type": "Point", "coordinates": [-84.4372582587, 41.665941945]}, "type": "Feature", "properties": {"collection_times": [{"days": "Mon-Fri", "time": "3:45pm"}, {"days": "Sat", "time": "11:15am"}, {"days": "Sun", "time": "Closed"}], "id": "4350100000", "name": "USPS COLLECTION BOX - BLUE BOX", "address": {"city": "ALVORDTON", "state": "OH", "street": "119 E MAIN ST", "postcode": "43501"}}},
{"geometry": {"type": "Point", "coordinates": [-84.4372582587, 41.665941945]}, "type": "Feature", "properties": {"collection_times": [{"days": "Mon-Fri", "time": "3:45pm"}, {"days": "Sat", "time": "11:15am"}, {"days": "Sun", "time": "Closed"}], "id": "4350100001", "name": "USPS COLLECTION BOX - PO LOBBY", "address": {"city": "ALVORDTON", "state": "OH", "street": "119 E MAIN ST", "postcode": "43501"}}},
{"geometry": {"type": "Point", "coordinates": [-84.3075722329, 41.5234226269]}, "type": "Feature", "properties": {"collection_times": [{"days": "Mon-Fri", "time": "4:30pm"}, {"days": "Sat", "time": "1:00pm"}, {"days": "Sun", "time": "Closed"}], "id": "4350200000", "name": "USPS COLLECTION BOX - BLUE BOX", "address": {"city": "ARCHBOLD", "state": "OH", "street": "210 DITTO ST", "postcode": "43502"}}},
{"geometry": {"type": "Point", "coordinates": [-84.3075722329, 41.5234226269]}, "type": "Feature", "properties": {"collection_times": [{"days": "Mon-Fri", "time": "4:30pm"}, {"days": "Sat", "time": "1:00pm"}, {"days": "Sun", "time": "Closed"}], "id": "4350200001", "name": "USPS COLLECTION BOX - PO LOBBY", "address": {"city": "ARCHBOLD", "state": "OH", "street": "210 DITTO ST", "postcode": "43502"}}},
{"geometry": {"type": "Point", "coordinates": [-84.3154803135, 41.5251745891]}, "type": "Feature", "properties": {"collection_times": [{"days": "Mon-Sat", "time": "12:00pm"}, {"days": "Sun", "time": "Closed"}], "id": "4350200002", "name": "USPS COLLECTION BOX - BLUE BOX", "address": {"city": "ARCHBOLD", "state": "OH", "street": "603 WALNUT ST", "postcode": "43502"}}},
{"geometry": {"type": "Point", "coordinates": [-84.3063454339, 41.509769081]}, "type": "Feature", "properties": {"collection_times": [{"days": "Mon-Sat", "time": "12:30pm"}, {"days": "Sun", "time": "Closed"}], "id": "4350200003", "name": "USPS COLLECTION BOX - BLUE BOX", "address": {"city": "ARCHBOLD", "state": "OH", "street": "100 E LUGBILL RD", "postcode": "43502"}}},
{"geometry": {"type": "Point", "coordinates": [-84.310379412, 41.5227467816]}, "type": "Feature", "properties": {"collection_times": [{"days": "Mon-Sat", "time": "12:15pm"}, {"days": "Sun", "time": "Closed"}], "id": "4350200011", "name": "USPS COLLECTION BOX - BLUE BOX", "address": {"city": "ARCHBOLD", "state": "OH", "street": "408 W HOLLAND ST", "postcode": "43502"}}},
{"geometry": {"type": "Point", "coordinates": [-83.8404302359, 41.7155592542]}, "type": "Feature", "properties": {"collection_times": [{"days": "Mon-Fri", "time": "4:15pm"}, {"days": "Sat", "time": "11:00am"}, {"days": "Sun", "time": "Closed"}], "id": "4350400000", "name": "USPS COLLECTION BOX - PO LOBBY", "address": {"city": "BERKEY", "state": "OH", "street": "12353 SYLVANIA METAMORA RD", "postcode": "43504"}}},
{"geometry": {"type": "Point", "coordinates": [-83.8404302359, 41.7155592542]}, "type": "Feature", "properties": {"collection_times": [{"days": "Mon-Fri", "time": "4:15pm"}, {"days": "Sat", "time": "11:00am"}, {"days": "Sun", "time": "Closed"}], "id": "4350400001", "name": "USPS COLLECTION BOX - BLUE BOX", "address": {"city": "BERKEY", "state": "OH", "street": "12353 SYLVANIA METAMORA RD", "postcode": "43504"}}},
{"geometry": {"type": "Point", "coordinates": [-84.7302433931, 41.5255248223]}, "type": "Feature", "properties": {"collection_times": [{"days": "Mon-Fri", "time": "3:45pm"}, {"days": "Sat", "time": "11:30am"}, {"days": "Sun", "time": "Closed"}], "id": "4350500000", "name": "USPS COLLECTION BOX - PO LOBBY", "address": {"city": "BLAKESLEE", "state": "OH", "street": "512-14 WASHINGTON ST", "postcode": "43505"}}},
{"geometry": {"type": "Point", "coordinates": [-84.7302433931, 41.5255248223]}, "type": "Feature", "properties": {"collection_times": [{"days": "Mon-Fri", "time": "3:30pm"}, {"days": "Sat", "time": "11:30am"}, {"days": "Sun", "time": "Closed"}], "id": "4350500001", "name": "USPS COLLECTION BOX - BLUE BOX", "address": {"city": "BLAKESLEE", "state": "OH", "street": "512-14 WASHINGTON ST", "postcode": "43505"}}},
{"geometry": {"type": "Point", "coordinates": [-84.5677454177, 41.4746104362]}, "type": "Feature", "properties": {"collection_times": [{"days": "Mon-Sat", "time": "12:00pm"}, {"days": "Sun", "time": "Closed"}], "id": "4350600000", "name": "USPS COLLECTION BOX - BLUE BOX", "address": {"city": "BRYAN", "state": "OH", "street": "1120 W HIGH ST", "postcode": "43506"}}},
{"geometry": {"type": "Point", "coordinates": [-84.551551846, 41.473254275]}, "type": "Feature", "properties": {"collection_times": [{"days": "Mon-Sat", "time": "2:00pm"}, {"days": "Sun", "time": "Closed"}], "id": "4350600002", "name": "USPS COLLECTION BOX - BLUE BOX", "address": {"city": "BRYAN", "state": "OH", "street": "141 W BUTLER ST", "postcode": "43506"}}},
{"geometry": {"type": "Point", "coordinates": [-84.5509498606, 41.475180909]}, "type": "Feature", "properties": {"collection_times": [{"days": "Mon-Fri", "time": "4:30pm"}, {"days": "Sat", "time": "1:30pm"}, {"days": "Sun", "time": "Closed"}], "id": "4350600006", "name": "USPS COLLECTION BOX - BLUE BOX", "address": {"city": "BRYAN", "state": "OH", "street": "142 N MAIN ST", "postcode": "43506"}}},
{"geometry": {"type": "Point", "coordinates": [-84.5509498606, 41.475180909]}, "type": "Feature", "properties": {"collection_times": [{"days": "Mon-Fri", "time": "4:30pm"}, {"days": "Sat", "time": "1:30pm"}, {"days": "Sun", "time": "Closed"}], "id": "4350600007", "name": "USPS COLLECTION BOX - BLUE BOX", "address": {"city": "BRYAN", "state": "OH", "street": "142 N MAIN ST", "postcode": "43506"}}},
{"geometry": {"type": "Point", "coordinates": [-84.5557765247, 41.4713518635]}, "type": "Feature", "properties": {"collection_times": [{"days": "Mon-Fri", "time": "4:30pm"}, {"days": "Sat", "time": "1:30pm"}, {"days": "Sun", "time": "Closed"}], "id": "4350600009", "name": "USPS COLLECTION BOX - EXPRESS", "address": {"city": "BRYAN", "state": "OH", "street": "142 N MAIN ST", "postcode": "43506"}}},
{"geometry": {"type": "Point", "coordinates": [-84.5509498606, 41.475180909]}, "type": "Feature", "properties": {"collection_times": [{"days": "Mon-Fri", "time": "4:30pm"}, {"days": "Sat", "time": "1:30pm"}, {"days": "Sun", "time": "Closed"}], "id": "4350600010", "name": "USPS COLLECTION BOX - PO LOBBY", "address": {"city": "BRYAN", "state": "OH", "street": "142 N MAIN ST", "postcode": "43506"}}},
{"geometry": {"type": "Point", "coordinates": [-84.5509498606, 41.475180909]}, "type": "Feature", "properties": {"collection_times": [{"days": "Mon-Fri", "time": "4:30pm"}, {"days": "Sat", "time": "1:30pm"}, {"days": "Sun", "time": "Closed"}], "id": "4350600012", "name": "USPS COLLECTION BOX - PO LOBBY", "address": {"city": "BRYAN", "state": "OH", "street": "142 N MAIN ST", "postcode": "43506"}}},
{"geometry": {"type": "Point", "coordinates": [-84.5272893179, 41.476978587]}, "type": "Feature", "properties": {"collection_times": [{"days": "Mon-Sat", "time": "9:30am"}, {"days": "Sun", "time": "Closed"}], "id": "4350600013", "name": "USPS COLLECTION BOX - BLUE BOX", "address": {"city": "BRYAN", "state": "OH", "street": "1700 E HIGH ST", "postcode": "43506"}}},
{"geometry": {"type": "Point", "coordinates": [-84.5507943304, 41.4611956326]}, "type": "Feature", "properties": {"collection_times": [{"days": "Mon-Fri", "time": "9:30am"}, {"days": "Sat", "time": "9:00am"}, {"days": "Sun", "time": "Closed"}], "id": "4350600014", "name": "USPS COLLECTION BOX - BLUE BOX", "address": {"city": "BRYAN", "state": "OH", "street": "1215 S MAIN ST", "postcode": "43506"}}},
{"geometry": {"type": "Point", "coordinates": [-84.5762565936, 41.488124268]}, "type": "Feature", "properties": {"collection_times": [{"days": "Mon-Sat", "time": "9:15am"}, {"days": "Sun", "time": "Closed"}], "id": "4350600016", "name": "USPS COLLECTION BOX - BLUE BOX", "address": {"city": "BRYAN", "state": "OH", "street": "216 OHIO DR", "postcode": "43506"}}},
{"geometry": {"type": "Point", "coordinates": [-83.9479995485, 41.4653683039]}, "type": "Feature", "properties": {"collection_times": [{"days": "Mon-Fri", "time": "4:00pm"}, {"days": "Sat", "time": "10:45am"}, {"days": "Sun", "time": "Closed"}], "id": "4351000000", "name": "USPS COLLECTION BOX - BLUE BOX", "address": {"city": "COLTON", "state": "OH", "street": "637 HENRY ST", "postcode": "43510"}}},
{"geometry": {"type": "Point", "coordinates": [-83.9479995485, 41.4653683039]}, "type": "Feature", "properties": {"collection_times": [{"days": "Mon-Fri", "time": "4:00pm"}, {"days": "Sat", "time": "10:45am"}, {"days": "Sun", "time": "Closed"}], "id": "4351000001", "name": "USPS COLLECTION BOX - PO LOBBY", "address": {"city": "COLTON", "state": "OH", "street": "637 HENRY ST", "postcode": "43510"}}},
{"geometry": {"type": "Point", "coordinates": [-83.8438854414, 41.2832878718]}, "type": "Feature", "properties": {"collection_times": [{"days": "Mon-Fri", "time": "3:45pm"}, {"days": "Sat", "time": "11:00am"}, {"days": "Sun", "time": "Closed"}], "id": "4351100000", "name": "USPS COLLECTION BOX - BLUE BOX", "address": {"city": "CUSTAR", "state": "OH", "street": "8906 CUSTAR RD", "postcode": "43511"}}},
{"geometry": {"type": "Point", "coordinates": [-83.8438854414, 41.2832878718]}, "type": "Feature", "properties": {"collection_times": [{"days": "Mon-Fri", "time": "3:45pm"}, {"days": "Sat", "time": "11:00am"}, {"days": "Sun", "time": "Closed"}], "id": "4351100001", "name": "USPS COLLECTION BOX - PO LOBBY", "address": {"city": "CUSTAR", "state": "OH", "street": "8906 CUSTAR RD", "postcode": "43511"}}},
{"geometry": {"type": "Point", "coordinates": [-84.3635807451, 41.2869394106]}, "type": "Feature", "properties": {"collection_times": [{"days": "Mon-Sat", "time": "12:30pm"}, {"days": "Sun", "time": "Closed"}], "id": "4351200005", "name": "USPS COLLECTION BOX - BLUE BOX", "address": {"city": "DEFIANCE", "state": "OH", "street": "324 PERRY ST", "postcode": "43512"}}},
{"geometry": {"type": "Point", "coordinates": [-84.3627737048, 41.2857705669]}, "type": "Feature", "properties": {"collection_times": [{"days": "Mon-Sat", "time": "12:45pm"}, {"days": "Sun", "time": "Closed"}], "id": "4351200006", "name": "USPS COLLECTION BOX - BLUE BOX", "address": {"city": "DEFIANCE", "state": "OH", "street": "400 CLINTON ST", "postcode": "43512"}}},
{"geometry": {"type": "Point", "coordinates": [-84.3762891117, 41.2764412067]}, "type": "Feature", "properties": {"collection_times": [{"days": "Mon-Sat", "time": "1:00pm"}, {"days": "Sun", "time": "Closed"}], "id": "4351200007", "name": "USPS COLLECTION BOX - BLUE BOX", "address": {"city": "DEFIANCE", "state": "OH", "street": "705 DEATRICK ST", "postcode": "43512"}}},
{"geometry": {"type": "Point", "coordinates": [-84.3607010675, 41.3048526359]}, "type": "Feature", "properties": {"collection_times": [{"days": "Mon-Sat", "time": "12:30pm"}, {"days": "Sun", "time": "Closed"}], "id": "4351200013", "name": "USPS COLLECTION BOX - BLUE BOX", "address": {"city": "DEFIANCE", "state": "OH", "street": "1601 N CLINTON ST", "postcode": "43512"}}},
{"geometry": {"type": "Point", "coordinates": [-84.3644094475, 41.2864501545]}, "type": "Feature", "properties": {"collection_times": [{"days": "Mon-Sat", "time": "12:30pm"}, {"days": "Sun", "time": "Closed"}], "id": "4351200015", "name": "USPS COLLECTION BOX - EXPRESS", "address": {"city": "DEFIANCE", "state": "OH", "street": "1601 N CLINTON ST", "postcode": "43512"}}},
{"geometry": {"type": "Point", "coordinates": [-84.3608482279, 41.2949963343]}, "type": "Feature", "properties": {"collection_times": [{"days": "Mon-Sat", "time": "1:00pm"}, {"days": "Sun", "time": "Closed"}], "id": "4351200016", "name": "USPS COLLECTION BOX - BLUE BOX", "address": {"city": "DEFIANCE", "state": "OH", "street": "618 N CLINTON ST", "postcode": "43512"}}},
{"geometry": {"type": "Point", "coordinates": [-84.3644094475, 41.2864501545]}, "type": "Feature", "properties": {"collection_times": [{"days": "Mon-Sat", "time": "1:00pm"}, {"days": "Sun", "time": "Closed"}], "id": "4351200017", "name": "USPS COLLECTION BOX - EXPRESS", "address": {"city": "DEFIANCE", "state": "OH", "street": "1834 E 2ND ST", "postcode": "43512"}}},
{"geometry": {"type": "Point", "coordinates": [-84.3310596496, 41.2827102281]}, "type": "Feature", "properties": {"collection_times": [{"days": "Mon-Sat", "time": "1:00pm"}, {"days": "Sun", "time": "Closed"}], "id": "4351200018", "name": "USPS COLLECTION BOX - BLUE BOX", "address": {"city": "DEFIANCE", "state": "OH", "street": "1834 E 2ND ST", "postcode": "43512"}}},
{"geometry": {"type": "Point", "coordinates": [-84.3637543172, 41.2839480179]}, "type": "Feature", "properties": {"collection_times": [{"days": "Mon-Sat", "time": "12:45pm"}, {"days": "Sun", "time": "Closed"}], "id": "4351200019", "name": "USPS COLLECTION BOX - BLUE BOX", "address": {"city": "DEFIANCE", "state": "OH", "street": "601 CLINTON ST", "postcode": "43512"}}},
{"geometry": {"type": "Point", "coordinates": [-84.3644094475, 41.2864501545]}, "type": "Feature", "properties": {"collection_times": [{"days": "Mon-Sat", "time": "12:45pm"}, {"days": "Sun", "time": "Closed"}], "id": "4351200021", "name": "USPS COLLECTION BOX - EXPRESS", "address": {"city": "DEFIANCE", "state": "OH", "street": "601 CLINTON ST", "postcode": "43512"}}},
{"geometry": {"type": "Point", "coordinates": [-84.3658900566, 41.2837776871]}, "type": "Feature", "properties": {"collection_times": [{"days": "Mon-Sat", "time": "12:45pm"}, {"days": "Sun", "time": "Closed"}], "id": "4351200022", "name": "USPS COLLECTION BOX - BLUE BOX", "address": {"city": "DEFIANCE", "state": "OH", "street": "631 PERRY ST", "postcode": "43512"}}},
{"geometry": {"type": "Point", "coordinates": [-84.3616537214, 41.2832794831]}, "type": "Feature", "properties": {"collection_times": [{"days": "Mon-Sat", "time": "12:45pm"}, {"days": "Sun", "time": "Closed"}], "id": "4351200024", "name": "USPS COLLECTION BOX - BLUE BOX", "address": {"city": "DEFIANCE", "state": "OH", "street": "424 5TH ST", "postcode": "43512"}}},
{"geometry": {"type": "Point", "coordinates": [-84.3916611892, 41.2600997397]}, "type": "Feature", "properties": {"collection_times": [{"days": "Mon-Sat", "time": "1:00pm"}, {"days": "Sun", "time": "Closed"}], "id": "4351200026", "name": "USPS COLLECTION BOX - BLUE BOX", "address": {"city": "DEFIANCE", "state": "OH", "street": "1746 S CLINTON ST", "postcode": "43512"}}},
{"geometry": {"type": "Point", "coordinates": [-84.359881588, 41.2859679176]}, "type": "Feature", "properties": {"collection_times": [{"days": "Mon-Fri", "time": "5:00pm"}, {"days": "Sat", "time": "4:45pm"}, {"days": "Sun", "time": "Closed"}], "id": "4351200028", "name": "USPS COLLECTION BOX - PO LOBBY", "address": {"city": "DEFIANCE", "state": "OH", "street": "420 W 2ND ST", "postcode": "43512"}}},
{"geometry": {"type": "Point", "coordinates": [-84.359881588, 41.2859679176]}, "type": "Feature", "properties": {"collection_times": [{"days": "Mon-Fri", "time": "5:00pm"}, {"days": "Sat", "time": "4:45pm"}, {"days": "Sun", "time": "Closed"}], "id": "4351200029", "name": "USPS COLLECTION BOX - PO LOBBY", "address": {"city": "DEFIANCE", "state": "OH", "street": "420 W 2ND ST", "postcode": "43512"}}},
{"geometry": {"type": "Point", "coordinates": [-84.359881588, 41.2859679176]}, "type": "Feature", "properties": {"collection_times": [{"days": "Mon-Fri", "time": "5:00pm"}, {"days": "Sat", "time": "4:45pm"}, {"days": "Sun", "time": "Closed"}], "id": "4351200030", "name": "USPS COLLECTION BOX - BLUE BOX", "address": {"city": "DEFIANCE", "state": "OH", "street": "420 W 2ND ST", "postcode": "43512"}}},
{"geometry": {"type": "Point", "coordinates": [-84.3644094475, 41.2864501545]}, "type": "Feature", "properties": {"collection_times": [{"days": "Mon-Sat", "time": "4:45pm"}, {"days": "Sun", "time": "Closed"}], "id": "4351200031", "name": "USPS COLLECTION BOX - EXPRESS", "address": {"city": "DEFIANCE", "state": "OH", "street": "420 W 2ND ST", "postcode": "43512"}}},
{"geometry": {"type": "Point", "coordinates": [-84.359881588, 41.2859679176]}, "type": "Feature", "properties": {"collection_times": [{"days": "Mon-Fri", "time": "5:00pm"}, {"days": "Sat", "time": "4:45pm"}, {"days": "Sun", "time": "Closed"}], "id": "4351200032", "name": "USPS COLLECTION BOX - BLUE BOX", "address": {"city": "DEFIANCE", "state": "OH", "street": "420 W 2ND ST", "postcode": "43512"}}},
{"geometry": {"type": "Point", "coordinates": [-84.359881588, 41.2859679176]}, "type": "Feature", "properties": {"collection_times": [{"days": "Mon-Fri", "time": "5:00pm"}, {"days": "Sat", "time": "4:45pm"}, {"days": "Sun", "time": "Closed"}], "id": "4351200033", "name": "USPS COLLECTION BOX - BLUE BOX", "address": {"city": "DEFIANCE", "state": "OH", "street": "420 W 2ND ST", "postcode": "43512"}}},
{"geometry": {"type": "Point", "coordinates": [-84.359881588, 41.2859679176]}, "type": "Feature", "properties": {"collection_times": [{"days": "Mon-Fri", "time": "5:00pm"}, {"days": "Sat", "time": "4:45pm"}, {"days": "Sun", "time": "Closed"}], "id": "4351200034", "name": "USPS COLLECTION BOX - BLUE BOX", "address": {"city": "DEFIANCE", "state": "OH", "street": "420 W 2ND ST", "postcode": "43512"}}},
{"geometry": {"type": "Point", "coordinates": [-84.359881588, 41.2859679176]}, "type": "Feature", "properties": {"collection_times": [{"days": "Mon-Fri", "time": "5:00pm"}, {"days": "Sat", "time": "4:45pm"}, {"days": "Sun", "time": "Closed"}], "id": "4351200035", "name": "USPS COLLECTION BOX - BLUE BOX", "address": {"city": "DEFIANCE", "state": "OH", "street": "420 W 2ND ST", "postcode": "43512"}}},
{"geometry": {"type": "Point", "coordinates": [-84.3644094475, 41.2864501545]}, "type": "Feature", "properties": {"collection_times": [{"days": "Mon-Sat", "time": "4:45pm"}, {"days": "Sun", "time": "Closed"}], "id": "4351200036", "name": "USPS COLLECTION BOX - EXPRESS", "address": {"city": "DEFIANCE", "state": "OH", "street": "420 W 2ND ST", "postcode": "43512"}}},
{"geometry": {"type": "Point", "coordinates": [-84.3608596863, 41.3041011245]}, "type": "Feature", "properties": {"collection_times": [{"days": "Mon-Sat", "time": "12:30pm"}, {"days": "Sun", "time": "Closed"}], "id": "4351200042", "name": "USPS COLLECTION BOX - BLUE BOX", "address": {"city": "DEFIANCE", "state": "OH", "street": "1500 N CLINTON ST", "postcode": "43512"}}},
{"geometry": {"type": "Point", "coordinates": [-83.986877385, 41.5747637703]}, "type": "Feature", "properties": {"collection_times": [{"days": "Mon-Fri", "time": "4:30pm"}, {"days": "Sat", "time": "12:00pm"}, {"days": "Sun", "time": "Closed"}], "id": "4351500005", "name": "USPS COLLECTION BOX - BLUE BOX", "address": {"city": "DELTA", "state": "OH", "street": "6660 US ROUTE 20A", "postcode": "43515"}}},
{"geometry": {"type": "Point", "coordinates": [-83.986877385, 41.5747637703]}, "type": "Feature", "properties": {"collection_times": [{"days": "Mon-Fri", "time": "4:30pm"}, {"days": "Sat", "time": "12:00pm"}, {"days": "Sun", "time": "Closed"}], "id": "4351500006", "name": "USPS COLLECTION BOX - PO LOBBY", "address": {"city": "DELTA", "state": "OH", "street": "6660 US ROUTE 20A", "postcode": "43515"}}},
{"geometry": {"type": "Point", "coordinates": [-83.986877385, 41.5747637703]}, "type": "Feature", "properties": {"collection_times": [{"days": "Mon-Fri", "time": "4:30pm"}, {"days": "Sat", "time": "12:00pm"}, {"days": "Sun", "time": "Closed"}], "id": "4351500007", "name": "USPS COLLECTION BOX - PO LOBBY", "address": {"city": "DELTA", "state": "OH", "street": "6660 US ROUTE 20A", "postcode": "43515"}}},
{"geometry": {"type": "Point", "coordinates": [-84.00641, 41.57384]}, "type": "Feature", "properties": {"collection_times": [{"days": "Mon-Sat", "time": "12:30pm"}, {"days": "Sun", "time": "Closed"}], "id": "4351500008", "name": "USPS COLLECTION BOX - BLUE BOX", "address": {"city": "DELTA", "state": "OH", "street": "312 MAIN ST", "postcode": "43515"}}},
{"geometry": {"type": "Point", "coordinates": [-83.9012987231, 41.2068967876]}, "type": "Feature", "properties": {"collection_times": [{"days": "Mon-Fri", "time": "4:00pm"}, {"days": "Sat", "time": "11:30am"}, {"days": "Sun", "time": "Closed"}], "id": "4351600009", "name": "USPS COLLECTION BOX - BLUE BOX", "address": {"city": "DESHLER", "state": "OH", "street": "106 E MAIN ST", "postcode": "43516"}}},
{"geometry": {"type": "Point", "coordinates": [-83.9012987231, 41.2068967876]}, "type": "Feature", "properties": {"collection_times": [{"days": "Mon-Fri", "time": "4:00pm"}, {"days": "Sat", "time": "11:30am"}, {"days": "Sun", "time": "Closed"}], "id": "4351600010", "name": "USPS COLLECTION BOX - PO LOBBY", "address": {"city": "DESHLER", "state": "OH", "street": "106 E MAIN ST", "postcode": "43516"}}},
{"geometry": {"type": "Point", "coordinates": [-84.7481169586, 41.4499493844]}, "type": "Feature", "properties": {"collection_times": [{"days": "Mon-Fri", "time": "3:45pm"}, {"days": "Sat", "time": "11:45am"}, {"days": "Sun", "time": "Closed"}], "id": "4351700000", "name": "USPS COLLECTION BOX - BLUE BOX", "address": {"city": "EDGERTON", "state": "OH", "street": "207 N MICHIGAN AVE", "postcode": "43517"}}},
{"geometry": {"type": "Point", "coordinates": [-84.7481510083, 41.4499251808]}, "type": "Feature", "properties": {"collection_times": [{"days": "Mon-Fri", "time": "3:45pm"}, {"days": "Sat", "time": "11:45am"}, {"days": "Sun", "time": "Closed"}], "id": "4351700001", "name": "USPS COLLECTION BOX - PO LOBBY", "address": {"city": "EDGERTON", "state": "OH", "street": "207 N MICHIGAN AVE", "postcode": "43517"}}},
{"geometry": {"type": "Point", "coordinates": [-84.7689396527, 41.5572501617]}, "type": "Feature", "properties": {"collection_times": [{"days": "Mon-Fri", "time": "1:30pm"}, {"days": "Sat", "time": "12:30pm"}, {"days": "Sun", "time": "Closed"}], "id": "4351800000", "name": "USPS COLLECTION BOX - BLUE BOX", "address": {"city": "EDON", "state": "OH", "street": "104 PARK ST", "postcode": "43518"}}},
{"geometry": {"type": "Point", "coordinates": [-84.7689811957, 41.5564053932]}, "type": "Feature", "properties": {"collection_times": [{"days": "Mon-Fri", "time": "3:45pm"}, {"days": "Sat", "time": "10:15am"}, {"days": "Sun", "time": "Closed"}], "id": "4351800001", "name": "USPS COLLECTION BOX - PO LOBBY", "address": {"city": "EDON", "state": "OH", "street": "102 N MICHIGAN ST", "postcode": "43518"}}},
{"geometry": {"type": "Point", "coordinates": [-84.632907434, 41.38337338]}, "type": "Feature", "properties": {"collection_times": [{"days": "Mon-Fri", "time": "4:00pm"}, {"days": "Sat", "time": "9:45am"}, {"days": "Sun", "time": "Closed"}], "id": "4352000000", "name": "USPS COLLECTION BOX - BLUE BOX", "address": {"city": "FARMER", "state": "OH", "street": "3948 STATE ROUTE 2", "postcode": "43520"}}},
{"geometry": {"type": "Point", "coordinates": [-84.632907434, 41.38337338]}, "type": "Feature", "properties": {"collection_times": [{"days": "Mon-Fri", "time": "4:00pm"}, {"days": "Sat", "time": "9:45am"}, {"days": "Sun", "time": "Closed"}], "id": "4352000001", "name": "USPS COLLECTION BOX - PO LOBBY", "address": {"city": "FARMER", "state": "OH", "street": "3948 STATE ROUTE 2", "postcode": "43520"}}},
{"geometry": {"type": "Point", "coordinates": [-84.3286380851, 41.67353417]}, "type": "Feature", "properties": {"collection_times": [{"days": "Mon-Fri", "time": "3:45pm"}, {"days": "Sat", "time": "12:15pm"}, {"days": "Sun", "time": "Closed"}], "id": "4352100000", "name": "USPS COLLECTION BOX - BLUE BOX", "address": {"city": "FAYETTE", "state": "OH", "street": "101 S CHERRY ST", "postcode": "43521"}}},
{"geometry": {"type": "Point", "coordinates": [-84.3286380851, 41.67353417]}, "type": "Feature", "properties": {"collection_times": [{"days": "Mon-Fri", "time": "3:45pm"}, {"days": "Sat", "time": "12:15pm"}, {"days": "Sun", "time": "Closed"}], "id": "4352100002", "name": "USPS COLLECTION BOX - PO LOBBY", "address": {"city": "FAYETTE", "state": "OH", "street": "101 S CHERRY ST", "postcode": "43521"}}},
{"geometry": {"type": "Point", "coordinates": [-83.8641385518, 41.407724616]}, "type": "Feature", "properties": {"collection_times": [{"days": "Mon-Fri", "time": "4:00pm"}, {"days": "Sat", "time": "12:00pm"}, {"days": "Sun", "time": "Closed"}], "id": "4352200000", "name": "USPS COLLECTION BOX - PO LOBBY", "address": {"city": "GRAND RAPIDS", "state": "OH", "street": "17565 WAPAKONETA RD", "postcode": "43522"}}},
{"geometry": {"type": "Point", "coordinates": [-83.8656540794, 41.4128011236]}, "type": "Feature", "properties": {"collection_times": [{"days": "Mon-Sat", "time": "1:00pm"}, {"days": "Sun", "time": "Closed"}], "id": "4352200002", "name": "USPS COLLECTION BOX - BLUE BOX", "address": {"city": "GRAND RAPIDS", "state": "OH", "street": "24186 FRONT ST", "postcode": "43522"}}},
{"geometry": {"type": "Point", "coordinates": [-83.8641385518, 41.407724616]}, "type": "Feature", "properties": {"collection_times": [{"days": "Mon-Fri", "time": "3:30pm"}, {"days": "Sat", "time": "11:30am"}, {"days": "Sun", "time": "Closed"}], "id": "4352200003", "name": "USPS COLLECTION BOX - BLUE BOX", "address": {"city": "GRAND RAPIDS", "state": "OH", "street": "17565 WAPAKONETA RD", "postcode": "43522"}}},
{"geometry": {"type": "Point", "coordinates": [-84.0331597213, 41.2296724107]}, "type": "Feature", "properties": {"collection_times": [{"days": "Mon-Fri", "time": "4:30pm"}, {"days": "Sat", "time": "12:00pm"}, {"days": "Sun", "time": "Closed"}], "id": "4352400000", "name": "USPS COLLECTION BOX - PO LOBBY", "address": {"city": "HAMLER", "state": "OH", "street": "335 RANDOLPH ST", "postcode": "43524"}}},
{"geometry": {"type": "Point", "coordinates": [-84.0331597213, 41.2296724107]}, "type": "Feature", "properties": {"collection_times": [{"days": "Mon-Fri", "time": "4:30pm"}, {"days": "Sat", "time": "12:00pm"}, {"days": "Sun", "time": "Closed"}], "id": "4352400001", "name": "USPS COLLECTION BOX - BLUE BOX", "address": {"city": "HAMLER", "state": "OH", "street": "335 RANDOLPH ST", "postcode": "43524"}}},
{"geometry": {"type": "Point", "coordinates": [-83.7044883637, 41.466570288]}, "type": "Feature", "properties": {"collection_times": [{"days": "Mon-Fri", "time": "3:45pm"}, {"days": "Sat", "time": "10:15am"}, {"days": "Sun", "time": "Closed"}], "id": "4352500000", "name": "USPS COLLECTION BOX - BLUE BOX", "address": {"city": "HASKINS", "state": "OH", "street": "100 N FINDLAY RD", "postcode": "43525"}}},
{"geometry": {"type": "Point", "coordinates": [-83.7044883637, 41.466570288]}, "type": "Feature", "properties": {"collection_times": [{"days": "Mon-Fri", "time": "3:45pm"}, {"days": "Sat", "time": "10:15am"}, {"days": "Sun", "time": "Closed"}], "id": "4352500001", "name": "USPS COLLECTION BOX - PO LOBBY", "address": {"city": "HASKINS", "state": "OH", "street": "100 N FINDLAY RD", "postcode": "43525"}}},
{"geometry": {"type": "Point", "coordinates": [-84.7601301565, 41.2928857235]}, "type": "Feature", "properties": {"collection_times": [{"days": "Mon-Fri", "time": "4:00pm"}, {"days": "Sat", "time": "12:00pm"}, {"days": "Sun", "time": "Closed"}], "id": "4352600007", "name": "USPS COLLECTION BOX - BLUE BOX", "address": {"city": "HICKSVILLE", "state": "OH", "street": "110 E EDGERTON ST", "postcode": "43526"}}},
{"geometry": {"type": "Point", "coordinates": [-84.7601301565, 41.2928857235]}, "type": "Feature", "properties": {"collection_times": [{"days": "Mon-Fri", "time": "4:00pm"}, {"days": "Sat", "time": "12:00pm"}, {"days": "Sun", "time": "Closed"}], "id": "4352600008", "name": "USPS COLLECTION BOX - PO LOBBY", "address": {"city": "HICKSVILLE", "state": "OH", "street": "110 E EDGERTON ST", "postcode": "43526"}}},
{"geometry": {"type": "Point", "coordinates": [-84.1325479134, 41.2505496603]}, "type": "Feature", "properties": {"collection_times": [{"days": "Mon-Fri", "time": "3:00pm"}, {"days": "Sat", "time": "12:00pm"}, {"days": "Sun", "time": "Closed"}], "id": "4352700000", "name": "USPS COLLECTION BOX - PO LOBBY", "address": {"city": "HOLGATE", "state": "OH", "street": "165 N WILHELM ST", "postcode": "43527"}}},
{"geometry": {"type": "Point", "coordinates": [-84.1325479134, 41.2505496603]}, "type": "Feature", "properties": {"collection_times": [{"days": "Mon-Fri", "time": "4:00pm"}, {"days": "Sat", "time": "12:00pm"}, {"days": "Sun", "time": "Closed"}], "id": "4352700002", "name": "USPS COLLECTION BOX - BLUE BOX", "address": {"city": "HOLGATE", "state": "OH", "street": "165 N WILHELM ST", "postcode": "43527"}}},
{"geometry": {"type": "Point", "coordinates": [-83.7070345217, 41.6249019507]}, "type": "Feature", "properties": {"collection_times": [{"days": "Mon-Fri", "time": "4:30pm"}, {"days": "Sat", "time": "1:00pm"}, {"days": "Sun", "time": "Closed"}], "id": "4352800002", "name": "USPS COLLECTION BOX - BLUE BOX", "address": {"city": "HOLLAND", "state": "OH", "street": "6923 ANGOLA RD", "postcode": "43528"}}},
{"geometry": {"type": "Point", "coordinates": [-83.7155478333, 41.6072001229]}, "type": "Feature", "properties": {"collection_times": [{"days": "Mon-Sat", "time": "10:30am"}, {"days": "Sun", "time": "Closed"}], "id": "4352800009", "name": "USPS COLLECTION BOX - BLUE BOX", "address": {"city": "HOLLAND", "state": "OH", "street": "7300 NIGHTINGALE DR", "postcode": "43528"}}},
{"geometry": {"type": "Point", "coordinates": [-83.7070345217, 41.6249019507]}, "type": "Feature", "properties": {"collection_times": [{"days": "Mon-Fri", "time": "4:30pm"}, {"days": "Sat", "time": "12:00pm"}, {"days": "Sun", "time": "Closed"}], "id": "4352800013", "name": "USPS COLLECTION BOX - PO LOBBY", "address": {"city": "HOLLAND", "state": "OH", "street": "6923 ANGOLA RD", "postcode": "43528"}}},
{"geometry": {"type": "Point", "coordinates": [-83.7047977498, 41.6128131443]}, "type": "Feature", "properties": {"collection_times": [{"days": "Mon-Fri", "time": "12:30pm"}, {"days": "Sat", "time": "12:45pm"}, {"days": "Sun", "time": "Closed"}], "id": "4352800014", "name": "USPS COLLECTION BOX - BLUE BOX", "address": {"city": "HOLLAND", "state": "OH", "street": "6855 SPRING VALLEY DR", "postcode": "43528"}}},
{"geometry": {"type": "Point", "coordinates": [-83.7047977498, 41.6128131443]}, "type": "Feature", "properties": {"collection_times": [{"days": "Mon-Fri", "time": "12:30pm"}, {"days": "Sat", "time": "12:45pm"}, {"days": "Sun", "time": "Closed"}], "id": "4352800015", "name": "USPS COLLECTION BOX - BLUE BOX", "address": {"city": "HOLLAND", "state": "OH", "street": "6855 SPRING VALLEY DR", "postcode": "43528"}}},
{"geometry": {"type": "Point", "coordinates": [-83.7270362457, 41.6233836517]}, "type": "Feature", "properties": {"collection_times": [{"days": "Mon-Fri", "time": "1:15pm"}, {"days": "Sat", "time": "12:45pm"}, {"days": "Sun", "time": "Closed"}], "id": "4352800016", "name": "USPS COLLECTION BOX - BLUE BOX", "address": {"city": "HOLLAND", "state": "OH", "street": "6005 TRUST DR", "postcode": "43528"}}},
{"geometry": {"type": "Point", "coordinates": [-83.7070345217, 41.6249019507]}, "type": "Feature", "properties": {"collection_times": [{"days": "Mon-Fri", "time": "4:30pm"}, {"days": "Sat", "time": "12:00pm"}, {"days": "Sun", "time": "Closed"}], "id": "4352800021", "name": "USPS COLLECTION BOX - APC", "address": {"city": "HOLLAND", "state": "OH", "street": "6923 ANGOLA RD", "postcode": "43528"}}},
{"geometry": {"type": "Point", "coordinates": [-83.7843793316, 41.1904215619]}, "type": "Feature", "properties": {"collection_times": [{"days": "Mon-Fri", "time": "4:15pm"}, {"days": "Sat", "time": "11:15am"}, {"days": "Sun", "time": "Closed"}], "id": "4352900000", "name": "USPS COLLECTION BOX - PO LOBBY", "address": {"city": "HOYTVILLE", "state": "OH", "street": "2521 N MAIN ST", "postcode": "43529"}}},
{"geometry": {"type": "Point", "coordinates": [-83.7843793316, 41.1904215619]}, "type": "Feature", "properties": {"collection_times": [{"days": "Mon-Fri", "time": "4:15pm"}, {"days": "Sat", "time": "11:15am"}, {"days": "Sun", "time": "Closed"}], "id": "4352900001", "name": "USPS COLLECTION BOX - BLUE BOX", "address": {"city": "HOYTVILLE", "state": "OH", "street": "2521 N MAIN ST", "postcode": "43529"}}},
{"geometry": {"type": "Point", "coordinates": [-84.3599206433, 41.2859359439]}, "type": "Feature", "properties": {"collection_times": [{"days": "Mon-Fri", "time": "3:45pm"}, {"days": "Sat", "time": "11:15am"}, {"days": "Sun", "time": "Closed"}], "id": "4353000000", "name": "USPS COLLECTION BOX - BLUE BOX", "address": {"city": "JEWELL", "state": "OH", "street": "7852 INDEPENDENCE RD", "postcode": "43530"}}},
{"geometry": {"type": "Point", "coordinates": [-84.3599206433, 41.2859359439]}, "type": "Feature", "properties": {"collection_times": [{"days": "Mon-Fri", "time": "3:45pm"}, {"days": "Sat", "time": "11:15am"}, {"days": "Sun", "time": "Closed"}], "id": "4353000001", "name": "USPS COLLECTION BOX - PO LOBBY", "address": {"city": "JEWELL", "state": "OH", "street": "7852 INDEPENDENCE RD", "postcode": "43530"}}},
{"geometry": {"type": "Point", "coordinates": [-84.4952262624, 41.6366894023]}, "type": "Feature", "properties": {"collection_times": [{"days": "Mon-Fri", "time": "3:30pm"}, {"days": "Sat", "time": "11:30am"}, {"days": "Sun", "time": "Closed"}], "id": "4353100000", "name": "USPS COLLECTION BOX - PO LOBBY", "address": {"city": "KUNKLE", "state": "OH", "street": "104 E ANGOLA ST", "postcode": "43531"}}},
{"geometry": {"type": "Point", "coordinates": [-84.4952262624, 41.6366894023]}, "type": "Feature", "properties": {"collection_times": [{"days": "Mon-Fri", "time": "3:30pm"}, {"days": "Sat", "time": "11:30am"}, {"days": "Sun", "time": "Closed"}], "id": "4353100001", "name": "USPS COLLECTION BOX - BLUE BOX", "address": {"city": "KUNKLE", "state": "OH", "street": "104 E ANGOLA ST", "postcode": "43531"}}},
{"geometry": {"type": "Point", "coordinates": [-84.0071539884, 41.4431479166]}, "type": "Feature", "properties": {"collection_times": [{"days": "Mon-Fri", "time": "4:00pm"}, {"days": "Sat", "time": "12:15pm"}, {"days": "Sun", "time": "Closed"}], "id": "4353200000", "name": "USPS COLLECTION BOX - PO LOBBY", "address": {"city": "LIBERTY CENTER", "state": "OH", "street": "109 EAST ST", "postcode": "43532"}}},
{"geometry": {"type": "Point", "coordinates": [-84.0071539884, 41.4431479166]}, "type": "Feature", "properties": {"collection_times": [{"days": "Mon-Fri", "time": "4:00pm"}, {"days": "Sat", "time": "12:15pm"}, {"days": "Sun", "time": "Closed"}], "id": "4353200001", "name": "USPS COLLECTION BOX - BLUE BOX", "address": {"city": "LIBERTY CENTER", "state": "OH", "street": "109 EAST ST", "postcode": "43532"}}},
{"geometry": {"type": "Point", "coordinates": [-84.0707899835, 41.6995202643]}, "type": "Feature", "properties": {"collection_times": [{"days": "Mon-Fri", "time": "4:15pm"}, {"days": "Sat", "time": "12:00pm"}, {"days": "Sun", "time": "Closed"}], "id": "4353300000", "name": "USPS COLLECTION BOX - BLUE BOX", "address": {"city": "LYONS", "state": "OH", "street": "105 N ADRIAN ST", "postcode": "43533"}}},
{"geometry": {"type": "Point", "coordinates": [-84.0707899835, 41.6995202643]}, "type": "Feature", "properties": {"collection_times": [{"days": "Mon-Fri", "time": "3:00pm"}, {"days": "Sat", "time": "12:00pm"}, {"days": "Sun", "time": "Closed"}], "id": "4353300001", "name": "USPS COLLECTION BOX - PO LOBBY", "address": {"city": "LYONS", "state": "OH", "street": "105 N ADRIAN ST", "postcode": "43533"}}},
{"geometry": {"type": "Point", "coordinates": [-83.9414568558, 41.3706341814]}, "type": "Feature", "properties": {"collection_times": [{"days": "Mon-Fri", "time": "1:00pm"}, {"days": "Sat", "time": "11:45am"}, {"days": "Sun", "time": "Closed"}], "id": "4353400000", "name": "USPS COLLECTION BOX - BLUE BOX", "address": {"city": "MCCLURE", "state": "OH", "street": "232 S EAST ST", "postcode": "43534"}}},
{"geometry": {"type": "Point", "coordinates": [-83.9349186888, 41.3714819121]}, "type": "Feature", "properties": {"collection_times": [{"days": "Mon-Fri", "time": "1:00pm"}, {"days": "Sat", "time": "11:45am"}, {"days": "Sun", "time": "Closed"}], "id": "4353400001", "name": "USPS COLLECTION BOX - PO LOBBY", "address": {"city": "MCCLURE", "state": "OH", "street": "232 S EAST ST", "postcode": "43534"}}},
{"geometry": {"type": "Point", "coordinates": [-84.037614775, 41.3235668548]}, "type": "Feature", "properties": {"collection_times": [{"days": "Mon-Fri", "time": "4:00pm"}, {"days": "Sat", "time": "11:30am"}, {"days": "Sun", "time": "Closed"}], "id": "4353500000", "name": "USPS COLLECTION BOX - BLUE BOX", "address": {"city": "MALINTA", "state": "OH", "street": "110 N TURKEYFOOT AVE", "postcode": "43535"}}},
{"geometry": {"type": "Point", "coordinates": [-84.037614775, 41.3235668548]}, "type": "Feature", "properties": {"collection_times": [{"days": "Mon-Fri", "time": "4:00pm"}, {"days": "Sat", "time": "11:30am"}, {"days": "Sun", "time": "Closed"}], "id": "4353500001", "name": "USPS COLLECTION BOX - PO LOBBY", "address": {"city": "MALINTA", "state": "OH", "street": "110 N TURKEYFOOT AVE", "postcode": "43535"}}},
{"geometry": {"type": "Point", "coordinates": [-84.630721827, 41.288579978]}, "type": "Feature", "properties": {"collection_times": [{"days": "Mon-Fri", "time": "4:00pm"}, {"days": "Sat", "time": "1:00pm"}, {"days": "Sun", "time": "Closed"}], "id": "4353600000", "name": "USPS COLLECTION BOX - BLUE BOX", "address": {"city": "MARK CENTER", "state": "OH", "street": "10577 FARMER MARK RD", "postcode": "43536"}}},
{"geometry": {"type": "Point", "coordinates": [-84.630721827, 41.288579978]}, "type": "Feature", "properties": {"collection_times": [{"days": "Mon-Fri", "time": "4:00pm"}, {"days": "Sat", "time": "1:00pm"}, {"days": "Sun", "time": "Closed"}], "id": "4353600001", "name": "USPS COLLECTION BOX - PO LOBBY", "address": {"city": "MARK CENTER", "state": "OH", "street": "10577 FARMER MARK RD", "postcode": "43536"}}},
{"geometry": {"type": "Point", "coordinates": [-83.6301709754, 41.5771003047]}, "type": "Feature", "properties": {"collection_times": [{"days": "Mon-Sat", "time": "9:00am"}, {"days": "Sun", "time": "Closed"}], "id": "4353700011", "name": "USPS COLLECTION BOX - BLUE BOX", "address": {"city": "MAUMEE", "state": "OH", "street": "933 MICHIGAN AVE", "postcode": "43537"}}},
{"geometry": {"type": "Point", "coordinates": [-83.6838594845, 41.5944309217]}, "type": "Feature", "properties": {"collection_times": [{"days": "Mon-Fri", "time": "9:30am"}, {"days": "Sat", "time": "9:00am"}, {"days": "Sun", "time": "Closed"}], "id": "4353700017", "name": "USPS COLLECTION BOX - BLUE BOX", "address": {"city": "MAUMEE", "state": "OH", "street": "2510 PERRYSBURG HOLLAND RD", "postcode": "43537"}}},
{"geometry": {"type": "Point", "coordinates": [-83.6645133736, 41.5799621506]}, "type": "Feature", "properties": {"collection_times": [{"days": "Mon-Sat", "time": "9:00am"}, {"days": "Sun", "time": "Closed"}], "id": "4353700023", "name": "USPS COLLECTION BOX - BLUE BOX", "address": {"city": "MAUMEE", "state": "OH", "street": "1391 CONANT ST", "postcode": "43537"}}},
{"geometry": {"type": "Point", "coordinates": [-83.6786132941, 41.5587074232]}, "type": "Feature", "properties": {"collection_times": [{"days": "Mon-Sat", "time": "10:00am"}, {"days": "Sun", "time": "Closed"}], "id": "4353700028", "name": "USPS COLLECTION BOX - BLUE BOX", "address": {"city": "MAUMEE", "state": "OH", "street": "5757 MONCLOVA RD", "postcode": "43537"}}},
{"geometry": {"type": "Point", "coordinates": [-83.6876078921, 41.6113298711]}, "type": "Feature", "properties": {"collection_times": [{"days": "Mon-Fri", "time": "9:30am"}, {"days": "Sat", "time": "8:30am"}, {"days": "Sun", "time": "Closed"}], "id": "4353700033", "name": "USPS COLLECTION BOX - BLUE BOX", "address": {"city": "MAUMEE", "state": "OH", "street": "1628 HENTHORNE DR", "postcode": "43537"}}},
{"geometry": {"type": "Point", "coordinates": [-83.6897847594, 41.5813140511]}, "type": "Feature", "properties": {"collection_times": [{"days": "Mon-Fri", "time": "10:00am"}, {"days": "Sat", "time": "9:00am"}, {"days": "Sun", "time": "Closed"}], "id": "4353700060", "name": "USPS COLLECTION BOX - BLUE BOX", "address": {"city": "MAUMEE", "state": "OH", "street": "599 W DUSSEL DR", "postcode": "43537"}}},
{"geometry": {"type": "Point", "coordinates": [-83.6809194461, 41.5888907349]}, "type": "Feature", "properties": {"collection_times": [{"days": "Mon-Fri", "time": "9:00am"}, {"days": "Sat", "time": "8:30am"}, {"days": "Sun", "time": "Closed"}], "id": "4353700064", "name": "USPS COLLECTION BOX - BLUE BOX", "address": {"city": "MAUMEE", "state": "OH", "street": "1705 INDIANWOOD CIR", "postcode": "43537"}}},
{"geometry": {"type": "Point", "coordinates": [-83.6540559365, 41.5630047724]}, "type": "Feature", "properties": {"collection_times": [{"days": "Mon-Fri", "time": "10:30am"}, {"days": "Sat", "time": "9:00am"}, {"days": "Sun", "time": "Closed"}], "id": "4353700065", "name": "USPS COLLECTION BOX - BLUE BOX", "address": {"city": "MAUMEE", "state": "OH", "street": "415 CONANT ST", "postcode": "43537"}}},
{"geometry": {"type": "Point", "coordinates": [-83.6820752296, 41.5587064009]}, "type": "Feature", "properties": {"collection_times": [{"days": "Mon-Sat", "time": "10:00am"}, {"days": "Sun", "time": "Closed"}], "id": "4353700079", "name": "USPS COLLECTION BOX - BLUE BOX", "address": {"city": "MAUMEE", "state": "OH", "street": "5901 MONCLOVA RD", "postcode": "43537"}}},
{"geometry": {"type": "Point", "coordinates": [-83.6769209619, 41.5587153135]}, "type": "Feature", "properties": {"collection_times": [{"days": "Mon-Sat", "time": "10:00am"}, {"days": "Sun", "time": "Closed"}], "id": "4353700081", "name": "USPS COLLECTION BOX - BLUE BOX", "address": {"city": "MAUMEE", "state": "OH", "street": "5705 MONCLOVA RD", "postcode": "43537"}}},
{"geometry": {"type": "Point", "coordinates": [-83.67899, 41.577362]}, "type": "Feature", "properties": {"collection_times": [{"days": "Mon-Fri", "time": "5:00pm"}, {"days": "Sat", "time": "3:00pm"}, {"days": "Sun", "time": "Closed"}], "id": "4353700082", "name": "USPS COLLECTION BOX - BLUE BOX", "address": {"city": "MAUMEE", "state": "OH", "street": "1375 FORD ST", "postcode": "43537"}}},
{"geometry": {"type": "Point", "coordinates": [-83.6775596681, 41.5806026818]}, "type": "Feature", "properties": {"collection_times": [{"days": "Mon-Fri", "time": "5:00pm"}, {"days": "Sat", "time": "3:00pm"}, {"days": "Sun", "time": "Closed"}], "id": "4353700083", "name": "USPS COLLECTION BOX - EXPRESS", "address": {"city": "MAUMEE", "state": "OH", "street": "1375 FORD ST", "postcode": "43537"}}},
{"geometry": {"type": "Point", "coordinates": [-83.6785075927, 41.5766261069]}, "type": "Feature", "properties": {"collection_times": [{"days": "Mon-Fri", "time": "5:00pm"}, {"days": "Sat", "time": "3:00pm"}, {"days": "Sun", "time": "Closed"}], "id": "4353700084", "name": "USPS COLLECTION BOX - BLUE BOX", "address": {"city": "MAUMEE", "state": "OH", "street": "1375 FORD ST", "postcode": "43537"}}},
{"geometry": {"type": "Point", "coordinates": [-83.6785075927, 41.5766261069]}, "type": "Feature", "properties": {"collection_times": [{"days": "Mon-Fri", "time": "5:00pm"}, {"days": "Sat", "time": "3:00pm"}, {"days": "Sun", "time": "Closed"}], "id": "4353700085", "name": "USPS COLLECTION BOX - PO LOBBY", "address": {"city": "MAUMEE", "state": "OH", "street": "1375 FORD ST", "postcode": "43537"}}},
{"geometry": {"type": "Point", "coordinates": [-83.6785075927, 41.5766261069]}, "type": "Feature", "properties": {"collection_times": [{"days": "Mon-Fri", "time": "5:00pm"}, {"days": "Sat", "time": "3:00pm"}, {"days": "Sun", "time": "Closed"}], "id": "4353700086", "name": "USPS COLLECTION BOX - PO LOBBY", "address": {"city": "MAUMEE", "state": "OH", "street": "1375 FORD ST", "postcode": "43537"}}},
{"geometry": {"type": "Point", "coordinates": [-83.6785075927, 41.5766261069]}, "type": "Feature", "properties": {"collection_times": [{"days": "Mon-Fri", "time": "5:00pm"}, {"days": "Sat", "time": "3:00pm"}, {"days": "Sun", "time": "Closed"}], "id": "4353700091", "name": "USPS COLLECTION BOX - APC", "address": {"city": "MAUMEE", "state": "OH", "street": "1375 FORD ST", "postcode": "43537"}}},
{"geometry": {"type": "Point", "coordinates": [-83.6866816651, 41.5736719038]}, "type": "Feature", "properties": {"collection_times": [{"days": "Mon-Fri", "time": "10:45am"}, {"days": "Sat", "time": "9:00am"}, {"days": "Sun", "time": "Closed"}], "id": "4353700093", "name": "USPS COLLECTION BOX - BLUE BOX", "address": {"city": "MAUMEE", "state": "OH", "street": "3100 MAIN ST", "postcode": "43537"}}},
{"geometry": {"type": "Point", "coordinates": [-83.6958387388, 41.5801149047]}, "type": "Feature", "properties": {"collection_times": [{"days": "Mon-Fri", "time": "10:45am"}, {"days": "Sat", "time": "9:00am"}, {"days": "Sun", "time": "Closed"}], "id": "4353700094", "name": "USPS COLLECTION BOX - BLUE BOX", "address": {"city": "MAUMEE", "state": "OH", "street": "3355 BRIARFIELD BLVD", "postcode": "43537"}}},
{"geometry": {"type": "Point", "coordinates": [-83.9104897911, 41.7117289388]}, "type": "Feature", "properties": {"collection_times": [{"days": "Mon-Fri", "time": "3:00pm"}, {"days": "Sat", "time": "11:45am"}, {"days": "Sun", "time": "Closed"}], "id": "4354000000", "name": "USPS COLLECTION BOX - PO LOBBY", "address": {"city": "METAMORA", "state": "OH", "street": "107 W MAIN ST", "postcode": "43540"}}},
{"geometry": {"type": "Point", "coordinates": [-83.9104897911, 41.7117289388]}, "type": "Feature", "properties": {"collection_times": [{"days": "Mon-Fri", "time": "4:15pm"}, {"days": "Sat", "time": "11:45am"}, {"days": "Sun", "time": "Closed"}], "id": "4354000001", "name": "USPS COLLECTION BOX - BLUE BOX", "address": {"city": "METAMORA", "state": "OH", "street": "107 W MAIN ST", "postcode": "43540"}}},
{"geometry": {"type": "Point", "coordinates": [-83.8308054424, 41.2991895437]}, "type": "Feature", "properties": {"collection_times": [{"days": "Mon-Sat", "time": "11:00am"}, {"days": "Sun", "time": "Closed"}], "id": "4354100002", "name": "USPS COLLECTION BOX - BLUE BOX", "address": {"city": "MILTON CENTER", "state": "OH", "street": "10106 SUGAR ST", "postcode": "43541"}}},
{"geometry": {"type": "Point", "coordinates": [-83.7333268509, 41.5587334588]}, "type": "Feature", "properties": {"collection_times": [{"days": "Mon-Fri", "time": "4:00pm"}, {"days": "Sat", "time": "12:00pm"}, {"days": "Sun", "time": "Closed"}], "id": "4354200000", "name": "USPS COLLECTION BOX - BLUE BOX", "address": {"city": "MONCLOVA", "state": "OH", "street": "7959 MONCLOVA RD", "postcode": "43542"}}},
{"geometry": {"type": "Point", "coordinates": [-83.7333268509, 41.5587334588]}, "type": "Feature", "properties": {"collection_times": [{"days": "Mon-Fri", "time": "4:00pm"}, {"days": "Sat", "time": "12:00pm"}, {"days": "Sun", "time": "Closed"}], "id": "4354200001", "name": "USPS COLLECTION BOX - PO LOBBY", "address": {"city": "MONCLOVA", "state": "OH", "street": "7959 MONCLOVA RD", "postcode": "43542"}}},
{"geometry": {"type": "Point", "coordinates": [-83.7333268509, 41.5587334588]}, "type": "Feature", "properties": {"collection_times": [{"days": "Mon-Fri", "time": "4:00pm"}, {"days": "Sat", "time": "12:00pm"}, {"days": "Sun", "time": "Closed"}], "id": "4354200002", "name": "USPS COLLECTION BOX - BLUE BOX", "address": {"city": "MONCLOVA", "state": "OH", "street": "7959 MONCLOVA RD", "postcode": "43542"}}},
{"geometry": {"type": "Point", "coordinates": [-84.6098510376, 41.5854040676]}, "type": "Feature", "properties": {"collection_times": [{"days": "Mon-Fri", "time": "4:00pm"}, {"days": "Sat", "time": "3:30pm"}, {"days": "Sun", "time": "Closed"}], "id": "4354300002", "name": "USPS COLLECTION BOX - BLUE BOX", "address": {"city": "MONTPELIER", "state": "OH", "street": "209 EMPIRE ST", "postcode": "43543"}}},
{"geometry": {"type": "Point", "coordinates": [-84.6098510376, 41.5854040676]}, "type": "Feature", "properties": {"collection_times": [{"days": "Mon-Fri", "time": "4:00pm"}, {"days": "Sat", "time": "3:30pm"}, {"days": "Sun", "time": "Closed"}], "id": "4354300003", "name": "USPS COLLECTION BOX - PO LOBBY", "address": {"city": "MONTPELIER", "state": "OH", "street": "209 EMPIRE ST", "postcode": "43543"}}},
{"geometry": {"type": "Point", "coordinates": [-84.6393677435, 41.6065872302]}, "type": "Feature", "properties": {"collection_times": [{"days": "Mon-Sat", "time": "12:00pm"}, {"days": "Sun", "time": "Closed"}], "id": "4354300006", "name": "USPS COLLECTION BOX - BLUE BOX", "address": {"city": "MONTPELIER", "state": "OH", "street": "1444 WHITACRE WAY", "postcode": "43543"}}},
{"geometry": {"type": "Point", "coordinates": [-84.6099815711, 41.5865041918]}, "type": "Feature", "properties": {"collection_times": [{"days": "Mon-Sat", "time": "2:30pm"}, {"days": "Sun", "time": "Closed"}], "id": "4354300008", "name": "USPS COLLECTION BOX - BLUE BOX", "address": {"city": "MONTPELIER", "state": "OH", "street": "302 W MAIN ST", "postcode": "43543"}}},
{"geometry": {"type": "Point", "coordinates": [-84.1414911386, 41.4039038205]}, "type": "Feature", "properties": {"collection_times": [{"days": "Mon-Sat", "time": "9:30am"}, {"days": "Sun", "time": "Closed"}], "id": "4354500001", "name": "USPS COLLECTION BOX - BLUE BOX", "address": {"city": "NAPOLEON", "state": "OH", "street": "1 DEVONSHIRE DR", "postcode": "43545"}}},
{"geometry": {"type": "Point", "coordinates": [-84.1002032081, 41.4135261666]}, "type": "Feature", "properties": {"collection_times": [{"days": "Mon-Sat", "time": "10:00am"}, {"days": "Sun", "time": "Closed"}], "id": "4354500003", "name": "USPS COLLECTION BOX - BLUE BOX", "address": {"city": "NAPOLEON", "state": "OH", "street": "481 INDEPENDENCE DR", "postcode": "43545"}}},
{"geometry": {"type": "Point", "coordinates": [-84.1245484995, 41.3911474482]}, "type": "Feature", "properties": {"collection_times": [{"days": "Mon-Fri", "time": "4:30pm"}, {"days": "Sat", "time": "9:00am"}, {"days": "Sun", "time": "Closed"}], "id": "4354500005", "name": "USPS COLLECTION BOX - BLUE BOX", "address": {"city": "NAPOLEON", "state": "OH", "street": "123 E WASHINGTON ST", "postcode": "43545"}}},
{"geometry": {"type": "Point", "coordinates": [-84.1202652763, 41.3864383382]}, "type": "Feature", "properties": {"collection_times": [{"days": "Mon-Sat", "time": "9:00am"}, {"days": "Sun", "time": "Closed"}], "id": "4354500007", "name": "USPS COLLECTION BOX - BLUE BOX", "address": {"city": "NAPOLEON", "state": "OH", "street": "135 E MAUMEE AVE", "postcode": "43545"}}},
{"geometry": {"type": "Point", "coordinates": [-84.1321021572, 41.3973523449]}, "type": "Feature", "properties": {"collection_times": [{"days": "Mon-Sat", "time": "10:30am"}, {"days": "Sun", "time": "Closed"}], "id": "4354500008", "name": "USPS COLLECTION BOX - BLUE BOX", "address": {"city": "NAPOLEON", "state": "OH", "street": "1255 SCOTT ST", "postcode": "43545"}}},
{"geometry": {"type": "Point", "coordinates": [-84.0891771064, 41.4103482843]}, "type": "Feature", "properties": {"collection_times": [{"days": "Mon-Sat", "time": "9:30am"}, {"days": "Sun", "time": "Closed"}], "id": "4354500009", "name": "USPS COLLECTION BOX - BLUE BOX", "address": {"city": "NAPOLEON", "state": "OH", "street": "11644 STATE ROUTE 424", "postcode": "43545"}}},
{"geometry": {"type": "Point", "coordinates": [-84.1263097859, 41.3905366941]}, "type": "Feature", "properties": {"collection_times": [{"days": "Mon-Fri", "time": "5:00pm"}, {"days": "Sat", "time": "3:30pm"}, {"days": "Sun", "time": "Closed"}], "id": "4354500013", "name": "USPS COLLECTION BOX - BLUE BOX", "address": {"city": "NAPOLEON", "state": "OH", "street": "206 W WASHINGTON ST", "postcode": "43545"}}},
{"geometry": {"type": "Point", "coordinates": [-84.1263097859, 41.3905366941]}, "type": "Feature", "properties": {"collection_times": [{"days": "Mon-Fri", "time": "5:00pm"}, {"days": "Sat", "time": "3:30pm"}, {"days": "Sun", "time": "Closed"}], "id": "4354500014", "name": "USPS COLLECTION BOX - BLUE BOX", "address": {"city": "NAPOLEON", "state": "OH", "street": "206 W WASHINGTON ST", "postcode": "43545"}}},
{"geometry": {"type": "Point", "coordinates": [-84.1263097859, 41.3905366941]}, "type": "Feature", "properties": {"collection_times": [{"days": "Mon-Fri", "time": "5:00pm"}, {"days": "Sat", "time": "3:30pm"}, {"days": "Sun", "time": "Closed"}], "id": "4354500015", "name": "USPS COLLECTION BOX - BLUE BOX", "address": {"city": "NAPOLEON", "state": "OH", "street": "206 W WASHINGTON ST", "postcode": "43545"}}},
{"geometry": {"type": "Point", "coordinates": [-84.1263097859, 41.3905366941]}, "type": "Feature", "properties": {"collection_times": [{"days": "Mon-Fri", "time": "5:00pm"}, {"days": "Sat", "time": "3:30pm"}, {"days": "Sun", "time": "Closed"}], "id": "4354500017", "name": "USPS COLLECTION BOX - PO LOBBY", "address": {"city": "NAPOLEON", "state": "OH", "street": "206 W WASHINGTON ST", "postcode": "43545"}}},
{"geometry": {"type": "Point", "coordinates": [-84.1263097859, 41.3905366941]}, "type": "Feature", "properties": {"collection_times": [{"days": "Mon-Fri", "time": "5:00pm"}, {"days": "Sat", "time": "3:30pm"}, {"days": "Sun", "time": "Closed"}], "id": "4354500018", "name": "USPS COLLECTION BOX - PO LOBBY", "address": {"city": "NAPOLEON", "state": "OH", "street": "206 W WASHINGTON ST", "postcode": "43545"}}},
{"geometry": {"type": "Point", "coordinates": [-84.1255408437, 41.3905085624]}, "type": "Feature", "properties": {"collection_times": [{"days": "Mon-Sat", "time": "12:00pm"}, {"days": "Sun", "time": "Closed"}], "id": "4354500019", "name": "USPS COLLECTION BOX - BLUE BOX", "address": {"city": "NAPOLEON", "state": "OH", "street": "2145 COUNTY ROAD 12", "postcode": "43545"}}},
{"geometry": {"type": "Point", "coordinates": [-84.1192658483, 41.4114155306]}, "type": "Feature", "properties": {"collection_times": [{"days": "Mon-Sat", "time": "10:00am"}, {"days": "Sun", "time": "Closed"}], "id": "4354500022", "name": "USPS COLLECTION BOX - BLUE BOX", "address": {"city": "NAPOLEON", "state": "OH", "street": "1853 OAKWOOD AVE", "postcode": "43545"}}},
{"geometry": {"type": "Point", "coordinates": [-84.1263097859, 41.3905366941]}, "type": "Feature", "properties": {"collection_times": [{"days": "Mon-Fri", "time": "5:00pm"}, {"days": "Sat", "time": "3:30pm"}, {"days": "Sun", "time": "Closed"}], "id": "4354500023", "name": "USPS COLLECTION BOX - BLUE BOX", "address": {"city": "NAPOLEON", "state": "OH", "street": "206 W WASHINGTON ST", "postcode": "43545"}}},
{"geometry": {"type": "Point", "coordinates": [-84.1255408437, 41.3905085624]}, "type": "Feature", "properties": {"collection_times": [{"days": "Mon-Sat", "time": "9:30am"}, {"days": "Sun", "time": "Closed"}], "id": "4354500024", "name": "USPS COLLECTION BOX - BLUE BOX", "address": {"city": "NAPOLEON", "state": "OH", "street": "900 AMERICAN RD", "postcode": "43545"}}},
{"geometry": {"type": "Point", "coordinates": [-83.872287336, 41.4906980591]}, "type": "Feature", "properties": {"collection_times": [{"days": "Mon-Fri", "time": "4:45pm"}, {"days": "Sat", "time": "11:45am"}, {"days": "Sun", "time": "Closed"}], "id": "4354700000", "name": "USPS COLLECTION BOX - PO LOBBY", "address": {"city": "NEAPOLIS", "state": "OH", "street": "8250 MAIN ST", "postcode": "43547"}}},
{"geometry": {"type": "Point", "coordinates": [-83.872287336, 41.4906980591]}, "type": "Feature", "properties": {"collection_times": [{"days": "Mon-Fri", "time": "4:45pm"}, {"days": "Sat", "time": "11:45am"}, {"days": "Sun", "time": "Closed"}], "id": "4354700001", "name": "USPS COLLECTION BOX - BLUE BOX", "address": {"city": "NEAPOLIS", "state": "OH", "street": "8250 MAIN ST", "postcode": "43547"}}},
{"geometry": {"type": "Point", "coordinates": [-84.1678927713, 41.2036032302]}, "type": "Feature", "properties": {"collection_times": [{"days": "Mon-Fri", "time": "12:15pm"}, {"days": "Sat", "time": "10:45am"}, {"days": "Sun", "time": "Closed"}], "id": "4354800000", "name": "USPS COLLECTION BOX - BLUE BOX", "address": {"city": "NEW BAVARIA", "state": "OH", "street": "867 WALNUT ST", "postcode": "43548"}}},
{"geometry": {"type": "Point", "coordinates": [-84.1678927713, 41.2036032302]}, "type": "Feature", "properties": {"collection_times": [{"days": "Mon-Fri", "time": "12:15pm"}, {"days": "Sat", "time": "10:45am"}, {"days": "Sun", "time": "Closed"}], "id": "4354800001", "name": "USPS COLLECTION BOX - PO LOBBY", "address": {"city": "NEW BAVARIA", "state": "OH", "street": "867 WALNUT ST", "postcode": "43548"}}},
{"geometry": {"type": "Point", "coordinates": [-84.5226858035, 41.3812276403]}, "type": "Feature", "properties": {"collection_times": [{"days": "Mon-Fri", "time": "4:00pm"}, {"days": "Sat", "time": "11:00am"}, {"days": "Sun", "time": "Closed"}], "id": "4354900000", "name": "USPS COLLECTION BOX - PO LOBBY", "address": {"city": "NEY", "state": "OH", "street": "170 E MAIN ST", "postcode": "43549"}}},
{"geometry": {"type": "Point", "coordinates": [-84.5226858035, 41.3812276403]}, "type": "Feature", "properties": {"collection_times": [{"days": "Mon-Fri", "time": "4:00pm"}, {"days": "Sat", "time": "11:00am"}, {"days": "Sun", "time": "Closed"}], "id": "4354900001", "name": "USPS COLLECTION BOX - PO LOBBY", "address": {"city": "NEY", "state": "OH", "street": "170 E MAIN ST", "postcode": "43549"}}},
{"geometry": {"type": "Point", "coordinates": [-84.5226858035, 41.3812276403]}, "type": "Feature", "properties": {"collection_times": [{"days": "Mon-Fri", "time": "4:00pm"}, {"days": "Sat", "time": "11:00am"}, {"days": "Sun", "time": "Closed"}], "id": "4354900002", "name": "USPS COLLECTION BOX - BLUE BOX", "address": {"city": "NEY", "state": "OH", "street": "170 E MAIN ST", "postcode": "43549"}}},
{"geometry": {"type": "Point", "coordinates": [-84.1267463368, 41.3903592003]}, "type": "Feature", "properties": {"collection_times": [{"days": "Mon-Sat", "time": "10:00am"}, {"days": "Sun", "time": "Closed"}], "id": "4355000001", "name": "USPS COLLECTION BOX - BLUE BOX", "address": {"city": "OKOLONA", "state": "OH", "street": "N012 COUNTY ROAD 17D", "postcode": "43550"}}},
{"geometry": {"type": "Point", "coordinates": [-83.618533448, 41.543118966]}, "type": "Feature", "properties": {"collection_times": [{"days": "Mon-Fri", "time": "5:00pm"}, {"days": "Sat", "time": "3:30pm"}, {"days": "Sun", "time": "Closed"}], "id": "4355100000", "name": "USPS COLLECTION BOX - PO LOBBY", "address": {"city": "PERRYSBURG", "state": "OH", "street": "1205 LOUISIANA AVE", "postcode": "43551"}}},
{"geometry": {"type": "Point", "coordinates": [-83.618533448, 41.543118966]}, "type": "Feature", "properties": {"collection_times": [{"days": "Mon-Fri", "time": "5:00pm"}, {"days": "Sat", "time": "3:30pm"}, {"days": "Sun", "time": "Closed"}], "id": "4355100001", "name": "USPS COLLECTION BOX - PO LOBBY", "address": {"city": "PERRYSBURG", "state": "OH", "street": "1205 LOUISIANA AVE", "postcode": "43551"}}},
{"geometry": {"type": "Point", "coordinates": [-83.4644886939, 41.5047890929]}, "type": "Feature", "properties": {"collection_times": [{"days": "Mon-Sat", "time": "9:00am"}, {"days": "Sun", "time": "Closed"}], "id": "4355100003", "name": "USPS COLLECTION BOX - BLUE BOX", "address": {"city": "PERRYSBURG", "state": "OH", "street": "3561 TRUMAN RD", "postcode": "43551"}}},
{"geometry": {"type": "Point", "coordinates": [-83.464460694, 41.522178548]}, "type": "Feature", "properties": {"collection_times": [{"days": "Mon-Sat", "time": "11:00am"}, {"days": "Sun", "time": "Closed"}], "id": "4355100004", "name": "USPS COLLECTION BOX - BLUE BOX", "address": {"city": "PERRYSBURG", "state": "OH", "street": "3654 LIBBEY RD", "postcode": "43551"}}},
{"geometry": {"type": "Point", "coordinates": [-83.6390157487, 41.5193055653]}, "type": "Feature", "properties": {"collection_times": [{"days": "Mon-Sat", "time": "11:00am"}, {"days": "Sun", "time": "Closed"}], "id": "4355100006", "name": "USPS COLLECTION BOX - BLUE BOX", "address": {"city": "PERRYSBURG", "state": "OH", "street": "25415 WARNS RD", "postcode": "43551"}}},
{"geometry": {"type": "Point", "coordinates": [-83.6046967482, 41.5421792408]}, "type": "Feature", "properties": {"collection_times": [{"days": "Mon-Sat", "time": "12:30pm"}, {"days": "Sun", "time": "Closed"}], "id": "4355100007", "name": "USPS COLLECTION BOX - BLUE BOX", "address": {"city": "PERRYSBURG", "state": "OH", "street": "26741 LAKEVUE DR", "postcode": "43551"}}},
{"geometry": {"type": "Point", "coordinates": [-83.5352822083, 41.56870668]}, "type": "Feature", "properties": {"collection_times": [{"days": "Mon-Sat", "time": "11:00am"}, {"days": "Sun", "time": "Closed"}], "id": "4355100016", "name": "USPS COLLECTION BOX - BLUE BOX", "address": {"city": "PERRYSBURG", "state": "OH", "street": "28878 STARBRIGHT BLVD", "postcode": "43551"}}},
{"geometry": {"type": "Point", "coordinates": [-83.6351174242, 41.5384465286]}, "type": "Feature", "properties": {"collection_times": [{"days": "Mon-Fri", "time": "3:00pm"}, {"days": "Sat", "time": "11:00am"}, {"days": "Sun", "time": "Closed"}], "id": "4355100017", "name": "USPS COLLECTION BOX - BLUE BOX", "address": {"city": "PERRYSBURG", "state": "OH", "street": "26625 DIXIE HWY", "postcode": "43551"}}},
{"geometry": {"type": "Point", "coordinates": [-83.6389034856, 41.5401241847]}, "type": "Feature", "properties": {"collection_times": [{"days": "Mon-Fri", "time": "3:00pm"}, {"days": "Sat", "time": "11:00am"}, {"days": "Sun", "time": "Closed"}], "id": "4355100021", "name": "USPS COLLECTION BOX - BLUE BOX", "address": {"city": "PERRYSBURG", "state": "OH", "street": "900 W SOUTH BOUNDARY ST", "postcode": "43551"}}},
{"geometry": {"type": "Point", "coordinates": [-83.6046894973, 41.5658386524]}, "type": "Feature", "properties": {"collection_times": [{"days": "Mon-Sat", "time": "11:00am"}, {"days": "Sun", "time": "Closed"}], "id": "4355100027", "name": "USPS COLLECTION BOX - BLUE BOX", "address": {"city": "PERRYSBURG", "state": "OH", "street": "1000 VALLEY BLUFF DR", "postcode": "43551"}}},
{"geometry": {"type": "Point", "coordinates": [-83.6161386326, 41.547434328]}, "type": "Feature", "properties": {"collection_times": [{"days": "Mon-Sat", "time": "10:00am"}, {"days": "Sun", "time": "Closed"}], "id": "4355100029", "name": "USPS COLLECTION BOX - BLUE BOX", "address": {"city": "PERRYSBURG", "state": "OH", "street": "1075 LOCUST ST", "postcode": "43551"}}},
{"geometry": {"type": "Point", "coordinates": [-83.6368582763, 41.52758146]}, "type": "Feature", "properties": {"collection_times": [{"days": "Mon-Sat", "time": "1:00pm"}, {"days": "Sun", "time": "Closed"}], "id": "4355100030", "name": "USPS COLLECTION BOX - BLUE BOX", "address": {"city": "PERRYSBURG", "state": "OH", "street": "26020 DIXIE HWY", "postcode": "43551"}}},
{"geometry": {"type": "Point", "coordinates": [-83.6010602172, 41.5546527279]}, "type": "Feature", "properties": {"collection_times": [{"days": "Mon-Fri", "time": "3:00pm"}, {"days": "Sat", "time": "1:30pm"}, {"days": "Sun", "time": "Closed"}], "id": "4355100033", "name": "USPS COLLECTION BOX - BLUE BOX", "address": {"city": "PERRYSBURG", "state": "OH", "street": "100 3 MEADOWS CT", "postcode": "43551"}}},
{"geometry": {"type": "Point", "coordinates": [-83.6010602172, 41.5546527279]}, "type": "Feature", "properties": {"collection_times": [{"days": "Mon-Fri", "time": "3:00pm"}, {"days": "Sat", "time": "1:30pm"}, {"days": "Sun", "time": "Closed"}], "id": "4355100034", "name": "USPS COLLECTION BOX - BLUE BOX", "address": {"city": "PERRYSBURG", "state": "OH", "street": "100 3 MEADOWS CT", "postcode": "43551"}}},
{"geometry": {"type": "Point", "coordinates": [-83.6280794204, 41.5597974321]}, "type": "Feature", "properties": {"collection_times": [{"days": "Mon-Fri", "time": "3:00pm"}, {"days": "Sat", "time": "2:00pm"}, {"days": "Sun", "time": "Closed"}], "id": "4355100041", "name": "USPS COLLECTION BOX - BLUE BOX", "address": {"city": "PERRYSBURG", "state": "OH", "street": "127 E 2ND ST", "postcode": "43551"}}},
{"geometry": {"type": "Point", "coordinates": [-83.6219770687, 41.5620199459]}, "type": "Feature", "properties": {"collection_times": [{"days": "Mon-Sat", "time": "11:00am"}, {"days": "Sun", "time": "Closed"}], "id": "4355100043", "name": "USPS COLLECTION BOX - BLUE BOX", "address": {"city": "PERRYSBURG", "state": "OH", "street": "444 E 2ND ST", "postcode": "43551"}}},
{"geometry": {"type": "Point", "coordinates": [-83.6304938397, 41.5561160638]}, "type": "Feature", "properties": {"collection_times": [{"days": "Mon-Fri", "time": "3:00pm"}, {"days": "Sat", "time": "9:00am"}, {"days": "Sun", "time": "Closed"}], "id": "4355100046", "name": "USPS COLLECTION BOX - BLUE BOX", "address": {"city": "PERRYSBURG", "state": "OH", "street": "201 W INDIANA AVE", "postcode": "43551"}}},
{"geometry": {"type": "Point", "coordinates": [-83.618533448, 41.543118966]}, "type": "Feature", "properties": {"collection_times": [{"days": "Mon-Fri", "time": "5:00pm"}, {"days": "Sat", "time": "3:30pm"}, {"days": "Sun", "time": "Closed"}], "id": "4355100051", "name": "USPS COLLECTION BOX - BLUE BOX", "address": {"city": "PERRYSBURG", "state": "OH", "street": "1205 LOUISIANA AVE", "postcode": "43551"}}},
{"geometry": {"type": "Point", "coordinates": [-83.618533448, 41.543118966]}, "type": "Feature", "properties": {"collection_times": [{"days": "Mon-Fri", "time": "5:00pm"}, {"days": "Sat", "time": "3:30pm"}, {"days": "Sun", "time": "Closed"}], "id": "4355100052", "name": "USPS COLLECTION BOX - EXPRESS", "address": {"city": "PERRYSBURG", "state": "OH", "street": "1205 LOUISIANA AVE", "postcode": "43551"}}},
{"geometry": {"type": "Point", "coordinates": [-83.618533448, 41.543118966]}, "type": "Feature", "properties": {"collection_times": [{"days": "Mon-Fri", "time": "5:00pm"}, {"days": "Sat", "time": "3:30pm"}, {"days": "Sun", "time": "Closed"}], "id": "4355100053", "name": "USPS COLLECTION BOX - BLUE BOX", "address": {"city": "PERRYSBURG", "state": "OH", "street": "1205 LOUISIANA AVE", "postcode": "43551"}}},
{"geometry": {"type": "Point", "coordinates": [-83.5451032404, 41.5630323492]}, "type": "Feature", "properties": {"collection_times": [{"days": "Mon-Fri", "time": "3:00pm"}, {"days": "Sat", "time": "9:00am"}, {"days": "Sun", "time": "Closed"}], "id": "4355100056", "name": "USPS COLLECTION BOX - BLUE BOX", "address": {"city": "PERRYSBURG", "state": "OH", "street": "28360 CEDAR PARK BLVD", "postcode": "43551"}}},
{"geometry": {"type": "Point", "coordinates": [-83.6389034856, 41.5401241847]}, "type": "Feature", "properties": {"collection_times": [{"days": "Mon-Fri", "time": "3:00pm"}, {"days": "Sat", "time": "11:00am"}, {"days": "Sun", "time": "Closed"}], "id": "4355100058", "name": "USPS COLLECTION BOX - BLUE BOX", "address": {"city": "PERRYSBURG", "state": "OH", "street": "900 W SOUTH BOUNDARY ST", "postcode": "43551"}}},
{"geometry": {"type": "Point", "coordinates": [-83.618533448, 41.543118966]}, "type": "Feature", "properties": {"collection_times": [{"days": "Mon-Fri", "time": "5:00pm"}, {"days": "Sat", "time": "3:30pm"}, {"days": "Sun", "time": "Closed"}], "id": "4355100060", "name": "USPS COLLECTION BOX - APC", "address": {"city": "PERRYSBURG", "state": "OH", "street": "1205 LOUISIANA AVE", "postcode": "43551"}}},
{"geometry": {"type": "Point", "coordinates": [-83.5300673408, 41.5771773933]}, "type": "Feature", "properties": {"collection_times": [{"days": "Mon-Sat", "time": "10:00am"}, {"days": "Sun", "time": "Closed"}], "id": "4355100062", "name": "USPS COLLECTION BOX - BLUE BOX", "address": {"city": "PERRYSBURG", "state": "OH", "street": "29181 TRACY CREEK DR", "postcode": "43551"}}},
{"geometry": {"type": "Point", "coordinates": [-83.618533448, 41.543118966]}, "type": "Feature", "properties": {"collection_times": [{"days": "Mon-Fri", "time": "5:00pm"}, {"days": "Sat", "time": "3:30pm"}, {"days": "Sun", "time": "Closed"}], "id": "4355100064", "name": "USPS COLLECTION BOX - BLUE BOX", "address": {"city": "PERRYSBURG", "state": "OH", "street": "1205 LOUISIANA AVE", "postcode": "43551"}}},
{"geometry": {"type": "Point", "coordinates": [-83.618533448, 41.543118966]}, "type": "Feature", "properties": {"collection_times": [{"days": "Mon-Fri", "time": "5:00pm"}, {"days": "Sat", "time": "3:30pm"}, {"days": "Sun", "time": "Closed"}], "id": "4355100065", "name": "USPS COLLECTION BOX - BLUE BOX", "address": {"city": "PERRYSBURG", "state": "OH", "street": "1205 LOUISIANA AVE", "postcode": "43551"}}},
{"geometry": {"type": "Point", "coordinates": [-84.1408071786, 41.549291233]}, "type": "Feature", "properties": {"collection_times": [{"days": "Mon-Fri", "time": "4:30pm"}, {"days": "Sat", "time": "11:00am"}, {"days": "Sun", "time": "Closed"}], "id": "4355300000", "name": "USPS COLLECTION BOX - BLUE BOX", "address": {"city": "PETTISVILLE", "state": "OH", "street": "201 FRONT ST", "postcode": "43553"}}},
{"geometry": {"type": "Point", "coordinates": [-84.1408071786, 41.549291233]}, "type": "Feature", "properties": {"collection_times": [{"days": "Mon-Fri", "time": "4:30pm"}, {"days": "Sat", "time": "11:00am"}, {"days": "Sun", "time": "Closed"}], "id": "4355300001", "name": "USPS COLLECTION BOX - PO LOBBY", "address": {"city": "PETTISVILLE", "state": "OH", "street": "201 FRONT ST", "postcode": "43553"}}},
{"geometry": {"type": "Point", "coordinates": [-84.553564008, 41.6798157153]}, "type": "Feature", "properties": {"collection_times": [{"days": "Mon-Fri", "time": "4:00pm"}, {"days": "Sat", "time": "11:45am"}, {"days": "Sun", "time": "Closed"}], "id": "4355400001", "name": "USPS COLLECTION BOX - BLUE BOX", "address": {"city": "PIONEER", "state": "OH", "street": "105 W 1ST ST", "postcode": "43554"}}},
{"geometry": {"type": "Point", "coordinates": [-84.553564008, 41.6798157153]}, "type": "Feature", "properties": {"collection_times": [{"days": "Mon-Fri", "time": "4:00pm"}, {"days": "Sat", "time": "11:45am"}, {"days": "Sun", "time": "Closed"}], "id": "4355400002", "name": "USPS COLLECTION BOX - PO LOBBY", "address": {"city": "PIONEER", "state": "OH", "street": "105 W 1ST ST", "postcode": "43554"}}},
{"geometry": {"type": "Point", "coordinates": [-84.553564008, 41.6798157153]}, "type": "Feature", "properties": {"collection_times": [{"days": "Mon-Fri", "time": "4:00pm"}, {"days": "Sat", "time": "11:45am"}, {"days": "Sun", "time": "Closed"}], "id": "4355400003", "name": "USPS COLLECTION BOX - PO LOBBY", "address": {"city": "PIONEER", "state": "OH", "street": "105 W 1ST ST", "postcode": "43554"}}},
{"geometry": {"type": "Point", "coordinates": [-84.1268252333, 41.3902911823]}, "type": "Feature", "properties": {"collection_times": [{"days": "Mon-Fri", "time": "4:45pm"}, {"days": "Sat", "time": "11:45am"}, {"days": "Sun", "time": "Closed"}], "id": "4355500000", "name": "USPS COLLECTION BOX - BLUE BOX", "address": {"city": "RIDGEVILLE COR", "state": "OH", "street": "20-348 US 6 & COUNTY RD X", "postcode": "43555"}}},
{"geometry": {"type": "Point", "coordinates": [-84.1268252333, 41.3902911823]}, "type": "Feature", "properties": {"collection_times": [{"days": "Mon-Fri", "time": "5:00pm"}, {"days": "Sat", "time": "12:00pm"}, {"days": "Sun", "time": "Closed"}], "id": "4355500001", "name": "USPS COLLECTION BOX - PO LOBBY", "address": {"city": "RIDGEVILLE COR", "state": "OH", "street": "20-348 US 6 & COUNTY RD X", "postcode": "43555"}}},
{"geometry": {"type": "Point", "coordinates": [-84.553341027, 41.2862708072]}, "type": "Feature", "properties": {"collection_times": [{"days": "Mon-Fri", "time": "2:45pm"}, {"days": "Sat", "time": "12:00pm"}, {"days": "Sun", "time": "Closed"}], "id": "4355600000", "name": "USPS COLLECTION BOX - PO LOBBY", "address": {"city": "SHERWOOD", "state": "OH", "street": "109 N HARRISON ST", "postcode": "43556"}}},
{"geometry": {"type": "Point", "coordinates": [-84.5533408854, 41.2862530995]}, "type": "Feature", "properties": {"collection_times": [{"days": "Mon-Fri", "time": "4:00pm"}, {"days": "Sat", "time": "12:00pm"}, {"days": "Sun", "time": "Closed"}], "id": "4355600001", "name": "USPS COLLECTION BOX - BLUE BOX", "address": {"city": "SHERWOOD", "state": "OH", "street": "107 N HARRISON ST", "postcode": "43556"}}},
{"geometry": {"type": "Point", "coordinates": [-84.4144153629, 41.5038440766]}, "type": "Feature", "properties": {"collection_times": [{"days": "Mon-Fri", "time": "4:00pm"}, {"days": "Sat", "time": "12:00pm"}, {"days": "Sun", "time": "Closed"}], "id": "4355700000", "name": "USPS COLLECTION BOX - PO LOBBY", "address": {"city": "STRYKER", "state": "OH", "street": "114 S DEFIANCE ST", "postcode": "43557"}}},
{"geometry": {"type": "Point", "coordinates": [-84.4144019042, 41.5032635697]}, "type": "Feature", "properties": {"collection_times": [{"days": "Mon-Fri", "time": "4:00pm"}, {"days": "Sat", "time": "12:00pm"}, {"days": "Sun", "time": "Closed"}], "id": "4355700001", "name": "USPS COLLECTION BOX - BLUE BOX", "address": {"city": "STRYKER", "state": "OH", "street": "100 DEPOT ST", "postcode": "43557"}}},
{"geometry": {"type": "Point", "coordinates": [-84.4005309413, 41.4832488833]}, "type": "Feature", "properties": {"collection_times": [{"days": "Mon-Fri", "time": "4:15pm"}, {"days": "Sat", "time": "10:15am"}, {"days": "Sun", "time": "Closed"}], "id": "4355700002", "name": "USPS COLLECTION BOX - BLUE BOX", "address": {"city": "STRYKER", "state": "OH", "street": "1110 S MAIN ST", "postcode": "43557"}}},
{"geometry": {"type": "Point", "coordinates": [-83.882499588, 41.5824818532]}, "type": "Feature", "properties": {"collection_times": [{"days": "Mon-Fri", "time": "4:30pm"}, {"days": "Sat", "time": "3:30pm"}, {"days": "Sun", "time": "Closed"}], "id": "4355800000", "name": "USPS COLLECTION BOX - PO LOBBY", "address": {"city": "SWANTON", "state": "OH", "street": "250 S HALLETT AVE", "postcode": "43558"}}},
{"geometry": {"type": "Point", "coordinates": [-83.882499588, 41.5824818532]}, "type": "Feature", "properties": {"collection_times": [{"days": "Mon-Fri", "time": "4:30pm"}, {"days": "Sat", "time": "3:30pm"}, {"days": "Sun", "time": "Closed"}], "id": "4355800002", "name": "USPS COLLECTION BOX - BLUE BOX", "address": {"city": "SWANTON", "state": "OH", "street": "250 S HALLETT AVE", "postcode": "43558"}}},
{"geometry": {"type": "Point", "coordinates": [-83.8836470582, 41.5810291796]}, "type": "Feature", "properties": {"collection_times": [{"days": "Mon-Sat", "time": "10:00am"}, {"days": "Sun", "time": "Closed"}], "id": "4355800004", "name": "USPS COLLECTION BOX - BLUE BOX", "address": {"city": "SWANTON", "state": "OH", "street": "141 E AIRPORT HWY", "postcode": "43558"}}},
{"geometry": {"type": "Point", "coordinates": [-83.8887929297, 41.5806376202]}, "type": "Feature", "properties": {"collection_times": [{"days": "Mon-Sat", "time": "10:00am"}, {"days": "Sun", "time": "Closed"}], "id": "4355800006", "name": "USPS COLLECTION BOX - BLUE BOX", "address": {"city": "SWANTON", "state": "OH", "street": "113 E AIRPORT HWY", "postcode": "43558"}}},
{"geometry": {"type": "Point", "coordinates": [-83.9351759607, 41.6235387006]}, "type": "Feature", "properties": {"collection_times": [{"days": "Mon-Sat", "time": "12:00pm"}, {"days": "Sun", "time": "Closed"}], "id": "4355800008", "name": "USPS COLLECTION BOX - BLUE BOX", "address": {"city": "SWANTON", "state": "OH", "street": "10487 COUNTY ROAD 4", "postcode": "43558"}}},
{"geometry": {"type": "Point", "coordinates": [-83.8912534843, 41.589263757]}, "type": "Feature", "properties": {"collection_times": [{"days": "Mon-Sat", "time": "9:00am"}, {"days": "Sun", "time": "Closed"}], "id": "4355800009", "name": "USPS COLLECTION BOX - BLUE BOX", "address": {"city": "SWANTON", "state": "OH", "street": "108 N MAIN ST", "postcode": "43558"}}},
{"geometry": {"type": "Point", "coordinates": [-83.8253722201, 41.5988651608]}, "type": "Feature", "properties": {"collection_times": [{"days": "Mon-Sat", "time": "1:00pm"}, {"days": "Sun", "time": "Closed"}], "id": "4355800019", "name": "USPS COLLECTION BOX - BLUE BOX", "address": {"city": "SWANTON", "state": "OH", "street": "2170 S BERKEY SOUTHERN RD", "postcode": "43558"}}},
{"geometry": {"type": "Point", "coordinates": [-83.7920976615, 41.6010423258]}, "type": "Feature", "properties": {"collection_times": [{"days": "Mon-Sat", "time": "10:30am"}, {"days": "Sun", "time": "Closed"}], "id": "4355800023", "name": "USPS COLLECTION BOX - BLUE BOX", "address": {"city": "SWANTON", "state": "OH", "street": "10430 AIRPORT HWY", "postcode": "43558"}}},
{"geometry": {"type": "Point", "coordinates": [-83.882499588, 41.5824818532]}, "type": "Feature", "properties": {"collection_times": [{"days": "Mon-Fri", "time": "4:30pm"}, {"days": "Sat", "time": "3:30pm"}, {"days": "Sun", "time": "Closed"}], "id": "4355800024", "name": "USPS COLLECTION BOX - PO LOBBY", "address": {"city": "SWANTON", "state": "OH", "street": "250 S HALLETT AVE", "postcode": "43558"}}},
{"geometry": {"type": "Point", "coordinates": [-83.6716282664, 41.7180728653]}, "type": "Feature", "properties": {"collection_times": [{"days": "Mon-Fri", "time": "5:00pm"}, {"days": "Sat", "time": "1:45pm"}, {"days": "Sun", "time": "Closed"}], "id": "4356000003", "name": "USPS COLLECTION BOX - BLUE BOX", "address": {"city": "SYLVANIA", "state": "OH", "street": "5745 POST OFFICE WAY", "postcode": "43560"}}},
{"geometry": {"type": "Point", "coordinates": [-83.7141880644, 41.7065513563]}, "type": "Feature", "properties": {"collection_times": [{"days": "Mon-Fri", "time": "5:00pm"}, {"days": "Sat", "time": "1:45pm"}, {"days": "Sun", "time": "Closed"}], "id": "4356000006", "name": "USPS COLLECTION BOX - EXPRESS", "address": {"city": "SYLVANIA", "state": "OH", "street": "5745 POST OFFICE WAY", "postcode": "43560"}}},
{"geometry": {"type": "Point", "coordinates": [-83.6716282664, 41.7180728653]}, "type": "Feature", "properties": {"collection_times": [{"days": "Mon-Fri", "time": "5:00pm"}, {"days": "Sat", "time": "1:45pm"}, {"days": "Sun", "time": "Closed"}], "id": "4356000007", "name": "USPS COLLECTION BOX - BLUE BOX", "address": {"city": "SYLVANIA", "state": "OH", "street": "5745 POST OFFICE WAY", "postcode": "43560"}}},
{"geometry": {"type": "Point", "coordinates": [-83.7141880644, 41.7065513563]}, "type": "Feature", "properties": {"collection_times": [{"days": "Mon-Sat", "time": "9:00am"}, {"days": "Sun", "time": "Closed"}], "id": "4356000008", "name": "USPS COLLECTION BOX - EXPRESS", "address": {"city": "SYLVANIA", "state": "OH", "street": "4900 N MCCORD RD", "postcode": "43560"}}},
{"geometry": {"type": "Point", "coordinates": [-83.7040474662, 41.7040238746]}, "type": "Feature", "properties": {"collection_times": [{"days": "Mon-Sat", "time": "9:00am"}, {"days": "Sun", "time": "Closed"}], "id": "4356000009", "name": "USPS COLLECTION BOX - BLUE BOX", "address": {"city": "SYLVANIA", "state": "OH", "street": "4900 N MCCORD RD", "postcode": "43560"}}},
{"geometry": {"type": "Point", "coordinates": [-83.7141880644, 41.7065513563]}, "type": "Feature", "properties": {"collection_times": [{"days": "Mon-Sat", "time": "10:00am"}, {"days": "Sun", "time": "Closed"}], "id": "4356000010", "name": "USPS COLLECTION BOX - EXPRESS", "address": {"city": "SYLVANIA", "state": "OH", "street": "5800 MONROE ST", "postcode": "43560"}}},
{"geometry": {"type": "Point", "coordinates": [-83.6789928419, 41.7105075655]}, "type": "Feature", "properties": {"collection_times": [{"days": "Mon-Sat", "time": "10:00am"}, {"days": "Sun", "time": "Closed"}], "id": "4356000011", "name": "USPS COLLECTION BOX - BLUE BOX", "address": {"city": "SYLVANIA", "state": "OH", "street": "5800 MONROE ST", "postcode": "43560"}}},
{"geometry": {"type": "Point", "coordinates": [-83.7289213912, 41.7033266067]}, "type": "Feature", "properties": {"collection_times": [{"days": "Mon-Sat", "time": "12:00pm"}, {"days": "Sun", "time": "Closed"}], "id": "4356000015", "name": "USPS COLLECTION BOX - BLUE BOX", "address": {"city": "SYLVANIA", "state": "OH", "street": "7735 COBBLESTONE DR", "postcode": "43560"}}},
{"geometry": {"type": "Point", "coordinates": [-83.7008668431, 41.690290428]}, "type": "Feature", "properties": {"collection_times": [{"days": "Mon-Sat", "time": "1:00pm"}, {"days": "Sun", "time": "Closed"}], "id": "4356000016", "name": "USPS COLLECTION BOX - BLUE BOX", "address": {"city": "SYLVANIA", "state": "OH", "street": "6600 SYLVANIA AVE", "postcode": "43560"}}},
{"geometry": {"type": "Point", "coordinates": [-83.7040001496, 41.7156375248]}, "type": "Feature", "properties": {"collection_times": [{"days": "Mon-Sat", "time": "9:00am"}, {"days": "Sun", "time": "Closed"}], "id": "4356000033", "name": "USPS COLLECTION BOX - BLUE BOX", "address": {"city": "SYLVANIA", "state": "OH", "street": "6730 MONROE ST", "postcode": "43560"}}},
{"geometry": {"type": "Point", "coordinates": [-83.7030603445, 41.7138244983]}, "type": "Feature", "properties": {"collection_times": [{"days": "Mon-Sat", "time": "9:00am"}, {"days": "Sun", "time": "Closed"}], "id": "4356000034", "name": "USPS COLLECTION BOX - BLUE BOX", "address": {"city": "SYLVANIA", "state": "OH", "street": "5517 MAIN ST", "postcode": "43560"}}},
{"geometry": {"type": "Point", "coordinates": [-83.7030202521, 41.7157125239]}, "type": "Feature", "properties": {"collection_times": [{"days": "Mon-Sat", "time": "10:00am"}, {"days": "Sun", "time": "Closed"}], "id": "4356000035", "name": "USPS COLLECTION BOX - BLUE BOX", "address": {"city": "SYLVANIA", "state": "OH", "street": "5604 MAIN ST", "postcode": "43560"}}},
{"geometry": {"type": "Point", "coordinates": [-83.6996920689, 41.7080381408]}, "type": "Feature", "properties": {"collection_times": [{"days": "Mon-Sat", "time": "9:00am"}, {"days": "Sun", "time": "Closed"}], "id": "4356000044", "name": "USPS COLLECTION BOX - BLUE BOX", "address": {"city": "SYLVANIA", "state": "OH", "street": "5151 MAIN ST", "postcode": "43560"}}},
{"geometry": {"type": "Point", "coordinates": [-83.6929052415, 41.7152578129]}, "type": "Feature", "properties": {"collection_times": [{"days": "Mon-Sat", "time": "9:00am"}, {"days": "Sun", "time": "Closed"}], "id": "4356000047", "name": "USPS COLLECTION BOX - BLUE BOX", "address": {"city": "SYLVANIA", "state": "OH", "street": "6235 MONROE ST", "postcode": "43560"}}},
{"geometry": {"type": "Point", "coordinates": [-83.7434967079, 41.7171941133]}, "type": "Feature", "properties": {"collection_times": [{"days": "Mon-Sat", "time": "1:00pm"}, {"days": "Sun", "time": "Closed"}], "id": "4356000050", "name": "USPS COLLECTION BOX - BLUE BOX", "address": {"city": "SYLVANIA", "state": "OH", "street": "8282 ERIE ST", "postcode": "43560"}}},
{"geometry": {"type": "Point", "coordinates": [-83.6798504585, 41.7109699852]}, "type": "Feature", "properties": {"collection_times": [{"days": "Mon-Sat", "time": "9:00am"}, {"days": "Sun", "time": "Closed"}], "id": "4356000052", "name": "USPS COLLECTION BOX - BLUE BOX", "address": {"city": "SYLVANIA", "state": "OH", "street": "5834 MONROE ST", "postcode": "43560"}}},
{"geometry": {"type": "Point", "coordinates": [-83.6716282664, 41.7180728653]}, "type": "Feature", "properties": {"collection_times": [{"days": "Mon-Fri", "time": "5:00pm"}, {"days": "Sat", "time": "1:45pm"}, {"days": "Sun", "time": "Closed"}], "id": "4356000053", "name": "USPS COLLECTION BOX - PO LOBBY", "address": {"city": "SYLVANIA", "state": "OH", "street": "5745 POST OFFICE WAY", "postcode": "43560"}}},
{"geometry": {"type": "Point", "coordinates": [-83.6716282664, 41.7180728653]}, "type": "Feature", "properties": {"collection_times": [{"days": "Mon-Fri", "time": "5:00pm"}, {"days": "Sat", "time": "1:45pm"}, {"days": "Sun", "time": "Closed"}], "id": "4356000054", "name": "USPS COLLECTION BOX - PO LOBBY", "address": {"city": "SYLVANIA", "state": "OH", "street": "5745 POST OFFICE WAY", "postcode": "43560"}}},
{"geometry": {"type": "Point", "coordinates": [-83.6716282664, 41.7180728653]}, "type": "Feature", "properties": {"collection_times": [{"days": "Mon-Fri", "time": "5:00pm"}, {"days": "Sat", "time": "1:45pm"}, {"days": "Sun", "time": "Closed"}], "id": "4356000056", "name": "USPS COLLECTION BOX - PO LOBBY", "address": {"city": "SYLVANIA", "state": "OH", "street": "5745 POST OFFICE WAY", "postcode": "43560"}}},
{"geometry": {"type": "Point", "coordinates": [-83.7243399353, 41.6884653928]}, "type": "Feature", "properties": {"collection_times": [{"days": "Mon-Sat", "time": "1:00pm"}, {"days": "Sun", "time": "Closed"}], "id": "4356000058", "name": "USPS COLLECTION BOX - BLUE BOX", "address": {"city": "SYLVANIA", "state": "OH", "street": "7545 SYLVANIA AVE", "postcode": "43560"}}},
{"geometry": {"type": "Point", "coordinates": [-83.6716282664, 41.7180728653]}, "type": "Feature", "properties": {"collection_times": [{"days": "Mon-Fri", "time": "5:00pm"}, {"days": "Sat", "time": "1:45pm"}, {"days": "Sun", "time": "Closed"}], "id": "4356000060", "name": "USPS COLLECTION BOX - APC", "address": {"city": "SYLVANIA", "state": "OH", "street": "5745 POST OFFICE WAY", "postcode": "43560"}}},
{"geometry": {"type": "Point", "coordinates": [-83.7265515643, 41.6885652757]}, "type": "Feature", "properties": {"collection_times": [{"days": "Mon-Fri", "time": "1:00pm"}, {"days": "Sat", "time": "10:00am"}, {"days": "Sun", "time": "Closed"}], "id": "4356000061", "name": "USPS COLLECTION BOX - BLUE BOX", "address": {"city": "SYLVANIA", "state": "OH", "street": "7640 SYLVANIA AVE", "postcode": "43560"}}},
{"geometry": {"type": "Point", "coordinates": [-83.7398710783, 41.4158868715]}, "type": "Feature", "properties": {"collection_times": [{"days": "Mon-Fri", "time": "4:00pm"}, {"days": "Sat", "time": "11:00am"}, {"days": "Sun", "time": "Closed"}], "id": "4356500000", "name": "USPS COLLECTION BOX - BLUE BOX", "address": {"city": "TONTOGANY", "state": "OH", "street": "17666 KELLOGG RD", "postcode": "43565"}}},
{"geometry": {"type": "Point", "coordinates": [-83.7398710783, 41.4158868715]}, "type": "Feature", "properties": {"collection_times": [{"days": "Mon-Fri", "time": "4:00pm"}, {"days": "Sat", "time": "11:00am"}, {"days": "Sun", "time": "Closed"}], "id": "4356500001", "name": "USPS COLLECTION BOX - PO LOBBY", "address": {"city": "TONTOGANY", "state": "OH", "street": "17666 KELLOGG RD", "postcode": "43565"}}},
{"geometry": {"type": "Point", "coordinates": [-83.7398710783, 41.4158868715]}, "type": "Feature", "properties": {"collection_times": [{"days": "Mon-Fri", "time": "4:00pm"}, {"days": "Sat", "time": "11:00am"}, {"days": "Sun", "time": "Closed"}], "id": "4356500002", "name": "USPS COLLECTION BOX - PO LOBBY", "address": {"city": "TONTOGANY", "state": "OH", "street": "17666 KELLOGG RD", "postcode": "43565"}}},
{"geometry": {"type": "Point", "coordinates": [-83.7199560155, 41.4990827306]}, "type": "Feature", "properties": {"collection_times": [{"days": "Mon-Fri", "time": "4:30pm"}, {"days": "Sat", "time": "2:00pm"}, {"days": "Sun", "time": "Closed"}], "id": "4356600000", "name": "USPS COLLECTION BOX - BLUE BOX", "address": {"city": "WATERVILLE", "state": "OH", "street": "12 S 3RD ST", "postcode": "43566"}}},
{"geometry": {"type": "Point", "coordinates": [-83.7184405898, 41.4994243299]}, "type": "Feature", "properties": {"collection_times": [{"days": "Mon-Sat", "time": "11:00am"}, {"days": "Sun", "time": "Closed"}], "id": "4356600002", "name": "USPS COLLECTION BOX - BLUE BOX", "address": {"city": "WATERVILLE", "state": "OH", "street": "16 N 2ND ST", "postcode": "43566"}}},
{"geometry": {"type": "Point", "coordinates": [-83.725796996, 41.500430947]}, "type": "Feature", "properties": {"collection_times": [{"days": "Mon-Sat", "time": "11:15am"}, {"days": "Sun", "time": "Closed"}], "id": "4356600003", "name": "USPS COLLECTION BOX - BLUE BOX", "address": {"city": "WATERVILLE", "state": "OH", "street": "751 MICHIGAN AVE", "postcode": "43566"}}},
{"geometry": {"type": "Point", "coordinates": [-83.749073681, 41.507057552]}, "type": "Feature", "properties": {"collection_times": [{"days": "Mon-Sat", "time": "12:30pm"}, {"days": "Sun", "time": "Closed"}], "id": "4356600004", "name": "USPS COLLECTION BOX - BLUE BOX", "address": {"city": "WATERVILLE", "state": "OH", "street": "8730 WATERVILLE SWANTON RD", "postcode": "43566"}}},
{"geometry": {"type": "Point", "coordinates": [-83.7199560155, 41.4990827306]}, "type": "Feature", "properties": {"collection_times": [{"days": "Mon-Fri", "time": "4:30pm"}, {"days": "Sat", "time": "2:00pm"}, {"days": "Sun", "time": "Closed"}], "id": "4356600008", "name": "USPS COLLECTION BOX - PO LOBBY", "address": {"city": "WATERVILLE", "state": "OH", "street": "12 S 3RD ST", "postcode": "43566"}}},
{"geometry": {"type": "Point", "coordinates": [-83.7199560155, 41.4990827306]}, "type": "Feature", "properties": {"collection_times": [{"days": "Mon-Fri", "time": "4:30pm"}, {"days": "Sat", "time": "2:00pm"}, {"days": "Sun", "time": "Closed"}], "id": "4356600009", "name": "USPS COLLECTION BOX - PO LOBBY", "address": {"city": "WATERVILLE", "state": "OH", "street": "12 S 3RD ST", "postcode": "43566"}}},
{"geometry": {"type": "Point", "coordinates": [-84.1361319049, 41.5608041302]}, "type": "Feature", "properties": {"collection_times": [{"days": "Mon-Sat", "time": "2:00pm"}, {"days": "Sun", "time": "Closed"}], "id": "4356700006", "name": "USPS COLLECTION BOX - BLUE BOX", "address": {"city": "WAUSEON", "state": "OH", "street": "415 COLE ST", "postcode": "43567"}}},
{"geometry": {"type": "Point", "coordinates": [-84.1526110605, 41.5707536114]}, "type": "Feature", "properties": {"collection_times": [{"days": "Mon-Sat", "time": "12:00pm"}, {"days": "Sun", "time": "Closed"}], "id": "4356700011", "name": "USPS COLLECTION BOX - BLUE BOX", "address": {"city": "WAUSEON", "state": "OH", "street": "485 AIRPORT HWY", "postcode": "43567"}}},
{"geometry": {"type": "Point", "coordinates": [-84.1406676773, 41.5465154793]}, "type": "Feature", "properties": {"collection_times": [{"days": "Mon-Sat", "time": "3:00pm"}, {"days": "Sun", "time": "Closed"}], "id": "4356700015", "name": "USPS COLLECTION BOX - BLUE BOX", "address": {"city": "WAUSEON", "state": "OH", "street": "224 S FULTON ST", "postcode": "43567"}}},
{"geometry": {"type": "Point", "coordinates": [-84.1413073503, 41.5484635023]}, "type": "Feature", "properties": {"collection_times": [{"days": "Mon-Sat", "time": "3:00pm"}, {"days": "Sun", "time": "Closed"}], "id": "4356700016", "name": "USPS COLLECTION BOX - BLUE BOX", "address": {"city": "WAUSEON", "state": "OH", "street": "123 S FULTON ST", "postcode": "43567"}}},
{"geometry": {"type": "Point", "coordinates": [-84.1407206027, 41.5493187816]}, "type": "Feature", "properties": {"collection_times": [{"days": "Mon-Fri", "time": "4:30pm"}, {"days": "Sat", "time": "1:45pm"}, {"days": "Sun", "time": "Closed"}], "id": "4356700017", "name": "USPS COLLECTION BOX - BLUE BOX", "address": {"city": "WAUSEON", "state": "OH", "street": "117 E ELM ST", "postcode": "43567"}}},
{"geometry": {"type": "Point", "coordinates": [-84.1407206027, 41.5493187816]}, "type": "Feature", "properties": {"collection_times": [{"days": "Mon-Fri", "time": "4:30pm"}, {"days": "Sat", "time": "1:45pm"}, {"days": "Sun", "time": "Closed"}], "id": "4356700018", "name": "USPS COLLECTION BOX - BLUE BOX", "address": {"city": "WAUSEON", "state": "OH", "street": "117 E ELM ST", "postcode": "43567"}}},
{"geometry": {"type": "Point", "coordinates": [-84.1406318808, 41.5493329771]}, "type": "Feature", "properties": {"collection_times": [{"days": "Mon-Fri", "time": "4:30pm"}, {"days": "Sat", "time": "3:30pm"}, {"days": "Sun", "time": "Closed"}], "id": "4356700021", "name": "USPS COLLECTION BOX - PO LOBBY", "address": {"city": "WAUSEON", "state": "OH", "street": "124 E ELM ST", "postcode": "43567"}}},
{"geometry": {"type": "Point", "coordinates": [-84.1343905893, 41.5546562925]}, "type": "Feature", "properties": {"collection_times": [{"days": "Mon-Sat", "time": "10:00am"}, {"days": "Sun", "time": "Closed"}], "id": "4356700023", "name": "USPS COLLECTION BOX - BLUE BOX", "address": {"city": "WAUSEON", "state": "OH", "street": "604 S SHOOP AVE", "postcode": "43567"}}},
{"geometry": {"type": "Point", "coordinates": [-84.1406318808, 41.5493329771]}, "type": "Feature", "properties": {"collection_times": [{"days": "Mon-Fri", "time": "4:30pm"}, {"days": "Sat", "time": "3:30pm"}, {"days": "Sun", "time": "Closed"}], "id": "4356700025", "name": "USPS COLLECTION BOX - PO LOBBY", "address": {"city": "WAUSEON", "state": "OH", "street": "124 E ELM ST", "postcode": "43567"}}},
{"geometry": {"type": "Point", "coordinates": [-83.795245572, 41.343543384]}, "type": "Feature", "properties": {"collection_times": [{"days": "Mon-Fri", "time": "4:15pm"}, {"days": "Sat", "time": "12:00pm"}, {"days": "Sun", "time": "Closed"}], "id": "4356900000", "name": "USPS COLLECTION BOX - BLUE BOX", "address": {"city": "WESTON", "state": "OH", "street": "13172 MAIN ST", "postcode": "43569"}}},
{"geometry": {"type": "Point", "coordinates": [-83.795245572, 41.343543384]}, "type": "Feature", "properties": {"collection_times": [{"days": "Mon-Fri", "time": "4:15pm"}, {"days": "Sat", "time": "12:00pm"}, {"days": "Sun", "time": "Closed"}], "id": "4356900001", "name": "USPS COLLECTION BOX - PO LOBBY", "address": {"city": "WESTON", "state": "OH", "street": "13172 MAIN ST", "postcode": "43569"}}},
{"geometry": {"type": "Point", "coordinates": [-84.4337230143, 41.5865351146]}, "type": "Feature", "properties": {"collection_times": [{"days": "Mon-Fri", "time": "3:45pm"}, {"days": "Sat", "time": "11:45am"}, {"days": "Sun", "time": "Closed"}], "id": "4357000003", "name": "USPS COLLECTION BOX - PO LOBBY", "address": {"city": "WEST UNITY", "state": "OH", "street": "115 E JACKSON ST", "postcode": "43570"}}},
{"geometry": {"type": "Point", "coordinates": [-84.4337230143, 41.5865351146]}, "type": "Feature", "properties": {"collection_times": [{"days": "Mon-Fri", "time": "3:45pm"}, {"days": "Sat", "time": "11:45am"}, {"days": "Sun", "time": "Closed"}], "id": "4357000004", "name": "USPS COLLECTION BOX - BLUE BOX", "address": {"city": "WEST UNITY", "state": "OH", "street": "115 E JACKSON ST", "postcode": "43570"}}},
{"geometry": {"type": "Point", "coordinates": [-83.8029319196, 41.5162435485]}, "type": "Feature", "properties": {"collection_times": [{"days": "Mon-Fri", "time": "4:30pm"}, {"days": "Sat", "time": "12:00pm"}, {"days": "Sun", "time": "Closed"}], "id": "4357100000", "name": "USPS COLLECTION BOX - PO LOBBY", "address": {"city": "WHITEHOUSE", "state": "OH", "street": "6822 PROVIDENCE ST", "postcode": "43571"}}},
{"geometry": {"type": "Point", "coordinates": [-83.8029319196, 41.5162435485]}, "type": "Feature", "properties": {"collection_times": [{"days": "Mon-Fri", "time": "4:30pm"}, {"days": "Sat", "time": "12:00pm"}, {"days": "Sun", "time": "Closed"}], "id": "4357100002", "name": "USPS COLLECTION BOX - BLUE BOX", "address": {"city": "WHITEHOUSE", "state": "OH", "street": "6822 PROVIDENCE ST", "postcode": "43571"}}},
{"geometry": {"type": "Point", "coordinates": [-83.7834171875, 41.5347253997]}, "type": "Feature", "properties": {"collection_times": [{"days": "Mon-Sat", "time": "10:15am"}, {"days": "Sun", "time": "Closed"}], "id": "4357100004", "name": "USPS COLLECTION BOX - BLUE BOX", "address": {"city": "WHITEHOUSE", "state": "OH", "street": "5917 WECKERLY RD", "postcode": "43571"}}}
]}
