{"type": "FeatureCollection", "features": [
{"geometry": {"type": "Point", "coordinates": [-83.5456922433, 41.6413009389]}, "type": "Feature", "properties": {"collection_times": [{"days": "Mon-Fri", "time": "5:30pm"}, {"days": "Sat", "time": "5:00pm"}, {"days": "Sun", "time": "Closed"}], "id": "4360100000", "name": "USPS COLLECTION BOX - BLUE BOX", "address": {"city": "TOLEDO", "state": "OH", "street": "435 S SAINT CLAIR ST", "postcode": "43601"}}},
{"geometry": {"type": "Point", "coordinates": [-83.5456922433, 41.6413009389]}, "type": "Feature", "properties": {"collection_times": [{"days": "Mon-Fri", "time": "5:30pm"}, {"days": "Sat", "time": "5:00pm"}, {"days": "Sun", "time": "Closed"}], "id": "4360100001", "name": "USPS COLLECTION BOX - BLUE BOX", "address": {"city": "TOLEDO", "state": "OH", "street": "435 S SAINT CLAIR ST", "postcode": "43601"}}},
{"geometry": {"type": "Point", "coordinates": [-83.5456922433, 41.6413009389]}, "type": "Feature", "properties": {"collection_times": [{"days": "Mon-Fri", "time": "5:30pm"}, {"days": "Sat", "time": "5:00pm"}, {"days": "Sun", "time": "Closed"}], "id": "4360100002", "name": "USPS COLLECTION BOX - BLUE BOX", "address": {"city": "TOLEDO", "state": "OH", "street": "435 S SAINT CLAIR ST", "postcode": "43601"}}},
{"geometry": {"type": "Point", "coordinates": [-83.5449587902, 41.6417021492]}, "type": "Feature", "properties": {"collection_times": [{"days": "Mon-Fri", "time": "5:30pm"}, {"days": "Sat", "time": "5:00pm"}, {"days": "Sun", "time": "Closed"}], "id": "4360100003", "name": "USPS COLLECTION BOX - EXPRESS", "address": {"city": "TOLEDO", "state": "OH", "street": "435 S SAINT CLAIR ST", "postcode": "43601"}}},
{"geometry": {"type": "Point", "coordinates": [-83.5456922433, 41.6413009389]}, "type": "Feature", "properties": {"collection_times": [{"days": "Mon-Fri", "time": "5:30pm"}, {"days": "Sat-Sun", "time": "Closed"}], "id": "4360100006", "name": "USPS COLLECTION BOX - PO LOBBY", "address": {"city": "TOLEDO", "state": "OH", "street": "435 S SAINT CLAIR ST", "postcode": "43601"}}},
{"geometry": {"type": "Point", "coordinates": [-83.5456922433, 41.6413009389]}, "type": "Feature", "properties": {"collection_times": [{"days": "Mon-Fri", "time": "5:30pm"}, {"days": "Sat-Sun", "time": "Closed"}], "id": "4360100007", "name": "USPS COLLECTION BOX - PO LOBBY", "address": {"city": "TOLEDO", "state": "OH", "street": "435 S SAINT CLAIR ST", "postcode": "43601"}}},
{"geometry": {"type": "Point", "coordinates": [-83.5456922433, 41.6413009389]}, "type": "Feature", "properties": {"collection_times": [{"days": "Mon-Fri", "time": "5:30pm"}, {"days": "Sat-Sun", "time": "Closed"}], "id": "4360100008", "name": "USPS COLLECTION BOX - PO LOBBY", "address": {"city": "TOLEDO", "state": "OH", "street": "435 S SAINT CLAIR ST", "postcode": "43601"}}},
{"geometry": {"type": "Point", "coordinates": [-83.5450135284, 41.6417100778]}, "type": "Feature", "properties": {"collection_times": [{"days": "Mon-Fri", "time": "5:30pm"}, {"days": "Sat", "time": "5:00pm"}, {"days": "Sun", "time": "Closed"}], "id": "4360100017", "name": "USPS COLLECTION BOX - BLUE BOX", "address": {"city": "TOLEDO", "state": "OH", "street": "435 S SAINT CLAIR ST", "postcode": "43601"}}},
{"geometry": {"type": "Point", "coordinates": [-83.5366662664, 41.6540071011]}, "type": "Feature", "properties": {"collection_times": [{"days": "Mon-Fri", "time": "11:30am"}, {"days": "Sat", "time": "10:15am"}, {"days": "Sun", "time": "Closed"}], "id": "4360400038", "name": "USPS COLLECTION BOX - BLUE BOX", "address": {"city": "TOLEDO", "state": "OH", "street": "625 ADAMS ST", "postcode": "43604"}}},
{"geometry": {"type": "Point", "coordinates": [-83.5357609992, 41.6536772932]}, "type": "Feature", "properties": {"collection_times": [{"days": "Mon-Fri", "time": "11:00am"}, {"days": "Sat", "time": "10:15am"}, {"days": "Sun", "time": "Closed"}], "id": "4360400039", "name": "USPS COLLECTION BOX - BLUE BOX", "address": {"city": "TOLEDO", "state": "OH", "street": "405 N HURON ST", "postcode": "43604"}}},
{"geometry": {"type": "Point", "coordinates": [-83.5353768411, 41.6523343972]}, "type": "Feature", "properties": {"collection_times": [{"days": "Mon-Fri", "time": "11:15am"}, {"days": "Sat", "time": "10:45am"}, {"days": "Sun", "time": "Closed"}], "id": "4360400041", "name": "USPS COLLECTION BOX - BLUE BOX", "address": {"city": "TOLEDO", "state": "OH", "street": "319 N SUPERIOR ST", "postcode": "43604"}}},
{"geometry": {"type": "Point", "coordinates": [-83.5326628268, 41.6539182499]}, "type": "Feature", "properties": {"collection_times": [{"days": "Mon-Fri", "time": "11:00am"}, {"days": "Sat", "time": "10:45am"}, {"days": "Sun", "time": "Closed"}], "id": "4360400052", "name": "USPS COLLECTION BOX - BLUE BOX", "address": {"city": "TOLEDO", "state": "OH", "street": "400 JACKSON ST", "postcode": "43604"}}},
{"geometry": {"type": "Point", "coordinates": [-83.5340360663, 41.6570378948]}, "type": "Feature", "properties": {"collection_times": [{"days": "Mon-Fri", "time": "10:45am"}, {"days": "Sat", "time": "10:30am"}, {"days": "Sun", "time": "Closed"}], "id": "4360400067", "name": "USPS COLLECTION BOX - BLUE BOX", "address": {"city": "TOLEDO", "state": "OH", "street": "600 N ERIE ST", "postcode": "43604"}}},
{"geometry": {"type": "Point", "coordinates": [-83.5374228701, 41.6515289062]}, "type": "Feature", "properties": {"collection_times": [{"days": "Mon-Fri", "time": "1:00pm"}, {"days": "Sat", "time": "11:15am"}, {"days": "Sun", "time": "Closed"}], "id": "4360400074", "name": "USPS COLLECTION BOX - BLUE BOX", "address": {"city": "TOLEDO", "state": "OH", "street": "240 N HURON ST", "postcode": "43604"}}},
{"geometry": {"type": "Point", "coordinates": [-83.5358665803, 41.6518136416]}, "type": "Feature", "properties": {"collection_times": [{"days": "Mon-Fri", "time": "12:45pm"}, {"days": "Sat", "time": "11:00am"}, {"days": "Sun", "time": "Closed"}], "id": "4360400094", "name": "USPS COLLECTION BOX - BLUE BOX", "address": {"city": "TOLEDO", "state": "OH", "street": "501 MADISON AVE", "postcode": "43604"}}},
{"geometry": {"type": "Point", "coordinates": [-83.5326796947, 41.6551391929]}, "type": "Feature", "properties": {"collection_times": [{"days": "Mon-Sat", "time": "10:45am"}, {"days": "Sun", "time": "Closed"}], "id": "4360400105", "name": "USPS COLLECTION BOX - BLUE BOX", "address": {"city": "TOLEDO", "state": "OH", "street": "541 N SUPERIOR ST", "postcode": "43604"}}},
{"geometry": {"type": "Point", "coordinates": [-83.5348692156, 41.6513239196]}, "type": "Feature", "properties": {"collection_times": [{"days": "Mon-Fri", "time": "12:30pm"}, {"days": "Sat", "time": "11:00am"}, {"days": "Sun", "time": "Closed"}], "id": "4360400112", "name": "USPS COLLECTION BOX - BLUE BOX", "address": {"city": "TOLEDO", "state": "OH", "street": "405 MADISON AVE", "postcode": "43604"}}},
{"geometry": {"type": "Point", "coordinates": [-83.5359674796, 41.6500112051]}, "type": "Feature", "properties": {"collection_times": [{"days": "Mon-Fri", "time": "11:30am"}, {"days": "Sat", "time": "1:00pm"}, {"days": "Sun", "time": "Closed"}], "id": "4360400113", "name": "USPS COLLECTION BOX - BLUE BOX", "address": {"city": "TOLEDO", "state": "OH", "street": "401 JEFFERSON AVE", "postcode": "43604"}}},
{"geometry": {"type": "Point", "coordinates": [-83.5374228701, 41.6515289062]}, "type": "Feature", "properties": {"collection_times": [{"days": "Mon-Sat", "time": "1:00pm"}, {"days": "Sun", "time": "Closed"}], "id": "4360400130", "name": "USPS COLLECTION BOX - BLUE BOX", "address": {"city": "TOLEDO", "state": "OH", "street": "240 N HURON ST", "postcode": "43604"}}},
{"geometry": {"type": "Point", "coordinates": [-83.5408167718, 41.6519642619]}, "type": "Feature", "properties": {"collection_times": [{"days": "Mon-Fri", "time": "1:30pm"}, {"days": "Sat-Sun", "time": "Closed"}], "id": "4360400133", "name": "USPS COLLECTION BOX - BLUE BOX", "address": {"city": "TOLEDO", "state": "OH", "street": "4 SEAGATE", "postcode": "43604"}}},
{"geometry": {"type": "Point", "coordinates": [-83.5355223451, 41.65170388]}, "type": "Feature", "properties": {"collection_times": [{"days": "Mon-Fri", "time": "12:45pm"}, {"days": "Sat-Sun", "time": "Closed"}], "id": "4360400136", "name": "USPS COLLECTION BOX - BLUE BOX", "address": {"city": "TOLEDO", "state": "OH", "street": "420 MADISON AVE", "postcode": "43604"}}},
{"geometry": {"type": "Point", "coordinates": [-83.5390973778, 41.6543330802]}, "type": "Feature", "properties": {"collection_times": [{"days": "Mon-Fri", "time": "2:00pm"}, {"days": "Sat", "time": "10:00am"}, {"days": "Sun", "time": "Closed"}], "id": "4360400139", "name": "USPS COLLECTION BOX - EXPRESS", "address": {"city": "TOLEDO", "state": "OH", "street": "1 MARITIME PLZ", "postcode": "43604"}}},
{"geometry": {"type": "Point", "coordinates": [-83.5390973778, 41.6543200909]}, "type": "Feature", "properties": {"collection_times": [{"days": "Mon-Fri", "time": "12:30pm"}, {"days": "Sat", "time": "11:00am"}, {"days": "Sun", "time": "Closed"}], "id": "4360400142", "name": "USPS COLLECTION BOX - EXPRESS", "address": {"city": "TOLEDO", "state": "OH", "street": "405 MADISON AVE", "postcode": "43604"}}},
{"geometry": {"type": "Point", "coordinates": [-83.5390973778, 41.6543330802]}, "type": "Feature", "properties": {"collection_times": [{"days": "Mon-Fri", "time": "11:30am"}, {"days": "Sat", "time": "1:00pm"}, {"days": "Sun", "time": "Closed"}], "id": "4360400152", "name": "USPS COLLECTION BOX - EXPRESS", "address": {"city": "TOLEDO", "state": "OH", "street": "401 JEFFERSON AVE", "postcode": "43604"}}},
{"geometry": {"type": "Point", "coordinates": [-83.5376942577, 41.6527271395]}, "type": "Feature", "properties": {"collection_times": [{"days": "Mon-Fri", "time": "1:15pm"}, {"days": "Sat", "time": "11:15am"}, {"days": "Sun", "time": "Closed"}], "id": "4360400163", "name": "USPS COLLECTION BOX - BLUE BOX", "address": {"city": "TOLEDO", "state": "OH", "street": "626 MADISON AVE", "postcode": "43604"}}},
{"geometry": {"type": "Point", "coordinates": [-83.5326628268, 41.6539182499]}, "type": "Feature", "properties": {"collection_times": [{"days": "Mon-Fri", "time": "11:00am"}, {"days": "Sat", "time": "10:45am"}, {"days": "Sun", "time": "Closed"}], "id": "4360400170", "name": "USPS COLLECTION BOX - BLUE BOX", "address": {"city": "TOLEDO", "state": "OH", "street": "400 JACKSON ST", "postcode": "43604"}}},
{"geometry": {"type": "Point", "coordinates": [-83.5357609992, 41.6536772932]}, "type": "Feature", "properties": {"collection_times": [{"days": "Mon-Fri", "time": "11:00am"}, {"days": "Sat", "time": "10:15am"}, {"days": "Sun", "time": "Closed"}], "id": "4360400173", "name": "USPS COLLECTION BOX - BLUE BOX", "address": {"city": "TOLEDO", "state": "OH", "street": "405 N HURON ST", "postcode": "43604"}}},
{"geometry": {"type": "Point", "coordinates": [-83.5325678318, 41.6521491741]}, "type": "Feature", "properties": {"collection_times": [{"days": "Mon-Fri", "time": "2:00pm"}, {"days": "Sat", "time": "10:00am"}, {"days": "Sun", "time": "Closed"}], "id": "4360400187", "name": "USPS COLLECTION BOX - BLUE BOX", "address": {"city": "TOLEDO", "state": "OH", "street": "1 MARITIME PLZ", "postcode": "43604"}}},
{"geometry": {"type": "Point", "coordinates": [-83.5408167718, 41.6519642619]}, "type": "Feature", "properties": {"collection_times": [{"days": "Mon-Fri", "time": "1:30pm"}, {"days": "Sat-Sun", "time": "Closed"}], "id": "4360400191", "name": "USPS COLLECTION BOX - BLUE BOX", "address": {"city": "TOLEDO", "state": "OH", "street": "4 SEAGATE", "postcode": "43604"}}},
{"geometry": {"type": "Point", "coordinates": [-83.5353865572, 41.648457447]}, "type": "Feature", "properties": {"collection_times": [{"days": "Mon-Fri", "time": "11:45am"}, {"days": "Sat", "time": "9:45am"}, {"days": "Sun", "time": "Closed"}], "id": "4360400193", "name": "USPS COLLECTION BOX - BLUE BOX", "address": {"city": "TOLEDO", "state": "OH", "street": "125 WATER ST", "postcode": "43604"}}},
{"geometry": {"type": "Point", "coordinates": [-83.5355223451, 41.65170388]}, "type": "Feature", "properties": {"collection_times": [{"days": "Mon-Fri", "time": "12:45pm"}, {"days": "Sat-Sun", "time": "Closed"}], "id": "4360400195", "name": "USPS COLLECTION BOX - BLUE BOX", "address": {"city": "TOLEDO", "state": "OH", "street": "420 MADISON AVE", "postcode": "43604"}}},
{"geometry": {"type": "Point", "coordinates": [-83.5555676656, 41.6436016301]}, "type": "Feature", "properties": {"collection_times": [{"days": "Mon-Sat", "time": "9:00am"}, {"days": "Sun", "time": "Closed"}], "id": "4360400200", "name": "USPS COLLECTION BOX - BLUE BOX", "address": {"city": "TOLEDO", "state": "OH", "street": "525 HAMILTON ST", "postcode": "43604"}}},
{"geometry": {"type": "Point", "coordinates": [-83.5395420396, 41.6553544914]}, "type": "Feature", "properties": {"collection_times": [{"days": "Mon-Fri", "time": "11:15am"}, {"days": "Sat", "time": "10:15am"}, {"days": "Sun", "time": "Closed"}], "id": "4360400208", "name": "USPS COLLECTION BOX - BLUE BOX", "address": {"city": "TOLEDO", "state": "OH", "street": "1000 ADAMS ST", "postcode": "43604"}}},
{"geometry": {"type": "Point", "coordinates": [-83.5376552201, 41.6571135514]}, "type": "Feature", "properties": {"collection_times": [{"days": "Mon-Fri", "time": "9:45am"}, {"days": "Sat", "time": "9:30am"}, {"days": "Sun", "time": "Closed"}], "id": "4360400210", "name": "USPS COLLECTION BOX - BLUE BOX", "address": {"city": "TOLEDO", "state": "OH", "street": "1701 CANTON AVE", "postcode": "43604"}}},
{"geometry": {"type": "Point", "coordinates": [-83.5396698202, 41.6505821527]}, "type": "Feature", "properties": {"collection_times": [{"days": "Mon-Fri", "time": "11:30am"}, {"days": "Sat", "time": "10:30am"}, {"days": "Sun", "time": "Closed"}], "id": "4360400213", "name": "USPS COLLECTION BOX - BLUE BOX", "address": {"city": "TOLEDO", "state": "OH", "street": "130 N ERIE ST", "postcode": "43604"}}},
{"geometry": {"type": "Point", "coordinates": [-83.538641382, 41.6519939252]}, "type": "Feature", "properties": {"collection_times": [{"days": "Mon-Fri", "time": "4:30pm"}, {"days": "Sat", "time": "1:15pm"}, {"days": "Sun", "time": "Closed"}], "id": "4360400214", "name": "USPS COLLECTION BOX - BLUE BOX", "address": {"city": "TOLEDO", "state": "OH", "street": "235 N ERIE ST", "postcode": "43604"}}},
{"geometry": {"type": "Point", "coordinates": [-83.538641382, 41.6519939252]}, "type": "Feature", "properties": {"collection_times": [{"days": "Mon-Fri", "time": "4:30pm"}, {"days": "Sat-Sun", "time": "Closed"}], "id": "4360400215", "name": "USPS COLLECTION BOX - PO LOBBY", "address": {"city": "TOLEDO", "state": "OH", "street": "235 N ERIE ST", "postcode": "43604"}}},
{"geometry": {"type": "Point", "coordinates": [-83.538641382, 41.6519939252]}, "type": "Feature", "properties": {"collection_times": [{"days": "Mon-Fri", "time": "4:30pm"}, {"days": "Sat-Sun", "time": "Closed"}], "id": "4360400216", "name": "USPS COLLECTION BOX - PO LOBBY", "address": {"city": "TOLEDO", "state": "OH", "street": "235 N ERIE ST", "postcode": "43604"}}},
{"geometry": {"type": "Point", "coordinates": [-83.5390973778, 41.6543330802]}, "type": "Feature", "properties": {"collection_times": [{"days": "Mon-Fri", "time": "4:30pm"}, {"days": "Sat", "time": "1:15pm"}, {"days": "Sun", "time": "Closed"}], "id": "4360400217", "name": "USPS COLLECTION BOX - EXPRESS", "address": {"city": "TOLEDO", "state": "OH", "street": "235 N ERIE ST", "postcode": "43604"}}},
{"geometry": {"type": "Point", "coordinates": [-83.534458865, 41.6567693103]}, "type": "Feature", "properties": {"collection_times": [{"days": "Mon-Fri", "time": "10:45am"}, {"days": "Sat", "time": "10:30am"}, {"days": "Sun", "time": "Closed"}], "id": "4360400219", "name": "USPS COLLECTION BOX - BLUE BOX", "address": {"city": "TOLEDO", "state": "OH", "street": "555 N ERIE ST", "postcode": "43604"}}},
{"geometry": {"type": "Point", "coordinates": [-83.5391090767, 41.6515619249]}, "type": "Feature", "properties": {"collection_times": [{"days": "Mon-Fri", "time": "10:30am"}, {"days": "Sat", "time": "1:00pm"}, {"days": "Sun", "time": "Closed"}], "id": "4360400221", "name": "USPS COLLECTION BOX - BLUE BOX", "address": {"city": "TOLEDO", "state": "OH", "street": "701 JEFFERSON AVE", "postcode": "43604"}}},
{"geometry": {"type": "Point", "coordinates": [-83.544101142, 41.6540208307]}, "type": "Feature", "properties": {"collection_times": [{"days": "Mon-Fri", "time": "10:15am"}, {"days": "Sat", "time": "12:15pm"}, {"days": "Sun", "time": "Closed"}], "id": "4360400222", "name": "USPS COLLECTION BOX - BLUE BOX", "address": {"city": "TOLEDO", "state": "OH", "street": "1300 JEFFERSON AVE", "postcode": "43604"}}},
{"geometry": {"type": "Point", "coordinates": [-83.5390973778, 41.6543330802]}, "type": "Feature", "properties": {"collection_times": [{"days": "Mon-Fri", "time": "10:15am"}, {"days": "Sat", "time": "12:15pm"}, {"days": "Sun", "time": "Closed"}], "id": "4360400223", "name": "USPS COLLECTION BOX - EXPRESS", "address": {"city": "TOLEDO", "state": "OH", "street": "1300 JEFFERSON AVE", "postcode": "43604"}}},
{"geometry": {"type": "Point", "coordinates": [-83.5406168784, 41.6540433808]}, "type": "Feature", "properties": {"collection_times": [{"days": "Mon-Fri", "time": "2:45pm"}, {"days": "Sat", "time": "12:15pm"}, {"days": "Sun", "time": "Closed"}], "id": "4360400228", "name": "USPS COLLECTION BOX - BLUE BOX", "address": {"city": "TOLEDO", "state": "OH", "street": "1001 MADISON AVE", "postcode": "43604"}}},
{"geometry": {"type": "Point", "coordinates": [-83.5454873667, 41.656473327]}, "type": "Feature", "properties": {"collection_times": [{"days": "Mon-Fri", "time": "2:30pm"}, {"days": "Sat", "time": "11:30am"}, {"days": "Sun", "time": "Closed"}], "id": "4360400230", "name": "USPS COLLECTION BOX - BLUE BOX", "address": {"city": "TOLEDO", "state": "OH", "street": "1600 MADISON AVE", "postcode": "43604"}}},
{"geometry": {"type": "Point", "coordinates": [-83.5454873667, 41.656473327]}, "type": "Feature", "properties": {"collection_times": [{"days": "Mon-Fri", "time": "2:30pm"}, {"days": "Sat", "time": "11:30am"}, {"days": "Sun", "time": "Closed"}], "id": "4360400231", "name": "USPS COLLECTION BOX - BLUE BOX", "address": {"city": "TOLEDO", "state": "OH", "street": "1600 MADISON AVE", "postcode": "43604"}}},
{"geometry": {"type": "Point", "coordinates": [-83.5464676477, 41.6569548245]}, "type": "Feature", "properties": {"collection_times": [{"days": "Mon-Fri", "time": "2:30pm"}, {"days": "Sat", "time": "11:30am"}, {"days": "Sun", "time": "Closed"}], "id": "4360400232", "name": "USPS COLLECTION BOX - BLUE BOX", "address": {"city": "TOLEDO", "state": "OH", "street": "1722 MADISON AVE", "postcode": "43604"}}},
{"geometry": {"type": "Point", "coordinates": [-83.5506441095, 41.6588678795]}, "type": "Feature", "properties": {"collection_times": [{"days": "Mon-Fri", "time": "2:30pm"}, {"days": "Sat", "time": "12:00pm"}, {"days": "Sun", "time": "Closed"}], "id": "4360400233", "name": "USPS COLLECTION BOX - BLUE BOX", "address": {"city": "TOLEDO", "state": "OH", "street": "2130 MADISON AVE", "postcode": "43604"}}},
{"geometry": {"type": "Point", "coordinates": [-83.5516468176, 41.6592933399]}, "type": "Feature", "properties": {"collection_times": [{"days": "Mon-Fri", "time": "2:45pm"}, {"days": "Sat", "time": "12:00pm"}, {"days": "Sun", "time": "Closed"}], "id": "4360400234", "name": "USPS COLLECTION BOX - BLUE BOX", "address": {"city": "TOLEDO", "state": "OH", "street": "2225 MADISON AVE", "postcode": "43604"}}},
{"geometry": {"type": "Point", "coordinates": [-83.5393776083, 41.6540875423]}, "type": "Feature", "properties": {"collection_times": [{"days": "Mon-Fri", "time": "10:00am"}, {"days": "Sat", "time": "9:45am"}, {"days": "Sun", "time": "Closed"}], "id": "4360400237", "name": "USPS COLLECTION BOX - BLUE BOX", "address": {"city": "TOLEDO", "state": "OH", "street": "316 N MICHIGAN ST", "postcode": "43604"}}},
{"geometry": {"type": "Point", "coordinates": [-83.5391658587, 41.6543335978]}, "type": "Feature", "properties": {"collection_times": [{"days": "Mon-Fri", "time": "10:00am"}, {"days": "Sat", "time": "9:45am"}, {"days": "Sun", "time": "Closed"}], "id": "4360400238", "name": "USPS COLLECTION BOX - BLUE BOX", "address": {"city": "TOLEDO", "state": "OH", "street": "325 N MICHIGAN ST", "postcode": "43604"}}},
{"geometry": {"type": "Point", "coordinates": [-83.5383828881, 41.6553374184]}, "type": "Feature", "properties": {"collection_times": [{"days": "Mon-Fri", "time": "9:45am"}, {"days": "Sat", "time": "9:30am"}, {"days": "Sun", "time": "Closed"}], "id": "4360400239", "name": "USPS COLLECTION BOX - BLUE BOX", "address": {"city": "TOLEDO", "state": "OH", "street": "427 N MICHIGAN ST", "postcode": "43604"}}},
{"geometry": {"type": "Point", "coordinates": [-83.5390973778, 41.6543330802]}, "type": "Feature", "properties": {"collection_times": [{"days": "Mon-Fri", "time": "9:45am"}, {"days": "Sat", "time": "9:30am"}, {"days": "Sun", "time": "Closed"}], "id": "4360400240", "name": "USPS COLLECTION BOX - EXPRESS", "address": {"city": "TOLEDO", "state": "OH", "street": "427 N MICHIGAN ST", "postcode": "43604"}}},
{"geometry": {"type": "Point", "coordinates": [-83.5571645793, 41.6585496636]}, "type": "Feature", "properties": {"collection_times": [{"days": "Mon-Sat", "time": "9:00am"}, {"days": "Sun", "time": "Closed"}], "id": "4360400242", "name": "USPS COLLECTION BOX - BLUE BOX", "address": {"city": "TOLEDO", "state": "OH", "street": "1838 PARKWOOD AVE", "postcode": "43604"}}},
{"geometry": {"type": "Point", "coordinates": [-83.5366828278, 41.6574873664]}, "type": "Feature", "properties": {"collection_times": [{"days": "Mon-Fri", "time": "2:00pm"}, {"days": "Sat", "time": "9:30am"}, {"days": "Sun", "time": "Closed"}], "id": "4360400244", "name": "USPS COLLECTION BOX - BLUE BOX", "address": {"city": "TOLEDO", "state": "OH", "street": "1716 SPIELBUSCH AVE", "postcode": "43604"}}},
{"geometry": {"type": "Point", "coordinates": [-83.5435534778, 41.6560826826]}, "type": "Feature", "properties": {"collection_times": [{"days": "Mon-Fri", "time": "10:15am"}, {"days": "Sat", "time": "10:00am"}, {"days": "Sun", "time": "Closed"}], "id": "4360400248", "name": "USPS COLLECTION BOX - BLUE BOX", "address": {"city": "TOLEDO", "state": "OH", "street": "333 14TH ST", "postcode": "43604"}}},
{"geometry": {"type": "Point", "coordinates": [-83.5320824473, 41.6569393503]}, "type": "Feature", "properties": {"collection_times": [{"days": "Mon-Sat", "time": "10:00am"}, {"days": "Sun", "time": "Closed"}], "id": "4360400251", "name": "USPS COLLECTION BOX - BLUE BOX", "address": {"city": "TOLEDO", "state": "OH", "street": "615 CHERRY ST", "postcode": "43604"}}},
{"geometry": {"type": "Point", "coordinates": [-83.5408167718, 41.6519642619]}, "type": "Feature", "properties": {"collection_times": [{"days": "Mon-Fri", "time": "1:30pm"}, {"days": "Sat-Sun", "time": "Closed"}], "id": "4360400252", "name": "USPS COLLECTION BOX - BLUE BOX", "address": {"city": "TOLEDO", "state": "OH", "street": "4 SEAGATE", "postcode": "43604"}}},
{"geometry": {"type": "Point", "coordinates": [-83.5012253943, 41.6433388212]}, "type": "Feature", "properties": {"collection_times": [{"days": "Mon-Sat", "time": "11:00am"}, {"days": "Sun", "time": "Closed"}], "id": "4360500003", "name": "USPS COLLECTION BOX - BLUE BOX", "address": {"city": "TOLEDO", "state": "OH", "street": "722 DEARBORN AVE", "postcode": "43605"}}},
{"geometry": {"type": "Point", "coordinates": [-83.4881279608, 41.6585644463]}, "type": "Feature", "properties": {"collection_times": [{"days": "Mon-Fri", "time": "12:15pm"}, {"days": "Sat", "time": "12:00pm"}, {"days": "Sun", "time": "Closed"}], "id": "4360500014", "name": "USPS COLLECTION BOX - BLUE BOX", "address": {"city": "TOLEDO", "state": "OH", "street": "2553 CONSAUL ST", "postcode": "43605"}}},
{"geometry": {"type": "Point", "coordinates": [-83.5201178534, 41.6181468831]}, "type": "Feature", "properties": {"collection_times": [{"days": "Mon-Sat", "time": "10:30am"}, {"days": "Sun", "time": "Closed"}], "id": "4360500022", "name": "USPS COLLECTION BOX - BLUE BOX", "address": {"city": "TOLEDO", "state": "OH", "street": "1831 SCHOMBERG ST", "postcode": "43605"}}},
{"geometry": {"type": "Point", "coordinates": [-83.5285482073, 41.6415455715]}, "type": "Feature", "properties": {"collection_times": [{"days": "Mon-Sat", "time": "10:30am"}, {"days": "Sun", "time": "Closed"}], "id": "4360500033", "name": "USPS COLLECTION BOX - BLUE BOX", "address": {"city": "TOLEDO", "state": "OH", "street": "101 GREENWOOD AVE", "postcode": "43605"}}},
{"geometry": {"type": "Point", "coordinates": [-83.511813888, 41.6364087156]}, "type": "Feature", "properties": {"collection_times": [{"days": "Mon-Sat", "time": "10:45am"}, {"days": "Sun", "time": "Closed"}], "id": "4360500051", "name": "USPS COLLECTION BOX - BLUE BOX", "address": {"city": "TOLEDO", "state": "OH", "street": "1321 NAVARRE AVE", "postcode": "43605"}}},
{"geometry": {"type": "Point", "coordinates": [-83.5248520552, 41.6215881107]}, "type": "Feature", "properties": {"collection_times": [{"days": "Mon-Sat", "time": "10:30am"}, {"days": "Sun", "time": "Closed"}], "id": "4360500056", "name": "USPS COLLECTION BOX - BLUE BOX", "address": {"city": "TOLEDO", "state": "OH", "street": "1602 OAK ST", "postcode": "43605"}}},
{"geometry": {"type": "Point", "coordinates": [-83.5215527827, 41.6476770877]}, "type": "Feature", "properties": {"collection_times": [{"days": "Mon-Fri", "time": "5:00pm"}, {"days": "Sat", "time": "2:00pm"}, {"days": "Sun", "time": "Closed"}], "id": "4360500070", "name": "USPS COLLECTION BOX - BLUE BOX", "address": {"city": "TOLEDO", "state": "OH", "street": "618 2ND ST", "postcode": "43605"}}},
{"geometry": {"type": "Point", "coordinates": [-83.5054645407, 41.643662125]}, "type": "Feature", "properties": {"collection_times": [{"days": "Mon-Sat", "time": "11:00am"}, {"days": "Sun", "time": "Closed"}], "id": "4360500072", "name": "USPS COLLECTION BOX - BLUE BOX", "address": {"city": "TOLEDO", "state": "OH", "street": "1822 STARR AVE", "postcode": "43605"}}},
{"geometry": {"type": "Point", "coordinates": [-83.5215527827, 41.6476770877]}, "type": "Feature", "properties": {"collection_times": [{"days": "Mon-Fri", "time": "5:00pm"}, {"days": "Sat", "time": "2:00pm"}, {"days": "Sun", "time": "Closed"}], "id": "4360500089", "name": "USPS COLLECTION BOX - BLUE BOX", "address": {"city": "TOLEDO", "state": "OH", "street": "618 2ND ST", "postcode": "43605"}}},
{"geometry": {"type": "Point", "coordinates": [-83.5108896021, 41.6418411894]}, "type": "Feature", "properties": {"collection_times": [{"days": "Mon-Fri", "time": "5:00pm"}, {"days": "Sat", "time": "2:00pm"}, {"days": "Sun", "time": "Closed"}], "id": "4360500090", "name": "USPS COLLECTION BOX - EXPRESS", "address": {"city": "TOLEDO", "state": "OH", "street": "618 2ND ST", "postcode": "43605"}}},
{"geometry": {"type": "Point", "coordinates": [-83.5185942023, 41.643431448]}, "type": "Feature", "properties": {"collection_times": [{"days": "Mon-Sat", "time": "10:45am"}, {"days": "Sun", "time": "Closed"}], "id": "4360500091", "name": "USPS COLLECTION BOX - BLUE BOX", "address": {"city": "TOLEDO", "state": "OH", "street": "718 STARR AVE", "postcode": "43605"}}},
{"geometry": {"type": "Point", "coordinates": [-83.5215527827, 41.6476770877]}, "type": "Feature", "properties": {"collection_times": [{"days": "Mon-Fri", "time": "5:00pm"}, {"days": "Sat", "time": "2:00pm"}, {"days": "Sun", "time": "Closed"}], "id": "4360500092", "name": "USPS COLLECTION BOX - PO LOBBY", "address": {"city": "TOLEDO", "state": "OH", "street": "618 2ND ST", "postcode": "43605"}}},
{"geometry": {"type": "Point", "coordinates": [-83.5717354849, 41.6653301297]}, "type": "Feature", "properties": {"collection_times": [{"days": "Mon-Sat", "time": "9:15am"}, {"days": "Sun", "time": "Closed"}], "id": "4360600007", "name": "USPS COLLECTION BOX - BLUE BOX", "address": {"city": "OTTAWA HILLS", "state": "OH", "street": "3050 MONROE ST", "postcode": "43606"}}},
{"geometry": {"type": "Point", "coordinates": [-83.6288589904, 41.6783074442]}, "type": "Feature", "properties": {"collection_times": [{"days": "Mon-Fri", "time": "2:30pm"}, {"days": "Sat", "time": "2:00pm"}, {"days": "Sun", "time": "Closed"}], "id": "4360600010", "name": "USPS COLLECTION BOX - BLUE BOX", "address": {"city": "OTTAWA HILLS", "state": "OH", "street": "3130 EXECUTIVE PKWY", "postcode": "43606"}}},
{"geometry": {"type": "Point", "coordinates": [-83.6228642782, 41.6808434506]}, "type": "Feature", "properties": {"collection_times": [{"days": "Mon-Fri", "time": "10:15am"}, {"days": "Sat", "time": "10:30am"}, {"days": "Sun", "time": "Closed"}], "id": "4360600014", "name": "USPS COLLECTION BOX - BLUE BOX", "address": {"city": "OTTAWA HILLS", "state": "OH", "street": "3311 SECOR RD", "postcode": "43606"}}},
{"geometry": {"type": "Point", "coordinates": [-83.6287856469, 41.6819261157]}, "type": "Feature", "properties": {"collection_times": [{"days": "Mon-Fri", "time": "2:45pm"}, {"days": "Sat", "time": "2:15pm"}, {"days": "Sun", "time": "Closed"}], "id": "4360600016", "name": "USPS COLLECTION BOX - BLUE BOX", "address": {"city": "OTTAWA HILLS", "state": "OH", "street": "3361 EXECUTIVE PKWY", "postcode": "43606"}}},
{"geometry": {"type": "Point", "coordinates": [-83.625267527, 41.6772912824]}, "type": "Feature", "properties": {"collection_times": [{"days": "Mon-Fri", "time": "10:15am"}, {"days": "Sat", "time": "10:30am"}, {"days": "Sun", "time": "Closed"}], "id": "4360600017", "name": "USPS COLLECTION BOX - BLUE BOX", "address": {"city": "OTTAWA HILLS", "state": "OH", "street": "3408 W CENTRAL AVE", "postcode": "43606"}}},
{"geometry": {"type": "Point", "coordinates": [-83.6268207521, 41.6772735381]}, "type": "Feature", "properties": {"collection_times": [{"days": "Mon-Fri", "time": "2:30pm"}, {"days": "Sat", "time": "1:45pm"}, {"days": "Sun", "time": "Closed"}], "id": "4360600018", "name": "USPS COLLECTION BOX - BLUE BOX", "address": {"city": "OTTAWA HILLS", "state": "OH", "street": "3450 W CENTRAL AVE", "postcode": "43606"}}},
{"geometry": {"type": "Point", "coordinates": [-83.6251480481, 41.6826418058]}, "type": "Feature", "properties": {"collection_times": [{"days": "Mon-Fri", "time": "2:45pm"}, {"days": "Sat", "time": "2:15pm"}, {"days": "Sun", "time": "Closed"}], "id": "4360600022", "name": "USPS COLLECTION BOX - BLUE BOX", "address": {"city": "OTTAWA HILLS", "state": "OH", "street": "3550 EXECUTIVE PKWY", "postcode": "43606"}}},
{"geometry": {"type": "Point", "coordinates": [-83.6390734069, 41.6770273325]}, "type": "Feature", "properties": {"collection_times": [{"days": "Mon-Fri", "time": "11:30am"}, {"days": "Sat", "time": "12:00pm"}, {"days": "Sun", "time": "Closed"}], "id": "4360600024", "name": "USPS COLLECTION BOX - BLUE BOX", "address": {"city": "OTTAWA HILLS", "state": "OH", "street": "4029 W CENTRAL AVE", "postcode": "43606"}}},
{"geometry": {"type": "Point", "coordinates": [-83.6092881173, 41.6831291849]}, "type": "Feature", "properties": {"collection_times": [{"days": "Mon-Sat", "time": "1:00pm"}, {"days": "Sun", "time": "Closed"}], "id": "4360600026", "name": "USPS COLLECTION BOX - BLUE BOX", "address": {"city": "OTTAWA HILLS", "state": "OH", "street": "4271 MONROE ST", "postcode": "43606"}}},
{"geometry": {"type": "Point", "coordinates": [-83.6120964618, 41.6844848559]}, "type": "Feature", "properties": {"collection_times": [{"days": "Mon-Sat", "time": "1:00pm"}, {"days": "Sun", "time": "Closed"}], "id": "4360600027", "name": "USPS COLLECTION BOX - BLUE BOX", "address": {"city": "OTTAWA HILLS", "state": "OH", "street": "4333 MONROE ST", "postcode": "43606"}}},
{"geometry": {"type": "Point", "coordinates": [-83.627439099, 41.6635197861]}, "type": "Feature", "properties": {"collection_times": [{"days": "Mon-Fri", "time": "9:30am"}, {"days": "Sat", "time": "9:45am"}, {"days": "Sun", "time": "Closed"}], "id": "4360600039", "name": "USPS COLLECTION BOX - BLUE BOX", "address": {"city": "OTTAWA HILLS", "state": "OH", "street": "3498 BROOKSIDE RD", "postcode": "43606"}}},
{"geometry": {"type": "Point", "coordinates": [-83.591493169, 41.6778211493]}, "type": "Feature", "properties": {"collection_times": [{"days": "Mon-Fri", "time": "2:00pm"}, {"days": "Sat", "time": "1:45pm"}, {"days": "Sun", "time": "Closed"}], "id": "4360600042", "name": "USPS COLLECTION BOX - BLUE BOX", "address": {"city": "OTTAWA HILLS", "state": "OH", "street": "2000 W CENTRAL AVE", "postcode": "43606"}}},
{"geometry": {"type": "Point", "coordinates": [-83.6271055251, 41.6734534682]}, "type": "Feature", "properties": {"collection_times": [{"days": "Mon-Fri", "time": "9:15am"}, {"days": "Sat", "time": "9:30am"}, {"days": "Sun", "time": "Closed"}], "id": "4360600049", "name": "USPS COLLECTION BOX - BLUE BOX", "address": {"city": "OTTAWA HILLS", "state": "OH", "street": "3475 CHRISTIE BLVD", "postcode": "43606"}}},
{"geometry": {"type": "Point", "coordinates": [-83.6375374463, 41.6728660904]}, "type": "Feature", "properties": {"collection_times": [{"days": "Mon-Fri", "time": "9:15am"}, {"days": "Sat", "time": "9:30am"}, {"days": "Sun", "time": "Closed"}], "id": "4360600052", "name": "USPS COLLECTION BOX - BLUE BOX", "address": {"city": "OTTAWA HILLS", "state": "OH", "street": "2809 JODORE AVE", "postcode": "43606"}}},
{"geometry": {"type": "Point", "coordinates": [-83.6264596852, 41.6681442356]}, "type": "Feature", "properties": {"collection_times": [{"days": "Mon-Fri", "time": "9:30am"}, {"days": "Sat", "time": "9:45am"}, {"days": "Sun", "time": "Closed"}], "id": "4360600053", "name": "USPS COLLECTION BOX - BLUE BOX", "address": {"city": "OTTAWA HILLS", "state": "OH", "street": "2454 HEMPSTEAD RD", "postcode": "43606"}}},
{"geometry": {"type": "Point", "coordinates": [-83.6216694114, 41.6764161076]}, "type": "Feature", "properties": {"collection_times": [{"days": "Mon-Fri", "time": "10:00am"}, {"days": "Sat", "time": "10:15am"}, {"days": "Sun", "time": "Closed"}], "id": "4360600057", "name": "USPS COLLECTION BOX - BLUE BOX", "address": {"city": "OTTAWA HILLS", "state": "OH", "street": "3225 MARKWAY RD", "postcode": "43606"}}},
{"geometry": {"type": "Point", "coordinates": [-83.568839639, 41.660197386]}, "type": "Feature", "properties": {"collection_times": [{"days": "Mon-Sat", "time": "9:00am"}, {"days": "Sun", "time": "Closed"}], "id": "4360600066", "name": "USPS COLLECTION BOX - BLUE BOX", "address": {"city": "OTTAWA HILLS", "state": "OH", "street": "1080 W WOODRUFF AVE", "postcode": "43606"}}},
{"geometry": {"type": "Point", "coordinates": [-83.6133409347, 41.6774568967]}, "type": "Feature", "properties": {"collection_times": [{"days": "Mon-Fri", "time": "10:00am"}, {"days": "Sat", "time": "10:15am"}, {"days": "Sun", "time": "Closed"}], "id": "4360600067", "name": "USPS COLLECTION BOX - BLUE BOX", "address": {"city": "OTTAWA HILLS", "state": "OH", "street": "2860 W CENTRAL AVE", "postcode": "43606"}}},
{"geometry": {"type": "Point", "coordinates": [-83.6181764078, 41.6822938056]}, "type": "Feature", "properties": {"collection_times": [{"days": "Mon-Fri", "time": "10:00am"}, {"days": "Sat", "time": "10:15am"}, {"days": "Sun", "time": "Closed"}], "id": "4360600070", "name": "USPS COLLECTION BOX - BLUE BOX", "address": {"city": "OTTAWA HILLS", "state": "OH", "street": "3049 ILGER AVE", "postcode": "43606"}}},
{"geometry": {"type": "Point", "coordinates": [-83.6341042304, 41.6753015455]}, "type": "Feature", "properties": {"collection_times": [{"days": "Mon-Fri", "time": "9:15am"}, {"days": "Sat", "time": "9:30am"}, {"days": "Sun", "time": "Closed"}], "id": "4360600072", "name": "USPS COLLECTION BOX - BLUE BOX", "address": {"city": "OTTAWA HILLS", "state": "OH", "street": "2938 ISHA LAYE WAY", "postcode": "43606"}}},
{"geometry": {"type": "Point", "coordinates": [-83.6066608515, 41.6763659033]}, "type": "Feature", "properties": {"collection_times": [{"days": "Mon-Fri", "time": "5:00pm"}, {"days": "Sat", "time": "2:00pm"}, {"days": "Sun", "time": "Closed"}], "id": "4360600075", "name": "USPS COLLECTION BOX - BLUE BOX", "address": {"city": "OTTAWA HILLS", "state": "OH", "street": "2941 HAUGHTON DR", "postcode": "43606"}}},
{"geometry": {"type": "Point", "coordinates": [-83.6135797882, 41.6707825722]}, "type": "Feature", "properties": {"collection_times": [{"days": "Mon-Fri", "time": "10:00am"}, {"days": "Sat", "time": "10:15am"}, {"days": "Sun", "time": "Closed"}], "id": "4360600077", "name": "USPS COLLECTION BOX - BLUE BOX", "address": {"city": "OTTAWA HILLS", "state": "OH", "street": "2903 KENWOOD BLVD", "postcode": "43606"}}},
{"geometry": {"type": "Point", "coordinates": [-83.6185968235, 41.6728290244]}, "type": "Feature", "properties": {"collection_times": [{"days": "Mon-Fri", "time": "9:15am"}, {"days": "Sat", "time": "9:30am"}, {"days": "Sun", "time": "Closed"}], "id": "4360600080", "name": "USPS COLLECTION BOX - BLUE BOX", "address": {"city": "OTTAWA HILLS", "state": "OH", "street": "2673 MIDDLESEX DR", "postcode": "43606"}}},
{"geometry": {"type": "Point", "coordinates": [-83.6050129036, 41.6750602218]}, "type": "Feature", "properties": {"collection_times": [{"days": "Mon-Fri", "time": "1:30pm"}, {"days": "Sat", "time": "1:15pm"}, {"days": "Sun", "time": "Closed"}], "id": "4360600081", "name": "USPS COLLECTION BOX - BLUE BOX", "address": {"city": "OTTAWA HILLS", "state": "OH", "street": "2846 MERRIMAC BLVD", "postcode": "43606"}}},
{"geometry": {"type": "Point", "coordinates": [-83.6088007382, 41.682897325]}, "type": "Feature", "properties": {"collection_times": [{"days": "Mon-Sat", "time": "1:00pm"}, {"days": "Sun", "time": "Closed"}], "id": "4360600092", "name": "USPS COLLECTION BOX - BLUE BOX", "address": {"city": "OTTAWA HILLS", "state": "OH", "street": "4260 MONROE ST", "postcode": "43606"}}},
{"geometry": {"type": "Point", "coordinates": [-83.5884609417, 41.6732242695]}, "type": "Feature", "properties": {"collection_times": [{"days": "Mon-Fri", "time": "1:45pm"}, {"days": "Sat", "time": "1:30pm"}, {"days": "Sun", "time": "Closed"}], "id": "4360600097", "name": "USPS COLLECTION BOX - BLUE BOX", "address": {"city": "OTTAWA HILLS", "state": "OH", "street": "3729 MONROE ST", "postcode": "43606"}}},
{"geometry": {"type": "Point", "coordinates": [-83.6287856469, 41.6819261157]}, "type": "Feature", "properties": {"collection_times": [{"days": "Mon-Fri", "time": "2:45pm"}, {"days": "Sat", "time": "2:15pm"}, {"days": "Sun", "time": "Closed"}], "id": "4360600123", "name": "USPS COLLECTION BOX - BLUE BOX", "address": {"city": "OTTAWA HILLS", "state": "OH", "street": "3361 EXECUTIVE PKWY", "postcode": "43606"}}},
{"geometry": {"type": "Point", "coordinates": [-83.6289299679, 41.6837076519]}, "type": "Feature", "properties": {"collection_times": [{"days": "Mon-Fri", "time": "2:45pm"}, {"days": "Sat", "time": "2:15pm"}, {"days": "Sun", "time": "Closed"}], "id": "4360600125", "name": "USPS COLLECTION BOX - BLUE BOX", "address": {"city": "OTTAWA HILLS", "state": "OH", "street": "3454 OAK ALLEY CT", "postcode": "43606"}}},
{"geometry": {"type": "Point", "coordinates": [-83.6092561816, 41.6736640096]}, "type": "Feature", "properties": {"collection_times": [{"days": "Mon-Fri", "time": "5:00pm"}, {"days": "Sat", "time": "2:00pm"}, {"days": "Sun", "time": "Closed"}], "id": "4360600126", "name": "USPS COLLECTION BOX - EXPRESS", "address": {"city": "OTTAWA HILLS", "state": "OH", "street": "2941 HAUGHTON DR", "postcode": "43606"}}},
{"geometry": {"type": "Point", "coordinates": [-83.6290159792, 41.6781271223]}, "type": "Feature", "properties": {"collection_times": [{"days": "Mon-Fri", "time": "2:45pm"}, {"days": "Sat", "time": "2:15pm"}, {"days": "Sun", "time": "Closed"}], "id": "4360600127", "name": "USPS COLLECTION BOX - BLUE BOX", "address": {"city": "OTTAWA HILLS", "state": "OH", "street": "3103 EXECUTIVE PKWY", "postcode": "43606"}}},
{"geometry": {"type": "Point", "coordinates": [-83.6092561816, 41.6736640096]}, "type": "Feature", "properties": {"collection_times": [{"days": "Mon-Fri", "time": "2:45pm"}, {"days": "Sat", "time": "2:15pm"}, {"days": "Sun", "time": "Closed"}], "id": "4360600129", "name": "USPS COLLECTION BOX - EXPRESS", "address": {"city": "OTTAWA HILLS", "state": "OH", "street": "3103 EXECUTIVE PKWY", "postcode": "43606"}}},
{"geometry": {"type": "Point", "coordinates": [-83.6092561816, 41.6736640096]}, "type": "Feature", "properties": {"collection_times": [{"days": "Mon-Fri", "time": "2:45pm"}, {"days": "Sat", "time": "2:15pm"}, {"days": "Sun", "time": "Closed"}], "id": "4360600130", "name": "USPS COLLECTION BOX - EXPRESS", "address": {"city": "OTTAWA HILLS", "state": "OH", "street": "3550 EXECUTIVE PKWY", "postcode": "43606"}}},
{"geometry": {"type": "Point", "coordinates": [-83.6101760278, 41.6631138157]}, "type": "Feature", "properties": {"collection_times": [{"days": "Mon-Fri", "time": "9:45am"}, {"days": "Sat", "time": "10:00am"}, {"days": "Sun", "time": "Closed"}], "id": "4360600131", "name": "USPS COLLECTION BOX - BLUE BOX", "address": {"city": "OTTAWA HILLS", "state": "OH", "street": "2801 W BANCROFT ST", "postcode": "43606"}}},
{"geometry": {"type": "Point", "coordinates": [-83.6170246689, 41.6665488321]}, "type": "Feature", "properties": {"collection_times": [{"days": "Mon-Fri", "time": "9:45am"}, {"days": "Sat", "time": "10:00am"}, {"days": "Sun", "time": "Closed"}], "id": "4360600135", "name": "USPS COLLECTION BOX - BLUE BOX", "address": {"city": "OTTAWA HILLS", "state": "OH", "street": "2365 BARRINGTON DR", "postcode": "43606"}}},
{"geometry": {"type": "Point", "coordinates": [-83.6289299679, 41.6837076519]}, "type": "Feature", "properties": {"collection_times": [{"days": "Mon-Fri", "time": "2:45pm"}, {"days": "Sat", "time": "2:15pm"}, {"days": "Sun", "time": "Closed"}], "id": "4360600136", "name": "USPS COLLECTION BOX - BLUE BOX", "address": {"city": "OTTAWA HILLS", "state": "OH", "street": "3454 OAK ALLEY CT", "postcode": "43606"}}},
{"geometry": {"type": "Point", "coordinates": [-83.6357651048, 41.6902872696]}, "type": "Feature", "properties": {"collection_times": [{"days": "Mon-Fri", "time": "11:45am"}, {"days": "Sat", "time": "12:15pm"}, {"days": "Sun", "time": "Closed"}], "id": "4360600137", "name": "USPS COLLECTION BOX - BLUE BOX", "address": {"city": "OTTAWA HILLS", "state": "OH", "street": "3922 WOODLEY RD", "postcode": "43606"}}},
{"geometry": {"type": "Point", "coordinates": [-83.6066608515, 41.6763659033]}, "type": "Feature", "properties": {"collection_times": [{"days": "Mon-Fri", "time": "5:00pm"}, {"days": "Sat", "time": "2:00pm"}, {"days": "Sun", "time": "Closed"}], "id": "4360600138", "name": "USPS COLLECTION BOX - BLUE BOX", "address": {"city": "OTTAWA HILLS", "state": "OH", "street": "2941 HAUGHTON DR", "postcode": "43606"}}},
{"geometry": {"type": "Point", "coordinates": [-83.6101760278, 41.6631138157]}, "type": "Feature", "properties": {"collection_times": [{"days": "Mon-Fri", "time": "9:45am"}, {"days": "Sat", "time": "10:00am"}, {"days": "Sun", "time": "Closed"}], "id": "4360600139", "name": "USPS COLLECTION BOX - EXPRESS", "address": {"city": "OTTAWA HILLS", "state": "OH", "street": "2801 W BANCROFT ST", "postcode": "43606"}}},
{"geometry": {"type": "Point", "coordinates": [-83.6228680103, 41.6847064294]}, "type": "Feature", "properties": {"collection_times": [{"days": "Mon-Fri", "time": "3:00pm"}, {"days": "Sat", "time": "10:30am"}, {"days": "Sun", "time": "Closed"}], "id": "4360600140", "name": "USPS COLLECTION BOX - BLUE BOX", "address": {"city": "OTTAWA HILLS", "state": "OH", "street": "3536 SECOR RD", "postcode": "43606"}}},
{"geometry": {"type": "Point", "coordinates": [-83.6066608515, 41.6763659033]}, "type": "Feature", "properties": {"collection_times": [{"days": "Mon-Fri", "time": "5:00pm"}, {"days": "Sat", "time": "2:00pm"}, {"days": "Sun", "time": "Closed"}], "id": "4360600144", "name": "USPS COLLECTION BOX - BLUE BOX", "address": {"city": "OTTAWA HILLS", "state": "OH", "street": "2941 HAUGHTON DR", "postcode": "43606"}}},
{"geometry": {"type": "Point", "coordinates": [-83.6280711397, 41.6824667279]}, "type": "Feature", "properties": {"collection_times": [{"days": "Mon-Fri", "time": "2:45pm"}, {"days": "Sat", "time": "2:15pm"}, {"days": "Sun", "time": "Closed"}], "id": "4360600145", "name": "USPS COLLECTION BOX - BLUE BOX", "address": {"city": "OTTAWA HILLS", "state": "OH", "street": "3425 EXECUTIVE PKWY", "postcode": "43606"}}},
{"geometry": {"type": "Point", "coordinates": [-83.6287694646, 41.6809417572]}, "type": "Feature", "properties": {"collection_times": [{"days": "Mon-Fri", "time": "2:30pm"}, {"days": "Sat", "time": "2:00pm"}, {"days": "Sun", "time": "Closed"}], "id": "4360600150", "name": "USPS COLLECTION BOX - BLUE BOX", "address": {"city": "OTTAWA HILLS", "state": "OH", "street": "3320 EXECUTIVE PKWY", "postcode": "43606"}}},
{"geometry": {"type": "Point", "coordinates": [-83.6092561816, 41.6736640096]}, "type": "Feature", "properties": {"collection_times": [{"days": "Mon-Fri", "time": "2:30pm"}, {"days": "Sat", "time": "2:00pm"}, {"days": "Sun", "time": "Closed"}], "id": "4360600151", "name": "USPS COLLECTION BOX - EXPRESS", "address": {"city": "OTTAWA HILLS", "state": "OH", "street": "3320 EXECUTIVE PKWY", "postcode": "43606"}}},
{"geometry": {"type": "Point", "coordinates": [-83.6260840998, 41.6826870052]}, "type": "Feature", "properties": {"collection_times": [{"days": "Mon-Fri", "time": "2:45pm"}, {"days": "Sat", "time": "2:15pm"}, {"days": "Sun", "time": "Closed"}], "id": "4360600152", "name": "USPS COLLECTION BOX - BLUE BOX", "address": {"city": "OTTAWA HILLS", "state": "OH", "street": "3501 EXECUTIVE PKWY", "postcode": "43606"}}},
{"geometry": {"type": "Point", "coordinates": [-83.6268207521, 41.6772735381]}, "type": "Feature", "properties": {"collection_times": [{"days": "Mon-Fri", "time": "2:30pm"}, {"days": "Sat", "time": "1:45pm"}, {"days": "Sun", "time": "Closed"}], "id": "4360600153", "name": "USPS COLLECTION BOX - BLUE BOX", "address": {"city": "OTTAWA HILLS", "state": "OH", "street": "3450 W CENTRAL AVE", "postcode": "43606"}}},
{"geometry": {"type": "Point", "coordinates": [-83.6066608515, 41.6763659033]}, "type": "Feature", "properties": {"collection_times": [{"days": "Mon-Fri", "time": "5:00pm"}, {"days": "Sat", "time": "2:00pm"}, {"days": "Sun", "time": "Closed"}], "id": "4360600154", "name": "USPS COLLECTION BOX - PO LOBBY", "address": {"city": "OTTAWA HILLS", "state": "OH", "street": "2941 HAUGHTON DR", "postcode": "43606"}}},
{"geometry": {"type": "Point", "coordinates": [-83.6187860948, 41.6629455391]}, "type": "Feature", "properties": {"collection_times": [{"days": "Mon-Fri", "time": "9:45am"}, {"days": "Sat", "time": "10:00am"}, {"days": "Sun", "time": "Closed"}], "id": "4360600156", "name": "USPS COLLECTION BOX - BLUE BOX", "address": {"city": "OTTAWA HILLS", "state": "OH", "street": "3111 W BANCROFT ST", "postcode": "43606"}}},
{"geometry": {"type": "Point", "coordinates": [-83.6218854473, 41.6543679036]}, "type": "Feature", "properties": {"collection_times": [{"days": "Mon-Fri", "time": "9:30am"}, {"days": "Sat", "time": "9:45am"}, {"days": "Sun", "time": "Closed"}], "id": "4360700001", "name": "USPS COLLECTION BOX - BLUE BOX", "address": {"city": "TOLEDO", "state": "OH", "street": "1458 SECOR RD", "postcode": "43607"}}},
{"geometry": {"type": "Point", "coordinates": [-83.5808982851, 41.6529377062]}, "type": "Feature", "properties": {"collection_times": [{"days": "Mon-Fri", "time": "5:00pm"}, {"days": "Sat", "time": "2:30pm"}, {"days": "Sun", "time": "Closed"}], "id": "4360700002", "name": "USPS COLLECTION BOX - BLUE BOX", "address": {"city": "TOLEDO", "state": "OH", "street": "1609 DORR ST", "postcode": "43607"}}},
{"geometry": {"type": "Point", "coordinates": [-83.6268500765, 41.638073387]}, "type": "Feature", "properties": {"collection_times": [{"days": "Mon-Sat", "time": "9:00am"}, {"days": "Sun", "time": "Closed"}], "id": "4360700028", "name": "USPS COLLECTION BOX - BLUE BOX", "address": {"city": "TOLEDO", "state": "OH", "street": "3539 HILL AVE", "postcode": "43607"}}},
{"geometry": {"type": "Point", "coordinates": [-83.6402792762, 41.6518612136]}, "type": "Feature", "properties": {"collection_times": [{"days": "Mon-Sat", "time": "10:15am"}, {"days": "Sun", "time": "Closed"}], "id": "4360700036", "name": "USPS COLLECTION BOX - BLUE BOX", "address": {"city": "TOLEDO", "state": "OH", "street": "4184 DORCHESTER DR", "postcode": "43607"}}},
{"geometry": {"type": "Point", "coordinates": [-83.6272605146, 41.6527553111]}, "type": "Feature", "properties": {"collection_times": [{"days": "Mon-Fri", "time": "9:30am"}, {"days": "Sat", "time": "9:45am"}, {"days": "Sun", "time": "Closed"}], "id": "4360700037", "name": "USPS COLLECTION BOX - BLUE BOX", "address": {"city": "TOLEDO", "state": "OH", "street": "3525 DORR ST", "postcode": "43607"}}},
{"geometry": {"type": "Point", "coordinates": [-83.6065275182, 41.6497925494]}, "type": "Feature", "properties": {"collection_times": [{"days": "Mon-Fri", "time": "5:00pm"}, {"days": "Sat", "time": "2:30pm"}, {"days": "Sun", "time": "Closed"}], "id": "4360700079", "name": "USPS COLLECTION BOX - EXPRESS", "address": {"city": "TOLEDO", "state": "OH", "street": "1609 DORR ST", "postcode": "43607"}}},
{"geometry": {"type": "Point", "coordinates": [-83.5808982851, 41.6529377062]}, "type": "Feature", "properties": {"collection_times": [{"days": "Mon-Fri", "time": "5:00pm"}, {"days": "Sat", "time": "2:30pm"}, {"days": "Sun", "time": "Closed"}], "id": "4360700088", "name": "USPS COLLECTION BOX - BLUE BOX", "address": {"city": "TOLEDO", "state": "OH", "street": "1609 DORR ST", "postcode": "43607"}}},
{"geometry": {"type": "Point", "coordinates": [-83.6080578291, 41.6381464179]}, "type": "Feature", "properties": {"collection_times": [{"days": "Mon-Sat", "time": "9:00am"}, {"days": "Sun", "time": "Closed"}], "id": "4360700089", "name": "USPS COLLECTION BOX - BLUE BOX", "address": {"city": "TOLEDO", "state": "OH", "street": "2698 HILL AVE", "postcode": "43607"}}},
{"geometry": {"type": "Point", "coordinates": [-83.5808982851, 41.6529377062]}, "type": "Feature", "properties": {"collection_times": [{"days": "Mon-Fri", "time": "4:00pm"}, {"days": "Sat", "time": "2:00pm"}, {"days": "Sun", "time": "Closed"}], "id": "4360700095", "name": "USPS COLLECTION BOX - PO LOBBY", "address": {"city": "TOLEDO", "state": "OH", "street": "1609 DORR ST", "postcode": "43607"}}},
{"geometry": {"type": "Point", "coordinates": [-83.5427005401, 41.6696339891]}, "type": "Feature", "properties": {"collection_times": [{"days": "Mon-Fri", "time": "9:30am"}, {"days": "Sat", "time": "9:15am"}, {"days": "Sun", "time": "Closed"}], "id": "4360800001", "name": "USPS COLLECTION BOX - BLUE BOX", "address": {"city": "TOLEDO", "state": "OH", "street": "2409 CHERRY ST", "postcode": "43608"}}},
{"geometry": {"type": "Point", "coordinates": [-83.5414386996, 41.668255514]}, "type": "Feature", "properties": {"collection_times": [{"days": "Mon-Fri", "time": "9:30am"}, {"days": "Sat", "time": "9:15am"}, {"days": "Sun", "time": "Closed"}], "id": "4360800016", "name": "USPS COLLECTION BOX - BLUE BOX", "address": {"city": "TOLEDO", "state": "OH", "street": "2222 CHERRY ST", "postcode": "43608"}}},
{"geometry": {"type": "Point", "coordinates": [-83.5398058508, 41.6769274293]}, "type": "Feature", "properties": {"collection_times": [{"days": "Mon-Fri", "time": "11:45am"}, {"days": "Sat", "time": "9:15am"}, {"days": "Sun", "time": "Closed"}], "id": "4360800019", "name": "USPS COLLECTION BOX - BLUE BOX", "address": {"city": "TOLEDO", "state": "OH", "street": "2905 LAGRANGE ST", "postcode": "43608"}}},
{"geometry": {"type": "Point", "coordinates": [-83.5363892348, 41.6851027143]}, "type": "Feature", "properties": {"collection_times": [{"days": "Mon-Fri", "time": "11:30am"}, {"days": "Sat", "time": "9:00am"}, {"days": "Sun", "time": "Closed"}], "id": "4360800021", "name": "USPS COLLECTION BOX - BLUE BOX", "address": {"city": "TOLEDO", "state": "OH", "street": "3402 ELM ST", "postcode": "43608"}}},
{"geometry": {"type": "Point", "coordinates": [-83.5182821436, 41.6881928507]}, "type": "Feature", "properties": {"collection_times": [{"days": "Mon-Fri", "time": "11:30am"}, {"days": "Sat", "time": "9:00am"}, {"days": "Sun", "time": "Closed"}], "id": "4360800039", "name": "USPS COLLECTION BOX - BLUE BOX", "address": {"city": "TOLEDO", "state": "OH", "street": "3570 S EXPRESSWAY DR", "postcode": "43608"}}},
{"geometry": {"type": "Point", "coordinates": [-83.5324843158, 41.686530271]}, "type": "Feature", "properties": {"collection_times": [{"days": "Mon-Fri", "time": "5:00pm"}, {"days": "Sat", "time": "12:00pm"}, {"days": "Sun", "time": "Closed"}], "id": "4360800052", "name": "USPS COLLECTION BOX - BLUE BOX", "address": {"city": "TOLEDO", "state": "OH", "street": "553 E MANHATTAN BLVD", "postcode": "43608"}}},
{"geometry": {"type": "Point", "coordinates": [-83.5267779124, 41.6845854074]}, "type": "Feature", "properties": {"collection_times": [{"days": "Mon-Fri", "time": "11:30am"}, {"days": "Sat", "time": "9:00am"}, {"days": "Sun", "time": "Closed"}], "id": "4360800054", "name": "USPS COLLECTION BOX - BLUE BOX", "address": {"city": "TOLEDO", "state": "OH", "street": "3360 STICKNEY AVE", "postcode": "43608"}}},
{"geometry": {"type": "Point", "coordinates": [-83.53291878, 41.6779438401]}, "type": "Feature", "properties": {"collection_times": [{"days": "Mon-Fri", "time": "5:00pm"}, {"days": "Sat", "time": "12:00pm"}, {"days": "Sun", "time": "Closed"}], "id": "4360800059", "name": "USPS COLLECTION BOX - EXPRESS", "address": {"city": "TOLEDO", "state": "OH", "street": "553 E MANHATTAN BLVD", "postcode": "43608"}}},
{"geometry": {"type": "Point", "coordinates": [-83.5324843158, 41.686530271]}, "type": "Feature", "properties": {"collection_times": [{"days": "Mon-Fri", "time": "5:00pm"}, {"days": "Sat", "time": "12:00pm"}, {"days": "Sun", "time": "Closed"}], "id": "4360800067", "name": "USPS COLLECTION BOX - BLUE BOX", "address": {"city": "TOLEDO", "state": "OH", "street": "553 E MANHATTAN BLVD", "postcode": "43608"}}},
{"geometry": {"type": "Point", "coordinates": [-83.5998963964, 41.6304372081]}, "type": "Feature", "properties": {"collection_times": [{"days": "Mon-Sat", "time": "9:00am"}, {"days": "Sun", "time": "Closed"}], "id": "4360900004", "name": "USPS COLLECTION BOX - BLUE BOX", "address": {"city": "TOLEDO", "state": "OH", "street": "2330 AIRPORT HWY", "postcode": "43609"}}},
{"geometry": {"type": "Point", "coordinates": [-83.6079394567, 41.6284909707]}, "type": "Feature", "properties": {"collection_times": [{"days": "Mon-Sat", "time": "9:15am"}, {"days": "Sun", "time": "Closed"}], "id": "4360900005", "name": "USPS COLLECTION BOX - BLUE BOX", "address": {"city": "TOLEDO", "state": "OH", "street": "2707 AIRPORT HWY", "postcode": "43609"}}},
{"geometry": {"type": "Point", "coordinates": [-83.6216336582, 41.6253225092]}, "type": "Feature", "properties": {"collection_times": [{"days": "Mon-Sat", "time": "9:00am"}, {"days": "Sun", "time": "Closed"}], "id": "4360900007", "name": "USPS COLLECTION BOX - BLUE BOX", "address": {"city": "TOLEDO", "state": "OH", "street": "3326 AIRPORT HWY", "postcode": "43609"}}},
{"geometry": {"type": "Point", "coordinates": [-83.5581523501, 41.6296748182]}, "type": "Feature", "properties": {"collection_times": [{"days": "Mon-Sat", "time": "9:00am"}, {"days": "Sun", "time": "Closed"}], "id": "4360900055", "name": "USPS COLLECTION BOX - BLUE BOX", "address": {"city": "TOLEDO", "state": "OH", "street": "1705 BROADWAY ST", "postcode": "43609"}}},
{"geometry": {"type": "Point", "coordinates": [-83.5871942114, 41.6233938837]}, "type": "Feature", "properties": {"collection_times": [{"days": "Mon-Sat", "time": "9:15am"}, {"days": "Sun", "time": "Closed"}], "id": "4360900060", "name": "USPS COLLECTION BOX - BLUE BOX", "address": {"city": "TOLEDO", "state": "OH", "street": "1806 ARLINGTON AVE", "postcode": "43609"}}},
{"geometry": {"type": "Point", "coordinates": [-83.489660209, 41.7051156603]}, "type": "Feature", "properties": {"collection_times": [{"days": "Mon-Fri", "time": "11:15am"}, {"days": "Sat", "time": "11:30am"}, {"days": "Sun", "time": "Closed"}], "id": "4361100001", "name": "USPS COLLECTION BOX - BLUE BOX", "address": {"city": "TOLEDO", "state": "OH", "street": "4503 286TH ST", "postcode": "43611"}}},
{"geometry": {"type": "Point", "coordinates": [-83.4794702004, 41.7060525638]}, "type": "Feature", "properties": {"collection_times": [{"days": "Mon-Sat", "time": "11:30am"}, {"days": "Sun", "time": "Closed"}], "id": "4361100002", "name": "USPS COLLECTION BOX - BLUE BOX", "address": {"city": "TOLEDO", "state": "OH", "street": "2755 104TH ST", "postcode": "43611"}}},
{"geometry": {"type": "Point", "coordinates": [-83.4892083186, 41.7091211593]}, "type": "Feature", "properties": {"collection_times": [{"days": "Mon-Sat", "time": "11:15am"}, {"days": "Sun", "time": "Closed"}], "id": "4361100004", "name": "USPS COLLECTION BOX - BLUE BOX", "address": {"city": "TOLEDO", "state": "OH", "street": "4801 287TH ST", "postcode": "43611"}}},
{"geometry": {"type": "Point", "coordinates": [-83.4743491711, 41.720113214]}, "type": "Feature", "properties": {"collection_times": [{"days": "Mon-Fri", "time": "10:45am"}, {"days": "Sat", "time": "11:00am"}, {"days": "Sun", "time": "Closed"}], "id": "4361100008", "name": "USPS COLLECTION BOX - BLUE BOX", "address": {"city": "TOLEDO", "state": "OH", "street": "3002 131ST ST", "postcode": "43611"}}},
{"geometry": {"type": "Point", "coordinates": [-83.4796012885, 41.7308447601]}, "type": "Feature", "properties": {"collection_times": [{"days": "Mon-Fri", "time": "10:45am"}, {"days": "Sat", "time": "11:00am"}, {"days": "Sun", "time": "Closed"}], "id": "4361100012", "name": "USPS COLLECTION BOX - BLUE BOX", "address": {"city": "TOLEDO", "state": "OH", "street": "6200 N SUMMIT ST", "postcode": "43611"}}},
{"geometry": {"type": "Point", "coordinates": [-83.5101739004, 41.6712439962]}, "type": "Feature", "properties": {"collection_times": [{"days": "Mon-Sat", "time": "11:30am"}, {"days": "Sun", "time": "Closed"}], "id": "4361100022", "name": "USPS COLLECTION BOX - BLUE BOX", "address": {"city": "TOLEDO", "state": "OH", "street": "732 GALENA ST", "postcode": "43611"}}},
{"geometry": {"type": "Point", "coordinates": [-83.4787060089, 41.70333649]}, "type": "Feature", "properties": {"collection_times": [{"days": "Mon-Fri", "time": "5:00pm"}, {"days": "Sat", "time": "12:00pm"}, {"days": "Sun", "time": "Closed"}], "id": "4361100025", "name": "USPS COLLECTION BOX - BLUE BOX", "address": {"city": "TOLEDO", "state": "OH", "street": "4445 N SUMMIT ST", "postcode": "43611"}}},
{"geometry": {"type": "Point", "coordinates": [-83.4788751721, 41.7085781811]}, "type": "Feature", "properties": {"collection_times": [{"days": "Mon-Fri", "time": "10:30am"}, {"days": "Sat", "time": "10:45am"}, {"days": "Sun", "time": "Closed"}], "id": "4361100027", "name": "USPS COLLECTION BOX - BLUE BOX", "address": {"city": "TOLEDO", "state": "OH", "street": "4730 N SUMMIT ST", "postcode": "43611"}}},
{"geometry": {"type": "Point", "coordinates": [-83.4790999343, 41.7144858782]}, "type": "Feature", "properties": {"collection_times": [{"days": "Mon-Sat", "time": "11:15am"}, {"days": "Sun", "time": "Closed"}], "id": "4361100029", "name": "USPS COLLECTION BOX - BLUE BOX", "address": {"city": "TOLEDO", "state": "OH", "street": "5105 N SUMMIT ST", "postcode": "43611"}}},
{"geometry": {"type": "Point", "coordinates": [-83.4791027777, 41.7164605139]}, "type": "Feature", "properties": {"collection_times": [{"days": "Mon-Fri", "time": "10:45am"}, {"days": "Sat", "time": "11:00am"}, {"days": "Sun", "time": "Closed"}], "id": "4361100030", "name": "USPS COLLECTION BOX - BLUE BOX", "address": {"city": "TOLEDO", "state": "OH", "street": "5198 N SUMMIT ST", "postcode": "43611"}}},
{"geometry": {"type": "Point", "coordinates": [-83.4792880248, 41.7191349069]}, "type": "Feature", "properties": {"collection_times": [{"days": "Mon-Fri", "time": "11:00am"}, {"days": "Sat", "time": "11:15am"}, {"days": "Sun", "time": "Closed"}], "id": "4361100031", "name": "USPS COLLECTION BOX - BLUE BOX", "address": {"city": "TOLEDO", "state": "OH", "street": "5417 N SUMMIT ST", "postcode": "43611"}}},
{"geometry": {"type": "Point", "coordinates": [-83.4794702004, 41.7060525638]}, "type": "Feature", "properties": {"collection_times": [{"days": "Mon-Sat", "time": "11:30am"}, {"days": "Sun", "time": "Closed"}], "id": "4361100033", "name": "USPS COLLECTION BOX - BLUE BOX", "address": {"city": "TOLEDO", "state": "OH", "street": "2755 104TH ST", "postcode": "43611"}}},
{"geometry": {"type": "Point", "coordinates": [-83.4896381802, 41.7058909154]}, "type": "Feature", "properties": {"collection_times": [{"days": "Mon-Fri", "time": "5:00pm"}, {"days": "Sat", "time": "12:00pm"}, {"days": "Sun", "time": "Closed"}], "id": "4361100036", "name": "USPS COLLECTION BOX - EXPRESS", "address": {"city": "TOLEDO", "state": "OH", "street": "4445 N SUMMIT ST", "postcode": "43611"}}},
{"geometry": {"type": "Point", "coordinates": [-83.4994513593, 41.7138264725]}, "type": "Feature", "properties": {"collection_times": [{"days": "Mon-Fri", "time": "10:30am"}, {"days": "Sat", "time": "10:45am"}, {"days": "Sun", "time": "Closed"}], "id": "4361100037", "name": "USPS COLLECTION BOX - BLUE BOX", "address": {"city": "TOLEDO", "state": "OH", "street": "5201 SUDER AVE", "postcode": "43611"}}},
{"geometry": {"type": "Point", "coordinates": [-83.4985607922, 41.7049062765]}, "type": "Feature", "properties": {"collection_times": [{"days": "Mon-Fri", "time": "10:30am"}, {"days": "Sat", "time": "10:45am"}, {"days": "Sun", "time": "Closed"}], "id": "4361100038", "name": "USPS COLLECTION BOX - BLUE BOX", "address": {"city": "TOLEDO", "state": "OH", "street": "4633 SUDER AVE", "postcode": "43611"}}},
{"geometry": {"type": "Point", "coordinates": [-83.4787060089, 41.70333649]}, "type": "Feature", "properties": {"collection_times": [{"days": "Mon-Fri", "time": "5:00pm"}, {"days": "Sat", "time": "12:00pm"}, {"days": "Sun", "time": "Closed"}], "id": "4361100039", "name": "USPS COLLECTION BOX - PO LOBBY", "address": {"city": "TOLEDO", "state": "OH", "street": "4445 N SUMMIT ST", "postcode": "43611"}}},
{"geometry": {"type": "Point", "coordinates": [-83.530883963, 41.7225299992]}, "type": "Feature", "properties": {"collection_times": [{"days": "Mon-Fri", "time": "10:30am"}, {"days": "Sat", "time": "10:00am"}, {"days": "Sun", "time": "Closed"}], "id": "4361200007", "name": "USPS COLLECTION BOX - BLUE BOX", "address": {"city": "TOLEDO", "state": "OH", "street": "833 W ALEXIS RD", "postcode": "43612"}}},
{"geometry": {"type": "Point", "coordinates": [-83.5666199703, 41.7232799952]}, "type": "Feature", "properties": {"collection_times": [{"days": "Mon-Fri", "time": "9:45am"}, {"days": "Sat", "time": "10:00am"}, {"days": "Sun", "time": "Closed"}], "id": "4361200010", "name": "USPS COLLECTION BOX - BLUE BOX", "address": {"city": "TOLEDO", "state": "OH", "street": "5860 LEWIS AVE", "postcode": "43612"}}},
{"geometry": {"type": "Point", "coordinates": [-83.5562146633, 41.7032181941]}, "type": "Feature", "properties": {"collection_times": [{"days": "Mon-Fri", "time": "9:00am"}, {"days": "Sat", "time": "9:30am"}, {"days": "Sun", "time": "Closed"}], "id": "4361200012", "name": "USPS COLLECTION BOX - BLUE BOX", "address": {"city": "TOLEDO", "state": "OH", "street": "459 CALIFORNIA BLVD", "postcode": "43612"}}},
{"geometry": {"type": "Point", "coordinates": [-83.5561034651, 41.7057615558]}, "type": "Feature", "properties": {"collection_times": [{"days": "Mon-Sat", "time": "9:30am"}, {"days": "Sun", "time": "Closed"}], "id": "4361200013", "name": "USPS COLLECTION BOX - BLUE BOX", "address": {"city": "TOLEDO", "state": "OH", "street": "455 W CAPISTRANO AVE", "postcode": "43612"}}},
{"geometry": {"type": "Point", "coordinates": [-83.556756193, 41.7155121515]}, "type": "Feature", "properties": {"collection_times": [{"days": "Mon-Sat", "time": "10:15am"}, {"days": "Sun", "time": "Closed"}], "id": "4361200015", "name": "USPS COLLECTION BOX - BLUE BOX", "address": {"city": "TOLEDO", "state": "OH", "street": "5435 BENNETT RD", "postcode": "43612"}}},
{"geometry": {"type": "Point", "coordinates": [-83.5658771262, 41.6999621542]}, "type": "Feature", "properties": {"collection_times": [{"days": "Mon-Fri", "time": "9:30am"}, {"days": "Sat", "time": "9:45am"}, {"days": "Sun", "time": "Closed"}], "id": "4361200031", "name": "USPS COLLECTION BOX - BLUE BOX", "address": {"city": "TOLEDO", "state": "OH", "street": "4502 LEWIS AVE", "postcode": "43612"}}},
{"geometry": {"type": "Point", "coordinates": [-83.5183292195, 41.7086195847]}, "type": "Feature", "properties": {"collection_times": [{"days": "Mon-Sat", "time": "10:15am"}, {"days": "Sun", "time": "Closed"}], "id": "4361200034", "name": "USPS COLLECTION BOX - BLUE BOX", "address": {"city": "TOLEDO", "state": "OH", "street": "5015 ENTERPRISE BLVD", "postcode": "43612"}}},
{"geometry": {"type": "Point", "coordinates": [-83.5660119294, 41.7040178743]}, "type": "Feature", "properties": {"collection_times": [{"days": "Mon-Sat", "time": "9:45am"}, {"days": "Sun", "time": "Closed"}], "id": "4361200048", "name": "USPS COLLECTION BOX - BLUE BOX", "address": {"city": "TOLEDO", "state": "OH", "street": "4801 LEWIS AVE", "postcode": "43612"}}},
{"geometry": {"type": "Point", "coordinates": [-83.5655805256, 41.7115348021]}, "type": "Feature", "properties": {"collection_times": [{"days": "Mon-Sat", "time": "9:45am"}, {"days": "Sun", "time": "Closed"}], "id": "4361200049", "name": "USPS COLLECTION BOX - BLUE BOX", "address": {"city": "TOLEDO", "state": "OH", "street": "945 MAYFAIR BLVD", "postcode": "43612"}}},
{"geometry": {"type": "Point", "coordinates": [-83.5454344983, 41.7234941809]}, "type": "Feature", "properties": {"collection_times": [{"days": "Mon-Sat", "time": "11:45am"}, {"days": "Sun", "time": "Closed"}], "id": "4361200058", "name": "USPS COLLECTION BOX - BLUE BOX", "address": {"city": "TOLEDO", "state": "OH", "street": "5801 TELETOWNE DR", "postcode": "43612"}}},
{"geometry": {"type": "Point", "coordinates": [-83.5723817506, 41.692499334]}, "type": "Feature", "properties": {"collection_times": [{"days": "Mon-Sat", "time": "9:30am"}, {"days": "Sun", "time": "Closed"}], "id": "4361200062", "name": "USPS COLLECTION BOX - BLUE BOX", "address": {"city": "TOLEDO", "state": "OH", "street": "1320 W SYLVANIA AVE", "postcode": "43612"}}},
{"geometry": {"type": "Point", "coordinates": [-83.561844365, 41.712616803]}, "type": "Feature", "properties": {"collection_times": [{"days": "Mon-Sat", "time": "10:15am"}, {"days": "Sun", "time": "Closed"}], "id": "4361200066", "name": "USPS COLLECTION BOX - BLUE BOX", "address": {"city": "TOLEDO", "state": "OH", "street": "735 SANDRALEE DR", "postcode": "43612"}}},
{"geometry": {"type": "Point", "coordinates": [-83.5816060001, 41.692403212]}, "type": "Feature", "properties": {"collection_times": [{"days": "Mon-Fri", "time": "5:00pm"}, {"days": "Sat", "time": "1:45pm"}, {"days": "Sun", "time": "Closed"}], "id": "4361200078", "name": "USPS COLLECTION BOX - BLUE BOX", "address": {"city": "TOLEDO", "state": "OH", "street": "1568 W SYLVANIA AVE", "postcode": "43612"}}},
{"geometry": {"type": "Point", "coordinates": [-83.5816060001, 41.692403212]}, "type": "Feature", "properties": {"collection_times": [{"days": "Mon-Fri", "time": "5:00pm"}, {"days": "Sat", "time": "1:45pm"}, {"days": "Sun", "time": "Closed"}], "id": "4361200079", "name": "USPS COLLECTION BOX - BLUE BOX", "address": {"city": "TOLEDO", "state": "OH", "street": "1568 W SYLVANIA AVE", "postcode": "43612"}}},
{"geometry": {"type": "Point", "coordinates": [-83.5620259718, 41.7084631587]}, "type": "Feature", "properties": {"collection_times": [{"days": "Mon-Fri", "time": "5:00pm"}, {"days": "Sat", "time": "1:45pm"}, {"days": "Sun", "time": "Closed"}], "id": "4361200080", "name": "USPS COLLECTION BOX - EXPRESS", "address": {"city": "TOLEDO", "state": "OH", "street": "1568 W SYLVANIA AVE", "postcode": "43612"}}},
{"geometry": {"type": "Point", "coordinates": [-83.5471851375, 41.7146751516]}, "type": "Feature", "properties": {"collection_times": [{"days": "Mon-Sat", "time": "11:45am"}, {"days": "Sun", "time": "Closed"}], "id": "4361200082", "name": "USPS COLLECTION BOX - BLUE BOX", "address": {"city": "TOLEDO", "state": "OH", "street": "5348 TELEGRAPH RD", "postcode": "43612"}}},
{"geometry": {"type": "Point", "coordinates": [-83.5559232058, 41.6939060266]}, "type": "Feature", "properties": {"collection_times": [{"days": "Mon-Fri", "time": "9:45am"}, {"days": "Sat", "time": "10:45am"}, {"days": "Sun", "time": "Closed"}], "id": "4361200083", "name": "USPS COLLECTION BOX - BLUE BOX", "address": {"city": "TOLEDO", "state": "OH", "street": "4080 BENNETT RD", "postcode": "43612"}}},
{"geometry": {"type": "Point", "coordinates": [-83.5842022894, 41.7108849511]}, "type": "Feature", "properties": {"collection_times": [{"days": "Mon-Sat", "time": "11:45am"}, {"days": "Sun", "time": "Closed"}], "id": "4361200086", "name": "USPS COLLECTION BOX - BLUE BOX", "address": {"city": "TOLEDO", "state": "OH", "street": "1630 COINING DR", "postcode": "43612"}}},
{"geometry": {"type": "Point", "coordinates": [-83.530883963, 41.7225299992]}, "type": "Feature", "properties": {"collection_times": [{"days": "Mon-Sat", "time": "10:00am"}, {"days": "Sun", "time": "Closed"}], "id": "4361200088", "name": "USPS COLLECTION BOX - BLUE BOX", "address": {"city": "TOLEDO", "state": "OH", "street": "817 W ALEXIS RD", "postcode": "43612"}}},
{"geometry": {"type": "Point", "coordinates": [-83.5816060001, 41.692403212]}, "type": "Feature", "properties": {"collection_times": [{"days": "Mon-Fri", "time": "5:00pm"}, {"days": "Sat", "time": "1:45pm"}, {"days": "Sun", "time": "Closed"}], "id": "4361200089", "name": "USPS COLLECTION BOX - PO LOBBY", "address": {"city": "TOLEDO", "state": "OH", "street": "1568 W SYLVANIA AVE", "postcode": "43612"}}},
{"geometry": {"type": "Point", "coordinates": [-83.5666199703, 41.7232799952]}, "type": "Feature", "properties": {"collection_times": [{"days": "Mon-Sat", "time": "10:00am"}, {"days": "Sun", "time": "Closed"}], "id": "4361200090", "name": "USPS COLLECTION BOX - BLUE BOX", "address": {"city": "TOLEDO", "state": "OH", "street": "5860 LEWIS AVE", "postcode": "43612"}}},
{"geometry": {"type": "Point", "coordinates": [-83.5525003592, 41.6878526168]}, "type": "Feature", "properties": {"collection_times": [{"days": "Mon-Fri", "time": "10:00am"}, {"days": "Sat", "time": "10:45am"}, {"days": "Sun", "time": "Closed"}], "id": "4361200091", "name": "USPS COLLECTION BOX - BLUE BOX", "address": {"city": "TOLEDO", "state": "OH", "street": "300 PHILLIPS AVE", "postcode": "43612"}}},
{"geometry": {"type": "Point", "coordinates": [-83.617108659, 41.6919150212]}, "type": "Feature", "properties": {"collection_times": [{"days": "Mon-Fri", "time": "2:00pm"}, {"days": "Sat", "time": "1:15pm"}, {"days": "Sun", "time": "Closed"}], "id": "4361300005", "name": "USPS COLLECTION BOX - BLUE BOX", "address": {"city": "TOLEDO", "state": "OH", "street": "3030 W SYLVANIA AVE", "postcode": "43613"}}},
{"geometry": {"type": "Point", "coordinates": [-83.6052045429, 41.7220544497]}, "type": "Feature", "properties": {"collection_times": [{"days": "Mon-Fri", "time": "12:00pm"}, {"days": "Sat", "time": "12:15pm"}, {"days": "Sun", "time": "Closed"}], "id": "4361300007", "name": "USPS COLLECTION BOX - BLUE BOX", "address": {"city": "TOLEDO", "state": "OH", "street": "5830 DOUGLAS RD", "postcode": "43613"}}},
{"geometry": {"type": "Point", "coordinates": [-83.5980973254, 41.7211861578]}, "type": "Feature", "properties": {"collection_times": [{"days": "Mon-Sat", "time": "12:00pm"}, {"days": "Sun", "time": "Closed"}], "id": "4361300009", "name": "USPS COLLECTION BOX - BLUE BOX", "address": {"city": "TOLEDO", "state": "OH", "street": "2208 W ALEXIS RD", "postcode": "43613"}}},
{"geometry": {"type": "Point", "coordinates": [-83.6134391203, 41.6888677189]}, "type": "Feature", "properties": {"collection_times": [{"days": "Mon-Fri", "time": "2:00pm"}, {"days": "Sat", "time": "1:15pm"}, {"days": "Sun", "time": "Closed"}], "id": "4361300013", "name": "USPS COLLECTION BOX - BLUE BOX", "address": {"city": "TOLEDO", "state": "OH", "street": "3802 ELMHURST RD", "postcode": "43613"}}},
{"geometry": {"type": "Point", "coordinates": [-83.6169405364, 41.687915624]}, "type": "Feature", "properties": {"collection_times": [{"days": "Mon-Fri", "time": "2:00pm"}, {"days": "Sat", "time": "1:15pm"}, {"days": "Sun", "time": "Closed"}], "id": "4361300015", "name": "USPS COLLECTION BOX - BLUE BOX", "address": {"city": "TOLEDO", "state": "OH", "street": "3754 STANNARD DR", "postcode": "43613"}}},
{"geometry": {"type": "Point", "coordinates": [-83.6201311191, 41.7198813541]}, "type": "Feature", "properties": {"collection_times": [{"days": "Mon-Fri", "time": "1:15pm"}, {"days": "Sat", "time": "12:15pm"}, {"days": "Sun", "time": "Closed"}], "id": "4361300019", "name": "USPS COLLECTION BOX - BLUE BOX", "address": {"city": "TOLEDO", "state": "OH", "street": "3148 TREMAINSVILLE RD", "postcode": "43613"}}},
{"geometry": {"type": "Point", "coordinates": [-83.6163101617, 41.7167157559]}, "type": "Feature", "properties": {"collection_times": [{"days": "Mon-Fri", "time": "1:15pm"}, {"days": "Sat", "time": "12:15pm"}, {"days": "Sun", "time": "Closed"}], "id": "4361300024", "name": "USPS COLLECTION BOX - BLUE BOX", "address": {"city": "TOLEDO", "state": "OH", "street": "2975 TREMAINSVILLE RD", "postcode": "43613"}}},
{"geometry": {"type": "Point", "coordinates": [-83.6098204488, 41.7059792203]}, "type": "Feature", "properties": {"collection_times": [{"days": "Mon-Fri", "time": "1:30pm"}, {"days": "Sat", "time": "1:00pm"}, {"days": "Sun", "time": "Closed"}], "id": "4361300029", "name": "USPS COLLECTION BOX - BLUE BOX", "address": {"city": "TOLEDO", "state": "OH", "street": "4938 W BOWEN RD", "postcode": "43613"}}},
{"geometry": {"type": "Point", "coordinates": [-83.5929230629, 41.7068463292]}, "type": "Feature", "properties": {"collection_times": [{"days": "Mon-Fri", "time": "1:45pm"}, {"days": "Sat", "time": "12:45pm"}, {"days": "Sun", "time": "Closed"}], "id": "4361300031", "name": "USPS COLLECTION BOX - BLUE BOX", "address": {"city": "TOLEDO", "state": "OH", "street": "2021 W LASKEY RD", "postcode": "43613"}}},
{"geometry": {"type": "Point", "coordinates": [-83.5854207372, 41.7056042223]}, "type": "Feature", "properties": {"collection_times": [{"days": "Mon-Fri", "time": "1:45pm"}, {"days": "Sat", "time": "12:45pm"}, {"days": "Sun", "time": "Closed"}], "id": "4361300034", "name": "USPS COLLECTION BOX - BLUE BOX", "address": {"city": "TOLEDO", "state": "OH", "street": "4925 JACKMAN RD", "postcode": "43613"}}},
{"geometry": {"type": "Point", "coordinates": [-83.5855902174, 41.7142968968]}, "type": "Feature", "properties": {"collection_times": [{"days": "Mon-Sat", "time": "12:00pm"}, {"days": "Sun", "time": "Closed"}], "id": "4361300038", "name": "USPS COLLECTION BOX - BLUE BOX", "address": {"city": "TOLEDO", "state": "OH", "street": "5411 JACKMAN RD", "postcode": "43613"}}},
{"geometry": {"type": "Point", "coordinates": [-83.6242679104, 41.7244958003]}, "type": "Feature", "properties": {"collection_times": [{"days": "Mon-Fri", "time": "1:15pm"}, {"days": "Sat", "time": "12:30pm"}, {"days": "Sun", "time": "Closed"}], "id": "4361300040", "name": "USPS COLLECTION BOX - BLUE BOX", "address": {"city": "TOLEDO", "state": "OH", "street": "6008 SECOR RD", "postcode": "43613"}}},
{"geometry": {"type": "Point", "coordinates": [-83.6205749865, 41.6884392765]}, "type": "Feature", "properties": {"collection_times": [{"days": "Mon-Sat", "time": "1:00pm"}, {"days": "Sun", "time": "Closed"}], "id": "4361300041", "name": "USPS COLLECTION BOX - BLUE BOX", "address": {"city": "TOLEDO", "state": "OH", "street": "4533 MONROE ST", "postcode": "43613"}}},
{"geometry": {"type": "Point", "coordinates": [-83.6065162646, 41.692175096]}, "type": "Feature", "properties": {"collection_times": [{"days": "Mon-Fri", "time": "1:45pm"}, {"days": "Sat", "time": "1:00pm"}, {"days": "Sun", "time": "Closed"}], "id": "4361300042", "name": "USPS COLLECTION BOX - BLUE BOX", "address": {"city": "TOLEDO", "state": "OH", "street": "2600 W SYLVANIA AVE", "postcode": "43613"}}},
{"geometry": {"type": "Point", "coordinates": [-83.6072747211, 41.7089697406]}, "type": "Feature", "properties": {"collection_times": [{"days": "Mon-Fri", "time": "5:00pm"}, {"days": "Sat", "time": "2:00pm"}, {"days": "Sun", "time": "Closed"}], "id": "4361300053", "name": "USPS COLLECTION BOX - BLUE BOX", "address": {"city": "TOLEDO", "state": "OH", "street": "2618 TREMAINSVILLE RD", "postcode": "43613"}}},
{"geometry": {"type": "Point", "coordinates": [-83.6072747211, 41.7089697406]}, "type": "Feature", "properties": {"collection_times": [{"days": "Mon-Fri", "time": "5:00pm"}, {"days": "Sat", "time": "2:00pm"}, {"days": "Sun", "time": "Closed"}], "id": "4361300057", "name": "USPS COLLECTION BOX - PO LOBBY", "address": {"city": "TOLEDO", "state": "OH", "street": "2618 TREMAINSVILLE RD", "postcode": "43613"}}},
{"geometry": {"type": "Point", "coordinates": [-83.6041073501, 41.7075811226]}, "type": "Feature", "properties": {"collection_times": [{"days": "Mon-Fri", "time": "5:00pm"}, {"days": "Sat", "time": "2:00pm"}, {"days": "Sun", "time": "Closed"}], "id": "4361300058", "name": "USPS COLLECTION BOX - EXPRESS", "address": {"city": "TOLEDO", "state": "OH", "street": "2618 TREMAINSVILLE RD", "postcode": "43613"}}},
{"geometry": {"type": "Point", "coordinates": [-83.588361962, 41.7211882311]}, "type": "Feature", "properties": {"collection_times": [{"days": "Mon-Sat", "time": "12:00pm"}, {"days": "Sun", "time": "Closed"}], "id": "4361300060", "name": "USPS COLLECTION BOX - BLUE BOX", "address": {"city": "TOLEDO", "state": "OH", "street": "1801 W ALEXIS RD", "postcode": "43613"}}},
{"geometry": {"type": "Point", "coordinates": [-83.600190008, 41.7067500211]}, "type": "Feature", "properties": {"collection_times": [{"days": "Mon-Fri", "time": "1:45pm"}, {"days": "Sat", "time": "1:00pm"}, {"days": "Sun", "time": "Closed"}], "id": "4361300065", "name": "USPS COLLECTION BOX - BLUE BOX", "address": {"city": "TOLEDO", "state": "OH", "street": "2310 W LASKEY RD", "postcode": "43613"}}},
{"geometry": {"type": "Point", "coordinates": [-83.6257489913, 41.6111295705]}, "type": "Feature", "properties": {"collection_times": [{"days": "Mon-Sat", "time": "9:15am"}, {"days": "Sun", "time": "Closed"}], "id": "4361400002", "name": "USPS COLLECTION BOX - BLUE BOX", "address": {"city": "TOLEDO", "state": "OH", "street": "1544 S BYRNE RD", "postcode": "43614"}}},
{"geometry": {"type": "Point", "coordinates": [-83.6151023606, 41.6213550678]}, "type": "Feature", "properties": {"collection_times": [{"days": "Mon-Sat", "time": "10:00am"}, {"days": "Sun", "time": "Closed"}], "id": "4361400005", "name": "USPS COLLECTION BOX - BLUE BOX", "address": {"city": "TOLEDO", "state": "OH", "street": "3000 ARLINGTON AVE", "postcode": "43614"}}},
{"geometry": {"type": "Point", "coordinates": [-83.6457499284, 41.5943151876]}, "type": "Feature", "properties": {"collection_times": [{"days": "Mon-Sat", "time": "10:00am"}, {"days": "Sun", "time": "Closed"}], "id": "4361400006", "name": "USPS COLLECTION BOX - BLUE BOX", "address": {"city": "TOLEDO", "state": "OH", "street": "4400 HEATHERDOWNS BLVD", "postcode": "43614"}}},
{"geometry": {"type": "Point", "coordinates": [-83.6621308942, 41.6046398576]}, "type": "Feature", "properties": {"collection_times": [{"days": "Mon-Sat", "time": "10:15am"}, {"days": "Sun", "time": "Closed"}], "id": "4361400007", "name": "USPS COLLECTION BOX - BLUE BOX", "address": {"city": "TOLEDO", "state": "OH", "street": "5109 GLENDALE AVE", "postcode": "43614"}}},
{"geometry": {"type": "Point", "coordinates": [-83.6712526908, 41.603099645]}, "type": "Feature", "properties": {"collection_times": [{"days": "Mon-Fri", "time": "10:15am"}, {"days": "Sat-Sun", "time": "Closed"}], "id": "4361400009", "name": "USPS COLLECTION BOX - BLUE BOX", "address": {"city": "TOLEDO", "state": "OH", "street": "5566 SOUTHWYCK BLVD", "postcode": "43614"}}},
{"geometry": {"type": "Point", "coordinates": [-83.6604853983, 41.6018480744]}, "type": "Feature", "properties": {"collection_times": [{"days": "Mon-Sat", "time": "10:00am"}, {"days": "Sun", "time": "Closed"}], "id": "4361400013", "name": "USPS COLLECTION BOX - BLUE BOX", "address": {"city": "TOLEDO", "state": "OH", "street": "5020 RYAN RD", "postcode": "43614"}}},
{"geometry": {"type": "Point", "coordinates": [-83.5870674161, 41.6128555076]}, "type": "Feature", "properties": {"collection_times": [{"days": "Mon-Sat", "time": "9:15am"}, {"days": "Sun", "time": "Closed"}], "id": "4361400015", "name": "USPS COLLECTION BOX - BLUE BOX", "address": {"city": "TOLEDO", "state": "OH", "street": "1456 HARVARD BLVD", "postcode": "43614"}}},
{"geometry": {"type": "Point", "coordinates": [-83.6688489182, 41.5977503046]}, "type": "Feature", "properties": {"collection_times": [{"days": "Mon-Sat", "time": "10:15am"}, {"days": "Sun", "time": "Closed"}], "id": "4361400019", "name": "USPS COLLECTION BOX - BLUE BOX", "address": {"city": "TOLEDO", "state": "OH", "street": "2159 ROCKSPRING RD", "postcode": "43614"}}},
{"geometry": {"type": "Point", "coordinates": [-83.610474452, 41.5994954623]}, "type": "Feature", "properties": {"collection_times": [{"days": "Mon-Sat", "time": "9:30am"}, {"days": "Sun", "time": "Closed"}], "id": "4361400027", "name": "USPS COLLECTION BOX - BLUE BOX", "address": {"city": "TOLEDO", "state": "OH", "street": "3662 RUGBY DR", "postcode": "43614"}}},
{"geometry": {"type": "Point", "coordinates": [-83.6102971813, 41.5936619984]}, "type": "Feature", "properties": {"collection_times": [{"days": "Mon-Sat", "time": "9:30am"}, {"days": "Sun", "time": "Closed"}], "id": "4361400028", "name": "USPS COLLECTION BOX - BLUE BOX", "address": {"city": "TOLEDO", "state": "OH", "street": "2755 COPLAND BLVD", "postcode": "43614"}}},
{"geometry": {"type": "Point", "coordinates": [-83.6194544666, 41.6029316649]}, "type": "Feature", "properties": {"collection_times": [{"days": "Mon-Sat", "time": "9:45am"}, {"days": "Sun", "time": "Closed"}], "id": "4361400031", "name": "USPS COLLECTION BOX - BLUE BOX", "address": {"city": "TOLEDO", "state": "OH", "street": "3162 GLENCAIRN AVE", "postcode": "43614"}}},
{"geometry": {"type": "Point", "coordinates": [-83.6616401842, 41.5946155569]}, "type": "Feature", "properties": {"collection_times": [{"days": "Mon-Sat", "time": "10:00am"}, {"days": "Sun", "time": "Closed"}], "id": "4361400037", "name": "USPS COLLECTION BOX - BLUE BOX", "address": {"city": "TOLEDO", "state": "OH", "street": "5106 HEATHERDOWNS BLVD", "postcode": "43614"}}},
{"geometry": {"type": "Point", "coordinates": [-83.6361992507, 41.6053389863]}, "type": "Feature", "properties": {"collection_times": [{"days": "Mon-Sat", "time": "9:45am"}, {"days": "Sun", "time": "Closed"}], "id": "4361400050", "name": "USPS COLLECTION BOX - BLUE BOX", "address": {"city": "TOLEDO", "state": "OH", "street": "3901 SHADYLAWN DR", "postcode": "43614"}}},
{"geometry": {"type": "Point", "coordinates": [-83.6256873849, 41.6126997991]}, "type": "Feature", "properties": {"collection_times": [{"days": "Mon-Fri", "time": "9:45am"}, {"days": "Sat", "time": "10:15am"}, {"days": "Sun", "time": "Closed"}], "id": "4361400053", "name": "USPS COLLECTION BOX - BLUE BOX", "address": {"city": "TOLEDO", "state": "OH", "street": "1453 S BYRNE RD", "postcode": "43614"}}},
{"geometry": {"type": "Point", "coordinates": [-83.625685458, 41.6131680196]}, "type": "Feature", "properties": {"collection_times": [{"days": "Mon-Sat", "time": "9:45am"}, {"days": "Sun", "time": "Closed"}], "id": "4361400054", "name": "USPS COLLECTION BOX - BLUE BOX", "address": {"city": "TOLEDO", "state": "OH", "street": "1339 S BYRNE RD", "postcode": "43614"}}},
{"geometry": {"type": "Point", "coordinates": [-83.6703471059, 41.6045304615]}, "type": "Feature", "properties": {"collection_times": [{"days": "Mon-Sat", "time": "10:15am"}, {"days": "Sun", "time": "Closed"}], "id": "4361400064", "name": "USPS COLLECTION BOX - BLUE BOX", "address": {"city": "TOLEDO", "state": "OH", "street": "5700 SOUTHWYCK BLVD", "postcode": "43614"}}},
{"geometry": {"type": "Point", "coordinates": [-83.6240493261, 41.6004576365]}, "type": "Feature", "properties": {"collection_times": [{"days": "Mon-Sat", "time": "9:30am"}, {"days": "Sun", "time": "Closed"}], "id": "4361400071", "name": "USPS COLLECTION BOX - BLUE BOX", "address": {"city": "TOLEDO", "state": "OH", "street": "2155 S BYRNE RD", "postcode": "43614"}}},
{"geometry": {"type": "Point", "coordinates": [-83.6060044582, 41.6120413938]}, "type": "Feature", "properties": {"collection_times": [{"days": "Mon-Sat", "time": "9:45am"}, {"days": "Sun", "time": "Closed"}], "id": "4361400079", "name": "USPS COLLECTION BOX - BLUE BOX", "address": {"city": "TOLEDO", "state": "OH", "street": "2555 GLENDALE AVE", "postcode": "43614"}}},
{"geometry": {"type": "Point", "coordinates": [-83.5998480461, 41.6186187746]}, "type": "Feature", "properties": {"collection_times": [{"days": "Mon-Fri", "time": "5:00pm"}, {"days": "Sat", "time": "1:45pm"}, {"days": "Sun", "time": "Closed"}], "id": "4361400081", "name": "USPS COLLECTION BOX - BLUE BOX", "address": {"city": "TOLEDO", "state": "OH", "street": "1144 S DETROIT AVE", "postcode": "43614"}}},
{"geometry": {"type": "Point", "coordinates": [-83.5998480461, 41.6186187746]}, "type": "Feature", "properties": {"collection_times": [{"days": "Mon-Fri", "time": "5:00pm"}, {"days": "Sat", "time": "1:45pm"}, {"days": "Sun", "time": "Closed"}], "id": "4361400082", "name": "USPS COLLECTION BOX - EXPRESS", "address": {"city": "TOLEDO", "state": "OH", "street": "1144 S DETROIT AVE", "postcode": "43614"}}},
{"geometry": {"type": "Point", "coordinates": [-83.5998480461, 41.6186187746]}, "type": "Feature", "properties": {"collection_times": [{"days": "Mon-Fri", "time": "2:00pm"}, {"days": "Sat", "time": "1:45pm"}, {"days": "Sun", "time": "Closed"}], "id": "4361400083", "name": "USPS COLLECTION BOX - PO LOBBY", "address": {"city": "TOLEDO", "state": "OH", "street": "1144 S DETROIT AVE", "postcode": "43614"}}},
{"geometry": {"type": "Point", "coordinates": [-83.5998480461, 41.6186187746]}, "type": "Feature", "properties": {"collection_times": [{"days": "Mon-Fri", "time": "5:00pm"}, {"days": "Sat", "time": "1:45pm"}, {"days": "Sun", "time": "Closed"}], "id": "4361400084", "name": "USPS COLLECTION BOX - PO LOBBY", "address": {"city": "TOLEDO", "state": "OH", "street": "1144 S DETROIT AVE", "postcode": "43614"}}},
{"geometry": {"type": "Point", "coordinates": [-83.5998480461, 41.6186187746]}, "type": "Feature", "properties": {"collection_times": [{"days": "Mon-Fri", "time": "5:00pm"}, {"days": "Sat", "time": "1:45pm"}, {"days": "Sun", "time": "Closed"}], "id": "4361400085", "name": "USPS COLLECTION BOX - APC", "address": {"city": "TOLEDO", "state": "OH", "street": "1144 S DETROIT AVE", "postcode": "43614"}}},
{"geometry": {"type": "Point", "coordinates": [-83.6240493261, 41.6004576365]}, "type": "Feature", "properties": {"collection_times": [{"days": "Mon-Sat", "time": "9:30am"}, {"days": "Sun", "time": "Closed"}], "id": "4361400087", "name": "USPS COLLECTION BOX - BLUE BOX", "address": {"city": "TOLEDO", "state": "OH", "street": "2155 S BYRNE RD", "postcode": "43614"}}},
{"geometry": {"type": "Point", "coordinates": [-83.5998480461, 41.6186187746]}, "type": "Feature", "properties": {"collection_times": [{"days": "Mon-Fri", "time": "5:00pm"}, {"days": "Sat", "time": "1:45pm"}, {"days": "Sun", "time": "Closed"}], "id": "4361400090", "name": "USPS COLLECTION BOX - BLUE BOX", "address": {"city": "TOLEDO", "state": "OH", "street": "1144 S DETROIT AVE", "postcode": "43614"}}},
{"geometry": {"type": "Point", "coordinates": [-83.6743883691, 41.6155163556]}, "type": "Feature", "properties": {"collection_times": [{"days": "Mon-Fri", "time": "12:45pm"}, {"days": "Sat", "time": "12:30pm"}, {"days": "Sun", "time": "Closed"}], "id": "4361500002", "name": "USPS COLLECTION BOX - BLUE BOX", "address": {"city": "TOLEDO", "state": "OH", "street": "1414 BARONIAL PLAZA DR", "postcode": "43615"}}},
{"geometry": {"type": "Point", "coordinates": [-83.6626774213, 41.6588489522]}, "type": "Feature", "properties": {"collection_times": [{"days": "Mon-Sat", "time": "10:15am"}, {"days": "Sun", "time": "Closed"}], "id": "4361500003", "name": "USPS COLLECTION BOX - BLUE BOX", "address": {"city": "TOLEDO", "state": "OH", "street": "1903 COPLEY DR", "postcode": "43615"}}},
{"geometry": {"type": "Point", "coordinates": [-83.6542441068, 41.6585035282]}, "type": "Feature", "properties": {"collection_times": [{"days": "Mon-Sat", "time": "10:15am"}, {"days": "Sun", "time": "Closed"}], "id": "4361500004", "name": "USPS COLLECTION BOX - BLUE BOX", "address": {"city": "TOLEDO", "state": "OH", "street": "1929 PENN RD", "postcode": "43615"}}},
{"geometry": {"type": "Point", "coordinates": [-83.6261279017, 41.6346658983]}, "type": "Feature", "properties": {"collection_times": [{"days": "Mon-Sat", "time": "9:00am"}, {"days": "Sun", "time": "Closed"}], "id": "4361500005", "name": "USPS COLLECTION BOX - BLUE BOX", "address": {"city": "TOLEDO", "state": "OH", "street": "300 S BYRNE RD", "postcode": "43615"}}},
{"geometry": {"type": "Point", "coordinates": [-83.6645050929, 41.6338494804]}, "type": "Feature", "properties": {"collection_times": [{"days": "Mon-Fri", "time": "12:00pm"}, {"days": "Sat", "time": "11:45am"}, {"days": "Sun", "time": "Closed"}], "id": "4361500007", "name": "USPS COLLECTION BOX - BLUE BOX", "address": {"city": "TOLEDO", "state": "OH", "street": "340 S REYNOLDS RD", "postcode": "43615"}}},
{"geometry": {"type": "Point", "coordinates": [-83.6455429404, 41.6770510307]}, "type": "Feature", "properties": {"collection_times": [{"days": "Mon-Fri", "time": "11:30am"}, {"days": "Sat", "time": "12:00pm"}, {"days": "Sun", "time": "Closed"}], "id": "4361500009", "name": "USPS COLLECTION BOX - BLUE BOX", "address": {"city": "TOLEDO", "state": "OH", "street": "4338 W CENTRAL AVE", "postcode": "43615"}}},
{"geometry": {"type": "Point", "coordinates": [-83.6686117738, 41.6534006431]}, "type": "Feature", "properties": {"collection_times": [{"days": "Mon-Sat", "time": "10:30am"}, {"days": "Sun", "time": "Closed"}], "id": "4361500011", "name": "USPS COLLECTION BOX - BLUE BOX", "address": {"city": "TOLEDO", "state": "OH", "street": "5353 DORR ST", "postcode": "43615"}}},
{"geometry": {"type": "Point", "coordinates": [-83.6841404675, 41.6762692103]}, "type": "Feature", "properties": {"collection_times": [{"days": "Mon-Sat", "time": "11:00am"}, {"days": "Sun", "time": "Closed"}], "id": "4361500013", "name": "USPS COLLECTION BOX - BLUE BOX", "address": {"city": "TOLEDO", "state": "OH", "street": "5956 W CENTRAL AVE", "postcode": "43615"}}},
{"geometry": {"type": "Point", "coordinates": [-83.6645334839, 41.6223759614]}, "type": "Feature", "properties": {"collection_times": [{"days": "Mon-Fri", "time": "12:15pm"}, {"days": "Sat", "time": "11:45am"}, {"days": "Sun", "time": "Closed"}], "id": "4361500017", "name": "USPS COLLECTION BOX - BLUE BOX", "address": {"city": "TOLEDO", "state": "OH", "street": "961 S REYNOLDS RD", "postcode": "43615"}}},
{"geometry": {"type": "Point", "coordinates": [-83.6660279337, 41.616536287]}, "type": "Feature", "properties": {"collection_times": [{"days": "Mon-Fri", "time": "12:45pm"}, {"days": "Sat", "time": "12:15pm"}, {"days": "Sun", "time": "Closed"}], "id": "4361500018", "name": "USPS COLLECTION BOX - BLUE BOX", "address": {"city": "TOLEDO", "state": "OH", "street": "5255 AIRPORT HWY", "postcode": "43615"}}},
{"geometry": {"type": "Point", "coordinates": [-83.6727062971, 41.6487019991]}, "type": "Feature", "properties": {"collection_times": [{"days": "Mon-Sat", "time": "11:00am"}, {"days": "Sun", "time": "Closed"}], "id": "4361500024", "name": "USPS COLLECTION BOX - BLUE BOX", "address": {"city": "TOLEDO", "state": "OH", "street": "5532 W CENTRAL AVE", "postcode": "43615"}}},
{"geometry": {"type": "Point", "coordinates": [-83.682594, 41.65323]}, "type": "Feature", "properties": {"collection_times": [{"days": "Mon-Sat", "time": "10:30am"}, {"days": "Sun", "time": "Closed"}], "id": "4361500025", "name": "USPS COLLECTION BOX - BLUE BOX", "address": {"city": "TOLEDO", "state": "OH", "street": "1235 N HOLLAND SYLVANIA RD", "postcode": "43615"}}},
{"geometry": {"type": "Point", "coordinates": [-83.6646115592, 41.6153278918]}, "type": "Feature", "properties": {"collection_times": [{"days": "Mon-Fri", "time": "11:45am"}, {"days": "Sat", "time": "11:30am"}, {"days": "Sun", "time": "Closed"}], "id": "4361500027", "name": "USPS COLLECTION BOX - BLUE BOX", "address": {"city": "TOLEDO", "state": "OH", "street": "1345 N REYNOLDS RD", "postcode": "43615"}}},
{"geometry": {"type": "Point", "coordinates": [-83.6645945751, 41.6386117399]}, "type": "Feature", "properties": {"collection_times": [{"days": "Mon-Fri", "time": "11:45am"}, {"days": "Sat", "time": "11:30am"}, {"days": "Sun", "time": "Closed"}], "id": "4361500032", "name": "USPS COLLECTION BOX - BLUE BOX", "address": {"city": "TOLEDO", "state": "OH", "street": "4 S REYNOLDS RD", "postcode": "43615"}}},
{"geometry": {"type": "Point", "coordinates": [-83.6862526105, 41.6614455471]}, "type": "Feature", "properties": {"collection_times": [{"days": "Mon-Fri", "time": "5:00pm"}, {"days": "Sat", "time": "1:45pm"}, {"days": "Sun", "time": "Closed"}], "id": "4361500038", "name": "USPS COLLECTION BOX - BLUE BOX", "address": {"city": "TOLEDO", "state": "OH", "street": "6020 W BANCROFT ST", "postcode": "43615"}}},
{"geometry": {"type": "Point", "coordinates": [-83.6679801922, 41.6693017458]}, "type": "Feature", "properties": {"collection_times": [{"days": "Mon-Fri", "time": "11:30am"}, {"days": "Sat", "time": "11:15am"}, {"days": "Sun", "time": "Closed"}], "id": "4361500041", "name": "USPS COLLECTION BOX - BLUE BOX", "address": {"city": "TOLEDO", "state": "OH", "street": "2600 N REYNOLDS RD", "postcode": "43615"}}},
{"geometry": {"type": "Point", "coordinates": [-83.6486629064, 41.6870542428]}, "type": "Feature", "properties": {"collection_times": [{"days": "Mon-Fri", "time": "11:30am"}, {"days": "Sat", "time": "11:45am"}, {"days": "Sun", "time": "Closed"}], "id": "4361500043", "name": "USPS COLLECTION BOX - BLUE BOX", "address": {"city": "TOLEDO", "state": "OH", "street": "3744 WESTCHESTER RD", "postcode": "43615"}}},
{"geometry": {"type": "Point", "coordinates": [-83.6771012299, 41.6239757851]}, "type": "Feature", "properties": {"collection_times": [{"days": "Mon-Fri", "time": "12:15pm"}, {"days": "Sat", "time": "11:45am"}, {"days": "Sun", "time": "Closed"}], "id": "4361500047", "name": "USPS COLLECTION BOX - BLUE BOX", "address": {"city": "TOLEDO", "state": "OH", "street": "5702 ANGOLA RD", "postcode": "43615"}}},
{"geometry": {"type": "Point", "coordinates": [-83.6727062969, 41.6486020179]}, "type": "Feature", "properties": {"collection_times": [{"days": "Mon-Sat", "time": "11:00am"}, {"days": "Sun", "time": "Closed"}], "id": "4361500049", "name": "USPS COLLECTION BOX - EXPRESS", "address": {"city": "TOLEDO", "state": "OH", "street": "5532 W CENTRAL AVE", "postcode": "43615"}}},
{"geometry": {"type": "Point", "coordinates": [-83.6715945659, 41.6163168455]}, "type": "Feature", "properties": {"collection_times": [{"days": "Mon-Fri", "time": "12:45pm"}, {"days": "Sat", "time": "12:15pm"}, {"days": "Sun", "time": "Closed"}], "id": "4361500054", "name": "USPS COLLECTION BOX - BLUE BOX", "address": {"city": "TOLEDO", "state": "OH", "street": "5501 AIRPORT HWY", "postcode": "43615"}}},
{"geometry": {"type": "Point", "coordinates": [-83.6727062969, 41.6486020179]}, "type": "Feature", "properties": {"collection_times": [{"days": "Mon-Fri", "time": "5:00pm"}, {"days": "Sat", "time": "1:45pm"}, {"days": "Sun", "time": "Closed"}], "id": "4361500055", "name": "USPS COLLECTION BOX - EXPRESS", "address": {"city": "TOLEDO", "state": "OH", "street": "6020 W BANCROFT ST", "postcode": "43615"}}},
{"geometry": {"type": "Point", "coordinates": [-83.6862526105, 41.6614455471]}, "type": "Feature", "properties": {"collection_times": [{"days": "Mon-Fri", "time": "5:00pm"}, {"days": "Sat", "time": "1:45pm"}, {"days": "Sun", "time": "Closed"}], "id": "4361500056", "name": "USPS COLLECTION BOX - PO LOBBY", "address": {"city": "TOLEDO", "state": "OH", "street": "6020 W BANCROFT ST", "postcode": "43615"}}},
{"geometry": {"type": "Point", "coordinates": [-83.641005613, 41.6308873511]}, "type": "Feature", "properties": {"collection_times": [{"days": "Mon-Fri", "time": "1:00pm"}, {"days": "Sat", "time": "12:00pm"}, {"days": "Sun", "time": "Closed"}], "id": "4361500058", "name": "USPS COLLECTION BOX - BLUE BOX", "address": {"city": "TOLEDO", "state": "OH", "street": "4223 SOUTH AVE", "postcode": "43615"}}},
{"geometry": {"type": "Point", "coordinates": [-83.6645945751, 41.6386117399]}, "type": "Feature", "properties": {"collection_times": [{"days": "Mon-Fri", "time": "11:45am"}, {"days": "Sat", "time": "11:30am"}, {"days": "Sun", "time": "Closed"}], "id": "4361500059", "name": "USPS COLLECTION BOX - BLUE BOX", "address": {"city": "TOLEDO", "state": "OH", "street": "4 S REYNOLDS RD", "postcode": "43615"}}},
{"geometry": {"type": "Point", "coordinates": [-83.6862526105, 41.6614455471]}, "type": "Feature", "properties": {"collection_times": [{"days": "Mon-Fri", "time": "5:00pm"}, {"days": "Sat", "time": "1:45pm"}, {"days": "Sun", "time": "Closed"}], "id": "4361500060", "name": "USPS COLLECTION BOX - BLUE BOX", "address": {"city": "TOLEDO", "state": "OH", "street": "6020 W BANCROFT ST", "postcode": "43615"}}},
{"geometry": {"type": "Point", "coordinates": [-83.6862526105, 41.6614455471]}, "type": "Feature", "properties": {"collection_times": [{"days": "Mon-Fri", "time": "5:00pm"}, {"days": "Sat", "time": "1:45pm"}, {"days": "Sun", "time": "Closed"}], "id": "4361500061", "name": "USPS COLLECTION BOX - BLUE BOX", "address": {"city": "TOLEDO", "state": "OH", "street": "6020 W BANCROFT ST", "postcode": "43615"}}},
{"geometry": {"type": "Point", "coordinates": [-83.6862526105, 41.6614455471]}, "type": "Feature", "properties": {"collection_times": [{"days": "Mon-Fri", "time": "5:00pm"}, {"days": "Sat", "time": "1:45pm"}, {"days": "Sun", "time": "Closed"}], "id": "4361500062", "name": "USPS COLLECTION BOX - BLUE BOX", "address": {"city": "TOLEDO", "state": "OH", "street": "6020 W BANCROFT ST", "postcode": "43615"}}},
{"geometry": {"type": "Point", "coordinates": [-83.64327397, 41.6202008337]}, "type": "Feature", "properties": {"collection_times": [{"days": "Mon-Fri", "time": "1:00pm"}, {"days": "Sat", "time": "12:00pm"}, {"days": "Sun", "time": "Closed"}], "id": "4361500064", "name": "USPS COLLECTION BOX - BLUE BOX", "address": {"city": "TOLEDO", "state": "OH", "street": "4230 AIRPORT HWY", "postcode": "43615"}}},
{"geometry": {"type": "Point", "coordinates": [-83.6737935929, 41.615784179]}, "type": "Feature", "properties": {"collection_times": [{"days": "Mon-Fri", "time": "12:45pm"}, {"days": "Sat", "time": "12:30pm"}, {"days": "Sun", "time": "Closed"}], "id": "4361500065", "name": "USPS COLLECTION BOX - BLUE BOX", "address": {"city": "TOLEDO", "state": "OH", "street": "5555 AIRPORT HWY", "postcode": "43615"}}},
{"geometry": {"type": "Point", "coordinates": [-83.6825997101, 41.6629335564]}, "type": "Feature", "properties": {"collection_times": [{"days": "Mon-Sat", "time": "10:45am"}, {"days": "Sun", "time": "Closed"}], "id": "4361500067", "name": "USPS COLLECTION BOX - BLUE BOX", "address": {"city": "TOLEDO", "state": "OH", "street": "2257 N HOLLAND SYLVANIA RD", "postcode": "43615"}}},
{"geometry": {"type": "Point", "coordinates": [-83.6862526105, 41.6614455471]}, "type": "Feature", "properties": {"collection_times": [{"days": "Mon-Fri", "time": "5:00pm"}, {"days": "Sat", "time": "4:45pm"}, {"days": "Sun", "time": "Closed"}], "id": "4361500069", "name": "USPS COLLECTION BOX - APC", "address": {"city": "TOLEDO", "state": "OH", "street": "6020 W BANCROFT ST", "postcode": "43615"}}},
{"geometry": {"type": "Point", "coordinates": [-83.6862526105, 41.6614455471]}, "type": "Feature", "properties": {"collection_times": [{"days": "Mon-Fri", "time": "5:00pm"}, {"days": "Sat", "time": "4:00pm"}, {"days": "Sun", "time": "Closed"}], "id": "4361500070", "name": "USPS COLLECTION BOX - BLUE BOX", "address": {"city": "TOLEDO", "state": "OH", "street": "6020 W BANCROFT ST", "postcode": "43615"}}},
{"geometry": {"type": "Point", "coordinates": [-83.5032333993, 41.6273248937]}, "type": "Feature", "properties": {"collection_times": [{"days": "Mon-Fri", "time": "1:15pm"}, {"days": "Sat", "time": "12:45pm"}, {"days": "Sun", "time": "Closed"}], "id": "4361600002", "name": "USPS COLLECTION BOX - BLUE BOX", "address": {"city": "OREGON", "state": "OH", "street": "1920 WOODVILLE RD", "postcode": "43616"}}},
{"geometry": {"type": "Point", "coordinates": [-83.4945482357, 41.643732175]}, "type": "Feature", "properties": {"collection_times": [{"days": "Mon-Sat", "time": "11:15am"}, {"days": "Sun", "time": "Closed"}], "id": "4361600003", "name": "USPS COLLECTION BOX - BLUE BOX", "address": {"city": "OREGON", "state": "OH", "street": "2260 STARR AVE", "postcode": "43616"}}},
{"geometry": {"type": "Point", "coordinates": [-83.4838014662, 41.6294882767]}, "type": "Feature", "properties": {"collection_times": [{"days": "Mon-Sat", "time": "11:15am"}, {"days": "Sun", "time": "Closed"}], "id": "4361600006", "name": "USPS COLLECTION BOX - BLUE BOX", "address": {"city": "OREGON", "state": "OH", "street": "2707 PICKLE RD", "postcode": "43616"}}},
{"geometry": {"type": "Point", "coordinates": [-83.4698992369, 41.6370517603]}, "type": "Feature", "properties": {"collection_times": [{"days": "Mon-Fri", "time": "12:30pm"}, {"days": "Sat", "time": "12:15pm"}, {"days": "Sun", "time": "Closed"}], "id": "4361600009", "name": "USPS COLLECTION BOX - BLUE BOX", "address": {"city": "OREGON", "state": "OH", "street": "3301 NAVARRE AVE", "postcode": "43616"}}},
{"geometry": {"type": "Point", "coordinates": [-83.4283661872, 41.6354376563]}, "type": "Feature", "properties": {"collection_times": [{"days": "Mon-Sat", "time": "11:30am"}, {"days": "Sun", "time": "Closed"}], "id": "4361600010", "name": "USPS COLLECTION BOX - BLUE BOX", "address": {"city": "OREGON", "state": "OH", "street": "930 S WYNN RD", "postcode": "43616"}}},
{"geometry": {"type": "Point", "coordinates": [-83.419938271, 41.6524507458]}, "type": "Feature", "properties": {"collection_times": [{"days": "Mon-Fri", "time": "12:00pm"}, {"days": "Sat", "time": "11:45am"}, {"days": "Sun", "time": "Closed"}], "id": "4361600011", "name": "USPS COLLECTION BOX - BLUE BOX", "address": {"city": "OREGON", "state": "OH", "street": "5330 SEAMAN RD", "postcode": "43616"}}},
{"geometry": {"type": "Point", "coordinates": [-83.4096938918, 41.6887408841]}, "type": "Feature", "properties": {"collection_times": [{"days": "Mon-Sat", "time": "11:45am"}, {"days": "Sun", "time": "Closed"}], "id": "4361600014", "name": "USPS COLLECTION BOX - BLUE BOX", "address": {"city": "OREGON", "state": "OH", "street": "1950 N STADIUM RD", "postcode": "43616"}}},
{"geometry": {"type": "Point", "coordinates": [-83.4876070372, 41.6417433332]}, "type": "Feature", "properties": {"collection_times": [{"days": "Mon-Fri", "time": "12:15pm"}, {"days": "Sat", "time": "12:00pm"}, {"days": "Sun", "time": "Closed"}], "id": "4361600019", "name": "USPS COLLECTION BOX - BLUE BOX", "address": {"city": "OREGON", "state": "OH", "street": "2545 EASTMORELAND DR", "postcode": "43616"}}},
{"geometry": {"type": "Point", "coordinates": [-83.474686022, 41.6344351651]}, "type": "Feature", "properties": {"collection_times": [{"days": "Mon-Fri", "time": "5:15pm"}, {"days": "Sat", "time": "1:45pm"}, {"days": "Sun", "time": "Closed"}], "id": "4361600025", "name": "USPS COLLECTION BOX - BLUE BOX", "address": {"city": "OREGON", "state": "OH", "street": "3054 DUSTIN RD", "postcode": "43616"}}},
{"geometry": {"type": "Point", "coordinates": [-83.4715419412, 41.6449463011]}, "type": "Feature", "properties": {"collection_times": [{"days": "Mon-Fri", "time": "12:15pm"}, {"days": "Sat", "time": "12:00pm"}, {"days": "Sun", "time": "Closed"}], "id": "4361600031", "name": "USPS COLLECTION BOX - BLUE BOX", "address": {"city": "OREGON", "state": "OH", "street": "344 EASTHAMPTON DR", "postcode": "43616"}}},
{"geometry": {"type": "Point", "coordinates": [-83.474686022, 41.6344351651]}, "type": "Feature", "properties": {"collection_times": [{"days": "Mon-Fri", "time": "5:15pm"}, {"days": "Sat", "time": "1:45pm"}, {"days": "Sun", "time": "Closed"}], "id": "4361600035", "name": "USPS COLLECTION BOX - BLUE BOX", "address": {"city": "OREGON", "state": "OH", "street": "3054 DUSTIN RD", "postcode": "43616"}}},
{"geometry": {"type": "Point", "coordinates": [-83.477276496, 41.6344134341]}, "type": "Feature", "properties": {"collection_times": [{"days": "Mon-Sat", "time": "11:15am"}, {"days": "Sun", "time": "Closed"}], "id": "4361600036", "name": "USPS COLLECTION BOX - BLUE BOX", "address": {"city": "OREGON", "state": "OH", "street": "2930 DUSTIN RD", "postcode": "43616"}}},
{"geometry": {"type": "Point", "coordinates": [-83.4659665902, 41.6443004625]}, "type": "Feature", "properties": {"collection_times": [{"days": "Mon-Fri", "time": "5:15pm"}, {"days": "Sat", "time": "1:45pm"}, {"days": "Sun", "time": "Closed"}], "id": "4361600037", "name": "USPS COLLECTION BOX - EXPRESS", "address": {"city": "OREGON", "state": "OH", "street": "3054 DUSTIN RD", "postcode": "43616"}}},
{"geometry": {"type": "Point", "coordinates": [-83.4801068828, 41.6196282952]}, "type": "Feature", "properties": {"collection_times": [{"days": "Mon-Fri", "time": "12:45pm"}, {"days": "Sat", "time": "12:30pm"}, {"days": "Sun", "time": "Closed"}], "id": "4361600040", "name": "USPS COLLECTION BOX - BLUE BOX", "address": {"city": "OREGON", "state": "OH", "street": "2751 BAY PARK DR", "postcode": "43616"}}},
{"geometry": {"type": "Point", "coordinates": [-83.474686022, 41.6344351651]}, "type": "Feature", "properties": {"collection_times": [{"days": "Mon-Fri", "time": "5:15pm"}, {"days": "Sat", "time": "1:45pm"}, {"days": "Sun", "time": "Closed"}], "id": "4361600042", "name": "USPS COLLECTION BOX - PO LOBBY", "address": {"city": "OREGON", "state": "OH", "street": "3054 DUSTIN RD", "postcode": "43616"}}},
{"geometry": {"type": "Point", "coordinates": [-83.474686022, 41.6344351651]}, "type": "Feature", "properties": {"collection_times": [{"days": "Mon-Fri", "time": "5:15pm"}, {"days": "Sat", "time": "12:00pm"}, {"days": "Sun", "time": "Closed"}], "id": "4361600043", "name": "USPS COLLECTION BOX - APC", "address": {"city": "OREGON", "state": "OH", "street": "3054 DUSTIN RD", "postcode": "43616"}}},
{"geometry": {"type": "Point", "coordinates": [-83.3744092599, 41.6381700305]}, "type": "Feature", "properties": {"collection_times": [{"days": "Mon-Fri", "time": "11:45am"}, {"days": "Sat", "time": "1:00pm"}, {"days": "Sun", "time": "Closed"}], "id": "4361600046", "name": "USPS COLLECTION BOX - BLUE BOX", "address": {"city": "OREGON", "state": "OH", "street": "7410 JERUSALEM RD", "postcode": "43616"}}},
{"geometry": {"type": "Point", "coordinates": [-83.7035503484, 41.6752687522]}, "type": "Feature", "properties": {"collection_times": [{"days": "Mon-Sat", "time": "11:00am"}, {"days": "Sun", "time": "Closed"}], "id": "4361700001", "name": "USPS COLLECTION BOX - BLUE BOX", "address": {"city": "TOLEDO", "state": "OH", "street": "6710 W CENTRAL AVE", "postcode": "43617"}}},
{"geometry": {"type": "Point", "coordinates": [-83.7050484477, 41.6643304579]}, "type": "Feature", "properties": {"collection_times": [{"days": "Mon-Sat", "time": "10:45am"}, {"days": "Sun", "time": "Closed"}], "id": "4361700002", "name": "USPS COLLECTION BOX - BLUE BOX", "address": {"city": "TOLEDO", "state": "OH", "street": "2428 CHRISWOOD RD", "postcode": "43617"}}},
{"geometry": {"type": "Point", "coordinates": [-83.7009445675, 41.6755087448]}, "type": "Feature", "properties": {"collection_times": [{"days": "Mon-Sat", "time": "11:00am"}, {"days": "Sun", "time": "Closed"}], "id": "4361700010", "name": "USPS COLLECTION BOX - BLUE BOX", "address": {"city": "TOLEDO", "state": "OH", "street": "6610 W CENTRAL AVE", "postcode": "43617"}}},
{"geometry": {"type": "Point", "coordinates": [-83.707195689, 41.6746287917]}, "type": "Feature", "properties": {"collection_times": [{"days": "Mon-Fri", "time": "11:00am"}, {"days": "Sat", "time": "11:15am"}, {"days": "Sun", "time": "Closed"}], "id": "4361700011", "name": "USPS COLLECTION BOX - BLUE BOX", "address": {"city": "TOLEDO", "state": "OH", "street": "6800 W CENTRAL AVE", "postcode": "43617"}}},
{"geometry": {"type": "Point", "coordinates": [-83.7171648239, 41.673791904]}, "type": "Feature", "properties": {"collection_times": [{"days": "Mon-Sat", "time": "11:15am"}, {"days": "Sun", "time": "Closed"}], "id": "4361700012", "name": "USPS COLLECTION BOX - BLUE BOX", "address": {"city": "TOLEDO", "state": "OH", "street": "7240 W CENTRAL AVE", "postcode": "43617"}}},
{"geometry": {"type": "Point", "coordinates": [-83.7171648239, 41.673791904]}, "type": "Feature", "properties": {"collection_times": [{"days": "Mon-Sat", "time": "11:15am"}, {"days": "Sun", "time": "Closed"}], "id": "4361700013", "name": "USPS COLLECTION BOX - BLUE BOX", "address": {"city": "TOLEDO", "state": "OH", "street": "7240 W CENTRAL AVE", "postcode": "43617"}}},
{"geometry": {"type": "Point", "coordinates": [-83.5370885827, 41.612728931]}, "type": "Feature", "properties": {"collection_times": [{"days": "Mon-Sat", "time": "10:45am"}, {"days": "Sun", "time": "Closed"}], "id": "4361900004", "name": "USPS COLLECTION BOX - BLUE BOX", "address": {"city": "NORTHWOOD", "state": "OH", "street": "2214 SHEFFIELD PL", "postcode": "43619"}}},
{"geometry": {"type": "Point", "coordinates": [-83.4888923396, 41.6181853561]}, "type": "Feature", "properties": {"collection_times": [{"days": "Mon-Fri", "time": "1:00pm"}, {"days": "Sat", "time": "12:45pm"}, {"days": "Sun", "time": "Closed"}], "id": "4361900006", "name": "USPS COLLECTION BOX - BLUE BOX", "address": {"city": "NORTHWOOD", "state": "OH", "street": "2513 WOODVILLE RD", "postcode": "43619"}}},
{"geometry": {"type": "Point", "coordinates": [-83.4864638538, 41.6165439737]}, "type": "Feature", "properties": {"collection_times": [{"days": "Mon-Fri", "time": "1:00pm"}, {"days": "Sat", "time": "12:45pm"}, {"days": "Sun", "time": "Closed"}], "id": "4361900008", "name": "USPS COLLECTION BOX - BLUE BOX", "address": {"city": "NORTHWOOD", "state": "OH", "street": "2680 WOODVILLE RD", "postcode": "43619"}}},
{"geometry": {"type": "Point", "coordinates": [-83.5380995883, 41.6090320515]}, "type": "Feature", "properties": {"collection_times": [{"days": "Mon-Fri", "time": "2:30pm"}, {"days": "Sat", "time": "1:15pm"}, {"days": "Sun", "time": "Closed"}], "id": "4361900015", "name": "USPS COLLECTION BOX - BLUE BOX", "address": {"city": "NORTHWOOD", "state": "OH", "street": "2523 OREGON RD", "postcode": "43619"}}},
{"geometry": {"type": "Point", "coordinates": [-83.553165337, 41.6658503021]}, "type": "Feature", "properties": {"collection_times": [{"days": "Mon-Fri", "time": "5:00pm"}, {"days": "Sat", "time": "1:45pm"}, {"days": "Sun", "time": "Closed"}], "id": "4362000010", "name": "USPS COLLECTION BOX - BLUE BOX", "address": {"city": "TOLEDO", "state": "OH", "street": "2280 ASHLAND AVE", "postcode": "43620"}}},
{"geometry": {"type": "Point", "coordinates": [-83.5533489958, 41.6640224424]}, "type": "Feature", "properties": {"collection_times": [{"days": "Mon-Fri", "time": "5:00pm"}, {"days": "Sat", "time": "1:45pm"}, {"days": "Sun", "time": "Closed"}], "id": "4362000019", "name": "USPS COLLECTION BOX - EXPRESS", "address": {"city": "TOLEDO", "state": "OH", "street": "2280 ASHLAND AVE", "postcode": "43620"}}},
{"geometry": {"type": "Point", "coordinates": [-83.553165337, 41.6658503021]}, "type": "Feature", "properties": {"collection_times": [{"days": "Mon-Fri", "time": "5:00pm"}, {"days": "Sat", "time": "9:30am"}, {"days": "Sun", "time": "Closed"}], "id": "4362000020", "name": "USPS COLLECTION BOX - PO LOBBY", "address": {"city": "TOLEDO", "state": "OH", "street": "2280 ASHLAND AVE", "postcode": "43620"}}},
{"geometry": {"type": "Point", "coordinates": [-83.6250654242, 41.706314278]}, "type": "Feature", "properties": {"collection_times": [{"days": "Mon-Fri", "time": "1:30pm"}, {"days": "Sat", "time": "12:45pm"}, {"days": "Sun", "time": "Closed"}], "id": "4362300001", "name": "USPS COLLECTION BOX - BLUE BOX", "address": {"city": "TOLEDO", "state": "OH", "street": "3332 W LASKEY RD", "postcode": "43623"}}},
{"geometry": {"type": "Point", "coordinates": [-83.6464963966, 41.6913976389]}, "type": "Feature", "properties": {"collection_times": [{"days": "Mon-Fri", "time": "11:00am"}, {"days": "Sat", "time": "11:30am"}, {"days": "Sun", "time": "Closed"}], "id": "4362300003", "name": "USPS COLLECTION BOX - BLUE BOX", "address": {"city": "TOLEDO", "state": "OH", "street": "4352 W SYLVANIA AVE", "postcode": "43623"}}},
{"geometry": {"type": "Point", "coordinates": [-83.6427457457, 41.691111792]}, "type": "Feature", "properties": {"collection_times": [{"days": "Mon-Fri", "time": "12:00pm"}, {"days": "Sat", "time": "12:30pm"}, {"days": "Sun", "time": "Closed"}], "id": "4362300004", "name": "USPS COLLECTION BOX - BLUE BOX", "address": {"city": "TOLEDO", "state": "OH", "street": "4210 W SYLVANIA AVE", "postcode": "43623"}}},
{"geometry": {"type": "Point", "coordinates": [-83.623335755, 41.6953893716]}, "type": "Feature", "properties": {"collection_times": [{"days": "Mon-Fri", "time": "10:15am"}, {"days": "Sat", "time": "10:30am"}, {"days": "Sun", "time": "Closed"}], "id": "4362300007", "name": "USPS COLLECTION BOX - BLUE BOX", "address": {"city": "TOLEDO", "state": "OH", "street": "4235 SECOR RD", "postcode": "43623"}}},
{"geometry": {"type": "Point", "coordinates": [-83.6448928162, 41.6976062367]}, "type": "Feature", "properties": {"collection_times": [{"days": "Mon-Fri", "time": "10:45am"}, {"days": "Sat", "time": "11:15am"}, {"days": "Sun", "time": "Closed"}], "id": "4362300008", "name": "USPS COLLECTION BOX - BLUE BOX", "address": {"city": "TOLEDO", "state": "OH", "street": "4427 TALMADGE RD", "postcode": "43623"}}},
{"geometry": {"type": "Point", "coordinates": [-83.6449198114, 41.7005574676]}, "type": "Feature", "properties": {"collection_times": [{"days": "Mon-Fri", "time": "10:30am"}, {"days": "Sat", "time": "10:45am"}, {"days": "Sun", "time": "Closed"}], "id": "4362300009", "name": "USPS COLLECTION BOX - BLUE BOX", "address": {"city": "TOLEDO", "state": "OH", "street": "4620 TALMADGE RD", "postcode": "43623"}}},
{"geometry": {"type": "Point", "coordinates": [-83.6346610056, 41.6950842323]}, "type": "Feature", "properties": {"collection_times": [{"days": "Mon-Fri", "time": "12:00pm"}, {"days": "Sat", "time": "12:30pm"}, {"days": "Sun", "time": "Closed"}], "id": "4362300010", "name": "USPS COLLECTION BOX - BLUE BOX", "address": {"city": "TOLEDO", "state": "OH", "street": "4841 MONROE ST", "postcode": "43623"}}},
{"geometry": {"type": "Point", "coordinates": [-83.6571749169, 41.70342213]}, "type": "Feature", "properties": {"collection_times": [{"days": "Mon-Fri", "time": "10:45am"}, {"days": "Sat", "time": "11:00am"}, {"days": "Sun", "time": "Closed"}], "id": "4362300011", "name": "USPS COLLECTION BOX - BLUE BOX", "address": {"city": "TOLEDO", "state": "OH", "street": "5333 MONROE ST", "postcode": "43623"}}},
{"geometry": {"type": "Point", "coordinates": [-83.6492591177, 41.6957383445]}, "type": "Feature", "properties": {"collection_times": [{"days": "Mon-Fri", "time": "11:00am"}, {"days": "Sat", "time": "11:30am"}, {"days": "Sun", "time": "Closed"}], "id": "4362300020", "name": "USPS COLLECTION BOX - BLUE BOX", "address": {"city": "TOLEDO", "state": "OH", "street": "4268 ROSE GARDEN DR", "postcode": "43623"}}},
{"geometry": {"type": "Point", "coordinates": [-83.6286708999, 41.7206940469]}, "type": "Feature", "properties": {"collection_times": [{"days": "Mon-Fri", "time": "1:30pm"}, {"days": "Sat", "time": "12:30pm"}, {"days": "Sun", "time": "Closed"}], "id": "4362300022", "name": "USPS COLLECTION BOX - BLUE BOX", "address": {"city": "TOLEDO", "state": "OH", "street": "3455 W ALEXIS RD", "postcode": "43623"}}},
{"geometry": {"type": "Point", "coordinates": [-83.6459845693, 41.7042332963]}, "type": "Feature", "properties": {"collection_times": [{"days": "Mon-Fri", "time": "10:30am"}, {"days": "Sat", "time": "10:45am"}, {"days": "Sun", "time": "Closed"}], "id": "4362300023", "name": "USPS COLLECTION BOX - BLUE BOX", "address": {"city": "TOLEDO", "state": "OH", "street": "1000 REGENCY CT", "postcode": "43623"}}},
{"geometry": {"type": "Point", "coordinates": [-83.6312679993, 41.6898804138]}, "type": "Feature", "properties": {"collection_times": [{"days": "Mon-Sat", "time": "12:45pm"}, {"days": "Sun", "time": "Closed"}], "id": "4362300026", "name": "USPS COLLECTION BOX - BLUE BOX", "address": {"city": "TOLEDO", "state": "OH", "street": "3900 SUNFOREST CT", "postcode": "43623"}}},
{"geometry": {"type": "Point", "coordinates": [-83.648675671, 41.7004324488]}, "type": "Feature", "properties": {"collection_times": [{"days": "Mon-Fri", "time": "5:00pm"}, {"days": "Sat", "time": "1:45pm"}, {"days": "Sun", "time": "Closed"}], "id": "4362300032", "name": "USPS COLLECTION BOX - PO LOBBY", "address": {"city": "TOLEDO", "state": "OH", "street": "5151 MONROE ST", "postcode": "43623"}}},
{"geometry": {"type": "Point", "coordinates": [-83.687026959, 41.6933201357]}, "type": "Feature", "properties": {"collection_times": [{"days": "Mon-Fri", "time": "11:15am"}, {"days": "Sat", "time": "11:45am"}, {"days": "Sun", "time": "Closed"}], "id": "4362300037", "name": "USPS COLLECTION BOX - BLUE BOX", "address": {"city": "TOLEDO", "state": "OH", "street": "4159 N HOLLAND SYLVANIA RD", "postcode": "43623"}}},
{"geometry": {"type": "Point", "coordinates": [-83.6412966209, 41.6979067083]}, "type": "Feature", "properties": {"collection_times": [{"days": "Mon-Fri", "time": "12:00pm"}, {"days": "Sat", "time": "12:30pm"}, {"days": "Sun", "time": "Closed"}], "id": "4362300038", "name": "USPS COLLECTION BOX - BLUE BOX", "address": {"city": "TOLEDO", "state": "OH", "street": "5001 MONROE ST", "postcode": "43623"}}},
{"geometry": {"type": "Point", "coordinates": [-83.6450590269, 41.7050219143]}, "type": "Feature", "properties": {"collection_times": [{"days": "Mon-Fri", "time": "5:00pm"}, {"days": "Sat", "time": "1:45pm"}, {"days": "Sun", "time": "Closed"}], "id": "4362300042", "name": "USPS COLLECTION BOX - EXPRESS", "address": {"city": "TOLEDO", "state": "OH", "street": "5151 MONROE ST", "postcode": "43623"}}},
{"geometry": {"type": "Point", "coordinates": [-83.6330076275, 41.7133289443]}, "type": "Feature", "properties": {"collection_times": [{"days": "Mon-Fri", "time": "1:30pm"}, {"days": "Sat", "time": "12:30pm"}, {"days": "Sun", "time": "Closed"}], "id": "4362300044", "name": "USPS COLLECTION BOX - BLUE BOX", "address": {"city": "TOLEDO", "state": "OH", "street": "3650 MCGREGOR LN", "postcode": "43623"}}},
{"geometry": {"type": "Point", "coordinates": [-83.6368297679, 41.696186686]}, "type": "Feature", "properties": {"collection_times": [{"days": "Mon-Fri", "time": "12:00pm"}, {"days": "Sat", "time": "12:30pm"}, {"days": "Sun", "time": "Closed"}], "id": "4362300045", "name": "USPS COLLECTION BOX - BLUE BOX", "address": {"city": "TOLEDO", "state": "OH", "street": "4895 MONROE ST", "postcode": "43623"}}},
{"geometry": {"type": "Point", "coordinates": [-83.645095946, 41.7018096037]}, "type": "Feature", "properties": {"collection_times": [{"days": "Mon-Fri", "time": "10:30am"}, {"days": "Sat", "time": "12:15pm"}, {"days": "Sun", "time": "Closed"}], "id": "4362300050", "name": "USPS COLLECTION BOX - BLUE BOX", "address": {"city": "TOLEDO", "state": "OH", "street": "4701 TALMADGE RD", "postcode": "43623"}}},
{"geometry": {"type": "Point", "coordinates": [-83.6312679993, 41.6898804138]}, "type": "Feature", "properties": {"collection_times": [{"days": "Mon-Fri", "time": "12:45pm"}, {"days": "Sat", "time": "10:45am"}, {"days": "Sun", "time": "Closed"}], "id": "4362300051", "name": "USPS COLLECTION BOX - BLUE BOX", "address": {"city": "TOLEDO", "state": "OH", "street": "3900 SUNFOREST CT", "postcode": "43623"}}},
{"geometry": {"type": "Point", "coordinates": [-83.6342935039, 41.6913602134]}, "type": "Feature", "properties": {"collection_times": [{"days": "Mon-Fri", "time": "12:45pm"}, {"days": "Sat", "time": "12:30pm"}, {"days": "Sun", "time": "Closed"}], "id": "4362300052", "name": "USPS COLLECTION BOX - BLUE BOX", "address": {"city": "TOLEDO", "state": "OH", "street": "3740 W SYLVANIA AVE", "postcode": "43623"}}},
{"geometry": {"type": "Point", "coordinates": [-83.6459845693, 41.7042332963]}, "type": "Feature", "properties": {"collection_times": [{"days": "Mon-Fri", "time": "10:30am"}, {"days": "Sat", "time": "10:45am"}, {"days": "Sun", "time": "Closed"}], "id": "4362300053", "name": "USPS COLLECTION BOX - BLUE BOX", "address": {"city": "TOLEDO", "state": "OH", "street": "1000 REGENCY CT", "postcode": "43623"}}},
{"geometry": {"type": "Point", "coordinates": [-83.6893645612, 41.6962214696]}, "type": "Feature", "properties": {"collection_times": [{"days": "Mon-Fri", "time": "11:15am"}, {"days": "Sat", "time": "11:45am"}, {"days": "Sun", "time": "Closed"}], "id": "4362300055", "name": "USPS COLLECTION BOX - BLUE BOX", "address": {"city": "TOLEDO", "state": "OH", "street": "4340 N HOLLAND SYLVANIA RD", "postcode": "43623"}}},
{"geometry": {"type": "Point", "coordinates": [-83.6256356865, 41.6917867361]}, "type": "Feature", "properties": {"collection_times": [{"days": "Mon-Fri", "time": "10:15am"}, {"days": "Sat", "time": "10:45am"}, {"days": "Sun", "time": "Closed"}], "id": "4362300056", "name": "USPS COLLECTION BOX - BLUE BOX", "address": {"city": "TOLEDO", "state": "OH", "street": "3404 W SYLVANIA AVE", "postcode": "43623"}}},
{"geometry": {"type": "Point", "coordinates": [-83.648675671, 41.7004324488]}, "type": "Feature", "properties": {"collection_times": [{"days": "Mon-Fri", "time": "5:00pm"}, {"days": "Sat", "time": "1:45pm"}, {"days": "Sun", "time": "Closed"}], "id": "4362300057", "name": "USPS COLLECTION BOX - APC", "address": {"city": "TOLEDO", "state": "OH", "street": "5151 MONROE ST", "postcode": "43623"}}},
{"geometry": {"type": "Point", "coordinates": [-83.648675671, 41.7004324488]}, "type": "Feature", "properties": {"collection_times": [{"days": "Mon-Fri", "time": "5:00pm"}, {"days": "Sat-Sun", "time": "Closed"}], "id": "4362300059", "name": "USPS COLLECTION BOX - BLUE BOX", "address": {"city": "TOLEDO", "state": "OH", "street": "5151 MONROE ST", "postcode": "43623"}}},
{"geometry": {"type": "Point", "coordinates": [-83.6451755434, 41.7066677024]}, "type": "Feature", "properties": {"collection_times": [{"days": "Mon-Fri", "time": "11:00am"}, {"days": "Sat", "time": "1:00pm"}, {"days": "Sun", "time": "Closed"}], "id": "4362300062", "name": "USPS COLLECTION BOX - BLUE BOX", "address": {"city": "TOLEDO", "state": "OH", "street": "4217 TALMADGE RD", "postcode": "43623"}}},
{"geometry": {"type": "Point", "coordinates": [-83.6893645612, 41.6962214696]}, "type": "Feature", "properties": {"collection_times": [{"days": "Mon-Fri", "time": "11:15am"}, {"days": "Sat", "time": "11:45am"}, {"days": "Sun", "time": "Closed"}], "id": "4362300063", "name": "USPS COLLECTION BOX - BLUE BOX", "address": {"city": "TOLEDO", "state": "OH", "street": "4340 N HOLLAND SYLVANIA RD", "postcode": "43623"}}}
]}
