{"type": "FeatureCollection", "features": [
{"geometry": {"type": "Point", "coordinates": [-82.0152091632, 39.9498854866]}, "type": "Feature", "properties": {"collection_times": [{"days": "Mon-Fri", "time": "5:00pm"}, {"days": "Sat", "time": "4:00pm"}, {"days": "Sun", "time": "Closed"}], "id": "4370100000", "name": "USPS COLLECTION BOX - BLUE BOX", "address": {"city": "ZANESVILLE", "state": "OH", "street": "900 MCINTIRE AVE", "postcode": "43701"}}},
{"geometry": {"type": "Point", "coordinates": [-82.0086169855, 39.9495527922]}, "type": "Feature", "properties": {"collection_times": [{"days": "Mon-Fri", "time": "5:00pm"}, {"days": "Sat", "time": "4:00pm"}, {"days": "Sun", "time": "Closed"}], "id": "4370100002", "name": "USPS COLLECTION BOX - EXPRESS", "address": {"city": "ZANESVILLE", "state": "OH", "street": "900 MCINTIRE AVE", "postcode": "43701"}}},
{"geometry": {"type": "Point", "coordinates": [-82.0152091632, 39.9498854866]}, "type": "Feature", "properties": {"collection_times": [{"days": "Mon-Fri", "time": "5:00pm"}, {"days": "Sat", "time": "4:00pm"}, {"days": "Sun", "time": "Closed"}], "id": "4370100004", "name": "USPS COLLECTION BOX - BLUE BOX", "address": {"city": "ZANESVILLE", "state": "OH", "street": "900 MCINTIRE AVE", "postcode": "43701"}}},
{"geometry": {"type": "Point", "coordinates": [-82.0152091632, 39.9498854866]}, "type": "Feature", "properties": {"collection_times": [{"days": "Mon-Fri", "time": "5:00pm"}, {"days": "Sat", "time": "4:00pm"}, {"days": "Sun", "time": "Closed"}], "id": "4370100007", "name": "USPS COLLECTION BOX - BLUE BOX", "address": {"city": "ZANESVILLE", "state": "OH", "street": "900 MCINTIRE AVE", "postcode": "43701"}}},
{"geometry": {"type": "Point", "coordinates": [-82.0187364518, 39.981575628]}, "type": "Feature", "properties": {"collection_times": [{"days": "Mon-Sat", "time": "4:30pm"}, {"days": "Sun", "time": "Closed"}], "id": "4370100010", "name": "USPS COLLECTION BOX - BLUE BOX", "address": {"city": "ZANESVILLE", "state": "OH", "street": "3257 MAPLE AVE", "postcode": "43701"}}},
{"geometry": {"type": "Point", "coordinates": [-82.074802463, 39.8822813529]}, "type": "Feature", "properties": {"collection_times": [{"days": "Mon-Sat", "time": "1:00pm"}, {"days": "Sun", "time": "Closed"}], "id": "4370100011", "name": "USPS COLLECTION BOX - BLUE BOX", "address": {"city": "ZANESVILLE", "state": "OH", "street": "2750 MAYSVILLE PIKE", "postcode": "43701"}}},
{"geometry": {"type": "Point", "coordinates": [-82.0147104146, 39.9759868902]}, "type": "Feature", "properties": {"collection_times": [{"days": "Mon-Fri", "time": "10:00am"}, {"days": "Sat", "time": "9:00am"}, {"days": "Sun", "time": "Closed"}], "id": "4370100018", "name": "USPS COLLECTION BOX - BLUE BOX", "address": {"city": "ZANESVILLE", "state": "OH", "street": "2951 MAPLE AVE", "postcode": "43701"}}},
{"geometry": {"type": "Point", "coordinates": [-82.0009147061, 39.9479837404]}, "type": "Feature", "properties": {"collection_times": [{"days": "Mon-Sat", "time": "9:00am"}, {"days": "Sun", "time": "Closed"}], "id": "4370100025", "name": "USPS COLLECTION BOX - BLUE BOX", "address": {"city": "ZANESVILLE", "state": "OH", "street": "601 UNDERWOOD ST", "postcode": "43701"}}},
{"geometry": {"type": "Point", "coordinates": [-82.0046187034, 39.9435865671]}, "type": "Feature", "properties": {"collection_times": [{"days": "Mon-Sat", "time": "9:00am"}, {"days": "Sun", "time": "Closed"}], "id": "4370100026", "name": "USPS COLLECTION BOX - BLUE BOX", "address": {"city": "ZANESVILLE", "state": "OH", "street": "623 SHINNICK ST", "postcode": "43701"}}},
{"geometry": {"type": "Point", "coordinates": [-82.074802463, 39.8822813529]}, "type": "Feature", "properties": {"collection_times": [{"days": "Mon-Sat", "time": "1:00pm"}, {"days": "Sun", "time": "Closed"}], "id": "4370100034", "name": "USPS COLLECTION BOX - BLUE BOX", "address": {"city": "ZANESVILLE", "state": "OH", "street": "2750 MAYSVILLE PIKE", "postcode": "43701"}}},
{"geometry": {"type": "Point", "coordinates": [-82.0187364518, 39.981575628]}, "type": "Feature", "properties": {"collection_times": [{"days": "Mon-Sat", "time": "4:30pm"}, {"days": "Sun", "time": "Closed"}], "id": "4370100035", "name": "USPS COLLECTION BOX - BLUE BOX", "address": {"city": "ZANESVILLE", "state": "OH", "street": "3257 MAPLE AVE", "postcode": "43701"}}},
{"geometry": {"type": "Point", "coordinates": [-82.006224798, 39.941886695]}, "type": "Feature", "properties": {"collection_times": [{"days": "Mon-Sat", "time": "9:00am"}, {"days": "Sun", "time": "Closed"}], "id": "4370100039", "name": "USPS COLLECTION BOX - BLUE BOX", "address": {"city": "ZANESVILLE", "state": "OH", "street": "505 MARKET ST", "postcode": "43701"}}},
{"geometry": {"type": "Point", "coordinates": [-82.006224798, 39.941886695]}, "type": "Feature", "properties": {"collection_times": [{"days": "Mon-Sat", "time": "9:00am"}, {"days": "Sun", "time": "Closed"}], "id": "4370100041", "name": "USPS COLLECTION BOX - BLUE BOX", "address": {"city": "ZANESVILLE", "state": "OH", "street": "505 MARKET ST", "postcode": "43701"}}},
{"geometry": {"type": "Point", "coordinates": [-82.0244411646, 39.9827251834]}, "type": "Feature", "properties": {"collection_times": [{"days": "Mon-Sat", "time": "9:00am"}, {"days": "Sun", "time": "Closed"}], "id": "4370100057", "name": "USPS COLLECTION BOX - BLUE BOX", "address": {"city": "ZANESVILLE", "state": "OH", "street": "3389 FAIRWAY LN", "postcode": "43701"}}},
{"geometry": {"type": "Point", "coordinates": [-82.0116190019, 39.9735779999]}, "type": "Feature", "properties": {"collection_times": [{"days": "Mon-Sat", "time": "9:00am"}, {"days": "Sun", "time": "Closed"}], "id": "4370100062", "name": "USPS COLLECTION BOX - BLUE BOX", "address": {"city": "ZANESVILLE", "state": "OH", "street": "2800 MAPLE AVE", "postcode": "43701"}}},
{"geometry": {"type": "Point", "coordinates": [-82.007551919, 39.9408062474]}, "type": "Feature", "properties": {"collection_times": [{"days": "Mon-Sat", "time": "4:30pm"}, {"days": "Sun", "time": "Closed"}], "id": "4370100065", "name": "USPS COLLECTION BOX - BLUE BOX", "address": {"city": "ZANESVILLE", "state": "OH", "street": "28 N 4TH ST", "postcode": "43701"}}},
{"geometry": {"type": "Point", "coordinates": [-82.007551919, 39.9408062474]}, "type": "Feature", "properties": {"collection_times": [{"days": "Mon-Sat", "time": "4:30pm"}, {"days": "Sun", "time": "Closed"}], "id": "4370100066", "name": "USPS COLLECTION BOX - BLUE BOX", "address": {"city": "ZANESVILLE", "state": "OH", "street": "28 N 4TH ST", "postcode": "43701"}}},
{"geometry": {"type": "Point", "coordinates": [-82.0112177138, 39.9728188754]}, "type": "Feature", "properties": {"collection_times": [{"days": "Mon-Sat", "time": "9:00am"}, {"days": "Sun", "time": "Closed"}], "id": "4370100067", "name": "USPS COLLECTION BOX - BLUE BOX", "address": {"city": "ZANESVILLE", "state": "OH", "street": "2746 MAPLE AVE", "postcode": "43701"}}},
{"geometry": {"type": "Point", "coordinates": [-82.0095825269, 39.9420048567]}, "type": "Feature", "properties": {"collection_times": [{"days": "Mon-Sat", "time": "9:00am"}, {"days": "Sun", "time": "Closed"}], "id": "4370100068", "name": "USPS COLLECTION BOX - BLUE BOX", "address": {"city": "ZANESVILLE", "state": "OH", "street": "235 MARKET ST", "postcode": "43701"}}},
{"geometry": {"type": "Point", "coordinates": [-82.0012879268, 39.9435114595]}, "type": "Feature", "properties": {"collection_times": [{"days": "Mon-Sat", "time": "9:00am"}, {"days": "Sun", "time": "Closed"}], "id": "4370100069", "name": "USPS COLLECTION BOX - BLUE BOX", "address": {"city": "ZANESVILLE", "state": "OH", "street": "225 UNDERWOOD ST", "postcode": "43701"}}},
{"geometry": {"type": "Point", "coordinates": [-82.0094791032, 39.9607219091]}, "type": "Feature", "properties": {"collection_times": [{"days": "Mon-Sat", "time": "9:00am"}, {"days": "Sun", "time": "Closed"}], "id": "4370100070", "name": "USPS COLLECTION BOX - BLUE BOX", "address": {"city": "ZANESVILLE", "state": "OH", "street": "1846 DRESDEN RD", "postcode": "43701"}}},
{"geometry": {"type": "Point", "coordinates": [-82.0201972639, 39.954210026]}, "type": "Feature", "properties": {"collection_times": [{"days": "Mon-Sat", "time": "8:00am"}, {"days": "Sun", "time": "Closed"}], "id": "4370100077", "name": "USPS COLLECTION BOX - BLUE BOX", "address": {"city": "ZANESVILLE", "state": "OH", "street": "1126 ADAIR AVE", "postcode": "43701"}}},
{"geometry": {"type": "Point", "coordinates": [-82.0134121081, 39.9864724865]}, "type": "Feature", "properties": {"collection_times": [{"days": "Mon-Sat", "time": "11:00am"}, {"days": "Sun", "time": "Closed"}], "id": "4370100079", "name": "USPS COLLECTION BOX - BLUE BOX", "address": {"city": "ZANESVILLE", "state": "OH", "street": "1100 BRANDYWINE BLVD", "postcode": "43701"}}},
{"geometry": {"type": "Point", "coordinates": [-82.0134121081, 39.9864724865]}, "type": "Feature", "properties": {"collection_times": [{"days": "Mon-Sat", "time": "11:00am"}, {"days": "Sun", "time": "Closed"}], "id": "4370100080", "name": "USPS COLLECTION BOX - BLUE BOX", "address": {"city": "ZANESVILLE", "state": "OH", "street": "1100 BRANDYWINE BLVD", "postcode": "43701"}}},
{"geometry": {"type": "Point", "coordinates": [-81.9793732153, 39.9437031269]}, "type": "Feature", "properties": {"collection_times": [{"days": "Mon-Sat", "time": "11:00am"}, {"days": "Sun", "time": "Closed"}], "id": "4370100083", "name": "USPS COLLECTION BOX - BLUE BOX", "address": {"city": "ZANESVILLE", "state": "OH", "street": "106 SUNRISE CENTER DR", "postcode": "43701"}}},
{"geometry": {"type": "Point", "coordinates": [-81.9793732153, 39.9437031269]}, "type": "Feature", "properties": {"collection_times": [{"days": "Mon-Sat", "time": "11:00am"}, {"days": "Sun", "time": "Closed"}], "id": "4370100085", "name": "USPS COLLECTION BOX - BLUE BOX", "address": {"city": "ZANESVILLE", "state": "OH", "street": "106 SUNRISE CENTER DR", "postcode": "43701"}}},
{"geometry": {"type": "Point", "coordinates": [-82.0200007737, 39.9038652848]}, "type": "Feature", "properties": {"collection_times": [{"days": "Mon-Sat", "time": "4:00pm"}, {"days": "Sun", "time": "Closed"}], "id": "4370100089", "name": "USPS COLLECTION BOX - BLUE BOX", "address": {"city": "ZANESVILLE", "state": "OH", "street": "5 N MAYSVILLE AVE", "postcode": "43701"}}},
{"geometry": {"type": "Point", "coordinates": [-82.0175540227, 39.8964486354]}, "type": "Feature", "properties": {"collection_times": [{"days": "Mon-Sat", "time": "9:00am"}, {"days": "Sun", "time": "Closed"}], "id": "4370100095", "name": "USPS COLLECTION BOX - BLUE BOX", "address": {"city": "ZANESVILLE", "state": "OH", "street": "1 CROWN CIR", "postcode": "43701"}}},
{"geometry": {"type": "Point", "coordinates": [-81.9984730644, 39.8964564951]}, "type": "Feature", "properties": {"collection_times": [{"days": "Mon-Sat", "time": "8:30am"}, {"days": "Sun", "time": "Closed"}], "id": "4370100098", "name": "USPS COLLECTION BOX - BLUE BOX", "address": {"city": "ZANESVILLE", "state": "OH", "street": "2200 S RIVER RD", "postcode": "43701"}}},
{"geometry": {"type": "Point", "coordinates": [-82.010155856, 39.9674627403]}, "type": "Feature", "properties": {"collection_times": [{"days": "Mon-Sat", "time": "9:00am"}, {"days": "Sun", "time": "Closed"}], "id": "4370100103", "name": "USPS COLLECTION BOX - BLUE BOX", "address": {"city": "ZANESVILLE", "state": "OH", "street": "615 TAYLOR ST", "postcode": "43701"}}},
{"geometry": {"type": "Point", "coordinates": [-82.0124891878, 39.9516564339]}, "type": "Feature", "properties": {"collection_times": [{"days": "Mon-Sat", "time": "9:00am"}, {"days": "Sun", "time": "Closed"}], "id": "4370100111", "name": "USPS COLLECTION BOX - BLUE BOX", "address": {"city": "ZANESVILLE", "state": "OH", "street": "1006 CULBERTSON AVE", "postcode": "43701"}}},
{"geometry": {"type": "Point", "coordinates": [-82.0290833982, 39.9590027997]}, "type": "Feature", "properties": {"collection_times": [{"days": "Mon-Sat", "time": "9:00am"}, {"days": "Sun", "time": "Closed"}], "id": "4370100123", "name": "USPS COLLECTION BOX - BLUE BOX", "address": {"city": "ZANESVILLE", "state": "OH", "street": "1425 NEWARK RD", "postcode": "43701"}}},
{"geometry": {"type": "Point", "coordinates": [-82.006534469, 39.938668934]}, "type": "Feature", "properties": {"collection_times": [{"days": "Mon-Sat", "time": "9:00am"}, {"days": "Sun", "time": "Closed"}], "id": "4370100132", "name": "USPS COLLECTION BOX - BLUE BOX", "address": {"city": "ZANESVILLE", "state": "OH", "street": "56 S 5TH ST", "postcode": "43701"}}},
{"geometry": {"type": "Point", "coordinates": [-82.006534469, 39.938668934]}, "type": "Feature", "properties": {"collection_times": [{"days": "Mon-Sat", "time": "9:00am"}, {"days": "Sun", "time": "Closed"}], "id": "4370100135", "name": "USPS COLLECTION BOX - BLUE BOX", "address": {"city": "ZANESVILLE", "state": "OH", "street": "56 S 5TH ST", "postcode": "43701"}}},
{"geometry": {"type": "Point", "coordinates": [-82.007551919, 39.9408062474]}, "type": "Feature", "properties": {"collection_times": [{"days": "Mon-Sat", "time": "4:30pm"}, {"days": "Sun", "time": "Closed"}], "id": "4370100136", "name": "USPS COLLECTION BOX - BLUE BOX", "address": {"city": "ZANESVILLE", "state": "OH", "street": "28 N 4TH ST", "postcode": "43701"}}},
{"geometry": {"type": "Point", "coordinates": [-82.0234908085, 39.9902366313]}, "type": "Feature", "properties": {"collection_times": [{"days": "Mon-Sat", "time": "2:30pm"}, {"days": "Sun", "time": "Closed"}], "id": "4370100141", "name": "USPS COLLECTION BOX - BLUE BOX", "address": {"city": "ZANESVILLE", "state": "OH", "street": "3606 MAPLE AVE", "postcode": "43701"}}},
{"geometry": {"type": "Point", "coordinates": [-82.0234908085, 39.9902366313]}, "type": "Feature", "properties": {"collection_times": [{"days": "Mon-Sat", "time": "2:30pm"}, {"days": "Sun", "time": "Closed"}], "id": "4370100142", "name": "USPS COLLECTION BOX - BLUE BOX", "address": {"city": "ZANESVILLE", "state": "OH", "street": "3606 MAPLE AVE", "postcode": "43701"}}},
{"geometry": {"type": "Point", "coordinates": [-81.9965297504, 39.9504603314]}, "type": "Feature", "properties": {"collection_times": [{"days": "Mon-Sat", "time": "4:00pm"}, {"days": "Sun", "time": "Closed"}], "id": "4370100146", "name": "USPS COLLECTION BOX - BLUE BOX", "address": {"city": "ZANESVILLE", "state": "OH", "street": "1035 ZANE ST", "postcode": "43701"}}},
{"geometry": {"type": "Point", "coordinates": [-81.9965297504, 39.9504603314]}, "type": "Feature", "properties": {"collection_times": [{"days": "Mon-Sat", "time": "4:00pm"}, {"days": "Sun", "time": "Closed"}], "id": "4370100147", "name": "USPS COLLECTION BOX - BLUE BOX", "address": {"city": "ZANESVILLE", "state": "OH", "street": "1035 ZANE ST", "postcode": "43701"}}},
{"geometry": {"type": "Point", "coordinates": [-82.0062206906, 39.9436685683]}, "type": "Feature", "properties": {"collection_times": [{"days": "Mon-Sat", "time": "9:00am"}, {"days": "Sun", "time": "Closed"}], "id": "4370100148", "name": "USPS COLLECTION BOX - BLUE BOX", "address": {"city": "ZANESVILLE", "state": "OH", "street": "499 SHINNICK ST", "postcode": "43701"}}},
{"geometry": {"type": "Point", "coordinates": [-82.0152091632, 39.9498854866]}, "type": "Feature", "properties": {"collection_times": [{"days": "Mon-Fri", "time": "5:00pm"}, {"days": "Sat", "time": "4:00pm"}, {"days": "Sun", "time": "Closed"}], "id": "4370100149", "name": "USPS COLLECTION BOX - BLUE BOX", "address": {"city": "ZANESVILLE", "state": "OH", "street": "900 MCINTIRE AVE", "postcode": "43701"}}},
{"geometry": {"type": "Point", "coordinates": [-82.0152091632, 39.9498854866]}, "type": "Feature", "properties": {"collection_times": [{"days": "Mon-Fri", "time": "5:00pm"}, {"days": "Sat", "time": "4:00pm"}, {"days": "Sun", "time": "Closed"}], "id": "4370100150", "name": "USPS COLLECTION BOX - PO LOBBY", "address": {"city": "ZANESVILLE", "state": "OH", "street": "900 MCINTIRE AVE", "postcode": "43701"}}},
{"geometry": {"type": "Point", "coordinates": [-82.0214231951, 39.9849912084]}, "type": "Feature", "properties": {"collection_times": [{"days": "Mon-Sat", "time": "9:00am"}, {"days": "Sun", "time": "Closed"}], "id": "4370100152", "name": "USPS COLLECTION BOX - BLUE BOX", "address": {"city": "ZANESVILLE", "state": "OH", "street": "3387 MAPLE AVE", "postcode": "43701"}}},
{"geometry": {"type": "Point", "coordinates": [-82.0228595847, 39.9883822595]}, "type": "Feature", "properties": {"collection_times": [{"days": "Mon-Sat", "time": "4:30pm"}, {"days": "Sun", "time": "Closed"}], "id": "4370100153", "name": "USPS COLLECTION BOX - PO LOBBY", "address": {"city": "ZANESVILLE", "state": "OH", "street": "3575 MAPLE AVE", "postcode": "43701"}}},
{"geometry": {"type": "Point", "coordinates": [-82.0228595847, 39.9883822595]}, "type": "Feature", "properties": {"collection_times": [{"days": "Mon-Sat", "time": "4:30pm"}, {"days": "Sun", "time": "Closed"}], "id": "4370100154", "name": "USPS COLLECTION BOX - PO LOBBY", "address": {"city": "ZANESVILLE", "state": "OH", "street": "3575 MAPLE AVE", "postcode": "43701"}}},
{"geometry": {"type": "Point", "coordinates": [-82.0226593412, 39.9882503937]}, "type": "Feature", "properties": {"collection_times": [{"days": "Mon-Sat", "time": "9:30am"}, {"days": "Sun", "time": "Closed"}], "id": "4370100155", "name": "USPS COLLECTION BOX - BLUE BOX", "address": {"city": "ZANESVILLE", "state": "OH", "street": "3546 MAPLE AVE", "postcode": "43701"}}},
{"geometry": {"type": "Point", "coordinates": [-82.006405369, 39.940779552]}, "type": "Feature", "properties": {"collection_times": [{"days": "Mon-Sat", "time": "4:30pm"}, {"days": "Sun", "time": "Closed"}], "id": "4370100157", "name": "USPS COLLECTION BOX - BLUE BOX", "address": {"city": "ZANESVILLE", "state": "OH", "street": "22 N 5TH ST", "postcode": "43701"}}},
{"geometry": {"type": "Point", "coordinates": [-81.9965297504, 39.9504603314]}, "type": "Feature", "properties": {"collection_times": [{"days": "Mon-Fri", "time": "5:15pm"}, {"days": "Sat", "time": "12:00pm"}, {"days": "Sun", "time": "Closed"}], "id": "4370100158", "name": "USPS COLLECTION BOX - PO LOBBY", "address": {"city": "ZANESVILLE", "state": "OH", "street": "1035 ZANE ST", "postcode": "43701"}}},
{"geometry": {"type": "Point", "coordinates": [-82.0200007737, 39.9038652848]}, "type": "Feature", "properties": {"collection_times": [{"days": "Mon-Sat", "time": "4:00pm"}, {"days": "Sun", "time": "Closed"}], "id": "4370100159", "name": "USPS COLLECTION BOX - BLUE BOX", "address": {"city": "ZANESVILLE", "state": "OH", "street": "5 N MAYSVILLE AVE", "postcode": "43701"}}},
{"geometry": {"type": "Point", "coordinates": [-81.5751948058, 39.8354920442]}, "type": "Feature", "properties": {"collection_times": [{"days": "Mon-Fri", "time": "10:30am"}, {"days": "Sat", "time": "9:45am"}, {"days": "Sun", "time": "Closed"}], "id": "4371100000", "name": "USPS COLLECTION BOX - BLUE BOX", "address": {"city": "AVA", "state": "OH", "street": "50614 STATE ROUTE 821", "postcode": "43711"}}},
{"geometry": {"type": "Point", "coordinates": [-81.5751948058, 39.8354920442]}, "type": "Feature", "properties": {"collection_times": [{"days": "Mon-Fri", "time": "10:30am"}, {"days": "Sat", "time": "9:45am"}, {"days": "Sun", "time": "Closed"}], "id": "4371100001", "name": "USPS COLLECTION BOX - PO LOBBY", "address": {"city": "AVA", "state": "OH", "street": "50614 STATE ROUTE 821", "postcode": "43711"}}},
{"geometry": {"type": "Point", "coordinates": [-81.1765531195, 39.9888289964]}, "type": "Feature", "properties": {"collection_times": [{"days": "Mon-Fri", "time": "4:45pm"}, {"days": "Sat", "time": "12:00pm"}, {"days": "Sun", "time": "Closed"}], "id": "4371300000", "name": "USPS COLLECTION BOX - BLUE BOX", "address": {"city": "BARNESVILLE", "state": "OH", "street": "116 E CHURCH ST", "postcode": "43713"}}},
{"geometry": {"type": "Point", "coordinates": [-81.1765531195, 39.9888289964]}, "type": "Feature", "properties": {"collection_times": [{"days": "Mon-Fri", "time": "4:45pm"}, {"days": "Sat", "time": "12:00pm"}, {"days": "Sun", "time": "Closed"}], "id": "4371300001", "name": "USPS COLLECTION BOX - BLUE BOX", "address": {"city": "BARNESVILLE", "state": "OH", "street": "116 E CHURCH ST", "postcode": "43713"}}},
{"geometry": {"type": "Point", "coordinates": [-81.1854313265, 39.9903837257]}, "type": "Feature", "properties": {"collection_times": [{"days": "Mon-Sat", "time": "10:15am"}, {"days": "Sun", "time": "Closed"}], "id": "4371300010", "name": "USPS COLLECTION BOX - BLUE BOX", "address": {"city": "BARNESVILLE", "state": "OH", "street": "639 W MAIN ST", "postcode": "43713"}}},
{"geometry": {"type": "Point", "coordinates": [-81.1752805561, 39.9873606153]}, "type": "Feature", "properties": {"collection_times": [{"days": "Mon-Sat", "time": "10:30am"}, {"days": "Sun", "time": "Closed"}], "id": "4371300011", "name": "USPS COLLECTION BOX - BLUE BOX", "address": {"city": "BARNESVILLE", "state": "OH", "street": "204 E MAIN ST", "postcode": "43713"}}},
{"geometry": {"type": "Point", "coordinates": [-81.1765531195, 39.9888289964]}, "type": "Feature", "properties": {"collection_times": [{"days": "Mon-Fri", "time": "4:45pm"}, {"days": "Sat", "time": "12:00pm"}, {"days": "Sun", "time": "Closed"}], "id": "4371300017", "name": "USPS COLLECTION BOX - PO LOBBY", "address": {"city": "BARNESVILLE", "state": "OH", "street": "116 E CHURCH ST", "postcode": "43713"}}},
{"geometry": {"type": "Point", "coordinates": [-81.0366425201, 39.8486331707]}, "type": "Feature", "properties": {"collection_times": [{"days": "Mon-Fri", "time": "2:30pm"}, {"days": "Sat", "time": "10:15am"}, {"days": "Sun", "time": "Closed"}], "id": "4371600000", "name": "USPS COLLECTION BOX - BLUE BOX", "address": {"city": "BEALLSVILLE", "state": "OH", "street": "52731 OHIO AVE", "postcode": "43716"}}},
{"geometry": {"type": "Point", "coordinates": [-81.0366425201, 39.8486331707]}, "type": "Feature", "properties": {"collection_times": [{"days": "Mon-Fri", "time": "2:30pm"}, {"days": "Sat", "time": "10:15am"}, {"days": "Sun", "time": "Closed"}], "id": "4371600001", "name": "USPS COLLECTION BOX - PO LOBBY", "address": {"city": "BEALLSVILLE", "state": "OH", "street": "52731 OHIO AVE", "postcode": "43716"}}},
{"geometry": {"type": "Point", "coordinates": [-81.5566819771, 39.7911038789]}, "type": "Feature", "properties": {"collection_times": [{"days": "Mon-Fri", "time": "4:00pm"}, {"days": "Sat", "time": "10:15am"}, {"days": "Sun", "time": "Closed"}], "id": "4371700000", "name": "USPS COLLECTION BOX - BLUE BOX", "address": {"city": "BELLE VALLEY", "state": "OH", "street": "200 LIBERTY ST", "postcode": "43717"}}},
{"geometry": {"type": "Point", "coordinates": [-81.5566819771, 39.7911038789]}, "type": "Feature", "properties": {"collection_times": [{"days": "Mon-Fri", "time": "4:00pm"}, {"days": "Sat", "time": "10:15am"}, {"days": "Sun", "time": "Closed"}], "id": "4371700001", "name": "USPS COLLECTION BOX - PO LOBBY", "address": {"city": "BELLE VALLEY", "state": "OH", "street": "200 LIBERTY ST", "postcode": "43717"}}},
{"geometry": {"type": "Point", "coordinates": [-81.0405979012, 40.0291456934]}, "type": "Feature", "properties": {"collection_times": [{"days": "Mon-Fri", "time": "4:00pm"}, {"days": "Sat", "time": "10:45am"}, {"days": "Sun", "time": "Closed"}], "id": "4371800000", "name": "USPS COLLECTION BOX - BLUE BOX", "address": {"city": "BELMONT", "state": "OH", "street": "128 W MAIN ST", "postcode": "43718"}}},
{"geometry": {"type": "Point", "coordinates": [-81.0405979012, 40.0291456934]}, "type": "Feature", "properties": {"collection_times": [{"days": "Mon-Fri", "time": "4:00pm"}, {"days": "Sat", "time": "10:45am"}, {"days": "Sun", "time": "Closed"}], "id": "4371800001", "name": "USPS COLLECTION BOX - PO LOBBY", "address": {"city": "BELMONT", "state": "OH", "street": "128 W MAIN ST", "postcode": "43718"}}},
{"geometry": {"type": "Point", "coordinates": [-81.0722160761, 40.0159672487]}, "type": "Feature", "properties": {"collection_times": [{"days": "Mon-Fri", "time": "4:15pm"}, {"days": "Sat", "time": "10:45am"}, {"days": "Sun", "time": "Closed"}], "id": "4371900000", "name": "USPS COLLECTION BOX - BLUE BOX", "address": {"city": "BETHESDA", "state": "OH", "street": "111 S MAIN ST", "postcode": "43719"}}},
{"geometry": {"type": "Point", "coordinates": [-81.0838006806, 40.0060785968]}, "type": "Feature", "properties": {"collection_times": [{"days": "Mon-Sat", "time": "9:00am"}, {"days": "Sun", "time": "Closed"}], "id": "4371900002", "name": "USPS COLLECTION BOX - BLUE BOX", "address": {"city": "BETHESDA", "state": "OH", "street": "200 BELMONT RD", "postcode": "43719"}}},
{"geometry": {"type": "Point", "coordinates": [-81.0722160761, 40.0159672487]}, "type": "Feature", "properties": {"collection_times": [{"days": "Mon-Fri", "time": "4:15pm"}, {"days": "Sat", "time": "10:45am"}, {"days": "Sun", "time": "Closed"}], "id": "4371900003", "name": "USPS COLLECTION BOX - PO LOBBY", "address": {"city": "BETHESDA", "state": "OH", "street": "111 S MAIN ST", "postcode": "43719"}}},
{"geometry": {"type": "Point", "coordinates": [-81.8923955631, 39.8020611999]}, "type": "Feature", "properties": {"collection_times": [{"days": "Mon-Fri", "time": "3:30pm"}, {"days": "Sat", "time": "9:45am"}, {"days": "Sun", "time": "Closed"}], "id": "4372000000", "name": "USPS COLLECTION BOX - BLUE BOX", "address": {"city": "BLUE ROCK", "state": "OH", "street": "8780 S RIVER RD", "postcode": "43720"}}},
{"geometry": {"type": "Point", "coordinates": [-81.8923955631, 39.8020611999]}, "type": "Feature", "properties": {"collection_times": [{"days": "Mon-Fri", "time": "3:30pm"}, {"days": "Sat", "time": "9:45am"}, {"days": "Sun", "time": "Closed"}], "id": "4372000001", "name": "USPS COLLECTION BOX - PO LOBBY", "address": {"city": "BLUE ROCK", "state": "OH", "street": "8780 S RIVER RD", "postcode": "43720"}}},
{"geometry": {"type": "Point", "coordinates": [-81.5213385291, 39.91488409]}, "type": "Feature", "properties": {"collection_times": [{"days": "Mon-Fri", "time": "3:45pm"}, {"days": "Sat", "time": "10:15am"}, {"days": "Sun", "time": "Closed"}], "id": "4372200000", "name": "USPS COLLECTION BOX - BLUE BOX", "address": {"city": "BUFFALO", "state": "OH", "street": "11985 CLAY PIKE RD", "postcode": "43722"}}},
{"geometry": {"type": "Point", "coordinates": [-81.5213385291, 39.91488409]}, "type": "Feature", "properties": {"collection_times": [{"days": "Mon-Fri", "time": "3:45pm"}, {"days": "Sat", "time": "10:15am"}, {"days": "Sun", "time": "Closed"}], "id": "4372200001", "name": "USPS COLLECTION BOX - PO LOBBY", "address": {"city": "BUFFALO", "state": "OH", "street": "11985 CLAY PIKE RD", "postcode": "43722"}}},
{"geometry": {"type": "Point", "coordinates": [-81.5379220553, 39.9681772938]}, "type": "Feature", "properties": {"collection_times": [{"days": "Mon-Fri", "time": "4:00pm"}, {"days": "Sat", "time": "12:00pm"}, {"days": "Sun", "time": "Closed"}], "id": "4372300002", "name": "USPS COLLECTION BOX - BLUE BOX", "address": {"city": "BYESVILLE", "state": "OH", "street": "209 WATSON AVE", "postcode": "43723"}}},
{"geometry": {"type": "Point", "coordinates": [-81.5379220553, 39.9681772938]}, "type": "Feature", "properties": {"collection_times": [{"days": "Mon-Fri", "time": "4:15pm"}, {"days": "Sat", "time": "12:00pm"}, {"days": "Sun", "time": "Closed"}], "id": "4372300014", "name": "USPS COLLECTION BOX - PO LOBBY", "address": {"city": "BYESVILLE", "state": "OH", "street": "209 WATSON AVE", "postcode": "43723"}}},
{"geometry": {"type": "Point", "coordinates": [-81.5167404787, 39.7481773325]}, "type": "Feature", "properties": {"collection_times": [{"days": "Mon-Fri", "time": "4:00pm"}, {"days": "Sat", "time": "12:00pm"}, {"days": "Sun", "time": "Closed"}], "id": "4372400002", "name": "USPS COLLECTION BOX - BLUE BOX", "address": {"city": "CALDWELL", "state": "OH", "street": "601 WEST ST", "postcode": "43724"}}},
{"geometry": {"type": "Point", "coordinates": [-81.5156460397, 39.7469379466]}, "type": "Feature", "properties": {"collection_times": [{"days": "Mon-Sat", "time": "9:00am"}, {"days": "Sun", "time": "Closed"}], "id": "4372400009", "name": "USPS COLLECTION BOX - BLUE BOX", "address": {"city": "CALDWELL", "state": "OH", "street": "398 MAIN ST", "postcode": "43724"}}},
{"geometry": {"type": "Point", "coordinates": [-81.5167404787, 39.7481773325]}, "type": "Feature", "properties": {"collection_times": [{"days": "Mon-Fri", "time": "4:00pm"}, {"days": "Sat", "time": "12:00pm"}, {"days": "Sun", "time": "Closed"}], "id": "4372400013", "name": "USPS COLLECTION BOX - PO LOBBY", "address": {"city": "CALDWELL", "state": "OH", "street": "601 WEST ST", "postcode": "43724"}}},
{"geometry": {"type": "Point", "coordinates": [-81.5875168569, 40.0246774529]}, "type": "Feature", "properties": {"collection_times": [{"days": "Mon-Fri", "time": "4:45pm"}, {"days": "Sat", "time": "3:30pm"}, {"days": "Sun", "time": "Closed"}], "id": "4372500000", "name": "USPS COLLECTION BOX - BLUE BOX", "address": {"city": "CAMBRIDGE", "state": "OH", "street": "954 WHEELING AVE", "postcode": "43725"}}},
{"geometry": {"type": "Point", "coordinates": [-81.5971940317, 40.0232716713]}, "type": "Feature", "properties": {"collection_times": [{"days": "Mon-Sat", "time": "10:00am"}, {"days": "Sun", "time": "Closed"}], "id": "4372500001", "name": "USPS COLLECTION BOX - BLUE BOX", "address": {"city": "CAMBRIDGE", "state": "OH", "street": "224 DEWEY AVE", "postcode": "43725"}}},
{"geometry": {"type": "Point", "coordinates": [-81.5875168569, 40.0246774529]}, "type": "Feature", "properties": {"collection_times": [{"days": "Mon-Fri", "time": "4:45pm"}, {"days": "Sat", "time": "3:30pm"}, {"days": "Sun", "time": "Closed"}], "id": "4372500003", "name": "USPS COLLECTION BOX - BLUE BOX", "address": {"city": "CAMBRIDGE", "state": "OH", "street": "954 WHEELING AVE", "postcode": "43725"}}},
{"geometry": {"type": "Point", "coordinates": [-81.577454634, 40.038011148]}, "type": "Feature", "properties": {"collection_times": [{"days": "Mon-Fri", "time": "2:00pm"}, {"days": "Sat", "time": "1:30pm"}, {"days": "Sun", "time": "Closed"}], "id": "4372500024", "name": "USPS COLLECTION BOX - BLUE BOX", "address": {"city": "CAMBRIDGE", "state": "OH", "street": "1205 CLARK ST", "postcode": "43725"}}},
{"geometry": {"type": "Point", "coordinates": [-81.5819407931, 40.0113648072]}, "type": "Feature", "properties": {"collection_times": [{"days": "Mon-Sat", "time": "10:00am"}, {"days": "Sun", "time": "Closed"}], "id": "4372500026", "name": "USPS COLLECTION BOX - BLUE BOX", "address": {"city": "CAMBRIDGE", "state": "OH", "street": "1225 WOODLAWN AVE", "postcode": "43725"}}},
{"geometry": {"type": "Point", "coordinates": [-81.5965997648, 40.0250537031]}, "type": "Feature", "properties": {"collection_times": [{"days": "Mon-Sat", "time": "9:00am"}, {"days": "Sun", "time": "Closed"}], "id": "4372500031", "name": "USPS COLLECTION BOX - BLUE BOX", "address": {"city": "CAMBRIDGE", "state": "OH", "street": "407 WHEELING AVE", "postcode": "43725"}}},
{"geometry": {"type": "Point", "coordinates": [-81.591601126, 40.024803172]}, "type": "Feature", "properties": {"collection_times": [{"days": "Mon-Fri", "time": "2:00pm"}, {"days": "Sat", "time": "1:30pm"}, {"days": "Sun", "time": "Closed"}], "id": "4372500032", "name": "USPS COLLECTION BOX - BLUE BOX", "address": {"city": "CAMBRIDGE", "state": "OH", "street": "700 WHEELING AVE", "postcode": "43725"}}},
{"geometry": {"type": "Point", "coordinates": [-81.5875168569, 40.0246774529]}, "type": "Feature", "properties": {"collection_times": [{"days": "Mon-Fri", "time": "4:45pm"}, {"days": "Sat", "time": "3:30pm"}, {"days": "Sun", "time": "Closed"}], "id": "4372500039", "name": "USPS COLLECTION BOX - PO LOBBY", "address": {"city": "CAMBRIDGE", "state": "OH", "street": "954 WHEELING AVE", "postcode": "43725"}}},
{"geometry": {"type": "Point", "coordinates": [-81.5875168569, 40.0246774529]}, "type": "Feature", "properties": {"collection_times": [{"days": "Mon-Fri", "time": "4:45pm"}, {"days": "Sat", "time": "3:30pm"}, {"days": "Sun", "time": "Closed"}], "id": "4372500040", "name": "USPS COLLECTION BOX - PO LOBBY", "address": {"city": "CAMBRIDGE", "state": "OH", "street": "954 WHEELING AVE", "postcode": "43725"}}},
{"geometry": {"type": "Point", "coordinates": [-81.5653169578, 40.0275003223]}, "type": "Feature", "properties": {"collection_times": [{"days": "Mon-Sat", "time": "9:00am"}, {"days": "Sun", "time": "Closed"}], "id": "4372500046", "name": "USPS COLLECTION BOX - BLUE BOX", "address": {"city": "CAMBRIDGE", "state": "OH", "street": "55 S 23RD ST", "postcode": "43725"}}},
{"geometry": {"type": "Point", "coordinates": [-81.5759452382, 39.99493876]}, "type": "Feature", "properties": {"collection_times": [{"days": "Mon-Sat", "time": "12:30pm"}, {"days": "Sun", "time": "Closed"}], "id": "4372500047", "name": "USPS COLLECTION BOX - BLUE BOX", "address": {"city": "CAMBRIDGE", "state": "OH", "street": "61600 SOUTHGATE RD", "postcode": "43725"}}},
{"geometry": {"type": "Point", "coordinates": [-81.5734549787, 39.9899646133]}, "type": "Feature", "properties": {"collection_times": [{"days": "Mon-Sat", "time": "12:30pm"}, {"days": "Sun", "time": "Closed"}], "id": "4372500048", "name": "USPS COLLECTION BOX - BLUE BOX", "address": {"city": "CAMBRIDGE", "state": "OH", "street": "61279 SOUTHGATE RD", "postcode": "43725"}}},
{"geometry": {"type": "Point", "coordinates": [-81.5738505917, 39.988555242]}, "type": "Feature", "properties": {"collection_times": [{"days": "Mon-Sat", "time": "12:30pm"}, {"days": "Sun", "time": "Closed"}], "id": "4372500050", "name": "USPS COLLECTION BOX - BLUE BOX", "address": {"city": "CAMBRIDGE", "state": "OH", "street": "61205 SOUTHGATE RD", "postcode": "43725"}}},
{"geometry": {"type": "Point", "coordinates": [-81.5901720926, 40.0248259461]}, "type": "Feature", "properties": {"collection_times": [{"days": "Mon-Fri", "time": "2:00pm"}, {"days": "Sat", "time": "1:30pm"}, {"days": "Sun", "time": "Closed"}], "id": "4372500052", "name": "USPS COLLECTION BOX - BLUE BOX", "address": {"city": "CAMBRIDGE", "state": "OH", "street": "801 WHEELING AVE", "postcode": "43725"}}},
{"geometry": {"type": "Point", "coordinates": [-81.8070682582, 39.8909793358]}, "type": "Feature", "properties": {"collection_times": [{"days": "Mon-Fri", "time": "4:00pm"}, {"days": "Sat", "time": "9:45am"}, {"days": "Sun", "time": "Closed"}], "id": "4372700000", "name": "USPS COLLECTION BOX - BLUE BOX", "address": {"city": "CHANDLERSVILLE", "state": "OH", "street": "8875 CHANDLERSVILLE RD", "postcode": "43727"}}},
{"geometry": {"type": "Point", "coordinates": [-81.8070682582, 39.8909793358]}, "type": "Feature", "properties": {"collection_times": [{"days": "Mon-Fri", "time": "4:00pm"}, {"days": "Sat", "time": "9:45am"}, {"days": "Sun", "time": "Closed"}], "id": "4372700001", "name": "USPS COLLECTION BOX - PO LOBBY", "address": {"city": "CHANDLERSVILLE", "state": "OH", "street": "8875 CHANDLERSVILLE RD", "postcode": "43727"}}},
{"geometry": {"type": "Point", "coordinates": [-81.8659413888, 39.4884906485]}, "type": "Feature", "properties": {"collection_times": [{"days": "Mon-Fri", "time": "11:30am"}, {"days": "Sat", "time": "9:45am"}, {"days": "Sun", "time": "Closed"}], "id": "4372800000", "name": "USPS COLLECTION BOX - BLUE BOX", "address": {"city": "CHESTERHILL", "state": "OH", "street": "7402 MARION ST", "postcode": "43728"}}},
{"geometry": {"type": "Point", "coordinates": [-81.8659413888, 39.4884906485]}, "type": "Feature", "properties": {"collection_times": [{"days": "Mon-Fri", "time": "11:30am"}, {"days": "Sat", "time": "9:45am"}, {"days": "Sun", "time": "Closed"}], "id": "4372800001", "name": "USPS COLLECTION BOX - PO LOBBY", "address": {"city": "CHESTERHILL", "state": "OH", "street": "7402 MARION ST", "postcode": "43728"}}},
{"geometry": {"type": "Point", "coordinates": [-82.0894575806, 39.6042063952]}, "type": "Feature", "properties": {"collection_times": [{"days": "Mon-Fri", "time": "3:45pm"}, {"days": "Sat", "time": "10:45am"}, {"days": "Sun", "time": "Closed"}], "id": "4373000000", "name": "USPS COLLECTION BOX - BLUE BOX", "address": {"city": "CORNING", "state": "OH", "street": "105 WASHINGTON ST", "postcode": "43730"}}},
{"geometry": {"type": "Point", "coordinates": [-82.0894575806, 39.6042063952]}, "type": "Feature", "properties": {"collection_times": [{"days": "Mon-Fri", "time": "3:45pm"}, {"days": "Sat", "time": "10:45am"}, {"days": "Sun", "time": "Closed"}], "id": "4373000001", "name": "USPS COLLECTION BOX - PO LOBBY", "address": {"city": "CORNING", "state": "OH", "street": "105 WASHINGTON ST", "postcode": "43730"}}},
{"geometry": {"type": "Point", "coordinates": [-82.0940900963, 39.7691809686]}, "type": "Feature", "properties": {"collection_times": [{"days": "Mon-Fri", "time": "4:15pm"}, {"days": "Sat", "time": "12:00pm"}, {"days": "Sun", "time": "Closed"}], "id": "4373100000", "name": "USPS COLLECTION BOX - BLUE BOX", "address": {"city": "CROOKSVILLE", "state": "OH", "street": "200 E MAIN ST", "postcode": "43731"}}},
{"geometry": {"type": "Point", "coordinates": [-82.1019187256, 39.7648209081]}, "type": "Feature", "properties": {"collection_times": [{"days": "Mon-Sat", "time": "8:30am"}, {"days": "Sun", "time": "Closed"}], "id": "4373100012", "name": "USPS COLLECTION BOX - BLUE BOX", "address": {"city": "CROOKSVILLE", "state": "OH", "street": "120 S BUCKEYE ST", "postcode": "43731"}}},
{"geometry": {"type": "Point", "coordinates": [-82.0940900963, 39.7691809686]}, "type": "Feature", "properties": {"collection_times": [{"days": "Mon-Fri", "time": "4:15pm"}, {"days": "Sat", "time": "12:00pm"}, {"days": "Sun", "time": "Closed"}], "id": "4373100016", "name": "USPS COLLECTION BOX - PO LOBBY", "address": {"city": "CROOKSVILLE", "state": "OH", "street": "200 E MAIN ST", "postcode": "43731"}}},
{"geometry": {"type": "Point", "coordinates": [-82.0954508948, 39.7778710117]}, "type": "Feature", "properties": {"collection_times": [{"days": "Mon-Sat", "time": "12:00pm"}, {"days": "Sun", "time": "Closed"}], "id": "4373100017", "name": "USPS COLLECTION BOX - BLUE BOX", "address": {"city": "CROOKSVILLE", "state": "OH", "street": "726 CHINA ST", "postcode": "43731"}}},
{"geometry": {"type": "Point", "coordinates": [-81.6617547392, 39.8500388935]}, "type": "Feature", "properties": {"collection_times": [{"days": "Mon-Fri", "time": "3:30pm"}, {"days": "Sat", "time": "10:15am"}, {"days": "Sun", "time": "Closed"}], "id": "4373200000", "name": "USPS COLLECTION BOX - BLUE BOX", "address": {"city": "CUMBERLAND", "state": "OH", "street": "301 MILL ST", "postcode": "43732"}}},
{"geometry": {"type": "Point", "coordinates": [-81.6617547392, 39.8500388935]}, "type": "Feature", "properties": {"collection_times": [{"days": "Mon-Fri", "time": "3:30pm"}, {"days": "Sat", "time": "10:15am"}, {"days": "Sun", "time": "Closed"}], "id": "4373200001", "name": "USPS COLLECTION BOX - PO LOBBY", "address": {"city": "CUMBERLAND", "state": "OH", "street": "301 MILL ST", "postcode": "43732"}}},
{"geometry": {"type": "Point", "coordinates": [-81.5458001847, 39.9230692324]}, "type": "Feature", "properties": {"collection_times": [{"days": "Mon-Fri", "time": "1:30pm"}, {"days": "Sat", "time": "10:15am"}, {"days": "Sun", "time": "Closed"}], "id": "4373300000", "name": "USPS COLLECTION BOX - BLUE BOX", "address": {"city": "DERWENT", "state": "OH", "street": "10936 CLAY PIKE RD", "postcode": "43733"}}},
{"geometry": {"type": "Point", "coordinates": [-81.5458001847, 39.9230692324]}, "type": "Feature", "properties": {"collection_times": [{"days": "Mon-Fri", "time": "1:30pm"}, {"days": "Sat", "time": "10:15am"}, {"days": "Sun", "time": "Closed"}], "id": "4373300001", "name": "USPS COLLECTION BOX - PO LOBBY", "address": {"city": "DERWENT", "state": "OH", "street": "10936 CLAY PIKE RD", "postcode": "43733"}}},
{"geometry": {"type": "Point", "coordinates": [-81.907087476, 39.8708143865]}, "type": "Feature", "properties": {"collection_times": [{"days": "Mon-Fri", "time": "4:15pm"}, {"days": "Sat", "time": "10:15am"}, {"days": "Sun", "time": "Closed"}], "id": "4373400000", "name": "USPS COLLECTION BOX - BLUE BOX", "address": {"city": "DUNCAN FALLS", "state": "OH", "street": "315 MAIN ST", "postcode": "43734"}}},
{"geometry": {"type": "Point", "coordinates": [-81.907087476, 39.8708143865]}, "type": "Feature", "properties": {"collection_times": [{"days": "Mon-Fri", "time": "4:15pm"}, {"days": "Sat", "time": "10:15am"}, {"days": "Sun", "time": "Closed"}], "id": "4373400001", "name": "USPS COLLECTION BOX - PO LOBBY", "address": {"city": "DUNCAN FALLS", "state": "OH", "street": "315 MAIN ST", "postcode": "43734"}}},
{"geometry": {"type": "Point", "coordinates": [-81.907087476, 39.8708143865]}, "type": "Feature", "properties": {"collection_times": [{"days": "Mon-Fri", "time": "4:15pm"}, {"days": "Sat", "time": "10:15am"}, {"days": "Sun", "time": "Closed"}], "id": "4373400002", "name": "USPS COLLECTION BOX - BLUE BOX", "address": {"city": "DUNCAN FALLS", "state": "OH", "street": "315 MAIN ST", "postcode": "43734"}}},
{"geometry": {"type": "Point", "coordinates": [-82.1243282132, 39.8508592549]}, "type": "Feature", "properties": {"collection_times": [{"days": "Mon-Fri", "time": "11:00am"}, {"days": "Sat", "time": "10:30am"}, {"days": "Sun", "time": "Closed"}], "id": "4373500000", "name": "USPS COLLECTION BOX - BLUE BOX", "address": {"city": "EAST FULTONHAM", "state": "OH", "street": "6970 AXLINE AVE", "postcode": "43735"}}},
{"geometry": {"type": "Point", "coordinates": [-82.1243282132, 39.8508592549]}, "type": "Feature", "properties": {"collection_times": [{"days": "Mon-Fri", "time": "11:00am"}, {"days": "Sat", "time": "10:30am"}, {"days": "Sun", "time": "Closed"}], "id": "4373500001", "name": "USPS COLLECTION BOX - PO LOBBY", "address": {"city": "EAST FULTONHAM", "state": "OH", "street": "6970 AXLINE AVE", "postcode": "43735"}}},
{"geometry": {"type": "Point", "coordinates": [-82.3318515161, 39.9006984468]}, "type": "Feature", "properties": {"collection_times": [{"days": "Mon-Fri", "time": "3:30pm"}, {"days": "Sat", "time": "10:15am"}, {"days": "Sun", "time": "Closed"}], "id": "4373900000", "name": "USPS COLLECTION BOX - BLUE BOX", "address": {"city": "GLENFORD", "state": "OH", "street": "4627 STATE ROUTE 204", "postcode": "43739"}}},
{"geometry": {"type": "Point", "coordinates": [-82.3318515161, 39.9006984468]}, "type": "Feature", "properties": {"collection_times": [{"days": "Mon-Fri", "time": "3:30pm"}, {"days": "Sat", "time": "10:15am"}, {"days": "Sun", "time": "Closed"}], "id": "4373900001", "name": "USPS COLLECTION BOX - PO LOBBY", "address": {"city": "GLENFORD", "state": "OH", "street": "4627 STATE ROUTE 204", "postcode": "43739"}}},
{"geometry": {"type": "Point", "coordinates": [-82.2950199038, 39.8996163342]}, "type": "Feature", "properties": {"collection_times": [{"days": "Mon-Sat", "time": "10:00am"}, {"days": "Sun", "time": "Closed"}], "id": "4373900003", "name": "USPS COLLECTION BOX - BLUE BOX", "address": {"city": "GLENFORD", "state": "OH", "street": "15564 MAIN ST", "postcode": "43739"}}},
{"geometry": {"type": "Point", "coordinates": [-82.2163240427, 39.9511894094]}, "type": "Feature", "properties": {"collection_times": [{"days": "Mon-Fri", "time": "11:30am"}, {"days": "Sat", "time": "10:15am"}, {"days": "Sun", "time": "Closed"}], "id": "4374000000", "name": "USPS COLLECTION BOX - BLUE BOX", "address": {"city": "GRATIOT", "state": "OH", "street": "349 MAIN ST", "postcode": "43740"}}},
{"geometry": {"type": "Point", "coordinates": [-82.2163240427, 39.9511894094]}, "type": "Feature", "properties": {"collection_times": [{"days": "Mon-Fri", "time": "11:30am"}, {"days": "Sat", "time": "10:15am"}, {"days": "Sun", "time": "Closed"}], "id": "4374000001", "name": "USPS COLLECTION BOX - PO LOBBY", "address": {"city": "GRATIOT", "state": "OH", "street": "349 MAIN ST", "postcode": "43740"}}},
{"geometry": {"type": "Point", "coordinates": [-81.1208912871, 39.8569485825]}, "type": "Feature", "properties": {"collection_times": [{"days": "Mon-Fri", "time": "11:30am"}, {"days": "Sat-Sun", "time": "Closed"}], "id": "4374700000", "name": "USPS COLLECTION BOX - BLUE BOX", "address": {"city": "JERUSALEM", "state": "OH", "street": "51666 MAIN ST", "postcode": "43747"}}},
{"geometry": {"type": "Point", "coordinates": [-81.1208912871, 39.8569485825]}, "type": "Feature", "properties": {"collection_times": [{"days": "Mon-Fri", "time": "11:30am"}, {"days": "Sat", "time": "12:30pm"}, {"days": "Sun", "time": "Closed"}], "id": "4374700001", "name": "USPS COLLECTION BOX - PO LOBBY", "address": {"city": "JERUSALEM", "state": "OH", "street": "51666 MAIN ST", "postcode": "43747"}}},
{"geometry": {"type": "Point", "coordinates": [-82.2996274284, 39.721289308]}, "type": "Feature", "properties": {"collection_times": [{"days": "Mon-Fri", "time": "4:15pm"}, {"days": "Sat", "time": "10:15am"}, {"days": "Sun", "time": "Closed"}], "id": "4374800000", "name": "USPS COLLECTION BOX - BLUE BOX", "address": {"city": "JUNCTION CITY", "state": "OH", "street": "114 W MAIN ST", "postcode": "43748"}}},
{"geometry": {"type": "Point", "coordinates": [-82.2996274284, 39.721289308]}, "type": "Feature", "properties": {"collection_times": [{"days": "Mon-Fri", "time": "4:30pm"}, {"days": "Sat", "time": "10:15am"}, {"days": "Sun", "time": "Closed"}], "id": "4374800001", "name": "USPS COLLECTION BOX - PO LOBBY", "address": {"city": "JUNCTION CITY", "state": "OH", "street": "114 W MAIN ST", "postcode": "43748"}}},
{"geometry": {"type": "Point", "coordinates": [-81.5731990146, 40.1483530495]}, "type": "Feature", "properties": {"collection_times": [{"days": "Mon-Fri", "time": "4:00pm"}, {"days": "Sat", "time": "10:45am"}, {"days": "Sun", "time": "Closed"}], "id": "4374900000", "name": "USPS COLLECTION BOX - BLUE BOX", "address": {"city": "KIMBOLTON", "state": "OH", "street": "114 S MAIN ST", "postcode": "43749"}}},
{"geometry": {"type": "Point", "coordinates": [-81.5731990146, 40.1483530495]}, "type": "Feature", "properties": {"collection_times": [{"days": "Mon-Fri", "time": "4:00pm"}, {"days": "Sat", "time": "10:45am"}, {"days": "Sun", "time": "Closed"}], "id": "4374900001", "name": "USPS COLLECTION BOX - PO LOBBY", "address": {"city": "KIMBOLTON", "state": "OH", "street": "114 S MAIN ST", "postcode": "43749"}}},
{"geometry": {"type": "Point", "coordinates": [-81.2171362779, 39.7647022822]}, "type": "Feature", "properties": {"collection_times": [{"days": "Mon-Fri", "time": "4:30pm"}, {"days": "Sat", "time": "10:00am"}, {"days": "Sun", "time": "Closed"}], "id": "4375400000", "name": "USPS COLLECTION BOX - BLUE BOX", "address": {"city": "STAFFORD", "state": "OH", "street": "33212 RAILROAD ST", "postcode": "43754"}}},
{"geometry": {"type": "Point", "coordinates": [-81.2171362779, 39.7647022822]}, "type": "Feature", "properties": {"collection_times": [{"days": "Mon-Fri", "time": "4:30pm"}, {"days": "Sat", "time": "10:00am"}, {"days": "Sun", "time": "Closed"}], "id": "4375400001", "name": "USPS COLLECTION BOX - PO LOBBY", "address": {"city": "STAFFORD", "state": "OH", "street": "33212 RAILROAD ST", "postcode": "43754"}}},
{"geometry": {"type": "Point", "coordinates": [-81.2763298102, 39.7130776215]}, "type": "Feature", "properties": {"collection_times": [{"days": "Mon-Sat", "time": "8:30am"}, {"days": "Sun", "time": "Closed"}], "id": "4375400002", "name": "USPS COLLECTION BOX - BLUE BOX", "address": {"city": "STAFFORD", "state": "OH", "street": "42385 MILL ST", "postcode": "43754"}}},
{"geometry": {"type": "Point", "coordinates": [-81.4591437919, 39.9849235049]}, "type": "Feature", "properties": {"collection_times": [{"days": "Mon-Fri", "time": "1:30pm"}, {"days": "Sat", "time": "10:15am"}, {"days": "Sun", "time": "Closed"}], "id": "4375500000", "name": "USPS COLLECTION BOX - BLUE BOX", "address": {"city": "LORE CITY", "state": "OH", "street": "200 MAIN ST NW", "postcode": "43755"}}},
{"geometry": {"type": "Point", "coordinates": [-81.4591437919, 39.9849235049]}, "type": "Feature", "properties": {"collection_times": [{"days": "Mon-Fri", "time": "1:30pm"}, {"days": "Sat", "time": "10:15am"}, {"days": "Sun", "time": "Closed"}], "id": "4375500001", "name": "USPS COLLECTION BOX - PO LOBBY", "address": {"city": "LORE CITY", "state": "OH", "street": "200 MAIN ST NW", "postcode": "43755"}}},
{"geometry": {"type": "Point", "coordinates": [-81.8532501555, 39.6480068765]}, "type": "Feature", "properties": {"collection_times": [{"days": "Mon-Fri", "time": "4:15pm"}, {"days": "Sat", "time": "2:00pm"}, {"days": "Sun", "time": "Closed"}], "id": "4375600001", "name": "USPS COLLECTION BOX - BLUE BOX", "address": {"city": "MCCONNELSVILLE", "state": "OH", "street": "83 S KENNEBEC AVE", "postcode": "43756"}}},
{"geometry": {"type": "Point", "coordinates": [-81.8532501555, 39.6480068765]}, "type": "Feature", "properties": {"collection_times": [{"days": "Mon-Fri", "time": "4:15pm"}, {"days": "Sat", "time": "2:00pm"}, {"days": "Sun", "time": "Closed"}], "id": "4375600002", "name": "USPS COLLECTION BOX - BLUE BOX", "address": {"city": "MCCONNELSVILLE", "state": "OH", "street": "83 S KENNEBEC AVE", "postcode": "43756"}}},
{"geometry": {"type": "Point", "coordinates": [-81.8530832089, 39.6488449478]}, "type": "Feature", "properties": {"collection_times": [{"days": "Mon-Sat", "time": "12:00pm"}, {"days": "Sun", "time": "Closed"}], "id": "4375600004", "name": "USPS COLLECTION BOX - BLUE BOX", "address": {"city": "MCCONNELSVILLE", "state": "OH", "street": "19 E MAIN ST", "postcode": "43756"}}},
{"geometry": {"type": "Point", "coordinates": [-81.8532501555, 39.6480068765]}, "type": "Feature", "properties": {"collection_times": [{"days": "Mon-Fri", "time": "4:15pm"}, {"days": "Sat", "time": "2:00pm"}, {"days": "Sun", "time": "Closed"}], "id": "4375600014", "name": "USPS COLLECTION BOX - PO LOBBY", "address": {"city": "MCCONNELSVILLE", "state": "OH", "street": "83 S KENNEBEC AVE", "postcode": "43756"}}},
{"geometry": {"type": "Point", "coordinates": [-81.8515734056, 39.6487650355]}, "type": "Feature", "properties": {"collection_times": [{"days": "Mon-Sat", "time": "12:00pm"}, {"days": "Sun", "time": "Closed"}], "id": "4375600015", "name": "USPS COLLECTION BOX - BLUE BOX", "address": {"city": "MCCONNELSVILLE", "state": "OH", "street": "155 E MAIN ST", "postcode": "43756"}}},
{"geometry": {"type": "Point", "coordinates": [-81.8644201835, 39.65200832]}, "type": "Feature", "properties": {"collection_times": [{"days": "Mon-Fri", "time": "4:00pm"}, {"days": "Sat", "time": "11:45am"}, {"days": "Sun", "time": "Closed"}], "id": "4375800000", "name": "USPS COLLECTION BOX - BLUE BOX", "address": {"city": "MALTA", "state": "OH", "street": "534 N MAIN ST", "postcode": "43758"}}},
{"geometry": {"type": "Point", "coordinates": [-81.8644201835, 39.65200832]}, "type": "Feature", "properties": {"collection_times": [{"days": "Mon-Fri", "time": "4:00pm"}, {"days": "Sat", "time": "11:45am"}, {"days": "Sun", "time": "Closed"}], "id": "4375800001", "name": "USPS COLLECTION BOX - PO LOBBY", "address": {"city": "MALTA", "state": "OH", "street": "534 N MAIN ST", "postcode": "43758"}}},
{"geometry": {"type": "Point", "coordinates": [-81.0748383688, 40.0630293432]}, "type": "Feature", "properties": {"collection_times": [{"days": "Mon-Fri", "time": "12:30pm"}, {"days": "Sat", "time": "10:15am"}, {"days": "Sun", "time": "Closed"}], "id": "4375900000", "name": "USPS COLLECTION BOX - BLUE BOX", "address": {"city": "MORRISTOWN", "state": "OH", "street": "126 E MAIN ST", "postcode": "43759"}}},
{"geometry": {"type": "Point", "coordinates": [-81.0748383688, 40.0630293432]}, "type": "Feature", "properties": {"collection_times": [{"days": "Mon-Fri", "time": "12:30pm"}, {"days": "Sat", "time": "10:15am"}, {"days": "Sun", "time": "Closed"}], "id": "4375900001", "name": "USPS COLLECTION BOX - PO LOBBY", "address": {"city": "MORRISTOWN", "state": "OH", "street": "126 E MAIN ST", "postcode": "43759"}}},
{"geometry": {"type": "Point", "coordinates": [-82.1358308886, 39.6630485257]}, "type": "Feature", "properties": {"collection_times": [{"days": "Mon-Fri", "time": "10:30am"}, {"days": "Sat", "time": "10:15am"}, {"days": "Sun", "time": "Closed"}], "id": "4376100000", "name": "USPS COLLECTION BOX - BLUE BOX", "address": {"city": "MOXAHALA", "state": "OH", "street": "3310 STATE ROUTE 13 SE", "postcode": "43761"}}},
{"geometry": {"type": "Point", "coordinates": [-82.1358308886, 39.6630485257]}, "type": "Feature", "properties": {"collection_times": [{"days": "Mon-Fri", "time": "10:30am"}, {"days": "Sat", "time": "10:15am"}, {"days": "Sun", "time": "Closed"}], "id": "4376100001", "name": "USPS COLLECTION BOX - PO LOBBY", "address": {"city": "MOXAHALA", "state": "OH", "street": "3310 STATE ROUTE 13 SE", "postcode": "43761"}}},
{"geometry": {"type": "Point", "coordinates": [-81.7344412295, 39.9937549097]}, "type": "Feature", "properties": {"collection_times": [{"days": "Mon-Fri", "time": "4:45pm"}, {"days": "Sat", "time": "12:00pm"}, {"days": "Sun", "time": "Closed"}], "id": "4376200002", "name": "USPS COLLECTION BOX - BLUE BOX", "address": {"city": "NEW CONCORD", "state": "OH", "street": "61 W MAIN ST", "postcode": "43762"}}},
{"geometry": {"type": "Point", "coordinates": [-81.7304925632, 39.9940214706]}, "type": "Feature", "properties": {"collection_times": [{"days": "Mon-Sat", "time": "9:00am"}, {"days": "Sun", "time": "Closed"}], "id": "4376200003", "name": "USPS COLLECTION BOX - BLUE BOX", "address": {"city": "NEW CONCORD", "state": "OH", "street": "41 E MAIN ST", "postcode": "43762"}}},
{"geometry": {"type": "Point", "coordinates": [-81.738768522, 39.9933236877]}, "type": "Feature", "properties": {"collection_times": [{"days": "Mon-Sat", "time": "9:30am"}, {"days": "Sun", "time": "Closed"}], "id": "4376200004", "name": "USPS COLLECTION BOX - BLUE BOX", "address": {"city": "NEW CONCORD", "state": "OH", "street": "168 W MAIN ST", "postcode": "43762"}}},
{"geometry": {"type": "Point", "coordinates": [-81.7344412295, 39.9937549097]}, "type": "Feature", "properties": {"collection_times": [{"days": "Mon-Fri", "time": "4:45pm"}, {"days": "Sat", "time": "12:00pm"}, {"days": "Sun", "time": "Closed"}], "id": "4376200008", "name": "USPS COLLECTION BOX - PO LOBBY", "address": {"city": "NEW CONCORD", "state": "OH", "street": "61 W MAIN ST", "postcode": "43762"}}},
{"geometry": {"type": "Point", "coordinates": [-82.2130352304, 39.7121541594]}, "type": "Feature", "properties": {"collection_times": [{"days": "Mon-Fri", "time": "4:45pm"}, {"days": "Sat", "time": "3:00pm"}, {"days": "Sun", "time": "Closed"}], "id": "4376400001", "name": "USPS COLLECTION BOX - BLUE BOX", "address": {"city": "NEW LEXINGTON", "state": "OH", "street": "200 W BROWN ST REAR", "postcode": "43764"}}},
{"geometry": {"type": "Point", "coordinates": [-82.208895359, 39.7154141928]}, "type": "Feature", "properties": {"collection_times": [{"days": "Mon-Sat", "time": "12:00pm"}, {"days": "Sun", "time": "Closed"}], "id": "4376400002", "name": "USPS COLLECTION BOX - BLUE BOX", "address": {"city": "NEW LEXINGTON", "state": "OH", "street": "510 N MAIN ST", "postcode": "43764"}}},
{"geometry": {"type": "Point", "coordinates": [-82.2054372162, 39.7202962144]}, "type": "Feature", "properties": {"collection_times": [{"days": "Mon-Sat", "time": "12:00pm"}, {"days": "Sun", "time": "Closed"}], "id": "4376400003", "name": "USPS COLLECTION BOX - BLUE BOX", "address": {"city": "NEW LEXINGTON", "state": "OH", "street": "610 CARROLL ST", "postcode": "43764"}}},
{"geometry": {"type": "Point", "coordinates": [-82.2130352308, 39.7121541593]}, "type": "Feature", "properties": {"collection_times": [{"days": "Mon-Fri", "time": "4:45pm"}, {"days": "Sat", "time": "3:00pm"}, {"days": "Sun", "time": "Closed"}], "id": "4376400006", "name": "USPS COLLECTION BOX - PO LOBBY", "address": {"city": "NEW LEXINGTON", "state": "OH", "street": "200 W BROWN ST", "postcode": "43764"}}},
{"geometry": {"type": "Point", "coordinates": [-82.2390644757, 39.5785435683]}, "type": "Feature", "properties": {"collection_times": [{"days": "Mon-Fri", "time": "3:45pm"}, {"days": "Sat", "time": "10:15am"}, {"days": "Sun", "time": "Closed"}], "id": "4376600000", "name": "USPS COLLECTION BOX - BLUE BOX", "address": {"city": "NEW STRAITSVL", "state": "OH", "street": "214 W MAIN ST", "postcode": "43766"}}},
{"geometry": {"type": "Point", "coordinates": [-82.2390644757, 39.5785435683]}, "type": "Feature", "properties": {"collection_times": [{"days": "Mon-Fri", "time": "3:45pm"}, {"days": "Sat", "time": "10:15am"}, {"days": "Sun", "time": "Closed"}], "id": "4376600001", "name": "USPS COLLECTION BOX - PO LOBBY", "address": {"city": "NEW STRAITSVL", "state": "OH", "street": "214 W MAIN ST", "postcode": "43766"}}},
{"geometry": {"type": "Point", "coordinates": [-81.7929958827, 39.9847825143]}, "type": "Feature", "properties": {"collection_times": [{"days": "Mon-Fri", "time": "4:00pm"}, {"days": "Sat", "time": "10:15am"}, {"days": "Sun", "time": "Closed"}], "id": "4376700000", "name": "USPS COLLECTION BOX - BLUE BOX", "address": {"city": "NORWICH", "state": "OH", "street": "10445 MAIN ST", "postcode": "43767"}}},
{"geometry": {"type": "Point", "coordinates": [-81.7929958827, 39.9847825143]}, "type": "Feature", "properties": {"collection_times": [{"days": "Mon-Fri", "time": "4:00pm"}, {"days": "Sat", "time": "10:15am"}, {"days": "Sun", "time": "Closed"}], "id": "4376700001", "name": "USPS COLLECTION BOX - PO LOBBY", "address": {"city": "NORWICH", "state": "OH", "street": "10445 MAIN ST", "postcode": "43767"}}},
{"geometry": {"type": "Point", "coordinates": [-81.4446079202, 40.0384151087]}, "type": "Feature", "properties": {"collection_times": [{"days": "Mon-Fri", "time": "4:00pm"}, {"days": "Sat", "time": "10:15am"}, {"days": "Sun", "time": "Closed"}], "id": "4376800000", "name": "USPS COLLECTION BOX - BLUE BOX", "address": {"city": "OLD WASHINGTON", "state": "OH", "street": "204 OLD NATIONAL RD", "postcode": "43768"}}},
{"geometry": {"type": "Point", "coordinates": [-81.4446079202, 40.0384151087]}, "type": "Feature", "properties": {"collection_times": [{"days": "Mon-Fri", "time": "4:00pm"}, {"days": "Sat", "time": "10:15am"}, {"days": "Sun", "time": "Closed"}], "id": "4376800001", "name": "USPS COLLECTION BOX - PO LOBBY", "address": {"city": "OLD WASHINGTON", "state": "OH", "street": "204 OLD NATIONAL RD", "postcode": "43768"}}},
{"geometry": {"type": "Point", "coordinates": [-81.9085847132, 39.8616835895]}, "type": "Feature", "properties": {"collection_times": [{"days": "Mon-Fri", "time": "4:00pm"}, {"days": "Sat", "time": "10:15am"}, {"days": "Sun", "time": "Closed"}], "id": "4377100000", "name": "USPS COLLECTION BOX - BLUE BOX", "address": {"city": "PHILO", "state": "OH", "street": "265 MAIN ST", "postcode": "43771"}}},
{"geometry": {"type": "Point", "coordinates": [-81.9085847132, 39.8616835895]}, "type": "Feature", "properties": {"collection_times": [{"days": "Mon-Fri", "time": "4:00pm"}, {"days": "Sat", "time": "10:15am"}, {"days": "Sun", "time": "Closed"}], "id": "4377100001", "name": "USPS COLLECTION BOX - PO LOBBY", "address": {"city": "PHILO", "state": "OH", "street": "265 MAIN ST", "postcode": "43771"}}},
{"geometry": {"type": "Point", "coordinates": [-81.5479130721, 39.9033255636]}, "type": "Feature", "properties": {"collection_times": [{"days": "Mon-Fri", "time": "1:30pm"}, {"days": "Sat", "time": "10:15am"}, {"days": "Sun", "time": "Closed"}], "id": "4377200000", "name": "USPS COLLECTION BOX - BLUE BOX", "address": {"city": "PLEASANT CITY", "state": "OH", "street": "210 MAIN ST", "postcode": "43772"}}},
{"geometry": {"type": "Point", "coordinates": [-81.5479130721, 39.9033255636]}, "type": "Feature", "properties": {"collection_times": [{"days": "Mon-Fri", "time": "1:45pm"}, {"days": "Sat", "time": "10:15am"}, {"days": "Sun", "time": "Closed"}], "id": "4377200001", "name": "USPS COLLECTION BOX - PO LOBBY", "address": {"city": "PLEASANT CITY", "state": "OH", "street": "210 MAIN ST", "postcode": "43772"}}},
{"geometry": {"type": "Point", "coordinates": [-81.2983771386, 39.9709009143]}, "type": "Feature", "properties": {"collection_times": [{"days": "Mon-Fri", "time": "3:45pm"}, {"days": "Sat", "time": "10:45am"}, {"days": "Sun", "time": "Closed"}], "id": "4377300000", "name": "USPS COLLECTION BOX - BLUE BOX", "address": {"city": "QUAKER CITY", "state": "OH", "street": "151 SOUTH ST", "postcode": "43773"}}},
{"geometry": {"type": "Point", "coordinates": [-81.2983771386, 39.9709009143]}, "type": "Feature", "properties": {"collection_times": [{"days": "Mon-Fri", "time": "3:45pm"}, {"days": "Sat", "time": "10:45am"}, {"days": "Sun", "time": "Closed"}], "id": "4377300001", "name": "USPS COLLECTION BOX - PO LOBBY", "address": {"city": "QUAKER CITY", "state": "OH", "street": "151 SOUTH ST", "postcode": "43773"}}},
{"geometry": {"type": "Point", "coordinates": [-82.0727510256, 39.8051532734]}, "type": "Feature", "properties": {"collection_times": [{"days": "Mon-Sat", "time": "9:00am"}, {"days": "Sun", "time": "Closed"}], "id": "4377700004", "name": "USPS COLLECTION BOX - BLUE BOX", "address": {"city": "ROSEVILLE", "state": "OH", "street": "55 N MAIN ST", "postcode": "43777"}}},
{"geometry": {"type": "Point", "coordinates": [-82.0723263291, 39.8090184923]}, "type": "Feature", "properties": {"collection_times": [{"days": "Mon-Fri", "time": "4:00pm"}, {"days": "Sat", "time": "11:30am"}, {"days": "Sun", "time": "Closed"}], "id": "4377700005", "name": "USPS COLLECTION BOX - BLUE BOX", "address": {"city": "ROSEVILLE", "state": "OH", "street": "226 N MAIN ST", "postcode": "43777"}}},
{"geometry": {"type": "Point", "coordinates": [-82.0723263291, 39.8090184923]}, "type": "Feature", "properties": {"collection_times": [{"days": "Mon-Fri", "time": "4:00pm"}, {"days": "Sat", "time": "11:30am"}, {"days": "Sun", "time": "Closed"}], "id": "4377700007", "name": "USPS COLLECTION BOX - PO LOBBY", "address": {"city": "ROSEVILLE", "state": "OH", "street": "226 N MAIN ST", "postcode": "43777"}}},
{"geometry": {"type": "Point", "coordinates": [-81.4688106319, 39.807453904]}, "type": "Feature", "properties": {"collection_times": [{"days": "Mon-Fri", "time": "4:00pm"}, {"days": "Sat", "time": "12:15pm"}, {"days": "Sun", "time": "Closed"}], "id": "4377900000", "name": "USPS COLLECTION BOX - BLUE BOX", "address": {"city": "SARAHSVILLE", "state": "OH", "street": "315 MAIN ST", "postcode": "43779"}}},
{"geometry": {"type": "Point", "coordinates": [-81.4623448316, 39.9346496135]}, "type": "Feature", "properties": {"collection_times": [{"days": "Mon-Fri", "time": "1:30pm"}, {"days": "Sat", "time": "10:45am"}, {"days": "Sun", "time": "Closed"}], "id": "4378000000", "name": "USPS COLLECTION BOX - BLUE BOX", "address": {"city": "SENECAVILLE", "state": "OH", "street": "206 HIGH ST", "postcode": "43780"}}},
{"geometry": {"type": "Point", "coordinates": [-81.4623448316, 39.9346496135]}, "type": "Feature", "properties": {"collection_times": [{"days": "Mon-Fri", "time": "1:45pm"}, {"days": "Sat", "time": "10:45am"}, {"days": "Sun", "time": "Closed"}], "id": "4378000001", "name": "USPS COLLECTION BOX - PO LOBBY", "address": {"city": "SENECAVILLE", "state": "OH", "street": "206 HIGH ST", "postcode": "43780"}}},
{"geometry": {"type": "Point", "coordinates": [-82.2093451467, 39.6218358148]}, "type": "Feature", "properties": {"collection_times": [{"days": "Mon-Sat", "time": "10:30am"}, {"days": "Sun", "time": "Closed"}], "id": "4378200000", "name": "USPS COLLECTION BOX - BLUE BOX", "address": {"city": "SHAWNEE", "state": "OH", "street": "111 2ND ST", "postcode": "43782"}}},
{"geometry": {"type": "Point", "coordinates": [-82.2992006906, 39.8070901219]}, "type": "Feature", "properties": {"collection_times": [{"days": "Mon-Sat", "time": "12:00pm"}, {"days": "Sun", "time": "Closed"}], "id": "4378300000", "name": "USPS COLLECTION BOX - BLUE BOX", "address": {"city": "SOMERSET", "state": "OH", "street": "100 PUBLIC SQ", "postcode": "43783"}}},
{"geometry": {"type": "Point", "coordinates": [-82.2950008575, 39.8025590293]}, "type": "Feature", "properties": {"collection_times": [{"days": "Mon-Fri", "time": "4:30pm"}, {"days": "Sat", "time": "11:15am"}, {"days": "Sun", "time": "Closed"}], "id": "4378300001", "name": "USPS COLLECTION BOX - PO LOBBY", "address": {"city": "SOMERSET", "state": "OH", "street": "320 S COLUMBUS ST", "postcode": "43783"}}},
{"geometry": {"type": "Point", "coordinates": [-82.2950008575, 39.8025590293]}, "type": "Feature", "properties": {"collection_times": [{"days": "Mon-Fri", "time": "4:30pm"}, {"days": "Sat", "time": "11:15am"}, {"days": "Sun", "time": "Closed"}], "id": "4378300002", "name": "USPS COLLECTION BOX - BLUE BOX", "address": {"city": "SOMERSET", "state": "OH", "street": "320 S COLUMBUS ST", "postcode": "43783"}}},
{"geometry": {"type": "Point", "coordinates": [-81.7981923254, 39.5491668084]}, "type": "Feature", "properties": {"collection_times": [{"days": "Mon-Fri", "time": "12:00pm"}, {"days": "Sat", "time": "11:00am"}, {"days": "Sun", "time": "Closed"}], "id": "4378700000", "name": "USPS COLLECTION BOX - BLUE BOX", "address": {"city": "STOCKPORT", "state": "OH", "street": "1240 MAIN ST", "postcode": "43787"}}},
{"geometry": {"type": "Point", "coordinates": [-81.7897262097, 39.5490880906]}, "type": "Feature", "properties": {"collection_times": [{"days": "Mon-Fri", "time": "3:00pm"}, {"days": "Sat", "time": "10:45am"}, {"days": "Sun", "time": "Closed"}], "id": "4378700001", "name": "USPS COLLECTION BOX - BLUE BOX", "address": {"city": "STOCKPORT", "state": "OH", "street": "1975 MAIN ST", "postcode": "43787"}}},
{"geometry": {"type": "Point", "coordinates": [-81.7897262097, 39.5490880906]}, "type": "Feature", "properties": {"collection_times": [{"days": "Mon-Fri", "time": "3:00pm"}, {"days": "Sat", "time": "10:45am"}, {"days": "Sun", "time": "Closed"}], "id": "4378700002", "name": "USPS COLLECTION BOX - PO LOBBY", "address": {"city": "STOCKPORT", "state": "OH", "street": "1975 MAIN ST", "postcode": "43787"}}},
{"geometry": {"type": "Point", "coordinates": [-81.339946097, 39.7983352109]}, "type": "Feature", "properties": {"collection_times": [{"days": "Mon-Fri", "time": "11:30am"}, {"days": "Sat", "time": "10:15am"}, {"days": "Sun", "time": "Closed"}], "id": "4378800000", "name": "USPS COLLECTION BOX - BLUE BOX", "address": {"city": "SUMMERFIELD", "state": "OH", "street": "300 W CROSS ST", "postcode": "43788"}}},
{"geometry": {"type": "Point", "coordinates": [-81.339946097, 39.7983352109]}, "type": "Feature", "properties": {"collection_times": [{"days": "Mon-Fri", "time": "11:30am"}, {"days": "Sat", "time": "10:15am"}, {"days": "Sun", "time": "Closed"}], "id": "4378800001", "name": "USPS COLLECTION BOX - PO LOBBY", "address": {"city": "SUMMERFIELD", "state": "OH", "street": "300 W CROSS ST", "postcode": "43788"}}},
{"geometry": {"type": "Point", "coordinates": [-82.0846300591, 39.8805422954]}, "type": "Feature", "properties": {"collection_times": [{"days": "Mon-Fri", "time": "11:00am"}, {"days": "Sat", "time": "10:00am"}, {"days": "Sun", "time": "Closed"}], "id": "4379100000", "name": "USPS COLLECTION BOX - BLUE BOX", "address": {"city": "WHITE COTTAGE", "state": "OH", "street": "3880 ROBERTS ADDITION", "postcode": "43791"}}},
{"geometry": {"type": "Point", "coordinates": [-82.0846300591, 39.8805422954]}, "type": "Feature", "properties": {"collection_times": [{"days": "Mon-Fri", "time": "11:00am"}, {"days": "Sat", "time": "10:00am"}, {"days": "Sun", "time": "Closed"}], "id": "4379100001", "name": "USPS COLLECTION BOX - PO LOBBY", "address": {"city": "WHITE COTTAGE", "state": "OH", "street": "3880 ROBERTS ADDITION", "postcode": "43791"}}},
{"geometry": {"type": "Point", "coordinates": [-81.1156122987, 39.7631845914]}, "type": "Feature", "properties": {"collection_times": [{"days": "Mon-Fri", "time": "4:00pm"}, {"days": "Sat", "time": "12:00pm"}, {"days": "Sun", "time": "Closed"}], "id": "4379300001", "name": "USPS COLLECTION BOX - BLUE BOX", "address": {"city": "WOODSFIELD", "state": "OH", "street": "125 N MAIN ST", "postcode": "43793"}}},
{"geometry": {"type": "Point", "coordinates": [-81.1156122987, 39.7631845914]}, "type": "Feature", "properties": {"collection_times": [{"days": "Mon-Fri", "time": "4:00pm"}, {"days": "Sat", "time": "12:00pm"}, {"days": "Sun", "time": "Closed"}], "id": "4379300023", "name": "USPS COLLECTION BOX - PO LOBBY", "address": {"city": "WOODSFIELD", "state": "OH", "street": "125 N MAIN ST", "postcode": "43793"}}},
{"geometry": {"type": "Point", "coordinates": [-81.1027795268, 39.7409615342]}, "type": "Feature", "properties": {"collection_times": [{"days": "Mon-Sat", "time": "11:00am"}, {"days": "Sun", "time": "Closed"}], "id": "4379300024", "name": "USPS COLLECTION BOX - BLUE BOX", "address": {"city": "WOODSFIELD", "state": "OH", "street": "42988 SIX POINTS RD", "postcode": "43793"}}}
]}
