{"type": "FeatureCollection", "features": [
{"geometry": {"type": "Point", "coordinates": [-81.8824731022, 40.0701752862]}, "type": "Feature", "properties": {"collection_times": [{"days": "Mon-Fri", "time": "11:30am"}, {"days": "Sat", "time": "10:15am"}, {"days": "Sun", "time": "Closed"}], "id": "4380200000", "name": "USPS COLLECTION BOX - BLUE BOX", "address": {"city": "ADAMSVILLE", "state": "OH", "street": "8125 EAST ST", "postcode": "43802"}}},
{"geometry": {"type": "Point", "coordinates": [-81.8824731022, 40.0701752862]}, "type": "Feature", "properties": {"collection_times": [{"days": "Mon-Fri", "time": "11:30am"}, {"days": "Sat", "time": "10:15am"}, {"days": "Sun", "time": "Closed"}], "id": "4380200001", "name": "USPS COLLECTION BOX - PO LOBBY", "address": {"city": "ADAMSVILLE", "state": "OH", "street": "8125 EAST ST", "postcode": "43802"}}},
{"geometry": {"type": "Point", "coordinates": [-81.7021875948, 40.4400875322]}, "type": "Feature", "properties": {"collection_times": [{"days": "Mon-Fri", "time": "4:00pm"}, {"days": "Sat", "time": "10:15am"}, {"days": "Sun", "time": "Closed"}], "id": "4380400000", "name": "USPS COLLECTION BOX - BLUE BOX", "address": {"city": "BALTIC", "state": "OH", "street": "105 N RAY ST", "postcode": "43804"}}},
{"geometry": {"type": "Point", "coordinates": [-81.7021875948, 40.4400875322]}, "type": "Feature", "properties": {"collection_times": [{"days": "Mon-Fri", "time": "4:15pm"}, {"days": "Sat", "time": "10:15am"}, {"days": "Sun", "time": "Closed"}], "id": "4380400001", "name": "USPS COLLECTION BOX - PO LOBBY", "address": {"city": "BALTIC", "state": "OH", "street": "105 N RAY ST", "postcode": "43804"}}},
{"geometry": {"type": "Point", "coordinates": [-81.8928119619, 40.1843111116]}, "type": "Feature", "properties": {"collection_times": [{"days": "Mon-Fri", "time": "4:00pm"}, {"days": "Sat", "time": "10:15am"}, {"days": "Sun", "time": "Closed"}], "id": "4381100001", "name": "USPS COLLECTION BOX - PO LOBBY", "address": {"city": "CONESVILLE", "state": "OH", "street": "504 MARQUAND AVE", "postcode": "43811"}}},
{"geometry": {"type": "Point", "coordinates": [-81.8928119619, 40.1843111116]}, "type": "Feature", "properties": {"collection_times": [{"days": "Mon-Fri", "time": "4:00pm"}, {"days": "Sat", "time": "10:15am"}, {"days": "Sun", "time": "Closed"}], "id": "4381100002", "name": "USPS COLLECTION BOX - BLUE BOX", "address": {"city": "CONESVILLE", "state": "OH", "street": "504 MARQUAND AVE", "postcode": "43811"}}},
{"geometry": {"type": "Point", "coordinates": [-81.8632189271, 40.2749775391]}, "type": "Feature", "properties": {"collection_times": [{"days": "Mon-Fri", "time": "5:15pm"}, {"days": "Sat", "time": "5:00pm"}, {"days": "Sun", "time": "Closed"}], "id": "4381200000", "name": "USPS COLLECTION BOX - BLUE BOX", "address": {"city": "COSHOCTON", "state": "OH", "street": "516 CHESTNUT ST", "postcode": "43812"}}},
{"geometry": {"type": "Point", "coordinates": [-81.8632189271, 40.2749775391]}, "type": "Feature", "properties": {"collection_times": [{"days": "Mon-Fri", "time": "5:15pm"}, {"days": "Sat", "time": "5:00pm"}, {"days": "Sun", "time": "Closed"}], "id": "4381200001", "name": "USPS COLLECTION BOX - BLUE BOX", "address": {"city": "COSHOCTON", "state": "OH", "street": "516 CHESTNUT ST", "postcode": "43812"}}},
{"geometry": {"type": "Point", "coordinates": [-81.8632189271, 40.2749775391]}, "type": "Feature", "properties": {"collection_times": [{"days": "Mon-Fri", "time": "5:15pm"}, {"days": "Sat", "time": "5:00pm"}, {"days": "Sun", "time": "Closed"}], "id": "4381200002", "name": "USPS COLLECTION BOX - BLUE BOX", "address": {"city": "COSHOCTON", "state": "OH", "street": "516 CHESTNUT ST", "postcode": "43812"}}},
{"geometry": {"type": "Point", "coordinates": [-81.8762780602, 40.2792627201]}, "type": "Feature", "properties": {"collection_times": [{"days": "Mon-Sat", "time": "9:00am"}, {"days": "Sun", "time": "Closed"}], "id": "4381200006", "name": "USPS COLLECTION BOX - BLUE BOX", "address": {"city": "COSHOCTON", "state": "OH", "street": "403 N WHITEWOMAN ST", "postcode": "43812"}}},
{"geometry": {"type": "Point", "coordinates": [-81.854276556, 40.257805689]}, "type": "Feature", "properties": {"collection_times": [{"days": "Mon-Sat", "time": "10:30am"}, {"days": "Sun", "time": "Closed"}], "id": "4381200016", "name": "USPS COLLECTION BOX - BLUE BOX", "address": {"city": "COSHOCTON", "state": "OH", "street": "1100 FAIRY FALLS DR", "postcode": "43812"}}},
{"geometry": {"type": "Point", "coordinates": [-81.8596264767, 40.266670482]}, "type": "Feature", "properties": {"collection_times": [{"days": "Mon-Fri", "time": "4:45pm"}, {"days": "Sat", "time": "4:30pm"}, {"days": "Sun", "time": "Closed"}], "id": "4381200020", "name": "USPS COLLECTION BOX - BLUE BOX", "address": {"city": "COSHOCTON", "state": "OH", "street": "724 S 7TH ST", "postcode": "43812"}}},
{"geometry": {"type": "Point", "coordinates": [-81.8681034221, 40.2751468583]}, "type": "Feature", "properties": {"collection_times": [{"days": "Mon-Fri", "time": "4:45pm"}, {"days": "Sat", "time": "4:30pm"}, {"days": "Sun", "time": "Closed"}], "id": "4381200024", "name": "USPS COLLECTION BOX - BLUE BOX", "address": {"city": "COSHOCTON", "state": "OH", "street": "234 CHESTNUT ST", "postcode": "43812"}}},
{"geometry": {"type": "Point", "coordinates": [-81.8693316154, 40.2699808534]}, "type": "Feature", "properties": {"collection_times": [{"days": "Mon-Fri", "time": "4:45pm"}, {"days": "Sat", "time": "4:30pm"}, {"days": "Sun", "time": "Closed"}], "id": "4381200032", "name": "USPS COLLECTION BOX - BLUE BOX", "address": {"city": "COSHOCTON", "state": "OH", "street": "499 DOWNTOWNER PLZ", "postcode": "43812"}}},
{"geometry": {"type": "Point", "coordinates": [-81.8652082283, 40.2733198623]}, "type": "Feature", "properties": {"collection_times": [{"days": "Mon-Fri", "time": "4:45pm"}, {"days": "Sat", "time": "4:30pm"}, {"days": "Sun", "time": "Closed"}], "id": "4381200034", "name": "USPS COLLECTION BOX - BLUE BOX", "address": {"city": "COSHOCTON", "state": "OH", "street": "120 S 4TH ST", "postcode": "43812"}}},
{"geometry": {"type": "Point", "coordinates": [-81.8708031963, 40.2473460392]}, "type": "Feature", "properties": {"collection_times": [{"days": "Mon-Fri", "time": "4:45pm"}, {"days": "Sat", "time": "4:30pm"}, {"days": "Sun", "time": "Closed"}], "id": "4381200035", "name": "USPS COLLECTION BOX - BLUE BOX", "address": {"city": "COSHOCTON", "state": "OH", "street": "830 S 2ND ST", "postcode": "43812"}}},
{"geometry": {"type": "Point", "coordinates": [-81.8652082283, 40.2733198623]}, "type": "Feature", "properties": {"collection_times": [{"days": "Mon-Fri", "time": "4:45pm"}, {"days": "Sat", "time": "4:30pm"}, {"days": "Sun", "time": "Closed"}], "id": "4381200043", "name": "USPS COLLECTION BOX - BLUE BOX", "address": {"city": "COSHOCTON", "state": "OH", "street": "120 S 4TH ST", "postcode": "43812"}}},
{"geometry": {"type": "Point", "coordinates": [-81.8652082283, 40.2733198623]}, "type": "Feature", "properties": {"collection_times": [{"days": "Mon-Fri", "time": "4:45pm"}, {"days": "Sat", "time": "4:30pm"}, {"days": "Sun", "time": "Closed"}], "id": "4381200044", "name": "USPS COLLECTION BOX - BLUE BOX", "address": {"city": "COSHOCTON", "state": "OH", "street": "120 S 4TH ST", "postcode": "43812"}}},
{"geometry": {"type": "Point", "coordinates": [-81.8632189271, 40.2749775391]}, "type": "Feature", "properties": {"collection_times": [{"days": "Mon-Fri", "time": "5:15pm"}, {"days": "Sat", "time": "5:00pm"}, {"days": "Sun", "time": "Closed"}], "id": "4381200045", "name": "USPS COLLECTION BOX - PO LOBBY", "address": {"city": "COSHOCTON", "state": "OH", "street": "516 CHESTNUT ST", "postcode": "43812"}}},
{"geometry": {"type": "Point", "coordinates": [-81.8604591758, 40.2733769725]}, "type": "Feature", "properties": {"collection_times": [{"days": "Mon-Fri", "time": "4:45pm"}, {"days": "Sat", "time": "4:30pm"}, {"days": "Sun", "time": "Closed"}], "id": "4381200046", "name": "USPS COLLECTION BOX - BLUE BOX", "address": {"city": "COSHOCTON", "state": "OH", "street": "655 MAIN ST", "postcode": "43812"}}},
{"geometry": {"type": "Point", "coordinates": [-81.8704671744, 40.2737470819]}, "type": "Feature", "properties": {"collection_times": [{"days": "Mon-Sat", "time": "10:00am"}, {"days": "Sun", "time": "Closed"}], "id": "4381200047", "name": "USPS COLLECTION BOX - BLUE BOX", "address": {"city": "COSHOCTON", "state": "OH", "street": "103 MAIN ST", "postcode": "43812"}}},
{"geometry": {"type": "Point", "coordinates": [-81.8476572029, 40.2962516248]}, "type": "Feature", "properties": {"collection_times": [{"days": "Mon-Sat", "time": "10:30am"}, {"days": "Sun", "time": "Closed"}], "id": "4381200048", "name": "USPS COLLECTION BOX - BLUE BOX", "address": {"city": "COSHOCTON", "state": "OH", "street": "23605 TOWNSHIP ROAD 202", "postcode": "43812"}}},
{"geometry": {"type": "Point", "coordinates": [-82.0131524621, 40.1250912083]}, "type": "Feature", "properties": {"collection_times": [{"days": "Mon-Fri", "time": "4:00pm"}, {"days": "Sat", "time": "10:45am"}, {"days": "Sun", "time": "Closed"}], "id": "4382100000", "name": "USPS COLLECTION BOX - BLUE BOX", "address": {"city": "DRESDEN", "state": "OH", "street": "25 W 4TH ST", "postcode": "43821"}}},
{"geometry": {"type": "Point", "coordinates": [-82.0131524621, 40.1250912083]}, "type": "Feature", "properties": {"collection_times": [{"days": "Mon-Fri", "time": "4:00pm"}, {"days": "Sat", "time": "10:45am"}, {"days": "Sun", "time": "Closed"}], "id": "4382100001", "name": "USPS COLLECTION BOX - BLUE BOX", "address": {"city": "DRESDEN", "state": "OH", "street": "25 W 4TH ST", "postcode": "43821"}}},
{"geometry": {"type": "Point", "coordinates": [-82.0131524621, 40.1250912083]}, "type": "Feature", "properties": {"collection_times": [{"days": "Mon-Fri", "time": "4:00pm"}, {"days": "Sat", "time": "10:45am"}, {"days": "Sun", "time": "Closed"}], "id": "4382100003", "name": "USPS COLLECTION BOX - PO LOBBY", "address": {"city": "DRESDEN", "state": "OH", "street": "25 W 4TH ST", "postcode": "43821"}}},
{"geometry": {"type": "Point", "coordinates": [-82.1166779726, 40.1191861762]}, "type": "Feature", "properties": {"collection_times": [{"days": "Mon-Fri", "time": "3:45pm"}, {"days": "Sat", "time": "10:15am"}, {"days": "Sun", "time": "Closed"}], "id": "4382200000", "name": "USPS COLLECTION BOX - BLUE BOX", "address": {"city": "FRAZEYSBURG", "state": "OH", "street": "24 N STATE ST", "postcode": "43822"}}},
{"geometry": {"type": "Point", "coordinates": [-82.1166779726, 40.1191861762]}, "type": "Feature", "properties": {"collection_times": [{"days": "Mon-Fri", "time": "3:45pm"}, {"days": "Sat", "time": "10:15am"}, {"days": "Sun", "time": "Closed"}], "id": "4382200001", "name": "USPS COLLECTION BOX - PO LOBBY", "address": {"city": "FRAZEYSBURG", "state": "OH", "street": "24 N STATE ST", "postcode": "43822"}}},
{"geometry": {"type": "Point", "coordinates": [-81.7385339217, 40.3304214587]}, "type": "Feature", "properties": {"collection_times": [{"days": "Mon-Fri", "time": "3:30pm"}, {"days": "Sat", "time": "12:45pm"}, {"days": "Sun", "time": "Closed"}], "id": "4382400000", "name": "USPS COLLECTION BOX - BLUE BOX", "address": {"city": "FRESNO", "state": "OH", "street": "54259 TOWNSHIP ROAD 172", "postcode": "43824"}}},
{"geometry": {"type": "Point", "coordinates": [-81.7385339217, 40.3304214587]}, "type": "Feature", "properties": {"collection_times": [{"days": "Mon-Fri", "time": "3:30pm"}, {"days": "Sat", "time": "12:45pm"}, {"days": "Sun", "time": "Closed"}], "id": "4382400001", "name": "USPS COLLECTION BOX - PO LOBBY", "address": {"city": "FRESNO", "state": "OH", "street": "54259 TOWNSHIP ROAD 172", "postcode": "43824"}}},
{"geometry": {"type": "Point", "coordinates": [-82.1780848432, 40.0689650013]}, "type": "Feature", "properties": {"collection_times": [{"days": "Mon-Fri", "time": "4:00pm"}, {"days": "Sat", "time": "11:00am"}, {"days": "Sun", "time": "Closed"}], "id": "4383000000", "name": "USPS COLLECTION BOX - BLUE BOX", "address": {"city": "NASHPORT", "state": "OH", "street": "7764 OBANNON RD", "postcode": "43830"}}},
{"geometry": {"type": "Point", "coordinates": [-82.0441377982, 40.0372232815]}, "type": "Feature", "properties": {"collection_times": [{"days": "Mon-Sat", "time": "11:00am"}, {"days": "Sun", "time": "Closed"}], "id": "4383000003", "name": "USPS COLLECTION BOX - BLUE BOX", "address": {"city": "NASHPORT", "state": "OH", "street": "6220 FRAZEYSBURG RD", "postcode": "43830"}}},
{"geometry": {"type": "Point", "coordinates": [-82.1780848432, 40.0689650013]}, "type": "Feature", "properties": {"collection_times": [{"days": "Mon-Fri", "time": "4:30pm"}, {"days": "Sat", "time": "11:30am"}, {"days": "Sun", "time": "Closed"}], "id": "4383000004", "name": "USPS COLLECTION BOX - PO LOBBY", "address": {"city": "NASHPORT", "state": "OH", "street": "7764 OBANNON (PO LOBBY) RD", "postcode": "43830"}}},
{"geometry": {"type": "Point", "coordinates": [-81.6085545311, 40.2708215152]}, "type": "Feature", "properties": {"collection_times": [{"days": "Mon-Sat", "time": "11:45am"}, {"days": "Sun", "time": "Closed"}], "id": "4383200004", "name": "USPS COLLECTION BOX - BLUE BOX", "address": {"city": "NEWCOMERSTOWN", "state": "OH", "street": "245 W STATE ST", "postcode": "43832"}}},
{"geometry": {"type": "Point", "coordinates": [-81.6028382899, 40.2732875862]}, "type": "Feature", "properties": {"collection_times": [{"days": "Mon-Sat", "time": "12:00pm"}, {"days": "Sun", "time": "Closed"}], "id": "4383200012", "name": "USPS COLLECTION BOX - BLUE BOX", "address": {"city": "NEWCOMERSTOWN", "state": "OH", "street": "316 S COLLEGE ST", "postcode": "43832"}}},
{"geometry": {"type": "Point", "coordinates": [-81.5622524654, 40.2875726191]}, "type": "Feature", "properties": {"collection_times": [{"days": "Mon-Sat", "time": "11:30am"}, {"days": "Sun", "time": "Closed"}], "id": "4383200013", "name": "USPS COLLECTION BOX - BLUE BOX", "address": {"city": "NEWCOMERSTOWN", "state": "OH", "street": "311 ADENA DR", "postcode": "43832"}}},
{"geometry": {"type": "Point", "coordinates": [-81.6074338796, 40.2757397616]}, "type": "Feature", "properties": {"collection_times": [{"days": "Mon-Fri", "time": "3:00pm"}, {"days": "Sat", "time": "11:45am"}, {"days": "Sun", "time": "Closed"}], "id": "4383200014", "name": "USPS COLLECTION BOX - BLUE BOX", "address": {"city": "NEWCOMERSTOWN", "state": "OH", "street": "140 W MAIN ST", "postcode": "43832"}}},
{"geometry": {"type": "Point", "coordinates": [-81.6079882629, 40.2747891884]}, "type": "Feature", "properties": {"collection_times": [{"days": "Mon-Fri", "time": "4:00pm"}, {"days": "Sat", "time": "11:45am"}, {"days": "Sun", "time": "Closed"}], "id": "4383200019", "name": "USPS COLLECTION BOX - PO LOBBY", "address": {"city": "NEWCOMERSTOWN", "state": "OH", "street": "133 W CANAL ST", "postcode": "43832"}}},
{"geometry": {"type": "Point", "coordinates": [-81.6167504475, 40.2696615329]}, "type": "Feature", "properties": {"collection_times": [{"days": "Mon-Sat", "time": "12:00pm"}, {"days": "Sun", "time": "Closed"}], "id": "4383200021", "name": "USPS COLLECTION BOX - BLUE BOX", "address": {"city": "NEWCOMERSTOWN", "state": "OH", "street": "814 MILL ALY", "postcode": "43832"}}},
{"geometry": {"type": "Point", "coordinates": [-81.550305494, 40.1921701761]}, "type": "Feature", "properties": {"collection_times": [{"days": "Mon-Sat", "time": "12:00pm"}, {"days": "Sun", "time": "Closed"}], "id": "4383200022", "name": "USPS COLLECTION BOX - BLUE BOX", "address": {"city": "NEWCOMERSTOWN", "state": "OH", "street": "59505 COUNTY RD", "postcode": "43832"}}},
{"geometry": {"type": "Point", "coordinates": [-81.6079882629, 40.2747891884]}, "type": "Feature", "properties": {"collection_times": [{"days": "Mon-Fri", "time": "4:00pm"}, {"days": "Sat", "time": "11:45am"}, {"days": "Sun", "time": "Closed"}], "id": "4383200023", "name": "USPS COLLECTION BOX - BLUE BOX", "address": {"city": "NEWCOMERSTOWN", "state": "OH", "street": "133 W CANAL ST", "postcode": "43832"}}},
{"geometry": {"type": "Point", "coordinates": [-81.5194167626, 40.3274556548]}, "type": "Feature", "properties": {"collection_times": [{"days": "Mon-Fri", "time": "3:45pm"}, {"days": "Sat", "time": "10:15am"}, {"days": "Sun", "time": "Closed"}], "id": "4383700000", "name": "USPS COLLECTION BOX - BLUE BOX", "address": {"city": "PORT WASHINGTON", "state": "OH", "street": "103 S SAINT CLAIRSVILLE RD", "postcode": "43837"}}},
{"geometry": {"type": "Point", "coordinates": [-81.5194167626, 40.3274556548]}, "type": "Feature", "properties": {"collection_times": [{"days": "Mon-Fri", "time": "3:45pm"}, {"days": "Sat", "time": "10:15am"}, {"days": "Sun", "time": "Closed"}], "id": "4383700001", "name": "USPS COLLECTION BOX - PO LOBBY", "address": {"city": "PORT WASHINGTON", "state": "OH", "street": "103 S SAINT CLAIRSVILLE RD", "postcode": "43837"}}},
{"geometry": {"type": "Point", "coordinates": [-81.5579709687, 40.3974358224]}, "type": "Feature", "properties": {"collection_times": [{"days": "Mon-Fri", "time": "3:45pm"}, {"days": "Sat", "time": "10:15am"}, {"days": "Sun", "time": "Closed"}], "id": "4384000000", "name": "USPS COLLECTION BOX - BLUE BOX", "address": {"city": "STONE CREEK", "state": "OH", "street": "107 W JEFFERSON ST", "postcode": "43840"}}},
{"geometry": {"type": "Point", "coordinates": [-81.5579709687, 40.3974358224]}, "type": "Feature", "properties": {"collection_times": [{"days": "Mon-Fri", "time": "3:45pm"}, {"days": "Sat", "time": "10:15am"}, {"days": "Sun", "time": "Closed"}], "id": "4384000001", "name": "USPS COLLECTION BOX - PO LOBBY", "address": {"city": "STONE CREEK", "state": "OH", "street": "107 W JEFFERSON ST", "postcode": "43840"}}},
{"geometry": {"type": "Point", "coordinates": [-82.0107762334, 40.1407150261]}, "type": "Feature", "properties": {"collection_times": [{"days": "Mon-Fri", "time": "4:00pm"}, {"days": "Sat", "time": "10:45am"}, {"days": "Sun", "time": "Closed"}], "id": "4384200000", "name": "USPS COLLECTION BOX - BLUE BOX", "address": {"city": "TRINWAY", "state": "OH", "street": "12925 MAIN ST", "postcode": "43842"}}},
{"geometry": {"type": "Point", "coordinates": [-82.0107762334, 40.1407150261]}, "type": "Feature", "properties": {"collection_times": [{"days": "Mon-Fri", "time": "4:00pm"}, {"days": "Sat", "time": "10:45am"}, {"days": "Sun", "time": "Closed"}], "id": "4384200001", "name": "USPS COLLECTION BOX - PO LOBBY", "address": {"city": "TRINWAY", "state": "OH", "street": "12925 MAIN ST", "postcode": "43842"}}},
{"geometry": {"type": "Point", "coordinates": [-82.1467295207, 40.3593410122]}, "type": "Feature", "properties": {"collection_times": [{"days": "Mon-Fri", "time": "4:00pm"}, {"days": "Sat", "time": "10:15am"}, {"days": "Sun", "time": "Closed"}], "id": "4384300000", "name": "USPS COLLECTION BOX - BLUE BOX", "address": {"city": "WALHONDING", "state": "OH", "street": "33118 STATE ROUTE 715", "postcode": "43843"}}},
{"geometry": {"type": "Point", "coordinates": [-82.1467295207, 40.3593410122]}, "type": "Feature", "properties": {"collection_times": [{"days": "Mon-Fri", "time": "4:00pm"}, {"days": "Sat", "time": "10:15am"}, {"days": "Sun", "time": "Closed"}], "id": "4384300001", "name": "USPS COLLECTION BOX - PO LOBBY", "address": {"city": "WALHONDING", "state": "OH", "street": "33118 STATE ROUTE 715", "postcode": "43843"}}},
{"geometry": {"type": "Point", "coordinates": [-81.9956132227, 40.3330799619]}, "type": "Feature", "properties": {"collection_times": [{"days": "Mon-Fri", "time": "4:15pm"}, {"days": "Sat", "time": "10:45am"}, {"days": "Sun", "time": "Closed"}], "id": "4384400000", "name": "USPS COLLECTION BOX - BLUE BOX", "address": {"city": "WARSAW", "state": "OH", "street": "803 E MAIN ST", "postcode": "43844"}}},
{"geometry": {"type": "Point", "coordinates": [-81.9956132227, 40.3330799619]}, "type": "Feature", "properties": {"collection_times": [{"days": "Mon-Fri", "time": "4:15pm"}, {"days": "Sat", "time": "10:45am"}, {"days": "Sun", "time": "Closed"}], "id": "4384400001", "name": "USPS COLLECTION BOX - PO LOBBY", "address": {"city": "WARSAW", "state": "OH", "street": "803 E MAIN ST", "postcode": "43844"}}},
{"geometry": {"type": "Point", "coordinates": [-81.7582015781, 40.2768055195]}, "type": "Feature", "properties": {"collection_times": [{"days": "Mon-Fri", "time": "4:20pm"}, {"days": "Sat", "time": "11:45am"}, {"days": "Sun", "time": "Closed"}], "id": "4384500000", "name": "USPS COLLECTION BOX - BLUE BOX", "address": {"city": "WEST LAFAYETTE", "state": "OH", "street": "501 W MAIN ST", "postcode": "43845"}}},
{"geometry": {"type": "Point", "coordinates": [-81.754878232, 40.277258464]}, "type": "Feature", "properties": {"collection_times": [{"days": "Mon-Sat", "time": "9:00am"}, {"days": "Sun", "time": "Closed"}], "id": "4384500007", "name": "USPS COLLECTION BOX - BLUE BOX", "address": {"city": "WEST LAFAYETTE", "state": "OH", "street": "324 FAIRVIEW ST", "postcode": "43845"}}},
{"geometry": {"type": "Point", "coordinates": [-81.7582015781, 40.2768055195]}, "type": "Feature", "properties": {"collection_times": [{"days": "Mon-Fri", "time": "4:20pm"}, {"days": "Sat", "time": "11:45am"}, {"days": "Sun", "time": "Closed"}], "id": "4384500009", "name": "USPS COLLECTION BOX - PO LOBBY", "address": {"city": "WEST LAFAYETTE", "state": "OH", "street": "501 W MAIN ST", "postcode": "43845"}}}
]}
