{"type": "FeatureCollection", "features": [
{"geometry": {"type": "Point", "coordinates": [-80.8732988459, 40.2187582948]}, "type": "Feature", "properties": {"collection_times": [{"days": "Mon-Fri", "time": "3:45pm"}, {"days": "Sat", "time": "11:30am"}, {"days": "Sun", "time": "Closed"}], "id": "4390100000", "name": "USPS COLLECTION BOX - PO LOBBY", "address": {"city": "ADENA", "state": "OH", "street": "16 W MAIN ST", "postcode": "43901"}}},
{"geometry": {"type": "Point", "coordinates": [-80.8732988459, 40.2187582948]}, "type": "Feature", "properties": {"collection_times": [{"days": "Mon-Fri", "time": "3:45pm"}, {"days": "Sat", "time": "11:30am"}, {"days": "Sun", "time": "Closed"}], "id": "4390100001", "name": "USPS COLLECTION BOX - BLUE BOX", "address": {"city": "ADENA", "state": "OH", "street": "16 W MAIN ST", "postcode": "43901"}}},
{"geometry": {"type": "Point", "coordinates": [-80.9237281148, 40.473822524]}, "type": "Feature", "properties": {"collection_times": [{"days": "Mon-Fri", "time": "4:30pm"}, {"days": "Sat", "time": "11:30am"}, {"days": "Sun", "time": "Closed"}], "id": "4390300000", "name": "USPS COLLECTION BOX - BLUE BOX", "address": {"city": "AMSTERDAM", "state": "OH", "street": "116 S MAIN ST", "postcode": "43903"}}},
{"geometry": {"type": "Point", "coordinates": [-80.9237281148, 40.473822524]}, "type": "Feature", "properties": {"collection_times": [{"days": "Mon-Fri", "time": "2:30pm"}, {"days": "Sat", "time": "11:30am"}, {"days": "Sun", "time": "Closed"}], "id": "4390300001", "name": "USPS COLLECTION BOX - PO LOBBY", "address": {"city": "AMSTERDAM", "state": "OH", "street": "116 S MAIN ST", "postcode": "43903"}}},
{"geometry": {"type": "Point", "coordinates": [-80.7403259039, 40.0696530429]}, "type": "Feature", "properties": {"collection_times": [{"days": "Mon-Fri", "time": "4:30pm"}, {"days": "Sat", "time": "10:00am"}, {"days": "Sun", "time": "Closed"}], "id": "4390500000", "name": "USPS COLLECTION BOX - BLUE BOX", "address": {"city": "BARTON", "state": "OH", "street": "70659 MAIN ST", "postcode": "43905"}}},
{"geometry": {"type": "Point", "coordinates": [-80.7430546297, 40.0152325184]}, "type": "Feature", "properties": {"collection_times": [{"days": "Mon-Fri", "time": "5:00pm"}, {"days": "Sat", "time": "3:30pm"}, {"days": "Sun", "time": "Closed"}], "id": "4390600000", "name": "USPS COLLECTION BOX - BLUE BOX", "address": {"city": "BELLAIRE", "state": "OH", "street": "451 33RD ST", "postcode": "43906"}}},
{"geometry": {"type": "Point", "coordinates": [-80.7430546297, 40.0152325184]}, "type": "Feature", "properties": {"collection_times": [{"days": "Mon-Fri", "time": "5:00pm"}, {"days": "Sat", "time": "3:30pm"}, {"days": "Sun", "time": "Closed"}], "id": "4390600001", "name": "USPS COLLECTION BOX - BLUE BOX", "address": {"city": "BELLAIRE", "state": "OH", "street": "451 33RD ST", "postcode": "43906"}}},
{"geometry": {"type": "Point", "coordinates": [-80.800999107, 40.0101264133]}, "type": "Feature", "properties": {"collection_times": [{"days": "Mon-Sat", "time": "12:00pm"}, {"days": "Sun", "time": "Closed"}], "id": "4390600008", "name": "USPS COLLECTION BOX - BLUE BOX", "address": {"city": "BELLAIRE", "state": "OH", "street": "400 IMPERIAL PLZ", "postcode": "43906"}}},
{"geometry": {"type": "Point", "coordinates": [-80.7432106594, 40.0140403166]}, "type": "Feature", "properties": {"collection_times": [{"days": "Mon-Sat", "time": "12:00pm"}, {"days": "Sun", "time": "Closed"}], "id": "4390600009", "name": "USPS COLLECTION BOX - BLUE BOX", "address": {"city": "BELLAIRE", "state": "OH", "street": "3198 BELMONT ST", "postcode": "43906"}}},
{"geometry": {"type": "Point", "coordinates": [-80.7422559665, 40.0202242452]}, "type": "Feature", "properties": {"collection_times": [{"days": "Mon-Sat", "time": "12:00pm"}, {"days": "Sun", "time": "Closed"}], "id": "4390600012", "name": "USPS COLLECTION BOX - BLUE BOX", "address": {"city": "BELLAIRE", "state": "OH", "street": "3800 JEFFERSON ST", "postcode": "43906"}}},
{"geometry": {"type": "Point", "coordinates": [-80.7399453217, 40.0297048251]}, "type": "Feature", "properties": {"collection_times": [{"days": "Mon-Sat", "time": "11:30am"}, {"days": "Sun", "time": "Closed"}], "id": "4390600017", "name": "USPS COLLECTION BOX - BLUE BOX", "address": {"city": "BELLAIRE", "state": "OH", "street": "4696 NOBLE ST", "postcode": "43906"}}},
{"geometry": {"type": "Point", "coordinates": [-80.7405356007, 40.031011116]}, "type": "Feature", "properties": {"collection_times": [{"days": "Mon-Sat", "time": "12:00pm"}, {"days": "Sun", "time": "Closed"}], "id": "4390600019", "name": "USPS COLLECTION BOX - BLUE BOX", "address": {"city": "BELLAIRE", "state": "OH", "street": "4697 HARRISON ST", "postcode": "43906"}}},
{"geometry": {"type": "Point", "coordinates": [-80.7394222367, 40.0283340738]}, "type": "Feature", "properties": {"collection_times": [{"days": "Mon-Sat", "time": "10:00am"}, {"days": "Sun", "time": "Closed"}], "id": "4390600020", "name": "USPS COLLECTION BOX - BLUE BOX", "address": {"city": "BELLAIRE", "state": "OH", "street": "4595 JEFFERSON ST", "postcode": "43906"}}},
{"geometry": {"type": "Point", "coordinates": [-80.744245205, 40.0113548936]}, "type": "Feature", "properties": {"collection_times": [{"days": "Mon-Sat", "time": "12:00pm"}, {"days": "Sun", "time": "Closed"}], "id": "4390600021", "name": "USPS COLLECTION BOX - BLUE BOX", "address": {"city": "BELLAIRE", "state": "OH", "street": "400 28TH ST", "postcode": "43906"}}},
{"geometry": {"type": "Point", "coordinates": [-80.9991648703, 40.2706910948]}, "type": "Feature", "properties": {"collection_times": [{"days": "Mon-Fri", "time": "4:45pm"}, {"days": "Sat", "time": "3:45pm"}, {"days": "Sun", "time": "Closed"}], "id": "4390700000", "name": "USPS COLLECTION BOX - BLUE BOX", "address": {"city": "CADIZ", "state": "OH", "street": "100 E SOUTH ST", "postcode": "43907"}}},
{"geometry": {"type": "Point", "coordinates": [-80.9945134907, 40.2710698375]}, "type": "Feature", "properties": {"collection_times": [{"days": "Mon-Sat", "time": "11:30am"}, {"days": "Sun", "time": "Closed"}], "id": "4390700003", "name": "USPS COLLECTION BOX - BLUE BOX", "address": {"city": "CADIZ", "state": "OH", "street": "300 E MARKET ST", "postcode": "43907"}}},
{"geometry": {"type": "Point", "coordinates": [-80.982700411, 40.2639460984]}, "type": "Feature", "properties": {"collection_times": [{"days": "Mon-Sat", "time": "2:00pm"}, {"days": "Sun", "time": "Closed"}], "id": "4390700005", "name": "USPS COLLECTION BOX - BLUE BOX", "address": {"city": "CADIZ", "state": "OH", "street": "775 E MARKET ST", "postcode": "43907"}}},
{"geometry": {"type": "Point", "coordinates": [-80.9970327502, 40.2729250628]}, "type": "Feature", "properties": {"collection_times": [{"days": "Mon-Fri", "time": "2:45pm"}, {"days": "Sat-Sun", "time": "Closed"}], "id": "4390700006", "name": "USPS COLLECTION BOX - BLUE BOX", "address": {"city": "CADIZ", "state": "OH", "street": "100 W MARKET ST", "postcode": "43907"}}},
{"geometry": {"type": "Point", "coordinates": [-80.9912491007, 40.2777002456]}, "type": "Feature", "properties": {"collection_times": [{"days": "Mon-Fri", "time": "10:30am"}, {"days": "Sat-Sun", "time": "Closed"}], "id": "4390700009", "name": "USPS COLLECTION BOX - BLUE BOX", "address": {"city": "CADIZ", "state": "OH", "street": "538 N MAIN ST", "postcode": "43907"}}},
{"geometry": {"type": "Point", "coordinates": [-80.880938282, 40.5191512421]}, "type": "Feature", "properties": {"collection_times": [{"days": "Mon-Fri", "time": "4:45pm"}, {"days": "Sat", "time": "11:30am"}, {"days": "Sun", "time": "Closed"}], "id": "4390800001", "name": "USPS COLLECTION BOX - BLUE BOX", "address": {"city": "BERGHOLZ", "state": "OH", "street": "254 2ND ST", "postcode": "43908"}}},
{"geometry": {"type": "Point", "coordinates": [-80.8323671985, 40.0664861131]}, "type": "Feature", "properties": {"collection_times": [{"days": "Mon-Fri", "time": "4:45pm"}, {"days": "Sat", "time": "10:00am"}, {"days": "Sun", "time": "Closed"}], "id": "4390900000", "name": "USPS COLLECTION BOX - BLUE BOX", "address": {"city": "BLAINE", "state": "OH", "street": "53739 NATIONAL RD", "postcode": "43909"}}},
{"geometry": {"type": "Point", "coordinates": [-80.8162973344, 40.34208659]}, "type": "Feature", "properties": {"collection_times": [{"days": "Mon-Fri", "time": "4:30pm"}, {"days": "Sat", "time": "11:30am"}, {"days": "Sun", "time": "Closed"}], "id": "4391000000", "name": "USPS COLLECTION BOX - BLUE BOX", "address": {"city": "BLOOMINGDALE", "state": "OH", "street": "111 HIGH ST", "postcode": "43910"}}},
{"geometry": {"type": "Point", "coordinates": [-80.7543314367, 40.0707834494]}, "type": "Feature", "properties": {"collection_times": [{"days": "Mon-Sat", "time": "1:00pm"}, {"days": "Sun", "time": "Closed"}], "id": "4391200005", "name": "USPS COLLECTION BOX - BLUE BOX", "address": {"city": "BRIDGEPORT", "state": "OH", "street": "703 MAIN ST", "postcode": "43912"}}},
{"geometry": {"type": "Point", "coordinates": [-80.7610118057, 40.0707246465]}, "type": "Feature", "properties": {"collection_times": [{"days": "Mon-Sat", "time": "12:00pm"}, {"days": "Sun", "time": "Closed"}], "id": "4391200006", "name": "USPS COLLECTION BOX - BLUE BOX", "address": {"city": "BRIDGEPORT", "state": "OH", "street": "906 NATIONAL RD", "postcode": "43912"}}},
{"geometry": {"type": "Point", "coordinates": [-80.7799074297, 40.0686022591]}, "type": "Feature", "properties": {"collection_times": [{"days": "Mon-Sat", "time": "2:45pm"}, {"days": "Sun", "time": "Closed"}], "id": "4391200008", "name": "USPS COLLECTION BOX - BLUE BOX", "address": {"city": "BRIDGEPORT", "state": "OH", "street": "56130 NATIONAL RD", "postcode": "43912"}}},
{"geometry": {"type": "Point", "coordinates": [-80.7428092723, 40.070021159]}, "type": "Feature", "properties": {"collection_times": [{"days": "Mon-Sat", "time": "2:30pm"}, {"days": "Sun", "time": "Closed"}], "id": "4391200012", "name": "USPS COLLECTION BOX - BLUE BOX", "address": {"city": "BRIDGEPORT", "state": "OH", "street": "320 HOWARD ST", "postcode": "43912"}}},
{"geometry": {"type": "Point", "coordinates": [-80.7407255344, 40.069395753]}, "type": "Feature", "properties": {"collection_times": [{"days": "Mon-Fri", "time": "6:00pm"}, {"days": "Sat", "time": "5:00pm"}, {"days": "Sun", "time": "Closed"}], "id": "4391200014", "name": "USPS COLLECTION BOX - BLUE BOX", "address": {"city": "BRIDGEPORT", "state": "OH", "street": "300 S LINCOLN AVE", "postcode": "43912"}}},
{"geometry": {"type": "Point", "coordinates": [-80.7407255344, 40.069395753]}, "type": "Feature", "properties": {"collection_times": [{"days": "Mon-Fri", "time": "6:00pm"}, {"days": "Sat", "time": "5:00pm"}, {"days": "Sun", "time": "Closed"}], "id": "4391200015", "name": "USPS COLLECTION BOX - BLUE BOX", "address": {"city": "BRIDGEPORT", "state": "OH", "street": "300 S LINCOLN AVE", "postcode": "43912"}}},
{"geometry": {"type": "Point", "coordinates": [-80.6290771326, 40.2650411799]}, "type": "Feature", "properties": {"collection_times": [{"days": "Mon-Fri", "time": "4:15pm"}, {"days": "Sat", "time": "11:30am"}, {"days": "Sun", "time": "Closed"}], "id": "4391300000", "name": "USPS COLLECTION BOX - BLUE BOX", "address": {"city": "BRILLIANT", "state": "OH", "street": "801 3RD ST", "postcode": "43913"}}},
{"geometry": {"type": "Point", "coordinates": [-80.6328639612, 40.2633996932]}, "type": "Feature", "properties": {"collection_times": [{"days": "Mon-Sat", "time": "10:30am"}, {"days": "Sun", "time": "Closed"}], "id": "4391300002", "name": "USPS COLLECTION BOX - BLUE BOX", "address": {"city": "BRILLIANT", "state": "OH", "street": "1000 GILCHRIST ST", "postcode": "43913"}}},
{"geometry": {"type": "Point", "coordinates": [-80.6297694256, 40.2632884658]}, "type": "Feature", "properties": {"collection_times": [{"days": "Mon-Sat", "time": "11:30am"}, {"days": "Sun", "time": "Closed"}], "id": "4391300003", "name": "USPS COLLECTION BOX - BLUE BOX", "address": {"city": "BRILLIANT", "state": "OH", "street": "900 2ND ST", "postcode": "43913"}}},
{"geometry": {"type": "Point", "coordinates": [-80.9449843018, 39.7671309734]}, "type": "Feature", "properties": {"collection_times": [{"days": "Mon-Sat", "time": "10:00am"}, {"days": "Sun", "time": "Closed"}], "id": "4391400000", "name": "USPS COLLECTION BOX - BLUE BOX", "address": {"city": "CAMERON", "state": "OH", "street": "48126 MAIN ST", "postcode": "43914"}}},
{"geometry": {"type": "Point", "coordinates": [-80.9449843018, 39.7671309734]}, "type": "Feature", "properties": {"collection_times": [{"days": "Mon-Sat", "time": "10:00am"}, {"days": "Sun", "time": "Closed"}], "id": "4391400001", "name": "USPS COLLECTION BOX - PO LOBBY", "address": {"city": "CAMERON", "state": "OH", "street": "48126 MAIN ST", "postcode": "43914"}}},
{"geometry": {"type": "Point", "coordinates": [-80.8683380054, 39.7729115166]}, "type": "Feature", "properties": {"collection_times": [{"days": "Mon-Fri", "time": "4:15pm"}, {"days": "Sat", "time": "10:30am"}, {"days": "Sun", "time": "Closed"}], "id": "4391500000", "name": "USPS COLLECTION BOX - BLUE BOX", "address": {"city": "CLARINGTON", "state": "OH", "street": "506 MARKET ST", "postcode": "43915"}}},
{"geometry": {"type": "Point", "coordinates": [-80.8683380054, 39.7729115166]}, "type": "Feature", "properties": {"collection_times": [{"days": "Mon-Fri", "time": "2:45pm"}, {"days": "Sat", "time": "10:30am"}, {"days": "Sun", "time": "Closed"}], "id": "4391500001", "name": "USPS COLLECTION BOX - PO LOBBY", "address": {"city": "CLARINGTON", "state": "OH", "street": "506 MARKET ST", "postcode": "43915"}}},
{"geometry": {"type": "Point", "coordinates": [-80.7403259039, 40.0696530429]}, "type": "Feature", "properties": {"collection_times": [{"days": "Mon-Fri", "time": "4:15pm"}, {"days": "Sat", "time": "11:45am"}, {"days": "Sun", "time": "Closed"}], "id": "4391600000", "name": "USPS COLLECTION BOX - BLUE BOX", "address": {"city": "COLERAIN", "state": "OH", "street": "72120 STATE ROUTE 250", "postcode": "43916"}}},
{"geometry": {"type": "Point", "coordinates": [-80.7762118822, 40.1977370401]}, "type": "Feature", "properties": {"collection_times": [{"days": "Mon-Fri", "time": "3:45pm"}, {"days": "Sat", "time": "11:15am"}, {"days": "Sun", "time": "Closed"}], "id": "4391700000", "name": "USPS COLLECTION BOX - BLUE BOX", "address": {"city": "DILLONVALE", "state": "OH", "street": "132 SMITHFIELD ST", "postcode": "43917"}}},
{"geometry": {"type": "Point", "coordinates": [-80.7719684244, 40.2010289663]}, "type": "Feature", "properties": {"collection_times": [{"days": "Mon-Fri", "time": "3:45pm"}, {"days": "Sat", "time": "11:15am"}, {"days": "Sun", "time": "Closed"}], "id": "4391700001", "name": "USPS COLLECTION BOX - PO LOBBY", "address": {"city": "DILLONVALE", "state": "OH", "street": "132 SMITHFIELD ST", "postcode": "43917"}}},
{"geometry": {"type": "Point", "coordinates": [-80.5774750329, 40.6732941647]}, "type": "Feature", "properties": {"collection_times": [{"days": "Mon-Fri", "time": "5:00pm"}, {"days": "Sat", "time": "12:45pm"}, {"days": "Sun", "time": "Closed"}], "id": "4392000004", "name": "USPS COLLECTION BOX - BLUE BOX", "address": {"city": "EAST LIVERPOOL", "state": "OH", "street": "15713 STATE ROUTE 170", "postcode": "43920"}}},
{"geometry": {"type": "Point", "coordinates": [-80.5782173336, 40.6186567734]}, "type": "Feature", "properties": {"collection_times": [{"days": "Mon-Sat", "time": "2:45pm"}, {"days": "Sun", "time": "Closed"}], "id": "4392000009", "name": "USPS COLLECTION BOX - BLUE BOX", "address": {"city": "EAST LIVERPOOL", "state": "OH", "street": "212 E 5TH ST", "postcode": "43920"}}},
{"geometry": {"type": "Point", "coordinates": [-80.5527140246, 40.6342354548]}, "type": "Feature", "properties": {"collection_times": [{"days": "Mon-Sat", "time": "2:30pm"}, {"days": "Sun", "time": "Closed"}], "id": "4392000018", "name": "USPS COLLECTION BOX - BLUE BOX", "address": {"city": "EAST LIVERPOOL", "state": "OH", "street": "1577 PENNSYLVANIA AVE", "postcode": "43920"}}},
{"geometry": {"type": "Point", "coordinates": [-80.579770073, 40.6215109128]}, "type": "Feature", "properties": {"collection_times": [{"days": "Mon-Sat", "time": "5:00pm"}, {"days": "Sun", "time": "Closed"}], "id": "4392000020", "name": "USPS COLLECTION BOX - BLUE BOX", "address": {"city": "EAST LIVERPOOL", "state": "OH", "street": "700 DRESDEN AVE", "postcode": "43920"}}},
{"geometry": {"type": "Point", "coordinates": [-80.579149281, 40.6432720253]}, "type": "Feature", "properties": {"collection_times": [{"days": "Mon-Sat", "time": "5:00pm"}, {"days": "Sun", "time": "Closed"}], "id": "4392000022", "name": "USPS COLLECTION BOX - EXPRESS", "address": {"city": "EAST LIVERPOOL", "state": "OH", "street": "700 DRESDEN AVE", "postcode": "43920"}}},
{"geometry": {"type": "Point", "coordinates": [-80.579770073, 40.6215109128]}, "type": "Feature", "properties": {"collection_times": [{"days": "Mon-Sat", "time": "5:00pm"}, {"days": "Sun", "time": "Closed"}], "id": "4392000023", "name": "USPS COLLECTION BOX - PO LOBBY", "address": {"city": "EAST LIVERPOOL", "state": "OH", "street": "700 DRESDEN AVE", "postcode": "43920"}}},
{"geometry": {"type": "Point", "coordinates": [-80.579149281, 40.6432720253]}, "type": "Feature", "properties": {"collection_times": [{"days": "Mon-Fri", "time": "5:00pm"}, {"days": "Sat", "time": "12:45pm"}, {"days": "Sun", "time": "Closed"}], "id": "4392000025", "name": "USPS COLLECTION BOX - EXPRESS", "address": {"city": "EAST LIVERPOOL", "state": "OH", "street": "15713 STATE ROUTE 170", "postcode": "43920"}}},
{"geometry": {"type": "Point", "coordinates": [-80.5744352897, 40.6595924437]}, "type": "Feature", "properties": {"collection_times": [{"days": "Mon-Sat", "time": "12:00pm"}, {"days": "Sun", "time": "Closed"}], "id": "4392000027", "name": "USPS COLLECTION BOX - BLUE BOX", "address": {"city": "EAST LIVERPOOL", "state": "OH", "street": "16687 SAINT CLAIR AVE", "postcode": "43920"}}},
{"geometry": {"type": "Point", "coordinates": [-80.5876684781, 40.6578336175]}, "type": "Feature", "properties": {"collection_times": [{"days": "Mon-Sat", "time": "9:30am"}, {"days": "Sun", "time": "Closed"}], "id": "4392000029", "name": "USPS COLLECTION BOX - BLUE BOX", "address": {"city": "EAST LIVERPOOL", "state": "OH", "street": "16280 DRESDEN AVE", "postcode": "43920"}}},
{"geometry": {"type": "Point", "coordinates": [-80.5797487035, 40.6727274831]}, "type": "Feature", "properties": {"collection_times": [{"days": "Mon-Fri", "time": "5:00pm"}, {"days": "Sat", "time": "12:45pm"}, {"days": "Sun", "time": "Closed"}], "id": "4392000030", "name": "USPS COLLECTION BOX - PO LOBBY", "address": {"city": "EAST LIVERPOOL", "state": "OH", "street": "15713 STATE ROUTE 170", "postcode": "43920"}}},
{"geometry": {"type": "Point", "coordinates": [-80.5802740693, 40.6203721324]}, "type": "Feature", "properties": {"collection_times": [{"days": "Mon-Sat", "time": "2:45pm"}, {"days": "Sun", "time": "Closed"}], "id": "4392000036", "name": "USPS COLLECTION BOX - BLUE BOX", "address": {"city": "EAST LIVERPOOL", "state": "OH", "street": "126 W 6 TH ST", "postcode": "43920"}}},
{"geometry": {"type": "Point", "coordinates": [-80.8579654821, 40.4500739132]}, "type": "Feature", "properties": {"collection_times": [{"days": "Mon-Fri", "time": "4:30pm"}, {"days": "Sat", "time": "11:00am"}, {"days": "Sun", "time": "Closed"}], "id": "4392500001", "name": "USPS COLLECTION BOX - BLUE BOX", "address": {"city": "EAST SPRINGFIELD", "state": "OH", "street": "9889 COUNTY HIGHWAY 39", "postcode": "43925"}}},
{"geometry": {"type": "Point", "coordinates": [-80.6242392181, 40.5116527943]}, "type": "Feature", "properties": {"collection_times": [{"days": "Mon-Fri", "time": "4:30pm"}, {"days": "Sat", "time": "11:30am"}, {"days": "Sun", "time": "Closed"}], "id": "4392600000", "name": "USPS COLLECTION BOX - PO LOBBY", "address": {"city": "EMPIRE", "state": "OH", "street": "170 NESSLEY ST", "postcode": "43926"}}},
{"geometry": {"type": "Point", "coordinates": [-80.6242392181, 40.5116527943]}, "type": "Feature", "properties": {"collection_times": [{"days": "Mon-Fri", "time": "4:30pm"}, {"days": "Sat", "time": "11:30am"}, {"days": "Sun", "time": "Closed"}], "id": "4392600001", "name": "USPS COLLECTION BOX - BLUE BOX", "address": {"city": "EMPIRE", "state": "OH", "street": "170 NESSLEY ST", "postcode": "43926"}}},
{"geometry": {"type": "Point", "coordinates": [-80.911139782, 40.0776179637]}, "type": "Feature", "properties": {"collection_times": [{"days": "Mon-Fri", "time": "4:15pm"}, {"days": "Sat", "time": "10:00am"}, {"days": "Sun", "time": "Closed"}], "id": "4392800001", "name": "USPS COLLECTION BOX - BLUE BOX", "address": {"city": "GLENCOE", "state": "OH", "street": "50073 1ST ST", "postcode": "43928"}}},
{"geometry": {"type": "Point", "coordinates": [-80.6686156705, 40.5626540754]}, "type": "Feature", "properties": {"collection_times": [{"days": "Mon-Fri", "time": "4:45pm"}, {"days": "Sat", "time": "11:30am"}, {"days": "Sun", "time": "Closed"}], "id": "4393000000", "name": "USPS COLLECTION BOX - BLUE BOX", "address": {"city": "HAMMONDSVILLE", "state": "OH", "street": "15481 STATE ROUTE 213", "postcode": "43930"}}},
{"geometry": {"type": "Point", "coordinates": [-80.7249718111, 40.5697202082]}, "type": "Feature", "properties": {"collection_times": [{"days": "Mon-Fri", "time": "4:30pm"}, {"days": "Sat", "time": "2:00pm"}, {"days": "Sun", "time": "Closed"}], "id": "4393200000", "name": "USPS COLLECTION BOX - BLUE BOX", "address": {"city": "IRONDALE", "state": "OH", "street": "210 EAST AVE", "postcode": "43932"}}},
{"geometry": {"type": "Point", "coordinates": [-80.9032357788, 39.9625324161]}, "type": "Feature", "properties": {"collection_times": [{"days": "Mon-Fri", "time": "4:45pm"}, {"days": "Sat", "time": "10:30am"}, {"days": "Sun", "time": "Closed"}], "id": "4393300001", "name": "USPS COLLECTION BOX - BLUE BOX", "address": {"city": "JACOBSBURG", "state": "OH", "street": "60630 MAIN ST", "postcode": "43933"}}},
{"geometry": {"type": "Point", "coordinates": [-80.9033765673, 39.9647154043]}, "type": "Feature", "properties": {"collection_times": [{"days": "Mon-Sat", "time": "10:30am"}, {"days": "Sun", "time": "Closed"}], "id": "4393300002", "name": "USPS COLLECTION BOX - BLUE BOX", "address": {"city": "JACOBSBURG", "state": "OH", "street": "48100 MAIN ST", "postcode": "43933"}}},
{"geometry": {"type": "Point", "coordinates": [-80.8948078583, 39.9423663344]}, "type": "Feature", "properties": {"collection_times": [{"days": "Mon-Sat", "time": "10:00am"}, {"days": "Sun", "time": "Closed"}], "id": "4393300003", "name": "USPS COLLECTION BOX - BLUE BOX", "address": {"city": "JACOBSBURG", "state": "OH", "street": "64100 MAIN ST", "postcode": "43933"}}},
{"geometry": {"type": "Point", "coordinates": [-80.7236061058, 40.0975501567]}, "type": "Feature", "properties": {"collection_times": [{"days": "Mon-Fri", "time": "4:00pm"}, {"days": "Sat", "time": "11:00am"}, {"days": "Sun", "time": "Closed"}], "id": "4393400001", "name": "USPS COLLECTION BOX - BLUE BOX", "address": {"city": "LANSING", "state": "OH", "street": "55157 NATIONAL RD", "postcode": "43934"}}},
{"geometry": {"type": "Point", "coordinates": [-80.7236580001, 40.097605644]}, "type": "Feature", "properties": {"collection_times": [{"days": "Mon-Fri", "time": "4:30pm"}, {"days": "Sat", "time": "3:15pm"}, {"days": "Sun", "time": "Closed"}], "id": "4393500003", "name": "USPS COLLECTION BOX - BLUE BOX", "address": {"city": "MARTINS FERRY", "state": "OH", "street": "101 N 5TH ST", "postcode": "43935"}}},
{"geometry": {"type": "Point", "coordinates": [-80.735613289, 40.0852253817]}, "type": "Feature", "properties": {"collection_times": [{"days": "Mon-Sat", "time": "9:30am"}, {"days": "Sun", "time": "Closed"}], "id": "4393500004", "name": "USPS COLLECTION BOX - BLUE BOX", "address": {"city": "MARTINS FERRY", "state": "OH", "street": "400 AETNA ST", "postcode": "43935"}}},
{"geometry": {"type": "Point", "coordinates": [-80.7248177603, 40.0966298649]}, "type": "Feature", "properties": {"collection_times": [{"days": "Mon-Sat", "time": "2:00pm"}, {"days": "Sun", "time": "Closed"}], "id": "4393500026", "name": "USPS COLLECTION BOX - BLUE BOX", "address": {"city": "MARTINS FERRY", "state": "OH", "street": "35 S 5TH ST", "postcode": "43935"}}},
{"geometry": {"type": "Point", "coordinates": [-80.7403259039, 40.0696530429]}, "type": "Feature", "properties": {"collection_times": [{"days": "Mon-Fri", "time": "4:00pm"}, {"days": "Sat", "time": "10:00am"}, {"days": "Sun", "time": "Closed"}], "id": "4393700001", "name": "USPS COLLECTION BOX - BLUE BOX", "address": {"city": "MAYNARD", "state": "OH", "street": "71660 HALL ST", "postcode": "43937"}}},
{"geometry": {"type": "Point", "coordinates": [-80.6068769278, 40.3201855894]}, "type": "Feature", "properties": {"collection_times": [{"days": "Mon-Fri", "time": "4:30pm"}, {"days": "Sat", "time": "12:00pm"}, {"days": "Sun", "time": "Closed"}], "id": "4393800000", "name": "USPS COLLECTION BOX - BLUE BOX", "address": {"city": "MINGO JUNCTION", "state": "OH", "street": "679 COMMERCIAL ST", "postcode": "43938"}}},
{"geometry": {"type": "Point", "coordinates": [-80.631818818, 40.3315967767]}, "type": "Feature", "properties": {"collection_times": [{"days": "Mon-Sat", "time": "2:30pm"}, {"days": "Sun", "time": "Closed"}], "id": "4393800009", "name": "USPS COLLECTION BOX - BLUE BOX", "address": {"city": "MINGO JUNCTION", "state": "OH", "street": "109 BATTLE RUN RD", "postcode": "43938"}}},
{"geometry": {"type": "Point", "coordinates": [-80.7958733287, 40.1759142407]}, "type": "Feature", "properties": {"collection_times": [{"days": "Mon-Fri", "time": "4:15pm"}, {"days": "Sat", "time": "11:00am"}, {"days": "Sun", "time": "Closed"}], "id": "4393900000", "name": "USPS COLLECTION BOX - BLUE BOX", "address": {"city": "MOUNT PLEASANT", "state": "OH", "street": "243 UNION ST", "postcode": "43939"}}},
{"geometry": {"type": "Point", "coordinates": [-80.8098346579, 40.0272488651]}, "type": "Feature", "properties": {"collection_times": [{"days": "Mon-Fri", "time": "4:45pm"}, {"days": "Sat", "time": "10:30am"}, {"days": "Sun", "time": "Closed"}], "id": "4394000001", "name": "USPS COLLECTION BOX - BLUE BOX", "address": {"city": "NEFFS", "state": "OH", "street": "54061 PIKE ST", "postcode": "43940"}}},
{"geometry": {"type": "Point", "coordinates": [-80.7986962867, 39.8675934273]}, "type": "Feature", "properties": {"collection_times": [{"days": "Mon-Fri", "time": "4:15pm"}, {"days": "Sat", "time": "12:00pm"}, {"days": "Sun", "time": "Closed"}], "id": "4394200001", "name": "USPS COLLECTION BOX - BLUE BOX", "address": {"city": "POWHATAN POINT", "state": "OH", "street": "335 HIGHWAY 7 N", "postcode": "43942"}}},
{"geometry": {"type": "Point", "coordinates": [-80.6919151059, 40.1822732818]}, "type": "Feature", "properties": {"collection_times": [{"days": "Mon-Fri", "time": "4:30pm"}, {"days": "Sat", "time": "12:00pm"}, {"days": "Sun", "time": "Closed"}], "id": "4394300000", "name": "USPS COLLECTION BOX - PO LOBBY", "address": {"city": "RAYLAND", "state": "OH", "street": "140 MAIN ST", "postcode": "43943"}}},
{"geometry": {"type": "Point", "coordinates": [-80.6919151059, 40.1822732818]}, "type": "Feature", "properties": {"collection_times": [{"days": "Mon-Fri", "time": "4:30pm"}, {"days": "Sat", "time": "12:00pm"}, {"days": "Sun", "time": "Closed"}], "id": "4394300001", "name": "USPS COLLECTION BOX - BLUE BOX", "address": {"city": "RAYLAND", "state": "OH", "street": "140 MAIN ST", "postcode": "43943"}}},
{"geometry": {"type": "Point", "coordinates": [-80.7719469498, 40.433286615]}, "type": "Feature", "properties": {"collection_times": [{"days": "Mon-Fri", "time": "4:45pm"}, {"days": "Sat", "time": "11:45am"}, {"days": "Sun", "time": "Closed"}], "id": "4394400001", "name": "USPS COLLECTION BOX - BLUE BOX", "address": {"city": "RICHMOND", "state": "OH", "street": "36 E MAIN ST", "postcode": "43944"}}},
{"geometry": {"type": "Point", "coordinates": [-80.7719469498, 40.433286615]}, "type": "Feature", "properties": {"collection_times": [{"days": "Mon-Fri", "time": "4:45pm"}, {"days": "Sat", "time": "11:45am"}, {"days": "Sun", "time": "Closed"}], "id": "4394400002", "name": "USPS COLLECTION BOX - PO LOBBY", "address": {"city": "RICHMOND", "state": "OH", "street": "36 E MAIN ST", "postcode": "43944"}}},
{"geometry": {"type": "Point", "coordinates": [-80.840608545, 40.6221396924]}, "type": "Feature", "properties": {"collection_times": [{"days": "Mon-Fri", "time": "4:30pm"}, {"days": "Sat", "time": "12:00pm"}, {"days": "Sun", "time": "Closed"}], "id": "4394500001", "name": "USPS COLLECTION BOX - BLUE BOX", "address": {"city": "SALINEVILLE", "state": "OH", "street": "37 W MAIN ST", "postcode": "43945"}}},
{"geometry": {"type": "Point", "coordinates": [-80.8404214007, 40.6230889878]}, "type": "Feature", "properties": {"collection_times": [{"days": "Mon-Sat", "time": "2:15pm"}, {"days": "Sun", "time": "Closed"}], "id": "4394500004", "name": "USPS COLLECTION BOX - BLUE BOX", "address": {"city": "SALINEVILLE", "state": "OH", "street": "611 JEFFERSON ST", "postcode": "43945"}}},
{"geometry": {"type": "Point", "coordinates": [-80.9088525505, 39.6225918082]}, "type": "Feature", "properties": {"collection_times": [{"days": "Mon-Fri", "time": "4:15pm"}, {"days": "Sat", "time": "9:45am"}, {"days": "Sun", "time": "Closed"}], "id": "4394600000", "name": "USPS COLLECTION BOX - BLUE BOX", "address": {"city": "SARDIS", "state": "OH", "street": "37296 5TH AVE", "postcode": "43946"}}},
{"geometry": {"type": "Point", "coordinates": [-80.9088525505, 39.6225918082]}, "type": "Feature", "properties": {"collection_times": [{"days": "Mon-Fri", "time": "4:15pm"}, {"days": "Sat", "time": "9:45am"}, {"days": "Sun", "time": "Closed"}], "id": "4394600001", "name": "USPS COLLECTION BOX - PO LOBBY", "address": {"city": "SARDIS", "state": "OH", "street": "37296 5TH AVE", "postcode": "43946"}}},
{"geometry": {"type": "Point", "coordinates": [-80.7488688528, 39.9704687566]}, "type": "Feature", "properties": {"collection_times": [{"days": "Mon-Fri", "time": "4:45pm"}, {"days": "Sat", "time": "12:15pm"}, {"days": "Sun", "time": "Closed"}], "id": "4394700003", "name": "USPS COLLECTION BOX - BLUE BOX", "address": {"city": "SHADYSIDE", "state": "OH", "street": "3989 LINCOLN AVE", "postcode": "43947"}}},
{"geometry": {"type": "Point", "coordinates": [-80.750110698, 39.9718699656]}, "type": "Feature", "properties": {"collection_times": [{"days": "Mon-Sat", "time": "9:45am"}, {"days": "Sun", "time": "Closed"}], "id": "4394700006", "name": "USPS COLLECTION BOX - BLUE BOX", "address": {"city": "SHADYSIDE", "state": "OH", "street": "91 W 40TH ST", "postcode": "43947"}}},
{"geometry": {"type": "Point", "coordinates": [-80.7438355758, 39.9739871276]}, "type": "Feature", "properties": {"collection_times": [{"days": "Mon-Sat", "time": "12:00pm"}, {"days": "Sun", "time": "Closed"}], "id": "4394700011", "name": "USPS COLLECTION BOX - BLUE BOX", "address": {"city": "SHADYSIDE", "state": "OH", "street": "3701 LINCOLN AVE", "postcode": "43947"}}},
{"geometry": {"type": "Point", "coordinates": [-80.7449521544, 39.9749946214]}, "type": "Feature", "properties": {"collection_times": [{"days": "Mon-Sat", "time": "2:30pm"}, {"days": "Sun", "time": "Closed"}], "id": "4394700015", "name": "USPS COLLECTION BOX - BLUE BOX", "address": {"city": "SHADYSIDE", "state": "OH", "street": "3900 CENTRAL AVE", "postcode": "43947"}}},
{"geometry": {"type": "Point", "coordinates": [-80.756922699, 39.9685806319]}, "type": "Feature", "properties": {"collection_times": [{"days": "Mon-Sat", "time": "12:00pm"}, {"days": "Sun", "time": "Closed"}], "id": "4394700023", "name": "USPS COLLECTION BOX - BLUE BOX", "address": {"city": "SHADYSIDE", "state": "OH", "street": "65 W 47TH ST", "postcode": "43947"}}},
{"geometry": {"type": "Point", "coordinates": [-80.781389529, 40.2705242287]}, "type": "Feature", "properties": {"collection_times": [{"days": "Mon-Fri", "time": "4:45pm"}, {"days": "Sat", "time": "11:45am"}, {"days": "Sun", "time": "Closed"}], "id": "4394800000", "name": "USPS COLLECTION BOX - BLUE BOX", "address": {"city": "SMITHFIELD", "state": "OH", "street": "1303 MAIN ST", "postcode": "43948"}}},
{"geometry": {"type": "Point", "coordinates": [-80.781389529, 40.2705242287]}, "type": "Feature", "properties": {"collection_times": [{"days": "Mon-Fri", "time": "4:00pm"}, {"days": "Sat", "time": "11:45am"}, {"days": "Sun", "time": "Closed"}], "id": "4394800001", "name": "USPS COLLECTION BOX - PO LOBBY", "address": {"city": "SMITHFIELD", "state": "OH", "street": "1303 MAIN ST", "postcode": "43948"}}},
{"geometry": {"type": "Point", "coordinates": [-80.9077319774, 40.0786687765]}, "type": "Feature", "properties": {"collection_times": [{"days": "Mon-Sat", "time": "3:00pm"}, {"days": "Sun", "time": "Closed"}], "id": "4395000000", "name": "USPS COLLECTION BOX - BLUE BOX", "address": {"city": "ST CLAIRSVLE", "state": "OH", "street": "203 W MAIN ST", "postcode": "43950"}}},
{"geometry": {"type": "Point", "coordinates": [-80.9173232363, 40.0773023389]}, "type": "Feature", "properties": {"collection_times": [{"days": "Mon-Sat", "time": "9:30am"}, {"days": "Sun", "time": "Closed"}], "id": "4395000001", "name": "USPS COLLECTION BOX - BLUE BOX", "address": {"city": "ST CLAIRSVLE", "state": "OH", "street": "107 PLAZA DR", "postcode": "43950"}}},
{"geometry": {"type": "Point", "coordinates": [-80.9030424818, 40.0800887212]}, "type": "Feature", "properties": {"collection_times": [{"days": "Mon-Sat", "time": "3:00pm"}, {"days": "Sun", "time": "Closed"}], "id": "4395000002", "name": "USPS COLLECTION BOX - BLUE BOX", "address": {"city": "ST CLAIRSVLE", "state": "OH", "street": "101 W MAIN ST", "postcode": "43950"}}},
{"geometry": {"type": "Point", "coordinates": [-80.863310833, 40.0687844044]}, "type": "Feature", "properties": {"collection_times": [{"days": "Mon-Sat", "time": "10:00am"}, {"days": "Sun", "time": "Closed"}], "id": "4395000007", "name": "USPS COLLECTION BOX - BLUE BOX", "address": {"city": "ST CLAIRSVLE", "state": "OH", "street": "67800 MALL RING RD", "postcode": "43950"}}},
{"geometry": {"type": "Point", "coordinates": [-80.863310833, 40.0687844044]}, "type": "Feature", "properties": {"collection_times": [{"days": "Mon-Sat", "time": "10:00am"}, {"days": "Sun", "time": "Closed"}], "id": "4395000008", "name": "USPS COLLECTION BOX - BLUE BOX", "address": {"city": "ST CLAIRSVLE", "state": "OH", "street": "67800 MALL RING RD", "postcode": "43950"}}},
{"geometry": {"type": "Point", "coordinates": [-80.8976972872, 40.0735425152]}, "type": "Feature", "properties": {"collection_times": [{"days": "Mon-Sat", "time": "12:00pm"}, {"days": "Sun", "time": "Closed"}], "id": "4395000009", "name": "USPS COLLECTION BOX - BLUE BOX", "address": {"city": "ST CLAIRSVLE", "state": "OH", "street": "123 HIGH ST", "postcode": "43950"}}},
{"geometry": {"type": "Point", "coordinates": [-80.9004812964, 40.0805215191]}, "type": "Feature", "properties": {"collection_times": [{"days": "Mon-Sat", "time": "3:00pm"}, {"days": "Sun", "time": "Closed"}], "id": "4395000011", "name": "USPS COLLECTION BOX - BLUE BOX", "address": {"city": "ST CLAIRSVLE", "state": "OH", "street": "126 E MAIN ST", "postcode": "43950"}}},
{"geometry": {"type": "Point", "coordinates": [-80.9055014087, 40.0794747002]}, "type": "Feature", "properties": {"collection_times": [{"days": "Mon-Sat", "time": "3:00pm"}, {"days": "Sun", "time": "Closed"}], "id": "4395000012", "name": "USPS COLLECTION BOX - BLUE BOX", "address": {"city": "ST CLAIRSVLE", "state": "OH", "street": "154 W MAIN ST", "postcode": "43950"}}},
{"geometry": {"type": "Point", "coordinates": [-80.9116500683, 40.0776277009]}, "type": "Feature", "properties": {"collection_times": [{"days": "Mon-Fri", "time": "5:00pm"}, {"days": "Sat", "time": "4:15pm"}, {"days": "Sun", "time": "Closed"}], "id": "4395000017", "name": "USPS COLLECTION BOX - BLUE BOX", "address": {"city": "ST CLAIRSVLE", "state": "OH", "street": "2 RESERVOIR RD", "postcode": "43950"}}},
{"geometry": {"type": "Point", "coordinates": [-80.8700466742, 40.0758924802]}, "type": "Feature", "properties": {"collection_times": [{"days": "Mon-Sat", "time": "10:00am"}, {"days": "Sun", "time": "Closed"}], "id": "4395000018", "name": "USPS COLLECTION BOX - BLUE BOX", "address": {"city": "ST CLAIRSVLE", "state": "OH", "street": "50789 VALLEY PLAZA DR", "postcode": "43950"}}},
{"geometry": {"type": "Point", "coordinates": [-80.9091089984, 40.0846738193]}, "type": "Feature", "properties": {"collection_times": [{"days": "Mon-Sat", "time": "10:00am"}, {"days": "Sun", "time": "Closed"}], "id": "4395000021", "name": "USPS COLLECTION BOX - BLUE BOX", "address": {"city": "ST CLAIRSVLE", "state": "OH", "street": "71336 MAIN ST", "postcode": "43950"}}},
{"geometry": {"type": "Point", "coordinates": [-80.9666183922, 40.0722904246]}, "type": "Feature", "properties": {"collection_times": [{"days": "Mon-Sat", "time": "12:00pm"}, {"days": "Sun", "time": "Closed"}], "id": "4395000022", "name": "USPS COLLECTION BOX - BLUE BOX", "address": {"city": "ST CLAIRSVLE", "state": "OH", "street": "69844 BANNOCK RD", "postcode": "43950"}}},
{"geometry": {"type": "Point", "coordinates": [-81.0180124016, 40.1104617594]}, "type": "Feature", "properties": {"collection_times": [{"days": "Mon-Fri", "time": "4:00pm"}, {"days": "Sat", "time": "9:45am"}, {"days": "Sun", "time": "Closed"}], "id": "4395100000", "name": "USPS COLLECTION BOX - PO LOBBY", "address": {"city": "LAFFERTY", "state": "OH", "street": "43126 MOUNT HOPE RD", "postcode": "43951"}}},
{"geometry": {"type": "Point", "coordinates": [-81.0171729675, 40.1112550489]}, "type": "Feature", "properties": {"collection_times": [{"days": "Mon-Fri", "time": "4:00pm"}, {"days": "Sat", "time": "9:45am"}, {"days": "Sun", "time": "Closed"}], "id": "4395100001", "name": "USPS COLLECTION BOX - BLUE BOX", "address": {"city": "LAFFERTY", "state": "OH", "street": "43126 MOUNT HOPE RD", "postcode": "43951"}}},
{"geometry": {"type": "Point", "coordinates": [-80.6463053454, 40.3690550771]}, "type": "Feature", "properties": {"collection_times": [{"days": "Mon-Sat", "time": "10:00am"}, {"days": "Sun", "time": "Closed"}], "id": "4395200001", "name": "USPS COLLECTION BOX - BLUE BOX", "address": {"city": "STEUBENVILLE", "state": "OH", "street": "407 COLONIAL DR", "postcode": "43952"}}},
{"geometry": {"type": "Point", "coordinates": [-80.6409626533, 40.3683933011]}, "type": "Feature", "properties": {"collection_times": [{"days": "Mon-Sat", "time": "11:00am"}, {"days": "Sun", "time": "Closed"}], "id": "4395200008", "name": "USPS COLLECTION BOX - BLUE BOX", "address": {"city": "STEUBENVILLE", "state": "OH", "street": "324 S HOLLYWOOD BLVD", "postcode": "43952"}}},
{"geometry": {"type": "Point", "coordinates": [-80.6409843216, 40.3684854434]}, "type": "Feature", "properties": {"collection_times": [{"days": "Mon-Sat", "time": "11:00am"}, {"days": "Sun", "time": "Closed"}], "id": "4395200009", "name": "USPS COLLECTION BOX - BLUE BOX", "address": {"city": "STEUBENVILLE", "state": "OH", "street": "264 S HOLLYWOOD BLVD", "postcode": "43952"}}},
{"geometry": {"type": "Point", "coordinates": [-80.6280770922, 40.3649956192]}, "type": "Feature", "properties": {"collection_times": [{"days": "Mon-Sat", "time": "10:30am"}, {"days": "Sun", "time": "Closed"}], "id": "4395200014", "name": "USPS COLLECTION BOX - BLUE BOX", "address": {"city": "STEUBENVILLE", "state": "OH", "street": "300 LAWSON AVE", "postcode": "43952"}}},
{"geometry": {"type": "Point", "coordinates": [-80.6311630234, 40.3492041273]}, "type": "Feature", "properties": {"collection_times": [{"days": "Mon-Sat", "time": "11:00am"}, {"days": "Sun", "time": "Closed"}], "id": "4395200017", "name": "USPS COLLECTION BOX - BLUE BOX", "address": {"city": "STEUBENVILLE", "state": "OH", "street": "1101 LINCOLN AVE", "postcode": "43952"}}},
{"geometry": {"type": "Point", "coordinates": [-80.6313804012, 40.3509379409]}, "type": "Feature", "properties": {"collection_times": [{"days": "Mon-Sat", "time": "10:00am"}, {"days": "Sun", "time": "Closed"}], "id": "4395200018", "name": "USPS COLLECTION BOX - BLUE BOX", "address": {"city": "STEUBENVILLE", "state": "OH", "street": "502 LINCOLN BLVD", "postcode": "43952"}}},
{"geometry": {"type": "Point", "coordinates": [-80.6136267665, 40.3596123201]}, "type": "Feature", "properties": {"collection_times": [{"days": "Mon-Sat", "time": "12:00pm"}, {"days": "Sun", "time": "Closed"}], "id": "4395200026", "name": "USPS COLLECTION BOX - BLUE BOX", "address": {"city": "STEUBENVILLE", "state": "OH", "street": "301 MARKET ST", "postcode": "43952"}}},
{"geometry": {"type": "Point", "coordinates": [-80.6136267665, 40.3596123201]}, "type": "Feature", "properties": {"collection_times": [{"days": "Mon-Sat", "time": "12:00pm"}, {"days": "Sun", "time": "Closed"}], "id": "4395200027", "name": "USPS COLLECTION BOX - BLUE BOX", "address": {"city": "STEUBENVILLE", "state": "OH", "street": "301 MARKET ST", "postcode": "43952"}}},
{"geometry": {"type": "Point", "coordinates": [-80.6150288993, 40.3698536358]}, "type": "Feature", "properties": {"collection_times": [{"days": "Mon-Sat", "time": "11:00am"}, {"days": "Sun", "time": "Closed"}], "id": "4395200029", "name": "USPS COLLECTION BOX - BLUE BOX", "address": {"city": "STEUBENVILLE", "state": "OH", "street": "720 N 7TH ST", "postcode": "43952"}}},
{"geometry": {"type": "Point", "coordinates": [-80.6157214895, 40.3602510605]}, "type": "Feature", "properties": {"collection_times": [{"days": "Mon-Sat", "time": "12:00pm"}, {"days": "Sun", "time": "Closed"}], "id": "4395200043", "name": "USPS COLLECTION BOX - BLUE BOX", "address": {"city": "STEUBENVILLE", "state": "OH", "street": "401 MARKET ST", "postcode": "43952"}}},
{"geometry": {"type": "Point", "coordinates": [-80.6157214895, 40.3602510605]}, "type": "Feature", "properties": {"collection_times": [{"days": "Mon-Sat", "time": "12:00pm"}, {"days": "Sun", "time": "Closed"}], "id": "4395200045", "name": "USPS COLLECTION BOX - BLUE BOX", "address": {"city": "STEUBENVILLE", "state": "OH", "street": "401 MARKET ST", "postcode": "43952"}}},
{"geometry": {"type": "Point", "coordinates": [-80.6250034002, 40.3561212618]}, "type": "Feature", "properties": {"collection_times": [{"days": "Mon-Sat", "time": "12:00pm"}, {"days": "Sun", "time": "Closed"}], "id": "4395200050", "name": "USPS COLLECTION BOX - BLUE BOX", "address": {"city": "STEUBENVILLE", "state": "OH", "street": "380 SUMMIT AVE", "postcode": "43952"}}},
{"geometry": {"type": "Point", "coordinates": [-80.6749618464, 40.3678418988]}, "type": "Feature", "properties": {"collection_times": [{"days": "Mon-Sat", "time": "10:00am"}, {"days": "Sun", "time": "Closed"}], "id": "4395200052", "name": "USPS COLLECTION BOX - BLUE BOX", "address": {"city": "STEUBENVILLE", "state": "OH", "street": "4229 MALL DR", "postcode": "43952"}}},
{"geometry": {"type": "Point", "coordinates": [-80.6743877324, 40.3671367272]}, "type": "Feature", "properties": {"collection_times": [{"days": "Mon-Sat", "time": "10:00am"}, {"days": "Sun", "time": "Closed"}], "id": "4395200053", "name": "USPS COLLECTION BOX - BLUE BOX", "address": {"city": "STEUBENVILLE", "state": "OH", "street": "100 MALL DR", "postcode": "43952"}}},
{"geometry": {"type": "Point", "coordinates": [-80.6743877324, 40.3671367272]}, "type": "Feature", "properties": {"collection_times": [{"days": "Mon-Sat", "time": "10:00am"}, {"days": "Sun", "time": "Closed"}], "id": "4395200056", "name": "USPS COLLECTION BOX - BLUE BOX", "address": {"city": "STEUBENVILLE", "state": "OH", "street": "100 MALL DR", "postcode": "43952"}}},
{"geometry": {"type": "Point", "coordinates": [-80.619705224, 40.3763045844]}, "type": "Feature", "properties": {"collection_times": [{"days": "Mon-Sat", "time": "9:30am"}, {"days": "Sun", "time": "Closed"}], "id": "4395200058", "name": "USPS COLLECTION BOX - BLUE BOX", "address": {"city": "STEUBENVILLE", "state": "OH", "street": "100 FRANCISCAN WAY", "postcode": "43952"}}},
{"geometry": {"type": "Point", "coordinates": [-80.6145020589, 40.3598793394]}, "type": "Feature", "properties": {"collection_times": [{"days": "Mon-Sat", "time": "12:00pm"}, {"days": "Sun", "time": "Closed"}], "id": "4395200059", "name": "USPS COLLECTION BOX - BLUE BOX", "address": {"city": "STEUBENVILLE", "state": "OH", "street": "339 MARKET ST", "postcode": "43952"}}},
{"geometry": {"type": "Point", "coordinates": [-80.6145020589, 40.3598793394]}, "type": "Feature", "properties": {"collection_times": [{"days": "Mon-Sat", "time": "12:00pm"}, {"days": "Sun", "time": "Closed"}], "id": "4395200060", "name": "USPS COLLECTION BOX - BLUE BOX", "address": {"city": "STEUBENVILLE", "state": "OH", "street": "339 MARKET ST", "postcode": "43952"}}},
{"geometry": {"type": "Point", "coordinates": [-80.6662324706, 40.3819435687]}, "type": "Feature", "properties": {"collection_times": [{"days": "Mon-Sat", "time": "12:00pm"}, {"days": "Sun", "time": "Closed"}], "id": "4395200072", "name": "USPS COLLECTION BOX - BLUE BOX", "address": {"city": "STEUBENVILLE", "state": "OH", "street": "600 BUENA VISTA BLVD", "postcode": "43952"}}},
{"geometry": {"type": "Point", "coordinates": [-80.6596718449, 40.3690690231]}, "type": "Feature", "properties": {"collection_times": [{"days": "Mon-Sat", "time": "11:00am"}, {"days": "Sun", "time": "Closed"}], "id": "4395200074", "name": "USPS COLLECTION BOX - BLUE BOX", "address": {"city": "STEUBENVILLE", "state": "OH", "street": "3200 JOHNSON RD", "postcode": "43952"}}},
{"geometry": {"type": "Point", "coordinates": [-80.64376213, 40.3760984323]}, "type": "Feature", "properties": {"collection_times": [{"days": "Mon-Sat", "time": "12:00pm"}, {"days": "Sun", "time": "Closed"}], "id": "4395200075", "name": "USPS COLLECTION BOX - BLUE BOX", "address": {"city": "STEUBENVILLE", "state": "OH", "street": "2500 ALVARADO BLVD", "postcode": "43952"}}},
{"geometry": {"type": "Point", "coordinates": [-80.6368091224, 40.3701617171]}, "type": "Feature", "properties": {"collection_times": [{"days": "Mon-Sat", "time": "12:00pm"}, {"days": "Sun", "time": "Closed"}], "id": "4395200079", "name": "USPS COLLECTION BOX - BLUE BOX", "address": {"city": "STEUBENVILLE", "state": "OH", "street": "1920 ESTELLE AVE", "postcode": "43952"}}},
{"geometry": {"type": "Point", "coordinates": [-80.6708401689, 40.377837285]}, "type": "Feature", "properties": {"collection_times": [{"days": "Mon-Sat", "time": "11:00am"}, {"days": "Sun", "time": "Closed"}], "id": "4395200084", "name": "USPS COLLECTION BOX - BLUE BOX", "address": {"city": "STEUBENVILLE", "state": "OH", "street": "4000 SUNSET BLVD", "postcode": "43952"}}},
{"geometry": {"type": "Point", "coordinates": [-80.6708401689, 40.377837285]}, "type": "Feature", "properties": {"collection_times": [{"days": "Mon-Sat", "time": "11:00am"}, {"days": "Sun", "time": "Closed"}], "id": "4395200085", "name": "USPS COLLECTION BOX - BLUE BOX", "address": {"city": "STEUBENVILLE", "state": "OH", "street": "4000 SUNSET BLVD", "postcode": "43952"}}},
{"geometry": {"type": "Point", "coordinates": [-80.6349467273, 40.3709485896]}, "type": "Feature", "properties": {"collection_times": [{"days": "Mon-Sat", "time": "10:30am"}, {"days": "Sun", "time": "Closed"}], "id": "4395200101", "name": "USPS COLLECTION BOX - BLUE BOX", "address": {"city": "STEUBENVILLE", "state": "OH", "street": "141 BRADY CIR W", "postcode": "43952"}}},
{"geometry": {"type": "Point", "coordinates": [-80.6294950407, 40.3714418808]}, "type": "Feature", "properties": {"collection_times": [{"days": "Mon-Sat", "time": "10:00am"}, {"days": "Sun", "time": "Closed"}], "id": "4395200104", "name": "USPS COLLECTION BOX - BLUE BOX", "address": {"city": "STEUBENVILLE", "state": "OH", "street": "1600 OREGON AVE", "postcode": "43952"}}},
{"geometry": {"type": "Point", "coordinates": [-80.6131191266, 40.3603973213]}, "type": "Feature", "properties": {"collection_times": [{"days": "Mon-Fri", "time": "7:00pm"}, {"days": "Sat", "time": "5:00pm"}, {"days": "Sun", "time": "Closed"}], "id": "4395200107", "name": "USPS COLLECTION BOX - BLUE BOX", "address": {"city": "STEUBENVILLE", "state": "OH", "street": "150 N 3RD ST", "postcode": "43952"}}},
{"geometry": {"type": "Point", "coordinates": [-80.6131191266, 40.3603973213]}, "type": "Feature", "properties": {"collection_times": [{"days": "Mon-Fri", "time": "7:00pm"}, {"days": "Sat", "time": "5:00pm"}, {"days": "Sun", "time": "Closed"}], "id": "4395200108", "name": "USPS COLLECTION BOX - BLUE BOX", "address": {"city": "STEUBENVILLE", "state": "OH", "street": "150 N 3RD ST", "postcode": "43952"}}},
{"geometry": {"type": "Point", "coordinates": [-80.661720973, 40.3990123206]}, "type": "Feature", "properties": {"collection_times": [{"days": "Mon-Sat", "time": "10:00am"}, {"days": "Sun", "time": "Closed"}], "id": "4395200109", "name": "USPS COLLECTION BOX - BLUE BOX", "address": {"city": "STEUBENVILLE", "state": "OH", "street": "28 TWP RD 281", "postcode": "43952"}}},
{"geometry": {"type": "Point", "coordinates": [-80.6253895153, 40.3778516952]}, "type": "Feature", "properties": {"collection_times": [{"days": "Mon-Sat", "time": "9:30am"}, {"days": "Sun", "time": "Closed"}], "id": "4395200110", "name": "USPS COLLECTION BOX - BLUE BOX", "address": {"city": "STEUBENVILLE", "state": "OH", "street": "1401 PARKVIEW CIR", "postcode": "43952"}}},
{"geometry": {"type": "Point", "coordinates": [-80.6167119923, 40.3600188947]}, "type": "Feature", "properties": {"collection_times": [{"days": "Mon-Sat", "time": "12:00pm"}, {"days": "Sun", "time": "Closed"}], "id": "4395200115", "name": "USPS COLLECTION BOX - BLUE BOX", "address": {"city": "STEUBENVILLE", "state": "OH", "street": "125 S 5TH ST", "postcode": "43952"}}},
{"geometry": {"type": "Point", "coordinates": [-80.6167119923, 40.3600188947]}, "type": "Feature", "properties": {"collection_times": [{"days": "Mon-Sat", "time": "12:00pm"}, {"days": "Sun", "time": "Closed"}], "id": "4395200116", "name": "USPS COLLECTION BOX - BLUE BOX", "address": {"city": "STEUBENVILLE", "state": "OH", "street": "125 S 5TH ST", "postcode": "43952"}}},
{"geometry": {"type": "Point", "coordinates": [-80.6164783631, 40.3603614626]}, "type": "Feature", "properties": {"collection_times": [{"days": "Mon-Sat", "time": "12:00pm"}, {"days": "Sun", "time": "Closed"}], "id": "4395200117", "name": "USPS COLLECTION BOX - BLUE BOX", "address": {"city": "STEUBENVILLE", "state": "OH", "street": "500 MARKET ST", "postcode": "43952"}}},
{"geometry": {"type": "Point", "coordinates": [-80.6164783631, 40.3603614626]}, "type": "Feature", "properties": {"collection_times": [{"days": "Mon-Sat", "time": "12:00pm"}, {"days": "Sun", "time": "Closed"}], "id": "4395200118", "name": "USPS COLLECTION BOX - BLUE BOX", "address": {"city": "STEUBENVILLE", "state": "OH", "street": "500 MARKET ST", "postcode": "43952"}}},
{"geometry": {"type": "Point", "coordinates": [-80.6164783631, 40.3603614626]}, "type": "Feature", "properties": {"collection_times": [{"days": "Mon-Sat", "time": "12:00pm"}, {"days": "Sun", "time": "Closed"}], "id": "4395200119", "name": "USPS COLLECTION BOX - BLUE BOX", "address": {"city": "STEUBENVILLE", "state": "OH", "street": "500 MARKET ST", "postcode": "43952"}}},
{"geometry": {"type": "Point", "coordinates": [-80.661720973, 40.3990123206]}, "type": "Feature", "properties": {"collection_times": [{"days": "Mon-Sat", "time": "9:00am"}, {"days": "Sun", "time": "Closed"}], "id": "4395200123", "name": "USPS COLLECTION BOX - BLUE BOX", "address": {"city": "STEUBENVILLE", "state": "OH", "street": "16001 STATE ROUTE 7", "postcode": "43952"}}},
{"geometry": {"type": "Point", "coordinates": [-80.6527579811, 40.3743492265]}, "type": "Feature", "properties": {"collection_times": [{"days": "Mon-Sat", "time": "12:00pm"}, {"days": "Sun", "time": "Closed"}], "id": "4395200128", "name": "USPS COLLECTION BOX - BLUE BOX", "address": {"city": "STEUBENVILLE", "state": "OH", "street": "2700 SUNSET BLVD", "postcode": "43952"}}},
{"geometry": {"type": "Point", "coordinates": [-80.7038366863, 40.3806325133]}, "type": "Feature", "properties": {"collection_times": [{"days": "Mon-Fri", "time": "5:00pm"}, {"days": "Sat", "time": "12:00pm"}, {"days": "Sun", "time": "Closed"}], "id": "4395300001", "name": "USPS COLLECTION BOX - PO LOBBY", "address": {"city": "STEUBENVILLE", "state": "OH", "street": "201 LURAY DR", "postcode": "43953"}}},
{"geometry": {"type": "Point", "coordinates": [-80.7038366863, 40.3806325133]}, "type": "Feature", "properties": {"collection_times": [{"days": "Mon-Fri", "time": "5:00pm"}, {"days": "Sat", "time": "12:00pm"}, {"days": "Sun", "time": "Closed"}], "id": "4395300002", "name": "USPS COLLECTION BOX - PO LOBBY", "address": {"city": "STEUBENVILLE", "state": "OH", "street": "201 LURAY DR", "postcode": "43953"}}},
{"geometry": {"type": "Point", "coordinates": [-80.7038366863, 40.3806325133]}, "type": "Feature", "properties": {"collection_times": [{"days": "Mon-Fri", "time": "5:00pm"}, {"days": "Sat", "time": "12:00pm"}, {"days": "Sun", "time": "Closed"}], "id": "4395300003", "name": "USPS COLLECTION BOX - PO LOBBY", "address": {"city": "STEUBENVILLE", "state": "OH", "street": "201 LURAY DR", "postcode": "43953"}}},
{"geometry": {"type": "Point", "coordinates": [-80.7038366863, 40.3806325133]}, "type": "Feature", "properties": {"collection_times": [{"days": "Mon-Fri", "time": "5:00pm"}, {"days": "Sat", "time": "3:00pm"}, {"days": "Sun", "time": "Closed"}], "id": "4395300004", "name": "USPS COLLECTION BOX - BLUE BOX", "address": {"city": "STEUBENVILLE", "state": "OH", "street": "201 LURAY DR", "postcode": "43953"}}},
{"geometry": {"type": "Point", "coordinates": [-80.7038366863, 40.3806325133]}, "type": "Feature", "properties": {"collection_times": [{"days": "Mon-Fri", "time": "5:00pm"}, {"days": "Sat", "time": "3:00pm"}, {"days": "Sun", "time": "Closed"}], "id": "4395300005", "name": "USPS COLLECTION BOX - BLUE BOX", "address": {"city": "STEUBENVILLE", "state": "OH", "street": "201 LURAY DR", "postcode": "43953"}}},
{"geometry": {"type": "Point", "coordinates": [-80.7038366863, 40.3806325133]}, "type": "Feature", "properties": {"collection_times": [{"days": "Mon-Fri", "time": "5:00pm"}, {"days": "Sat", "time": "3:00pm"}, {"days": "Sun", "time": "Closed"}], "id": "4395300006", "name": "USPS COLLECTION BOX - BLUE BOX", "address": {"city": "STEUBENVILLE", "state": "OH", "street": "201 LURAY DR", "postcode": "43953"}}},
{"geometry": {"type": "Point", "coordinates": [-80.7181377161, 40.3762870731]}, "type": "Feature", "properties": {"collection_times": [{"days": "Mon-Sat", "time": "12:00pm"}, {"days": "Sun", "time": "Closed"}], "id": "4395300009", "name": "USPS COLLECTION BOX - BLUE BOX", "address": {"city": "STEUBENVILLE", "state": "OH", "street": "498 CADIZ RD", "postcode": "43953"}}},
{"geometry": {"type": "Point", "coordinates": [-80.7268233185, 40.3847046383]}, "type": "Feature", "properties": {"collection_times": [{"days": "Mon-Sat", "time": "10:00am"}, {"days": "Sun", "time": "Closed"}], "id": "4395300010", "name": "USPS COLLECTION BOX - BLUE BOX", "address": {"city": "STEUBENVILLE", "state": "OH", "street": "100 CONCORD DR", "postcode": "43953"}}},
{"geometry": {"type": "Point", "coordinates": [-80.7027388344, 40.3752283485]}, "type": "Feature", "properties": {"collection_times": [{"days": "Mon-Sat", "time": "10:00am"}, {"days": "Sun", "time": "Closed"}], "id": "4395300014", "name": "USPS COLLECTION BOX - BLUE BOX", "address": {"city": "STEUBENVILLE", "state": "OH", "street": "864 MAIN ST", "postcode": "43953"}}},
{"geometry": {"type": "Point", "coordinates": [-80.6852713831, 40.3711944937]}, "type": "Feature", "properties": {"collection_times": [{"days": "Mon-Sat", "time": "10:00am"}, {"days": "Sun", "time": "Closed"}], "id": "4395300015", "name": "USPS COLLECTION BOX - BLUE BOX", "address": {"city": "STEUBENVILLE", "state": "OH", "street": "100 MAIN ST", "postcode": "43953"}}},
{"geometry": {"type": "Point", "coordinates": [-80.6894654373, 40.3732848634]}, "type": "Feature", "properties": {"collection_times": [{"days": "Mon-Sat", "time": "10:00am"}, {"days": "Sun", "time": "Closed"}], "id": "4395300018", "name": "USPS COLLECTION BOX - BLUE BOX", "address": {"city": "STEUBENVILLE", "state": "OH", "street": "208 MAIN ST", "postcode": "43953"}}},
{"geometry": {"type": "Point", "coordinates": [-80.6264620699, 40.5199572239]}, "type": "Feature", "properties": {"collection_times": [{"days": "Mon-Fri", "time": "4:45pm"}, {"days": "Sat", "time": "11:00am"}, {"days": "Sun", "time": "Closed"}], "id": "4396100000", "name": "USPS COLLECTION BOX - BLUE BOX", "address": {"city": "STRATTON", "state": "OH", "street": "107 2ND AVE", "postcode": "43961"}}},
{"geometry": {"type": "Point", "coordinates": [-80.8863120397, 40.6780741002]}, "type": "Feature", "properties": {"collection_times": [{"days": "Mon-Fri", "time": "4:15pm"}, {"days": "Sat", "time": "11:30am"}, {"days": "Sun", "time": "Closed"}], "id": "4396200001", "name": "USPS COLLECTION BOX - BLUE BOX", "address": {"city": "SUMMITVILLE", "state": "OH", "street": "15521 STATE ROUTE 644", "postcode": "43962"}}},
{"geometry": {"type": "Point", "coordinates": [-80.6980196302, 40.1682068437]}, "type": "Feature", "properties": {"collection_times": [{"days": "Mon-Fri", "time": "4:30pm"}, {"days": "Sat", "time": "11:30am"}, {"days": "Sun", "time": "Closed"}], "id": "4396300002", "name": "USPS COLLECTION BOX - BLUE BOX", "address": {"city": "TILTONSVILLE", "state": "OH", "street": "218 GRANDVIEW AVE", "postcode": "43963"}}},
{"geometry": {"type": "Point", "coordinates": [-80.6978765563, 40.1708004723]}, "type": "Feature", "properties": {"collection_times": [{"days": "Mon-Sat", "time": "9:00am"}, {"days": "Sun", "time": "Closed"}], "id": "4396300003", "name": "USPS COLLECTION BOX - BLUE BOX", "address": {"city": "TILTONSVILLE", "state": "OH", "street": "115 3RD ST", "postcode": "43963"}}},
{"geometry": {"type": "Point", "coordinates": [-80.693535721, 40.1782989701]}, "type": "Feature", "properties": {"collection_times": [{"days": "Mon-Fri", "time": "11:30am"}, {"days": "Sat", "time": "10:00am"}, {"days": "Sun", "time": "Closed"}], "id": "4396300005", "name": "USPS COLLECTION BOX - BLUE BOX", "address": {"city": "TILTONSVILLE", "state": "OH", "street": "703 WALDEN AVE", "postcode": "43963"}}},
{"geometry": {"type": "Point", "coordinates": [-80.6009331575, 40.4643766659]}, "type": "Feature", "properties": {"collection_times": [{"days": "Mon-Sat", "time": "5:00pm"}, {"days": "Sun", "time": "Closed"}], "id": "4396400001", "name": "USPS COLLECTION BOX - BLUE BOX", "address": {"city": "TORONTO", "state": "OH", "street": "105 S 4TH ST", "postcode": "43964"}}},
{"geometry": {"type": "Point", "coordinates": [-80.6009331575, 40.4643766659]}, "type": "Feature", "properties": {"collection_times": [{"days": "Mon-Sat", "time": "5:00pm"}, {"days": "Sun", "time": "Closed"}], "id": "4396400002", "name": "USPS COLLECTION BOX - BLUE BOX", "address": {"city": "TORONTO", "state": "OH", "street": "105 S 4TH ST", "postcode": "43964"}}},
{"geometry": {"type": "Point", "coordinates": [-80.6024337498, 40.4693664122]}, "type": "Feature", "properties": {"collection_times": [{"days": "Mon-Sat", "time": "9:30am"}, {"days": "Sun", "time": "Closed"}], "id": "4396400008", "name": "USPS COLLECTION BOX - BLUE BOX", "address": {"city": "TORONTO", "state": "OH", "street": "524 N 5TH ST", "postcode": "43964"}}},
{"geometry": {"type": "Point", "coordinates": [-80.6091435106, 40.4581959177]}, "type": "Feature", "properties": {"collection_times": [{"days": "Mon-Sat", "time": "12:00pm"}, {"days": "Sun", "time": "Closed"}], "id": "4396400013", "name": "USPS COLLECTION BOX - BLUE BOX", "address": {"city": "TORONTO", "state": "OH", "street": "934 BANFIELD AVE", "postcode": "43964"}}},
{"geometry": {"type": "Point", "coordinates": [-80.6086194936, 40.4511273335]}, "type": "Feature", "properties": {"collection_times": [{"days": "Mon-Sat", "time": "9:30am"}, {"days": "Sun", "time": "Closed"}], "id": "4396400017", "name": "USPS COLLECTION BOX - BLUE BOX", "address": {"city": "TORONTO", "state": "OH", "street": "1840 FRANKLIN ST", "postcode": "43964"}}},
{"geometry": {"type": "Point", "coordinates": [-80.9378619065, 40.0223068032]}, "type": "Feature", "properties": {"collection_times": [{"days": "Mon-Fri", "time": "3:15pm"}, {"days": "Sat", "time": "10:00am"}, {"days": "Sun", "time": "Closed"}], "id": "4396700000", "name": "USPS COLLECTION BOX - BLUE BOX", "address": {"city": "WARNOCK", "state": "OH", "street": "47590 W BROOKLYN ST", "postcode": "43967"}}},
{"geometry": {"type": "Point", "coordinates": [-80.650164414, 40.6020562216]}, "type": "Feature", "properties": {"collection_times": [{"days": "Mon-Sat", "time": "5:00pm"}, {"days": "Sun", "time": "Closed"}], "id": "4396800010", "name": "USPS COLLECTION BOX - BLUE BOX", "address": {"city": "WELLSVILLE", "state": "OH", "street": "1075 MAIN ST", "postcode": "43968"}}},
{"geometry": {"type": "Point", "coordinates": [-80.650164414, 40.6020562216]}, "type": "Feature", "properties": {"collection_times": [{"days": "Mon-Sat", "time": "5:00pm"}, {"days": "Sun", "time": "Closed"}], "id": "4396800011", "name": "USPS COLLECTION BOX - PO LOBBY", "address": {"city": "WELLSVILLE", "state": "OH", "street": "1075 MAIN ST", "postcode": "43968"}}},
{"geometry": {"type": "Point", "coordinates": [-80.650164414, 40.6020562216]}, "type": "Feature", "properties": {"collection_times": [{"days": "Mon-Sat", "time": "5:00pm"}, {"days": "Sun", "time": "Closed"}], "id": "4396800012", "name": "USPS COLLECTION BOX - BLUE BOX", "address": {"city": "WELLSVILLE", "state": "OH", "street": "1075 MAIN ST", "postcode": "43968"}}},
{"geometry": {"type": "Point", "coordinates": [-80.7048385846, 40.1591134878]}, "type": "Feature", "properties": {"collection_times": [{"days": "Mon-Fri", "time": "3:30pm"}, {"days": "Sat", "time": "11:15am"}, {"days": "Sun", "time": "Closed"}], "id": "4397100001", "name": "USPS COLLECTION BOX - BLUE BOX", "address": {"city": "YORKVILLE", "state": "OH", "street": "325 PUBLIC RD", "postcode": "43971"}}},
{"geometry": {"type": "Point", "coordinates": [-81.266584135, 40.2102651591]}, "type": "Feature", "properties": {"collection_times": [{"days": "Mon-Fri", "time": "4:00pm"}, {"days": "Sat", "time": "11:45am"}, {"days": "Sun", "time": "Closed"}], "id": "4397300001", "name": "USPS COLLECTION BOX - BLUE BOX", "address": {"city": "FREEPORT", "state": "OH", "street": "117 W MAIN ST", "postcode": "43973"}}},
{"geometry": {"type": "Point", "coordinates": [-80.8892071281, 40.1814728485]}, "type": "Feature", "properties": {"collection_times": [{"days": "Mon-Fri", "time": "4:00pm"}, {"days": "Sat", "time": "11:00am"}, {"days": "Sun", "time": "Closed"}], "id": "4397400000", "name": "USPS COLLECTION BOX - PO LOBBY", "address": {"city": "HARRISVILLE", "state": "OH", "street": "49364 MAIN ST", "postcode": "43974"}}},
{"geometry": {"type": "Point", "coordinates": [-80.8892071281, 40.1814728485]}, "type": "Feature", "properties": {"collection_times": [{"days": "Mon-Fri", "time": "3:45pm"}, {"days": "Sat", "time": "11:00am"}, {"days": "Sun", "time": "Closed"}], "id": "4397400001", "name": "USPS COLLECTION BOX - BLUE BOX", "address": {"city": "HARRISVILLE", "state": "OH", "street": "49364 MAIN ST", "postcode": "43974"}}},
{"geometry": {"type": "Point", "coordinates": [-80.9045814384, 40.3736740407]}, "type": "Feature", "properties": {"collection_times": [{"days": "Mon-Fri", "time": "3:45pm"}, {"days": "Sat", "time": "11:45am"}, {"days": "Sun", "time": "Closed"}], "id": "4397600000", "name": "USPS COLLECTION BOX - BLUE BOX", "address": {"city": "HOPEDALE", "state": "OH", "street": "165 MILLER STATION RD", "postcode": "43976"}}},
{"geometry": {"type": "Point", "coordinates": [-80.9986260399, 40.2703900742]}, "type": "Feature", "properties": {"collection_times": [{"days": "Mon-Fri", "time": "3:45pm"}, {"days": "Sat", "time": "10:45am"}, {"days": "Sun", "time": "Closed"}], "id": "4398100000", "name": "USPS COLLECTION BOX - PO LOBBY", "address": {"city": "NEW ATHENS", "state": "OH", "street": "128 S MAIN ST", "postcode": "43981"}}},
{"geometry": {"type": "Point", "coordinates": [-80.9986260399, 40.2703900742]}, "type": "Feature", "properties": {"collection_times": [{"days": "Mon-Fri", "time": "3:45pm"}, {"days": "Sat", "time": "10:45am"}, {"days": "Sun", "time": "Closed"}], "id": "4398100001", "name": "USPS COLLECTION BOX - BLUE BOX", "address": {"city": "NEW ATHENS", "state": "OH", "street": "128 S MAIN ST", "postcode": "43981"}}},
{"geometry": {"type": "Point", "coordinates": [-81.207437522, 40.1886210266]}, "type": "Feature", "properties": {"collection_times": [{"days": "Mon-Fri", "time": "4:00pm"}, {"days": "Sat", "time": "11:30am"}, {"days": "Sun", "time": "Closed"}], "id": "4398300000", "name": "USPS COLLECTION BOX - PO LOBBY", "address": {"city": "PIEDMONT", "state": "OH", "street": "33031 W MAIN ST", "postcode": "43983"}}},
{"geometry": {"type": "Point", "coordinates": [-81.207437522, 40.1886210266]}, "type": "Feature", "properties": {"collection_times": [{"days": "Mon-Fri", "time": "4:00pm"}, {"days": "Sat", "time": "11:30am"}, {"days": "Sun", "time": "Closed"}], "id": "4398300001", "name": "USPS COLLECTION BOX - BLUE BOX", "address": {"city": "PIEDMONT", "state": "OH", "street": "33031 W MAIN ST", "postcode": "43983"}}},
{"geometry": {"type": "Point", "coordinates": [-81.1382317939, 40.1636683863]}, "type": "Feature", "properties": {"collection_times": [{"days": "Mon-Fri", "time": "4:00pm"}, {"days": "Sat", "time": "12:00pm"}, {"days": "Sun", "time": "Closed"}], "id": "4398500000", "name": "USPS COLLECTION BOX - BLUE BOX", "address": {"city": "HOLLOWAY", "state": "OH", "street": "120 E MAIN ST", "postcode": "43985"}}},
{"geometry": {"type": "Point", "coordinates": [-81.1382317939, 40.1636683863]}, "type": "Feature", "properties": {"collection_times": [{"days": "Mon-Fri", "time": "2:30pm"}, {"days": "Sat", "time": "12:00pm"}, {"days": "Sun", "time": "Closed"}], "id": "4398500001", "name": "USPS COLLECTION BOX - PO LOBBY", "address": {"city": "HOLLOWAY", "state": "OH", "street": "120 E MAIN ST", "postcode": "43985"}}},
{"geometry": {"type": "Point", "coordinates": [-81.1213422192, 40.158874636]}, "type": "Feature", "properties": {"collection_times": [{"days": "Mon-Sat", "time": "1:00pm"}, {"days": "Sun", "time": "Closed"}], "id": "4398500002", "name": "USPS COLLECTION BOX - BLUE BOX", "address": {"city": "HOLLOWAY", "state": "OH", "street": "210 HIGH ST", "postcode": "43985"}}},
{"geometry": {"type": "Point", "coordinates": [-81.0046962309, 40.3678368153]}, "type": "Feature", "properties": {"collection_times": [{"days": "Mon-Fri", "time": "4:15pm"}, {"days": "Sat", "time": "12:00pm"}, {"days": "Sun", "time": "Closed"}], "id": "4398600000", "name": "USPS COLLECTION BOX - BLUE BOX", "address": {"city": "JEWETT", "state": "OH", "street": "102 W MAIN ST", "postcode": "43986"}}},
{"geometry": {"type": "Point", "coordinates": [-81.0286911163, 40.4005831295]}, "type": "Feature", "properties": {"collection_times": [{"days": "Mon-Sat", "time": "11:45am"}, {"days": "Sun", "time": "Closed"}], "id": "4398600003", "name": "USPS COLLECTION BOX - BLUE BOX", "address": {"city": "JEWETT", "state": "OH", "street": "41450 RUMLEY RD E", "postcode": "43986"}}},
{"geometry": {"type": "Point", "coordinates": [-81.0839367036, 40.3945010107]}, "type": "Feature", "properties": {"collection_times": [{"days": "Mon-Fri", "time": "4:00pm"}, {"days": "Sat", "time": "12:00pm"}, {"days": "Sun", "time": "Closed"}], "id": "4398800001", "name": "USPS COLLECTION BOX - BLUE BOX", "address": {"city": "SCIO", "state": "OH", "street": "114 E MAIN ST", "postcode": "43988"}}},
{"geometry": {"type": "Point", "coordinates": [-81.092748415, 40.4044674823]}, "type": "Feature", "properties": {"collection_times": [{"days": "Mon-Sat", "time": "10:00am"}, {"days": "Sun", "time": "Closed"}], "id": "4398800002", "name": "USPS COLLECTION BOX - BLUE BOX", "address": {"city": "SCIO", "state": "OH", "street": "38450 ALLENSWORTH DR", "postcode": "43988"}}}
]}
