{"type": "FeatureCollection", "features": [
{"geometry": {"type": "Point", "coordinates": [-82.2091958513, 41.4102181858]}, "type": "Feature", "properties": {"collection_times": [{"days": "Mon-Fri", "time": "5:00pm"}, {"days": "Sat", "time": "4:00pm"}, {"days": "Sun", "time": "Closed"}], "id": "4400100000", "name": "USPS COLLECTION BOX - PO LOBBY", "address": {"city": "SOUTH AMHERST", "state": "OH", "street": "350 N LEAVITT RD", "postcode": "44001"}}},
{"geometry": {"type": "Point", "coordinates": [-82.2091958513, 41.4102181858]}, "type": "Feature", "properties": {"collection_times": [{"days": "Mon-Fri", "time": "5:00pm"}, {"days": "Sat", "time": "4:00pm"}, {"days": "Sun", "time": "Closed"}], "id": "4400100001", "name": "USPS COLLECTION BOX - BLUE BOX", "address": {"city": "SOUTH AMHERST", "state": "OH", "street": "350 N LEAVITT RD", "postcode": "44001"}}},
{"geometry": {"type": "Point", "coordinates": [-82.2091958513, 41.4102181858]}, "type": "Feature", "properties": {"collection_times": [{"days": "Mon-Fri", "time": "5:00pm"}, {"days": "Sat", "time": "4:00pm"}, {"days": "Sun", "time": "Closed"}], "id": "4400100004", "name": "USPS COLLECTION BOX - BLUE BOX", "address": {"city": "SOUTH AMHERST", "state": "OH", "street": "350 N LEAVITT RD", "postcode": "44001"}}},
{"geometry": {"type": "Point", "coordinates": [-82.2305468314, 41.3893616098]}, "type": "Feature", "properties": {"collection_times": [{"days": "Mon-Fri", "time": "5:00pm"}, {"days": "Sat", "time": "4:00pm"}, {"days": "Sun", "time": "Closed"}], "id": "4400100005", "name": "USPS COLLECTION BOX - EXPRESS", "address": {"city": "SOUTH AMHERST", "state": "OH", "street": "350 N LEAVITT RD", "postcode": "44001"}}},
{"geometry": {"type": "Point", "coordinates": [-82.2244757011, 41.3982829505]}, "type": "Feature", "properties": {"collection_times": [{"days": "Mon-Sat", "time": "10:00am"}, {"days": "Sun", "time": "Closed"}], "id": "4400100006", "name": "USPS COLLECTION BOX - BLUE BOX", "address": {"city": "SOUTH AMHERST", "state": "OH", "street": "252 PARK AVE", "postcode": "44001"}}},
{"geometry": {"type": "Point", "coordinates": [-82.2002951448, 41.4181970247]}, "type": "Feature", "properties": {"collection_times": [{"days": "Mon-Sat", "time": "11:00am"}, {"days": "Sun", "time": "Closed"}], "id": "4400100009", "name": "USPS COLLECTION BOX - BLUE BOX", "address": {"city": "SOUTH AMHERST", "state": "OH", "street": "1903 COOPER FOSTER PARK RD", "postcode": "44001"}}},
{"geometry": {"type": "Point", "coordinates": [-82.2267829191, 41.3984125135]}, "type": "Feature", "properties": {"collection_times": [{"days": "Mon-Sat", "time": "10:00am"}, {"days": "Sun", "time": "Closed"}], "id": "4400100012", "name": "USPS COLLECTION BOX - BLUE BOX", "address": {"city": "SOUTH AMHERST", "state": "OH", "street": "101 PARK AVE", "postcode": "44001"}}},
{"geometry": {"type": "Point", "coordinates": [-82.2092443526, 41.4086377526]}, "type": "Feature", "properties": {"collection_times": [{"days": "Mon-Sat", "time": "2:00pm"}, {"days": "Sun", "time": "Closed"}], "id": "4400100013", "name": "USPS COLLECTION BOX - BLUE BOX", "address": {"city": "SOUTH AMHERST", "state": "OH", "street": "300 N LEAVITT RD", "postcode": "44001"}}},
{"geometry": {"type": "Point", "coordinates": [-82.2248369347, 41.3826256679]}, "type": "Feature", "properties": {"collection_times": [{"days": "Mon-Sat", "time": "2:00pm"}, {"days": "Sun", "time": "Closed"}], "id": "4400100016", "name": "USPS COLLECTION BOX - BLUE BOX", "address": {"city": "SOUTH AMHERST", "state": "OH", "street": "46402 MIDDLE RIDGE RD", "postcode": "44001"}}},
{"geometry": {"type": "Point", "coordinates": [-82.2492488518, 41.3985513467]}, "type": "Feature", "properties": {"collection_times": [{"days": "Mon-Sat", "time": "10:00am"}, {"days": "Sun", "time": "Closed"}], "id": "4400100018", "name": "USPS COLLECTION BOX - BLUE BOX", "address": {"city": "SOUTH AMHERST", "state": "OH", "street": "1178 MILAN AVE", "postcode": "44001"}}},
{"geometry": {"type": "Point", "coordinates": [-82.2103308098, 41.3778931851]}, "type": "Feature", "properties": {"collection_times": [{"days": "Mon-Sat", "time": "10:00am"}, {"days": "Sun", "time": "Closed"}], "id": "4400100021", "name": "USPS COLLECTION BOX - BLUE BOX", "address": {"city": "SOUTH AMHERST", "state": "OH", "street": "7998 LEAVITT RD", "postcode": "44001"}}},
{"geometry": {"type": "Point", "coordinates": [-82.2046450081, 41.4166369211]}, "type": "Feature", "properties": {"collection_times": [{"days": "Mon-Sat", "time": "11:00am"}, {"days": "Sun", "time": "Closed"}], "id": "4400100022", "name": "USPS COLLECTION BOX - BLUE BOX", "address": {"city": "SOUTH AMHERST", "state": "OH", "street": "2201 KRESGE DR", "postcode": "44001"}}},
{"geometry": {"type": "Point", "coordinates": [-82.2374863149, 41.3576806122]}, "type": "Feature", "properties": {"collection_times": [{"days": "Mon-Sat", "time": "10:30am"}, {"days": "Sun", "time": "Closed"}], "id": "4400100025", "name": "USPS COLLECTION BOX - BLUE BOX", "address": {"city": "SOUTH AMHERST", "state": "OH", "street": "136 E MAIN ST", "postcode": "44001"}}},
{"geometry": {"type": "Point", "coordinates": [-82.2091958513, 41.4102181858]}, "type": "Feature", "properties": {"collection_times": [{"days": "Mon-Fri", "time": "5:00pm"}, {"days": "Sat", "time": "4:00pm"}, {"days": "Sun", "time": "Closed"}], "id": "4400100035", "name": "USPS COLLECTION BOX - PO LOBBY", "address": {"city": "SOUTH AMHERST", "state": "OH", "street": "350 N LEAVITT RD", "postcode": "44001"}}},
{"geometry": {"type": "Point", "coordinates": [-82.2091958513, 41.4102181858]}, "type": "Feature", "properties": {"collection_times": [{"days": "Mon-Fri", "time": "5:00pm"}, {"days": "Sat", "time": "4:00pm"}, {"days": "Sun", "time": "Closed"}], "id": "4400100038", "name": "USPS COLLECTION BOX - PO LOBBY", "address": {"city": "SOUTH AMHERST", "state": "OH", "street": "350 N LEAVITT RD", "postcode": "44001"}}},
{"geometry": {"type": "Point", "coordinates": [-82.2091958513, 41.4102181858]}, "type": "Feature", "properties": {"collection_times": [{"days": "Mon-Fri", "time": "5:00pm"}, {"days": "Sat", "time": "4:00pm"}, {"days": "Sun", "time": "Closed"}], "id": "4400100039", "name": "USPS COLLECTION BOX - APC", "address": {"city": "SOUTH AMHERST", "state": "OH", "street": "350 N LEAVITT RD", "postcode": "44001"}}},
{"geometry": {"type": "Point", "coordinates": [-80.5650964149, 41.6072500743]}, "type": "Feature", "properties": {"collection_times": [{"days": "Mon-Fri", "time": "4:00pm"}, {"days": "Sat", "time": "12:00pm"}, {"days": "Sun", "time": "Closed"}], "id": "4400300000", "name": "USPS COLLECTION BOX - PO LOBBY", "address": {"city": "ANDOVER", "state": "OH", "street": "255 E MAIN ST", "postcode": "44003"}}},
{"geometry": {"type": "Point", "coordinates": [-80.5650964149, 41.6072500743]}, "type": "Feature", "properties": {"collection_times": [{"days": "Mon-Fri", "time": "4:00pm"}, {"days": "Sat", "time": "12:00pm"}, {"days": "Sun", "time": "Closed"}], "id": "4400300001", "name": "USPS COLLECTION BOX - BLUE BOX", "address": {"city": "ANDOVER", "state": "OH", "street": "255 E MAIN ST", "postcode": "44003"}}},
{"geometry": {"type": "Point", "coordinates": [-80.5711908523, 41.6066416874]}, "type": "Feature", "properties": {"collection_times": [{"days": "Mon-Fri", "time": "4:00pm"}, {"days": "Sat", "time": "12:00pm"}, {"days": "Sun", "time": "Closed"}], "id": "4400300004", "name": "USPS COLLECTION BOX - BLUE BOX", "address": {"city": "ANDOVER", "state": "OH", "street": "91 S MAIN ST", "postcode": "44003"}}},
{"geometry": {"type": "Point", "coordinates": [-80.80842238, 41.8581770653]}, "type": "Feature", "properties": {"collection_times": [{"days": "Mon-Sat", "time": "11:15am"}, {"days": "Sun", "time": "Closed"}], "id": "4400400006", "name": "USPS COLLECTION BOX - BLUE BOX", "address": {"city": "ASHTABULA", "state": "OH", "street": "1910 W PROSPECT RD", "postcode": "44004"}}},
{"geometry": {"type": "Point", "coordinates": [-80.8050468449, 41.894562003]}, "type": "Feature", "properties": {"collection_times": [{"days": "Mon-Fri", "time": "3:00pm"}, {"days": "Sat", "time": "12:15pm"}, {"days": "Sun", "time": "Closed"}], "id": "4400400009", "name": "USPS COLLECTION BOX - BLUE BOX", "address": {"city": "ASHTABULA", "state": "OH", "street": "718 LAKE AVE", "postcode": "44004"}}},
{"geometry": {"type": "Point", "coordinates": [-80.7921712004, 41.8512807073]}, "type": "Feature", "properties": {"collection_times": [{"days": "Mon-Sat", "time": "10:00am"}, {"days": "Sun", "time": "Closed"}], "id": "4400400012", "name": "USPS COLLECTION BOX - BLUE BOX", "address": {"city": "ASHTABULA", "state": "OH", "street": "901 BUNKER HILL RD", "postcode": "44004"}}},
{"geometry": {"type": "Point", "coordinates": [-80.7724020079, 41.8757339973]}, "type": "Feature", "properties": {"collection_times": [{"days": "Mon-Sat", "time": "2:30pm"}, {"days": "Sun", "time": "Closed"}], "id": "4400400014", "name": "USPS COLLECTION BOX - BLUE BOX", "address": {"city": "ASHTABULA", "state": "OH", "street": "3300 STATE RD", "postcode": "44004"}}},
{"geometry": {"type": "Point", "coordinates": [-80.8595862964, 41.8805389811]}, "type": "Feature", "properties": {"collection_times": [{"days": "Mon-Fri", "time": "3:00pm"}, {"days": "Sat", "time": "2:45pm"}, {"days": "Sun", "time": "Closed"}], "id": "4400400016", "name": "USPS COLLECTION BOX - BLUE BOX", "address": {"city": "ASHTABULA", "state": "OH", "street": "5110 LAKE RD W", "postcode": "44004"}}},
{"geometry": {"type": "Point", "coordinates": [-80.8171974796, 41.8545157994]}, "type": "Feature", "properties": {"collection_times": [{"days": "Mon-Sat", "time": "3:00pm"}, {"days": "Sun", "time": "Closed"}], "id": "4400400017", "name": "USPS COLLECTION BOX - BLUE BOX", "address": {"city": "ASHTABULA", "state": "OH", "street": "2402 W PROSPECT RD", "postcode": "44004"}}},
{"geometry": {"type": "Point", "coordinates": [-80.7821301524, 41.8653702165]}, "type": "Feature", "properties": {"collection_times": [{"days": "Mon-Fri", "time": "2:00pm"}, {"days": "Sat-Sun", "time": "Closed"}], "id": "4400400025", "name": "USPS COLLECTION BOX - BLUE BOX", "address": {"city": "ASHTABULA", "state": "OH", "street": "4608 MAIN AVE", "postcode": "44004"}}},
{"geometry": {"type": "Point", "coordinates": [-80.7865892862, 41.8685883607]}, "type": "Feature", "properties": {"collection_times": [{"days": "Mon-Fri", "time": "5:00pm"}, {"days": "Sat", "time": "3:15pm"}, {"days": "Sun", "time": "Closed"}], "id": "4400400027", "name": "USPS COLLECTION BOX - PO LOBBY", "address": {"city": "ASHTABULA", "state": "OH", "street": "4307 STATION AVE", "postcode": "44004"}}},
{"geometry": {"type": "Point", "coordinates": [-80.7865892862, 41.8685883607]}, "type": "Feature", "properties": {"collection_times": [{"days": "Mon-Fri", "time": "5:00pm"}, {"days": "Sat", "time": "3:15pm"}, {"days": "Sun", "time": "Closed"}], "id": "4400400028", "name": "USPS COLLECTION BOX - BLUE BOX", "address": {"city": "ASHTABULA", "state": "OH", "street": "4307 STATION AVE", "postcode": "44004"}}},
{"geometry": {"type": "Point", "coordinates": [-80.8050468449, 41.894562003]}, "type": "Feature", "properties": {"collection_times": [{"days": "Mon-Fri", "time": "3:00pm"}, {"days": "Sat", "time": "12:15pm"}, {"days": "Sun", "time": "Closed"}], "id": "4400400043", "name": "USPS COLLECTION BOX - PO LOBBY", "address": {"city": "ASHTABULA", "state": "OH", "street": "718 LAKE AVE", "postcode": "44004"}}},
{"geometry": {"type": "Point", "coordinates": [-80.749608122, 41.8805671428]}, "type": "Feature", "properties": {"collection_times": [{"days": "Mon-Sat", "time": "2:25pm"}, {"days": "Sun", "time": "Closed"}], "id": "4400400045", "name": "USPS COLLECTION BOX - BLUE BOX", "address": {"city": "ASHTABULA", "state": "OH", "street": "3551 N RIDGE RD E", "postcode": "44004"}}},
{"geometry": {"type": "Point", "coordinates": [-80.7712838302, 41.862638098]}, "type": "Feature", "properties": {"collection_times": [{"days": "Mon-Sat", "time": "2:15pm"}, {"days": "Sun", "time": "Closed"}], "id": "4400400046", "name": "USPS COLLECTION BOX - BLUE BOX", "address": {"city": "ASHTABULA", "state": "OH", "street": "4817 STATE RD", "postcode": "44004"}}},
{"geometry": {"type": "Point", "coordinates": [-80.7799129332, 41.8672425023]}, "type": "Feature", "properties": {"collection_times": [{"days": "Mon-Fri", "time": "2:00pm"}, {"days": "Sat-Sun", "time": "Closed"}], "id": "4400400047", "name": "USPS COLLECTION BOX - BLUE BOX", "address": {"city": "ASHTABULA", "state": "OH", "street": "110 W 44TH ST", "postcode": "44004"}}},
{"geometry": {"type": "Point", "coordinates": [-80.7982095286, 41.8820812728]}, "type": "Feature", "properties": {"collection_times": [{"days": "Mon-Sat", "time": "2:30pm"}, {"days": "Sun", "time": "Closed"}], "id": "4400400053", "name": "USPS COLLECTION BOX - BLUE BOX", "address": {"city": "ASHTABULA", "state": "OH", "street": "2248 LAKE AVE", "postcode": "44004"}}},
{"geometry": {"type": "Point", "coordinates": [-80.7567682693, 41.8773789204]}, "type": "Feature", "properties": {"collection_times": [{"days": "Mon-Sat", "time": "2:15pm"}, {"days": "Sun", "time": "Closed"}], "id": "4400400055", "name": "USPS COLLECTION BOX - BLUE BOX", "address": {"city": "ASHTABULA", "state": "OH", "street": "3032 N RIDGE RD E", "postcode": "44004"}}},
{"geometry": {"type": "Point", "coordinates": [-80.7865892862, 41.8685883607]}, "type": "Feature", "properties": {"collection_times": [{"days": "Mon-Fri", "time": "5:00pm"}, {"days": "Sat", "time": "3:15pm"}, {"days": "Sun", "time": "Closed"}], "id": "4400400057", "name": "USPS COLLECTION BOX - PO LOBBY", "address": {"city": "ASHTABULA", "state": "OH", "street": "4307 STATION AVE", "postcode": "44004"}}},
{"geometry": {"type": "Point", "coordinates": [-80.7827518303, 41.8641124392]}, "type": "Feature", "properties": {"collection_times": [{"days": "Mon-Fri", "time": "2:00pm"}, {"days": "Sat-Sun", "time": "Closed"}], "id": "4400400058", "name": "USPS COLLECTION BOX - BLUE BOX", "address": {"city": "ASHTABULA", "state": "OH", "street": "4717 MAIN AVE", "postcode": "44004"}}},
{"geometry": {"type": "Point", "coordinates": [-80.8519127167, 41.7720188944]}, "type": "Feature", "properties": {"collection_times": [{"days": "Mon-Fri", "time": "5:00pm"}, {"days": "Sat", "time": "11:00am"}, {"days": "Sun", "time": "Closed"}], "id": "4401000000", "name": "USPS COLLECTION BOX - PO LOBBY", "address": {"city": "AUSTINBURG", "state": "OH", "street": "2773 STATE ROUTE 307", "postcode": "44010"}}},
{"geometry": {"type": "Point", "coordinates": [-80.8519127167, 41.7720188944]}, "type": "Feature", "properties": {"collection_times": [{"days": "Mon-Fri", "time": "5:00pm"}, {"days": "Sat", "time": "11:00am"}, {"days": "Sun", "time": "Closed"}], "id": "4401000001", "name": "USPS COLLECTION BOX - BLUE BOX", "address": {"city": "AUSTINBURG", "state": "OH", "street": "2773 STATE ROUTE 307", "postcode": "44010"}}},
{"geometry": {"type": "Point", "coordinates": [-80.846810899, 41.7618150968]}, "type": "Feature", "properties": {"collection_times": [{"days": "Mon-Sat", "time": "9:00am"}, {"days": "Sun", "time": "Closed"}], "id": "4401000002", "name": "USPS COLLECTION BOX - BLUE BOX", "address": {"city": "AUSTINBURG", "state": "OH", "street": "2349 CENTER RD", "postcode": "44010"}}},
{"geometry": {"type": "Point", "coordinates": [-82.0244815407, 41.4582546005]}, "type": "Feature", "properties": {"collection_times": [{"days": "Mon-Fri", "time": "5:30pm"}, {"days": "Sat", "time": "3:15pm"}, {"days": "Sun", "time": "Closed"}], "id": "4401100000", "name": "USPS COLLECTION BOX - PO LOBBY", "address": {"city": "AVON", "state": "OH", "street": "36225 DETROIT RD", "postcode": "44011"}}},
{"geometry": {"type": "Point", "coordinates": [-82.0244815407, 41.4582546005]}, "type": "Feature", "properties": {"collection_times": [{"days": "Mon-Fri", "time": "5:30pm"}, {"days": "Sat", "time": "3:15pm"}, {"days": "Sun", "time": "Closed"}], "id": "4401100001", "name": "USPS COLLECTION BOX - BLUE BOX", "address": {"city": "AVON", "state": "OH", "street": "36225 DETROIT RD", "postcode": "44011"}}},
{"geometry": {"type": "Point", "coordinates": [-82.0244815407, 41.4582546005]}, "type": "Feature", "properties": {"collection_times": [{"days": "Mon-Fri", "time": "5:30pm"}, {"days": "Sat", "time": "3:15pm"}, {"days": "Sun", "time": "Closed"}], "id": "4401100002", "name": "USPS COLLECTION BOX - BLUE BOX", "address": {"city": "AVON", "state": "OH", "street": "36225 DETROIT RD", "postcode": "44011"}}},
{"geometry": {"type": "Point", "coordinates": [-81.9881647005, 41.4531785236]}, "type": "Feature", "properties": {"collection_times": [{"days": "Mon-Sat", "time": "11:00am"}, {"days": "Sun", "time": "Closed"}], "id": "4401100004", "name": "USPS COLLECTION BOX - BLUE BOX", "address": {"city": "AVON", "state": "OH", "street": "33552 DETROIT RD", "postcode": "44011"}}},
{"geometry": {"type": "Point", "coordinates": [-82.0296262293, 41.4658562948]}, "type": "Feature", "properties": {"collection_times": [{"days": "Mon-Sat", "time": "1:00pm"}, {"days": "Sun", "time": "Closed"}], "id": "4401100005", "name": "USPS COLLECTION BOX - BLUE BOX", "address": {"city": "AVON", "state": "OH", "street": "36901 AMERICAN WAY", "postcode": "44011"}}},
{"geometry": {"type": "Point", "coordinates": [-82.0244815405, 41.4582546001]}, "type": "Feature", "properties": {"collection_times": [{"days": "Mon-Fri", "time": "5:30pm"}, {"days": "Sat", "time": "3:15pm"}, {"days": "Sun", "time": "Closed"}], "id": "4401100006", "name": "USPS COLLECTION BOX - BLUE BOX", "address": {"city": "AVON", "state": "OH", "street": "36225 DETROIT RD", "postcode": "44011"}}},
{"geometry": {"type": "Point", "coordinates": [-82.0143393579, 41.4960532657]}, "type": "Feature", "properties": {"collection_times": [{"days": "Mon-Fri", "time": "2:15pm"}, {"days": "Sat", "time": "10:00am"}, {"days": "Sun", "time": "Closed"}], "id": "4401200000", "name": "USPS COLLECTION BOX - BLUE BOX", "address": {"city": "AVON LAKE", "state": "OH", "street": "375 LEAR RD", "postcode": "44012"}}},
{"geometry": {"type": "Point", "coordinates": [-82.0189464757, 41.493698417]}, "type": "Feature", "properties": {"collection_times": [{"days": "Mon-Fri", "time": "2:30pm"}, {"days": "Sat", "time": "10:30am"}, {"days": "Sun", "time": "Closed"}], "id": "4401200001", "name": "USPS COLLECTION BOX - BLUE BOX", "address": {"city": "AVON LAKE", "state": "OH", "street": "453 AVON BELDEN RD", "postcode": "44012"}}},
{"geometry": {"type": "Point", "coordinates": [-82.0445551714, 41.4933198701]}, "type": "Feature", "properties": {"collection_times": [{"days": "Mon-Fri", "time": "2:30pm"}, {"days": "Sat", "time": "10:00am"}, {"days": "Sun", "time": "Closed"}], "id": "4401200002", "name": "USPS COLLECTION BOX - BLUE BOX", "address": {"city": "AVON LAKE", "state": "OH", "street": "33382 WALKER RD", "postcode": "44012"}}},
{"geometry": {"type": "Point", "coordinates": [-81.9884699039, 41.509091079]}, "type": "Feature", "properties": {"collection_times": [{"days": "Mon-Fri", "time": "2:15pm"}, {"days": "Sat", "time": "1:00pm"}, {"days": "Sun", "time": "Closed"}], "id": "4401200004", "name": "USPS COLLECTION BOX - BLUE BOX", "address": {"city": "AVON LAKE", "state": "OH", "street": "32085 ELECTRIC BLVD", "postcode": "44012"}}},
{"geometry": {"type": "Point", "coordinates": [-82.0256988055, 41.5028710808]}, "type": "Feature", "properties": {"collection_times": [{"days": "Mon-Fri", "time": "2:15pm"}, {"days": "Sat", "time": "9:00am"}, {"days": "Sun", "time": "Closed"}], "id": "4401200005", "name": "USPS COLLECTION BOX - BLUE BOX", "address": {"city": "AVON LAKE", "state": "OH", "street": "254 BERKSHIRE RD", "postcode": "44012"}}},
{"geometry": {"type": "Point", "coordinates": [-82.0131582575, 41.5103260882]}, "type": "Feature", "properties": {"collection_times": [{"days": "Mon-Fri", "time": "2:15pm"}, {"days": "Sat", "time": "9:00am"}, {"days": "Sun", "time": "Closed"}], "id": "4401200010", "name": "USPS COLLECTION BOX - BLUE BOX", "address": {"city": "AVON LAKE", "state": "OH", "street": "32649 ELECTRIC BLVD", "postcode": "44012"}}},
{"geometry": {"type": "Point", "coordinates": [-82.0186598907, 41.5099624718]}, "type": "Feature", "properties": {"collection_times": [{"days": "Mon-Fri", "time": "2:15pm"}, {"days": "Sat", "time": "9:15am"}, {"days": "Sun", "time": "Closed"}], "id": "4401200011", "name": "USPS COLLECTION BOX - BLUE BOX", "address": {"city": "AVON LAKE", "state": "OH", "street": "150 AVON BELDEN RD", "postcode": "44012"}}},
{"geometry": {"type": "Point", "coordinates": [-82.0505847132, 41.5042622405]}, "type": "Feature", "properties": {"collection_times": [{"days": "Mon-Fri", "time": "5:00pm"}, {"days": "Sat", "time": "3:55pm"}, {"days": "Sun", "time": "Closed"}], "id": "4401200012", "name": "USPS COLLECTION BOX - PO LOBBY", "address": {"city": "AVON LAKE", "state": "OH", "street": "33501 LAKE RD", "postcode": "44012"}}},
{"geometry": {"type": "Point", "coordinates": [-82.0505847132, 41.5042622405]}, "type": "Feature", "properties": {"collection_times": [{"days": "Mon-Fri", "time": "5:00pm"}, {"days": "Sat", "time": "3:55pm"}, {"days": "Sun", "time": "Closed"}], "id": "4401200014", "name": "USPS COLLECTION BOX - BLUE BOX", "address": {"city": "AVON LAKE", "state": "OH", "street": "33501 LAKE RD", "postcode": "44012"}}},
{"geometry": {"type": "Point", "coordinates": [-82.0505847132, 41.5042622405]}, "type": "Feature", "properties": {"collection_times": [{"days": "Mon-Fri", "time": "5:00pm"}, {"days": "Sat", "time": "3:55pm"}, {"days": "Sun", "time": "Closed"}], "id": "4401200015", "name": "USPS COLLECTION BOX - BLUE BOX", "address": {"city": "AVON LAKE", "state": "OH", "street": "33501 LAKE RD", "postcode": "44012"}}},
{"geometry": {"type": "Point", "coordinates": [-82.0505847132, 41.5042622405]}, "type": "Feature", "properties": {"collection_times": [{"days": "Mon-Fri", "time": "5:00pm"}, {"days": "Sat", "time": "3:55pm"}, {"days": "Sun", "time": "Closed"}], "id": "4401200017", "name": "USPS COLLECTION BOX - BLUE BOX", "address": {"city": "AVON LAKE", "state": "OH", "street": "33501 LAKE RD", "postcode": "44012"}}},
{"geometry": {"type": "Point", "coordinates": [-82.0221302146, 41.4932365306]}, "type": "Feature", "properties": {"collection_times": [{"days": "Mon-Fri", "time": "2:30pm"}, {"days": "Sat", "time": "11:00am"}, {"days": "Sun", "time": "Closed"}], "id": "4401200024", "name": "USPS COLLECTION BOX - BLUE BOX", "address": {"city": "AVON LAKE", "state": "OH", "street": "32844 WALKER RD", "postcode": "44012"}}},
{"geometry": {"type": "Point", "coordinates": [-82.0505847132, 41.5042622405]}, "type": "Feature", "properties": {"collection_times": [{"days": "Mon-Fri", "time": "5:00pm"}, {"days": "Sat", "time": "3:55pm"}, {"days": "Sun", "time": "Closed"}], "id": "4401200025", "name": "USPS COLLECTION BOX - BLUE BOX", "address": {"city": "AVON LAKE", "state": "OH", "street": "33501 LAKE RD", "postcode": "44012"}}},
{"geometry": {"type": "Point", "coordinates": [-81.8516133812, 41.3670011459]}, "type": "Feature", "properties": {"collection_times": [{"days": "Mon-Fri", "time": "5:00pm"}, {"days": "Sat", "time": "3:45pm"}, {"days": "Sun", "time": "Closed"}], "id": "4401700000", "name": "USPS COLLECTION BOX - PO LOBBY", "address": {"city": "BEREA", "state": "OH", "street": "24 SEMINARY ST", "postcode": "44017"}}},
{"geometry": {"type": "Point", "coordinates": [-81.8516133812, 41.3670011459]}, "type": "Feature", "properties": {"collection_times": [{"days": "Mon-Fri", "time": "5:00pm"}, {"days": "Sat", "time": "3:45pm"}, {"days": "Sun", "time": "Closed"}], "id": "4401700001", "name": "USPS COLLECTION BOX - PO LOBBY", "address": {"city": "BEREA", "state": "OH", "street": "24 SEMINARY ST", "postcode": "44017"}}},
{"geometry": {"type": "Point", "coordinates": [-81.8642284556, 41.3582129438]}, "type": "Feature", "properties": {"collection_times": [{"days": "Mon-Fri", "time": "2:30pm"}, {"days": "Sat", "time": "3:45pm"}, {"days": "Sun", "time": "Closed"}], "id": "4401700012", "name": "USPS COLLECTION BOX - BLUE BOX", "address": {"city": "BEREA", "state": "OH", "street": "520 FAIR ST", "postcode": "44017"}}},
{"geometry": {"type": "Point", "coordinates": [-81.8516133812, 41.3670011459]}, "type": "Feature", "properties": {"collection_times": [{"days": "Mon-Fri", "time": "5:00pm"}, {"days": "Sat", "time": "3:45pm"}, {"days": "Sun", "time": "Closed"}], "id": "4401700020", "name": "USPS COLLECTION BOX - BLUE BOX", "address": {"city": "BEREA", "state": "OH", "street": "24 SEMINARY ST", "postcode": "44017"}}},
{"geometry": {"type": "Point", "coordinates": [-81.8516133812, 41.3670011459]}, "type": "Feature", "properties": {"collection_times": [{"days": "Mon-Fri", "time": "4:45pm"}, {"days": "Sat", "time": "3:45pm"}, {"days": "Sun", "time": "Closed"}], "id": "4401700022", "name": "USPS COLLECTION BOX - BLUE BOX", "address": {"city": "BEREA", "state": "OH", "street": "24 SEMINARY ST", "postcode": "44017"}}},
{"geometry": {"type": "Point", "coordinates": [-81.8536492537, 41.3657885627]}, "type": "Feature", "properties": {"collection_times": [{"days": "Mon-Fri", "time": "2:15pm"}, {"days": "Sat", "time": "3:30pm"}, {"days": "Sun", "time": "Closed"}], "id": "4401700028", "name": "USPS COLLECTION BOX - BLUE BOX", "address": {"city": "BEREA", "state": "OH", "street": "11 BEREA COMMONS", "postcode": "44017"}}},
{"geometry": {"type": "Point", "coordinates": [-81.8660028941, 41.3722037994]}, "type": "Feature", "properties": {"collection_times": [{"days": "Mon-Fri", "time": "2:15pm"}, {"days": "Sat", "time": "3:30pm"}, {"days": "Sun", "time": "Closed"}], "id": "4401700029", "name": "USPS COLLECTION BOX - BLUE BOX", "address": {"city": "BEREA", "state": "OH", "street": "343 W BAGLEY RD", "postcode": "44017"}}},
{"geometry": {"type": "Point", "coordinates": [-81.8691140762, 41.3722073483]}, "type": "Feature", "properties": {"collection_times": [{"days": "Mon-Fri", "time": "2:15pm"}, {"days": "Sat", "time": "3:30pm"}, {"days": "Sun", "time": "Closed"}], "id": "4401700030", "name": "USPS COLLECTION BOX - BLUE BOX", "address": {"city": "BEREA", "state": "OH", "street": "371 W BAGLEY RD", "postcode": "44017"}}},
{"geometry": {"type": "Point", "coordinates": [-81.8551144569, 41.3727117274]}, "type": "Feature", "properties": {"collection_times": [{"days": "Mon-Fri", "time": "2:15pm"}, {"days": "Sat", "time": "3:30pm"}, {"days": "Sun", "time": "Closed"}], "id": "4401700031", "name": "USPS COLLECTION BOX - BLUE BOX", "address": {"city": "BEREA", "state": "OH", "street": "55 W BAGLEY RD", "postcode": "44017"}}},
{"geometry": {"type": "Point", "coordinates": [-81.8552890961, 41.3665820665]}, "type": "Feature", "properties": {"collection_times": [{"days": "Mon-Fri", "time": "2:30pm"}, {"days": "Sat", "time": "3:45pm"}, {"days": "Sun", "time": "Closed"}], "id": "4401700032", "name": "USPS COLLECTION BOX - BLUE BOX", "address": {"city": "BEREA", "state": "OH", "street": "40 W BRIDGE ST", "postcode": "44017"}}},
{"geometry": {"type": "Point", "coordinates": [-81.881745712, 41.3596975573]}, "type": "Feature", "properties": {"collection_times": [{"days": "Mon-Sat", "time": "1:15pm"}, {"days": "Sun", "time": "Closed"}], "id": "4401700033", "name": "USPS COLLECTION BOX - BLUE BOX", "address": {"city": "BEREA", "state": "OH", "street": "609 WYLESWOOD DR", "postcode": "44017"}}},
{"geometry": {"type": "Point", "coordinates": [-81.8538628318, 41.3658962747]}, "type": "Feature", "properties": {"collection_times": [{"days": "Mon-Fri", "time": "2:15pm"}, {"days": "Sat", "time": "3:30pm"}, {"days": "Sun", "time": "Closed"}], "id": "4401700037", "name": "USPS COLLECTION BOX - BLUE BOX", "address": {"city": "BEREA", "state": "OH", "street": "2 BEREA COMMONS", "postcode": "44017"}}},
{"geometry": {"type": "Point", "coordinates": [-81.8701326038, 41.3767534596]}, "type": "Feature", "properties": {"collection_times": [{"days": "Mon-Fri", "time": "2:15pm"}, {"days": "Sat", "time": "3:30pm"}, {"days": "Sun", "time": "Closed"}], "id": "4401700043", "name": "USPS COLLECTION BOX - BLUE BOX", "address": {"city": "BEREA", "state": "OH", "street": "252 BUCKEYE DR", "postcode": "44017"}}},
{"geometry": {"type": "Point", "coordinates": [-81.1451337259, 41.4735739191]}, "type": "Feature", "properties": {"collection_times": [{"days": "Mon-Fri", "time": "4:00pm"}, {"days": "Sat", "time": "12:30pm"}, {"days": "Sun", "time": "Closed"}], "id": "4402100000", "name": "USPS COLLECTION BOX - PO LOBBY", "address": {"city": "BURTON", "state": "OH", "street": "14519 MAIN ST", "postcode": "44021"}}},
{"geometry": {"type": "Point", "coordinates": [-81.1451337259, 41.4735739191]}, "type": "Feature", "properties": {"collection_times": [{"days": "Mon-Fri", "time": "4:00pm"}, {"days": "Sat", "time": "12:30pm"}, {"days": "Sun", "time": "Closed"}], "id": "4402100001", "name": "USPS COLLECTION BOX - BLUE BOX", "address": {"city": "BURTON", "state": "OH", "street": "14519 MAIN ST", "postcode": "44021"}}},
{"geometry": {"type": "Point", "coordinates": [-81.1451337259, 41.4735739191]}, "type": "Feature", "properties": {"collection_times": [{"days": "Mon-Fri", "time": "4:00pm"}, {"days": "Sat", "time": "12:30pm"}, {"days": "Sun", "time": "Closed"}], "id": "4402100002", "name": "USPS COLLECTION BOX - BLUE BOX", "address": {"city": "BURTON", "state": "OH", "street": "14519 MAIN ST", "postcode": "44021"}}},
{"geometry": {"type": "Point", "coordinates": [-81.3861193587, 41.4300080891]}, "type": "Feature", "properties": {"collection_times": [{"days": "Mon-Fri", "time": "5:00pm"}, {"days": "Sat", "time": "3:00pm"}, {"days": "Sun", "time": "Closed"}], "id": "4402200000", "name": "USPS COLLECTION BOX - PO LOBBY", "address": {"city": "CHAGRIN FALLS", "state": "OH", "street": "160 E WASHINGTON ST", "postcode": "44022"}}},
{"geometry": {"type": "Point", "coordinates": [-81.3861193587, 41.4300080891]}, "type": "Feature", "properties": {"collection_times": [{"days": "Mon-Fri", "time": "5:00pm"}, {"days": "Sat", "time": "3:00pm"}, {"days": "Sun", "time": "Closed"}], "id": "4402200001", "name": "USPS COLLECTION BOX - BLUE BOX", "address": {"city": "CHAGRIN FALLS", "state": "OH", "street": "160 E WASHINGTON ST", "postcode": "44022"}}},
{"geometry": {"type": "Point", "coordinates": [-81.3857398469, 41.4300527852]}, "type": "Feature", "properties": {"collection_times": [{"days": "Mon-Fri", "time": "5:00pm"}, {"days": "Sat", "time": "3:00pm"}, {"days": "Sun", "time": "Closed"}], "id": "4402200002", "name": "USPS COLLECTION BOX - BLUE BOX", "address": {"city": "CHAGRIN FALLS", "state": "OH", "street": "160 E WASHINGTON ST", "postcode": "44022"}}},
{"geometry": {"type": "Point", "coordinates": [-81.3906156185, 41.4330018438]}, "type": "Feature", "properties": {"collection_times": [{"days": "Mon-Sat", "time": "10:00am"}, {"days": "Sun", "time": "Closed"}], "id": "4402200013", "name": "USPS COLLECTION BOX - BLUE BOX", "address": {"city": "CHAGRIN FALLS", "state": "OH", "street": "100 E ORANGE ST", "postcode": "44022"}}},
{"geometry": {"type": "Point", "coordinates": [-81.3894916445, 41.4273036621]}, "type": "Feature", "properties": {"collection_times": [{"days": "Mon-Sat", "time": "9:00am"}, {"days": "Sun", "time": "Closed"}], "id": "4402200019", "name": "USPS COLLECTION BOX - BLUE BOX", "address": {"city": "CHAGRIN FALLS", "state": "OH", "street": "100 N MAIN ST", "postcode": "44022"}}},
{"geometry": {"type": "Point", "coordinates": [-81.3927996535, 41.4314769018]}, "type": "Feature", "properties": {"collection_times": [{"days": "Mon-Sat", "time": "10:00am"}, {"days": "Sun", "time": "Closed"}], "id": "4402200020", "name": "USPS COLLECTION BOX - BLUE BOX", "address": {"city": "CHAGRIN FALLS", "state": "OH", "street": "17 RIVER ST", "postcode": "44022"}}},
{"geometry": {"type": "Point", "coordinates": [-81.3924987262, 41.4297665827]}, "type": "Feature", "properties": {"collection_times": [{"days": "Mon-Sat", "time": "10:00am"}, {"days": "Sun", "time": "Closed"}], "id": "4402200025", "name": "USPS COLLECTION BOX - BLUE BOX", "address": {"city": "CHAGRIN FALLS", "state": "OH", "street": "21 W WASHINGTON ST", "postcode": "44022"}}},
{"geometry": {"type": "Point", "coordinates": [-81.3916931312, 41.4306194961]}, "type": "Feature", "properties": {"collection_times": [{"days": "Mon-Sat", "time": "10:00am"}, {"days": "Sun", "time": "Closed"}], "id": "4402200028", "name": "USPS COLLECTION BOX - BLUE BOX", "address": {"city": "CHAGRIN FALLS", "state": "OH", "street": "29 N FRANKLIN ST", "postcode": "44022"}}},
{"geometry": {"type": "Point", "coordinates": [-81.3381181026, 41.4307046691]}, "type": "Feature", "properties": {"collection_times": [{"days": "Mon-Sat", "time": "10:30am"}, {"days": "Sun", "time": "Closed"}], "id": "4402200032", "name": "USPS COLLECTION BOX - BLUE BOX", "address": {"city": "CHAGRIN FALLS", "state": "OH", "street": "5210 CHILLICOTHE RD", "postcode": "44022"}}},
{"geometry": {"type": "Point", "coordinates": [-81.3921538475, 41.4307612642]}, "type": "Feature", "properties": {"collection_times": [{"days": "Mon-Sat", "time": "10:00am"}, {"days": "Sun", "time": "Closed"}], "id": "4402200033", "name": "USPS COLLECTION BOX - BLUE BOX", "address": {"city": "CHAGRIN FALLS", "state": "OH", "street": "46 SHOPPING PLZ", "postcode": "44022"}}},
{"geometry": {"type": "Point", "coordinates": [-81.3851915887, 41.4220844472]}, "type": "Feature", "properties": {"collection_times": [{"days": "Mon-Sat", "time": "10:15am"}, {"days": "Sun", "time": "Closed"}], "id": "4402200034", "name": "USPS COLLECTION BOX - BLUE BOX", "address": {"city": "CHAGRIN FALLS", "state": "OH", "street": "7205 CHAGRIN RD", "postcode": "44022"}}},
{"geometry": {"type": "Point", "coordinates": [-81.391121762, 41.4299168185]}, "type": "Feature", "properties": {"collection_times": [{"days": "Mon-Sat", "time": "10:00am"}, {"days": "Sun", "time": "Closed"}], "id": "4402200036", "name": "USPS COLLECTION BOX - BLUE BOX", "address": {"city": "CHAGRIN FALLS", "state": "OH", "street": "4 N MAIN ST", "postcode": "44022"}}},
{"geometry": {"type": "Point", "coordinates": [-81.3861193587, 41.4300080891]}, "type": "Feature", "properties": {"collection_times": [{"days": "Mon-Fri", "time": "5:00pm"}, {"days": "Sat", "time": "3:00pm"}, {"days": "Sun", "time": "Closed"}], "id": "4402200039", "name": "USPS COLLECTION BOX - PO LOBBY", "address": {"city": "CHAGRIN FALLS", "state": "OH", "street": "160 E WASHINGTON ST", "postcode": "44022"}}},
{"geometry": {"type": "Point", "coordinates": [-81.4110483791, 41.4396333234]}, "type": "Feature", "properties": {"collection_times": [{"days": "Mon-Sat", "time": "2:00pm"}, {"days": "Sun", "time": "Closed"}], "id": "4402200041", "name": "USPS COLLECTION BOX - BLUE BOX", "address": {"city": "CHAGRIN FALLS", "state": "OH", "street": "38251 FAIRMOUNT BLVD", "postcode": "44022"}}},
{"geometry": {"type": "Point", "coordinates": [-81.2957324917, 41.395160431]}, "type": "Feature", "properties": {"collection_times": [{"days": "Mon-Sat", "time": "1:00pm"}, {"days": "Sun", "time": "Closed"}], "id": "4402300000", "name": "USPS COLLECTION BOX - BLUE BOX", "address": {"city": "CHAGRIN FALLS", "state": "OH", "street": "9750 E WASHINGTON ST", "postcode": "44023"}}},
{"geometry": {"type": "Point", "coordinates": [-81.3396139862, 41.4124659807]}, "type": "Feature", "properties": {"collection_times": [{"days": "Mon-Sat", "time": "10:30am"}, {"days": "Sun", "time": "Closed"}], "id": "4402300002", "name": "USPS COLLECTION BOX - BLUE BOX", "address": {"city": "CHAGRIN FALLS", "state": "OH", "street": "8482 E WASHINGTON ST", "postcode": "44023"}}},
{"geometry": {"type": "Point", "coordinates": [-81.3386724249, 41.3910911344]}, "type": "Feature", "properties": {"collection_times": [{"days": "Mon-Sat", "time": "10:30am"}, {"days": "Sun", "time": "Closed"}], "id": "4402300003", "name": "USPS COLLECTION BOX - BLUE BOX", "address": {"city": "CHAGRIN FALLS", "state": "OH", "street": "8505 TANGLEWOOD SQ", "postcode": "44023"}}},
{"geometry": {"type": "Point", "coordinates": [-81.3393389162, 41.3865578235]}, "type": "Feature", "properties": {"collection_times": [{"days": "Mon-Sat", "time": "10:30am"}, {"days": "Sun", "time": "Closed"}], "id": "4402300004", "name": "USPS COLLECTION BOX - BLUE BOX", "address": {"city": "CHAGRIN FALLS", "state": "OH", "street": "17747 CHILLOCOTHE RD", "postcode": "44023"}}},
{"geometry": {"type": "Point", "coordinates": [-81.3394075279, 41.3851169795]}, "type": "Feature", "properties": {"collection_times": [{"days": "Mon-Sat", "time": "10:30am"}, {"days": "Sun", "time": "Closed"}], "id": "4402300005", "name": "USPS COLLECTION BOX - BLUE BOX", "address": {"city": "CHAGRIN FALLS", "state": "OH", "street": "17800 CHILLOCOTHE RD", "postcode": "44023"}}},
{"geometry": {"type": "Point", "coordinates": [-81.338012424, 41.4128660712]}, "type": "Feature", "properties": {"collection_times": [{"days": "Mon-Sat", "time": "10:30am"}, {"days": "Sun", "time": "Closed"}], "id": "4402300012", "name": "USPS COLLECTION BOX - BLUE BOX", "address": {"city": "CHAGRIN FALLS", "state": "OH", "street": "16765 CHILLICOTHE RD", "postcode": "44023"}}},
{"geometry": {"type": "Point", "coordinates": [-81.3144675968, 41.3880928682]}, "type": "Feature", "properties": {"collection_times": [{"days": "Mon-Sat", "time": "10:30am"}, {"days": "Sun", "time": "Closed"}], "id": "4402300023", "name": "USPS COLLECTION BOX - BLUE BOX", "address": {"city": "CHAGRIN FALLS", "state": "OH", "street": "8221 WASHINGTON ST", "postcode": "44023"}}},
{"geometry": {"type": "Point", "coordinates": [-81.2070793721, 41.5833879998]}, "type": "Feature", "properties": {"collection_times": [{"days": "Mon-Fri", "time": "5:00pm"}, {"days": "Sat", "time": "4:00pm"}, {"days": "Sun", "time": "Closed"}], "id": "4402400000", "name": "USPS COLLECTION BOX - PO LOBBY", "address": {"city": "CHARDON", "state": "OH", "street": "150 CENTER ST", "postcode": "44024"}}},
{"geometry": {"type": "Point", "coordinates": [-81.2070793721, 41.5833879998]}, "type": "Feature", "properties": {"collection_times": [{"days": "Mon-Fri", "time": "5:00pm"}, {"days": "Sat", "time": "4:00pm"}, {"days": "Sun", "time": "Closed"}], "id": "4402400001", "name": "USPS COLLECTION BOX - BLUE BOX", "address": {"city": "CHARDON", "state": "OH", "street": "150 CENTER ST", "postcode": "44024"}}},
{"geometry": {"type": "Point", "coordinates": [-81.2112694128, 41.5808943223]}, "type": "Feature", "properties": {"collection_times": [{"days": "Mon-Sat", "time": "10:00am"}, {"days": "Sun", "time": "Closed"}], "id": "4402400006", "name": "USPS COLLECTION BOX - BLUE BOX", "address": {"city": "CHARDON", "state": "OH", "street": "425 WATER ST", "postcode": "44024"}}},
{"geometry": {"type": "Point", "coordinates": [-81.2028585745, 41.5819814616]}, "type": "Feature", "properties": {"collection_times": [{"days": "Mon-Sat", "time": "11:00am"}, {"days": "Sun", "time": "Closed"}], "id": "4402400011", "name": "USPS COLLECTION BOX - BLUE BOX", "address": {"city": "CHARDON", "state": "OH", "street": "112 E PARK ST", "postcode": "44024"}}},
{"geometry": {"type": "Point", "coordinates": [-81.2139026794, 41.5808564676]}, "type": "Feature", "properties": {"collection_times": [{"days": "Mon-Sat", "time": "10:30am"}, {"days": "Sun", "time": "Closed"}], "id": "4402400020", "name": "USPS COLLECTION BOX - BLUE BOX", "address": {"city": "CHARDON", "state": "OH", "street": "501 WATER ST", "postcode": "44024"}}},
{"geometry": {"type": "Point", "coordinates": [-81.2038049417, 41.5822216023]}, "type": "Feature", "properties": {"collection_times": [{"days": "Mon-Sat", "time": "3:00pm"}, {"days": "Sun", "time": "Closed"}], "id": "4402400023", "name": "USPS COLLECTION BOX - BLUE BOX", "address": {"city": "CHARDON", "state": "OH", "street": "201 MAIN ST", "postcode": "44024"}}},
{"geometry": {"type": "Point", "coordinates": [-81.2038049417, 41.5822216023]}, "type": "Feature", "properties": {"collection_times": [{"days": "Mon-Sat", "time": "3:00pm"}, {"days": "Sun", "time": "Closed"}], "id": "4402400024", "name": "USPS COLLECTION BOX - BLUE BOX", "address": {"city": "CHARDON", "state": "OH", "street": "201 MAIN ST", "postcode": "44024"}}},
{"geometry": {"type": "Point", "coordinates": [-81.2033613321, 41.5710674822]}, "type": "Feature", "properties": {"collection_times": [{"days": "Mon-Sat", "time": "1:00pm"}, {"days": "Sun", "time": "Closed"}], "id": "4402400025", "name": "USPS COLLECTION BOX - BLUE BOX", "address": {"city": "CHARDON", "state": "OH", "street": "401 SOUTH ST", "postcode": "44024"}}},
{"geometry": {"type": "Point", "coordinates": [-81.2157901816, 41.5849178514]}, "type": "Feature", "properties": {"collection_times": [{"days": "Mon-Sat", "time": "10:00am"}, {"days": "Sun", "time": "Closed"}], "id": "4402400033", "name": "USPS COLLECTION BOX - BLUE BOX", "address": {"city": "CHARDON", "state": "OH", "street": "351 CENTER ST", "postcode": "44024"}}},
{"geometry": {"type": "Point", "coordinates": [-81.3381417618, 41.5201966978]}, "type": "Feature", "properties": {"collection_times": [{"days": "Mon-Fri", "time": "5:00pm"}, {"days": "Sat", "time": "3:00pm"}, {"days": "Sun", "time": "Closed"}], "id": "4402600000", "name": "USPS COLLECTION BOX - PO LOBBY", "address": {"city": "CHESTERLAND", "state": "OH", "street": "12804 CHILLICOTHE RD", "postcode": "44026"}}},
{"geometry": {"type": "Point", "coordinates": [-81.3381417618, 41.5201966978]}, "type": "Feature", "properties": {"collection_times": [{"days": "Mon-Fri", "time": "5:00pm"}, {"days": "Sat", "time": "3:00pm"}, {"days": "Sun", "time": "Closed"}], "id": "4402600002", "name": "USPS COLLECTION BOX - BLUE BOX", "address": {"city": "CHESTERLAND", "state": "OH", "street": "12804 CHILLICOTHE RD", "postcode": "44026"}}},
{"geometry": {"type": "Point", "coordinates": [-81.343008455, 41.522208911]}, "type": "Feature", "properties": {"collection_times": [{"days": "Mon-Sat", "time": "2:30pm"}, {"days": "Sun", "time": "Closed"}], "id": "4402600005", "name": "USPS COLLECTION BOX - BLUE BOX", "address": {"city": "CHESTERLAND", "state": "OH", "street": "8389 MAYFIELD RD", "postcode": "44026"}}},
{"geometry": {"type": "Point", "coordinates": [-81.3402497946, 41.5221757881]}, "type": "Feature", "properties": {"collection_times": [{"days": "Mon-Sat", "time": "12:00pm"}, {"days": "Sun", "time": "Closed"}], "id": "4402600006", "name": "USPS COLLECTION BOX - BLUE BOX", "address": {"city": "CHESTERLAND", "state": "OH", "street": "8440 MAYFIELD RD", "postcode": "44026"}}},
{"geometry": {"type": "Point", "coordinates": [-81.3378245353, 41.5271287837]}, "type": "Feature", "properties": {"collection_times": [{"days": "Mon-Sat", "time": "11:00am"}, {"days": "Sun", "time": "Closed"}], "id": "4402600007", "name": "USPS COLLECTION BOX - BLUE BOX", "address": {"city": "CHESTERLAND", "state": "OH", "street": "12575 CHILLICOTHE RD", "postcode": "44026"}}},
{"geometry": {"type": "Point", "coordinates": [-81.3393470983, 41.5314823947]}, "type": "Feature", "properties": {"collection_times": [{"days": "Mon-Sat", "time": "11:30am"}, {"days": "Sun", "time": "Closed"}], "id": "4402600008", "name": "USPS COLLECTION BOX - BLUE BOX", "address": {"city": "CHESTERLAND", "state": "OH", "street": "12650 CHILLICOTHE RD", "postcode": "44026"}}},
{"geometry": {"type": "Point", "coordinates": [-81.3381417618, 41.5201966978]}, "type": "Feature", "properties": {"collection_times": [{"days": "Mon-Fri", "time": "5:00pm"}, {"days": "Sat", "time": "3:00pm"}, {"days": "Sun", "time": "Closed"}], "id": "4402600013", "name": "USPS COLLECTION BOX - PO LOBBY", "address": {"city": "CHESTERLAND", "state": "OH", "street": "12804 CHILLICOTHE RD", "postcode": "44026"}}},
{"geometry": {"type": "Point", "coordinates": [-81.338104, 41.5206]}, "type": "Feature", "properties": {"collection_times": [{"days": "Mon-Fri", "time": "5:00pm"}, {"days": "Sat", "time": "3:00pm"}, {"days": "Sun", "time": "Closed"}], "id": "4402600014", "name": "USPS COLLECTION BOX - PO LOBBY", "address": {"city": "CHESTERLAND", "state": "OH", "street": "12804 CHILLICOTHE RD", "postcode": "44026"}}},
{"geometry": {"type": "Point", "coordinates": [-81.9450470292, 41.3129931544]}, "type": "Feature", "properties": {"collection_times": [{"days": "Mon-Fri", "time": "5:00pm"}, {"days": "Sat", "time": "12:00pm"}, {"days": "Sun", "time": "Closed"}], "id": "4402800002", "name": "USPS COLLECTION BOX - BLUE BOX", "address": {"city": "COLUMBIA STA", "state": "OH", "street": "26535 ROYALTON RD", "postcode": "44028"}}},
{"geometry": {"type": "Point", "coordinates": [-81.9450470292, 41.3129931544]}, "type": "Feature", "properties": {"collection_times": [{"days": "Mon-Fri", "time": "5:00pm"}, {"days": "Sat", "time": "12:00pm"}, {"days": "Sun", "time": "Closed"}], "id": "4402800003", "name": "USPS COLLECTION BOX - PO LOBBY", "address": {"city": "COLUMBIA STA", "state": "OH", "street": "26535 ROYALTON RD", "postcode": "44028"}}},
{"geometry": {"type": "Point", "coordinates": [-81.9450470292, 41.3129931544]}, "type": "Feature", "properties": {"collection_times": [{"days": "Mon-Fri", "time": "5:00pm"}, {"days": "Sat", "time": "12:00pm"}, {"days": "Sun", "time": "Closed"}], "id": "4402800004", "name": "USPS COLLECTION BOX - PO LOBBY", "address": {"city": "COLUMBIA STA", "state": "OH", "street": "26535 ROYALTON RD", "postcode": "44028"}}},
{"geometry": {"type": "Point", "coordinates": [-80.5865080445, 41.9369754294]}, "type": "Feature", "properties": {"collection_times": [{"days": "Mon-Sat", "time": "9:30am"}, {"days": "Sun", "time": "Closed"}], "id": "4403000036", "name": "USPS COLLECTION BOX - BLUE BOX", "address": {"city": "CONNEAUT", "state": "OH", "street": "158 W MAIN RD", "postcode": "44030"}}},
{"geometry": {"type": "Point", "coordinates": [-80.6052572827, 41.9311215211]}, "type": "Feature", "properties": {"collection_times": [{"days": "Mon-Sat", "time": "9:30am"}, {"days": "Sun", "time": "Closed"}], "id": "4403000037", "name": "USPS COLLECTION BOX - BLUE BOX", "address": {"city": "CONNEAUT", "state": "OH", "street": "370 W MAIN RD", "postcode": "44030"}}},
{"geometry": {"type": "Point", "coordinates": [-80.5821567128, 41.9562720648]}, "type": "Feature", "properties": {"collection_times": [{"days": "Mon-Sat", "time": "1:30pm"}, {"days": "Sun", "time": "Closed"}], "id": "4403000038", "name": "USPS COLLECTION BOX - BLUE BOX", "address": {"city": "CONNEAUT", "state": "OH", "street": "1033 LAKE RD", "postcode": "44030"}}},
{"geometry": {"type": "Point", "coordinates": [-80.5561174198, 41.9441228891]}, "type": "Feature", "properties": {"collection_times": [{"days": "Mon-Sat", "time": "5:00pm"}, {"days": "Sun", "time": "Closed"}], "id": "4403000039", "name": "USPS COLLECTION BOX - BLUE BOX", "address": {"city": "CONNEAUT", "state": "OH", "street": "268 STATE ST", "postcode": "44030"}}},
{"geometry": {"type": "Point", "coordinates": [-80.557308702, 41.9421927727]}, "type": "Feature", "properties": {"collection_times": [{"days": "Mon-Sat", "time": "9:30am"}, {"days": "Sun", "time": "Closed"}], "id": "4403000043", "name": "USPS COLLECTION BOX - BLUE BOX", "address": {"city": "CONNEAUT", "state": "OH", "street": "175 BUFFALO ST", "postcode": "44030"}}},
{"geometry": {"type": "Point", "coordinates": [-80.5561174198, 41.9441228891]}, "type": "Feature", "properties": {"collection_times": [{"days": "Mon-Sat", "time": "5:00pm"}, {"days": "Sun", "time": "Closed"}], "id": "4403000045", "name": "USPS COLLECTION BOX - PO LOBBY", "address": {"city": "CONNEAUT", "state": "OH", "street": "268 STATE ST", "postcode": "44030"}}},
{"geometry": {"type": "Point", "coordinates": [-80.5561174198, 41.9441228891]}, "type": "Feature", "properties": {"collection_times": [{"days": "Mon-Sat", "time": "5:00pm"}, {"days": "Sun", "time": "Closed"}], "id": "4403000047", "name": "USPS COLLECTION BOX - PO LOBBY", "address": {"city": "CONNEAUT", "state": "OH", "street": "268 STATE ST", "postcode": "44030"}}},
{"geometry": {"type": "Point", "coordinates": [-80.5533750018, 41.9639866671]}, "type": "Feature", "properties": {"collection_times": [{"days": "Mon-Sat", "time": "9:45am"}, {"days": "Sun", "time": "Closed"}], "id": "4403000049", "name": "USPS COLLECTION BOX - BLUE BOX", "address": {"city": "CONNEAUT", "state": "OH", "street": "985 BROAD ST", "postcode": "44030"}}},
{"geometry": {"type": "Point", "coordinates": [-80.5678369202, 41.8906405154]}, "type": "Feature", "properties": {"collection_times": [{"days": "Mon-Sat", "time": "9:00am"}, {"days": "Sun", "time": "Closed"}], "id": "4403000050", "name": "USPS COLLECTION BOX - BLUE BOX", "address": {"city": "CONNEAUT", "state": "OH", "street": "2 LOVES DR", "postcode": "44030"}}},
{"geometry": {"type": "Point", "coordinates": [-80.6675442349, 41.6868139344]}, "type": "Feature", "properties": {"collection_times": [{"days": "Mon-Fri", "time": "4:30pm"}, {"days": "Sat", "time": "11:15am"}, {"days": "Sun", "time": "Closed"}], "id": "4403200000", "name": "USPS COLLECTION BOX - PO LOBBY", "address": {"city": "DORSET", "state": "OH", "street": "2477 STATE ROUTE 193", "postcode": "44032"}}},
{"geometry": {"type": "Point", "coordinates": [-80.6675442349, 41.6868139344]}, "type": "Feature", "properties": {"collection_times": [{"days": "Mon-Fri", "time": "4:30pm"}, {"days": "Sat", "time": "11:15am"}, {"days": "Sun", "time": "Closed"}], "id": "4403200002", "name": "USPS COLLECTION BOX - BLUE BOX", "address": {"city": "DORSET", "state": "OH", "street": "2477 STATE ROUTE 193", "postcode": "44032"}}},
{"geometry": {"type": "Point", "coordinates": [-81.1148434124, 41.5326595237]}, "type": "Feature", "properties": {"collection_times": [{"days": "Mon-Fri", "time": "4:00pm"}, {"days": "Sat", "time": "11:00am"}, {"days": "Sun", "time": "Closed"}], "id": "4403300000", "name": "USPS COLLECTION BOX - PO LOBBY", "address": {"city": "EAST CLARIDON", "state": "OH", "street": "12442 OLD STATE RD", "postcode": "44033"}}},
{"geometry": {"type": "Point", "coordinates": [-81.1148434124, 41.5326595237]}, "type": "Feature", "properties": {"collection_times": [{"days": "Mon-Fri", "time": "4:00pm"}, {"days": "Sat", "time": "11:00am"}, {"days": "Sun", "time": "Closed"}], "id": "4403300001", "name": "USPS COLLECTION BOX - BLUE BOX", "address": {"city": "EAST CLARIDON", "state": "OH", "street": "12442 OLD STATE RD", "postcode": "44033"}}},
{"geometry": {"type": "Point", "coordinates": [-82.1078470249, 41.3666994914]}, "type": "Feature", "properties": {"collection_times": [{"days": "Mon-Fri", "time": "2:45pm"}, {"days": "Sat", "time": "12:15pm"}, {"days": "Sun", "time": "Closed"}], "id": "4403500000", "name": "USPS COLLECTION BOX - BLUE BOX", "address": {"city": "SHEFFIELD VLG", "state": "OH", "street": "131 COURT ST", "postcode": "44035"}}},
{"geometry": {"type": "Point", "coordinates": [-82.0963545786, 41.3675334774]}, "type": "Feature", "properties": {"collection_times": [{"days": "Mon-Fri", "time": "2:15pm"}, {"days": "Sat", "time": "12:30pm"}, {"days": "Sun", "time": "Closed"}], "id": "4403500002", "name": "USPS COLLECTION BOX - BLUE BOX", "address": {"city": "SHEFFIELD VLG", "state": "OH", "street": "125 E BROAD ST", "postcode": "44035"}}},
{"geometry": {"type": "Point", "coordinates": [-82.1074732099, 41.3526873424]}, "type": "Feature", "properties": {"collection_times": [{"days": "Mon-Fri", "time": "2:00pm"}, {"days": "Sat", "time": "12:15pm"}, {"days": "Sun", "time": "Closed"}], "id": "4403500021", "name": "USPS COLLECTION BOX - BLUE BOX", "address": {"city": "SHEFFIELD VLG", "state": "OH", "street": "1501 MIDDLE AVE", "postcode": "44035"}}},
{"geometry": {"type": "Point", "coordinates": [-82.1093837396, 41.3987784563]}, "type": "Feature", "properties": {"collection_times": [{"days": "Mon-Fri", "time": "1:45pm"}, {"days": "Sat", "time": "1:00pm"}, {"days": "Sun", "time": "Closed"}], "id": "4403500042", "name": "USPS COLLECTION BOX - BLUE BOX", "address": {"city": "SHEFFIELD VLG", "state": "OH", "street": "365 MIDWAY BLVD", "postcode": "44035"}}},
{"geometry": {"type": "Point", "coordinates": [-82.1117999488, 41.4069797315]}, "type": "Feature", "properties": {"collection_times": [{"days": "Mon-Fri", "time": "1:45pm"}, {"days": "Sat", "time": "1:00pm"}, {"days": "Sun", "time": "Closed"}], "id": "4403500047", "name": "USPS COLLECTION BOX - BLUE BOX", "address": {"city": "SHEFFIELD VLG", "state": "OH", "street": "2425 W RIVER RD N", "postcode": "44035"}}},
{"geometry": {"type": "Point", "coordinates": [-82.077863747, 41.3688619404]}, "type": "Feature", "properties": {"collection_times": [{"days": "Mon-Fri", "time": "1:30pm"}, {"days": "Sat", "time": "12:45pm"}, {"days": "Sun", "time": "Closed"}], "id": "4403500056", "name": "USPS COLLECTION BOX - BLUE BOX", "address": {"city": "SHEFFIELD VLG", "state": "OH", "street": "500 ABBE RD N", "postcode": "44035"}}},
{"geometry": {"type": "Point", "coordinates": [-82.076923846, 41.4262239687]}, "type": "Feature", "properties": {"collection_times": [{"days": "Mon-Fri", "time": "1:30pm"}, {"days": "Sat", "time": "1:00pm"}, {"days": "Sun", "time": "Closed"}], "id": "4403500062", "name": "USPS COLLECTION BOX - BLUE BOX", "address": {"city": "SHEFFIELD VLG", "state": "OH", "street": "5298 DETROIT RD", "postcode": "44035"}}},
{"geometry": {"type": "Point", "coordinates": [-82.1065954543, 41.3924347637]}, "type": "Feature", "properties": {"collection_times": [{"days": "Mon-Sat", "time": "1:45pm"}, {"days": "Sun", "time": "Closed"}], "id": "4403500063", "name": "USPS COLLECTION BOX - BLUE BOX", "address": {"city": "SHEFFIELD VLG", "state": "OH", "street": "114 FOX HILL LN", "postcode": "44035"}}},
{"geometry": {"type": "Point", "coordinates": [-82.1591921758, 41.3648150377]}, "type": "Feature", "properties": {"collection_times": [{"days": "Mon-Sat", "time": "10:00am"}, {"days": "Sun", "time": "Closed"}], "id": "4403500068", "name": "USPS COLLECTION BOX - BLUE BOX", "address": {"city": "SHEFFIELD VLG", "state": "OH", "street": "8703 W RIDGE RD", "postcode": "44035"}}},
{"geometry": {"type": "Point", "coordinates": [-82.1105074996, 41.3677665204]}, "type": "Feature", "properties": {"collection_times": [{"days": "Mon-Fri", "time": "2:45pm"}, {"days": "Sat-Sun", "time": "Closed"}], "id": "4403500070", "name": "USPS COLLECTION BOX - BLUE BOX", "address": {"city": "SHEFFIELD VLG", "state": "OH", "street": "601 BROAD ST", "postcode": "44035"}}},
{"geometry": {"type": "Point", "coordinates": [-82.0769760013, 41.4140917664]}, "type": "Feature", "properties": {"collection_times": [{"days": "Mon-Fri", "time": "1:30pm"}, {"days": "Sat", "time": "12:45pm"}, {"days": "Sun", "time": "Closed"}], "id": "4403500079", "name": "USPS COLLECTION BOX - BLUE BOX", "address": {"city": "SHEFFIELD VLG", "state": "OH", "street": "1005 ABBE RD N", "postcode": "44035"}}},
{"geometry": {"type": "Point", "coordinates": [-82.097755202, 41.3669810356]}, "type": "Feature", "properties": {"collection_times": [{"days": "Mon-Fri", "time": "2:15pm"}, {"days": "Sat", "time": "12:30pm"}, {"days": "Sun", "time": "Closed"}], "id": "4403500085", "name": "USPS COLLECTION BOX - BLUE BOX", "address": {"city": "SHEFFIELD VLG", "state": "OH", "street": "630 E RIVER ST", "postcode": "44035"}}},
{"geometry": {"type": "Point", "coordinates": [-82.0799836094, 41.3649179552]}, "type": "Feature", "properties": {"collection_times": [{"days": "Mon-Fri", "time": "2:15pm"}, {"days": "Sat", "time": "12:45pm"}, {"days": "Sun", "time": "Closed"}], "id": "4403500087", "name": "USPS COLLECTION BOX - BLUE BOX", "address": {"city": "SHEFFIELD VLG", "state": "OH", "street": "860 E BROAD ST", "postcode": "44035"}}},
{"geometry": {"type": "Point", "coordinates": [-82.0949965417, 41.3718288015]}, "type": "Feature", "properties": {"collection_times": [{"days": "Mon-Fri", "time": "5:00pm"}, {"days": "Sat", "time": "4:30pm"}, {"days": "Sun", "time": "Closed"}], "id": "4403500098", "name": "USPS COLLECTION BOX - BLUE BOX", "address": {"city": "SHEFFIELD VLG", "state": "OH", "street": "345 E BRIDGE ST", "postcode": "44035"}}},
{"geometry": {"type": "Point", "coordinates": [-82.0725500614, 41.3270034924]}, "type": "Feature", "properties": {"collection_times": [{"days": "Mon-Sat", "time": "10:00am"}, {"days": "Sun", "time": "Closed"}], "id": "4403500107", "name": "USPS COLLECTION BOX - BLUE BOX", "address": {"city": "SHEFFIELD VLG", "state": "OH", "street": "38670 BUTTERNUT RIDGE RD", "postcode": "44035"}}},
{"geometry": {"type": "Point", "coordinates": [-82.0949965417, 41.3718288015]}, "type": "Feature", "properties": {"collection_times": [{"days": "Mon-Fri", "time": "5:00pm"}, {"days": "Sat", "time": "4:30pm"}, {"days": "Sun", "time": "Closed"}], "id": "4403500126", "name": "USPS COLLECTION BOX - BLUE BOX", "address": {"city": "SHEFFIELD VLG", "state": "OH", "street": "345 E BRIDGE ST", "postcode": "44035"}}},
{"geometry": {"type": "Point", "coordinates": [-82.1069231339, 41.3658087233]}, "type": "Feature", "properties": {"collection_times": [{"days": "Mon-Fri", "time": "2:45pm"}, {"days": "Sat-Sun", "time": "Closed"}], "id": "4403500133", "name": "USPS COLLECTION BOX - BLUE BOX", "address": {"city": "SHEFFIELD VLG", "state": "OH", "street": "226 MIDDLE AVE", "postcode": "44035"}}},
{"geometry": {"type": "Point", "coordinates": [-82.0949965417, 41.3718288015]}, "type": "Feature", "properties": {"collection_times": [{"days": "Mon-Fri", "time": "5:00pm"}, {"days": "Sat", "time": "4:30pm"}, {"days": "Sun", "time": "Closed"}], "id": "4403500135", "name": "USPS COLLECTION BOX - PO LOBBY", "address": {"city": "SHEFFIELD VLG", "state": "OH", "street": "345 E BRIDGE ST", "postcode": "44035"}}},
{"geometry": {"type": "Point", "coordinates": [-82.1076537954, 41.3365615963]}, "type": "Feature", "properties": {"collection_times": [{"days": "Mon-Sat", "time": "9:00am"}, {"days": "Sun", "time": "Closed"}], "id": "4403500136", "name": "USPS COLLECTION BOX - BLUE BOX", "address": {"city": "SHEFFIELD VLG", "state": "OH", "street": "10425 MIDDLE AVE", "postcode": "44035"}}},
{"geometry": {"type": "Point", "coordinates": [-82.077863747, 41.3688619404]}, "type": "Feature", "properties": {"collection_times": [{"days": "Mon-Fri", "time": "1:30pm"}, {"days": "Sat", "time": "12:45pm"}, {"days": "Sun", "time": "Closed"}], "id": "4403500138", "name": "USPS COLLECTION BOX - BLUE BOX", "address": {"city": "SHEFFIELD VLG", "state": "OH", "street": "500 ABBE RD N", "postcode": "44035"}}},
{"geometry": {"type": "Point", "coordinates": [-82.1069148532, 41.3669621083]}, "type": "Feature", "properties": {"collection_times": [{"days": "Mon-Fri", "time": "2:45pm"}, {"days": "Sat-Sun", "time": "Closed"}], "id": "4403500139", "name": "USPS COLLECTION BOX - BLUE BOX", "address": {"city": "SHEFFIELD VLG", "state": "OH", "street": "124 MIDDLE AVE", "postcode": "44035"}}},
{"geometry": {"type": "Point", "coordinates": [-82.1079842481, 41.367718019]}, "type": "Feature", "properties": {"collection_times": [{"days": "Mon-Fri", "time": "2:45pm"}, {"days": "Sat-Sun", "time": "Closed"}], "id": "4403500140", "name": "USPS COLLECTION BOX - BLUE BOX", "address": {"city": "SHEFFIELD VLG", "state": "OH", "street": "226 MIDDLE AVE", "postcode": "44035"}}},
{"geometry": {"type": "Point", "coordinates": [-82.0949965417, 41.3718288015]}, "type": "Feature", "properties": {"collection_times": [{"days": "Mon-Fri", "time": "5:00pm"}, {"days": "Sat", "time": "4:30pm"}, {"days": "Sun", "time": "Closed"}], "id": "4403500148", "name": "USPS COLLECTION BOX - APC", "address": {"city": "SHEFFIELD VLG", "state": "OH", "street": "345 E BRIDGE ST", "postcode": "44035"}}},
{"geometry": {"type": "Point", "coordinates": [-82.1098860287, 41.3710734816]}, "type": "Feature", "properties": {"collection_times": [{"days": "Mon-Fri", "time": "2:45pm"}, {"days": "Sat-Sun", "time": "Closed"}], "id": "4403500152", "name": "USPS COLLECTION BOX - BLUE BOX", "address": {"city": "SHEFFIELD VLG", "state": "OH", "street": "601 BROAD ST", "postcode": "44035"}}},
{"geometry": {"type": "Point", "coordinates": [-81.9976843822, 41.3974253484]}, "type": "Feature", "properties": {"collection_times": [{"days": "Mon-Sat", "time": "2:45pm"}, {"days": "Sun", "time": "Closed"}], "id": "4403900000", "name": "USPS COLLECTION BOX - BLUE BOX", "address": {"city": "N RIDGEVILLE", "state": "OH", "street": "34325 CENTER RIDGE RD", "postcode": "44039"}}},
{"geometry": {"type": "Point", "coordinates": [-82.0186294427, 41.3859769907]}, "type": "Feature", "properties": {"collection_times": [{"days": "Mon-Sat", "time": "2:45pm"}, {"days": "Sun", "time": "Closed"}], "id": "4403900007", "name": "USPS COLLECTION BOX - BLUE BOX", "address": {"city": "N RIDGEVILLE", "state": "OH", "street": "7307 AVON BELDEN RD", "postcode": "44039"}}},
{"geometry": {"type": "Point", "coordinates": [-82.0024926995, 41.3953637701]}, "type": "Feature", "properties": {"collection_times": [{"days": "Mon-Fri", "time": "5:00pm"}, {"days": "Sat", "time": "4:30pm"}, {"days": "Sun", "time": "Closed"}], "id": "4403900010", "name": "USPS COLLECTION BOX - BLUE BOX", "address": {"city": "N RIDGEVILLE", "state": "OH", "street": "34760 CENTER RIDGE RD", "postcode": "44039"}}},
{"geometry": {"type": "Point", "coordinates": [-82.0024926995, 41.3953637701]}, "type": "Feature", "properties": {"collection_times": [{"days": "Mon-Fri", "time": "5:00pm"}, {"days": "Sat", "time": "4:30pm"}, {"days": "Sun", "time": "Closed"}], "id": "4403900011", "name": "USPS COLLECTION BOX - PO LOBBY", "address": {"city": "N RIDGEVILLE", "state": "OH", "street": "34760 CENTER RIDGE RD", "postcode": "44039"}}},
{"geometry": {"type": "Point", "coordinates": [-82.0024926995, 41.3953637701]}, "type": "Feature", "properties": {"collection_times": [{"days": "Mon-Fri", "time": "5:00pm"}, {"days": "Sat", "time": "4:30pm"}, {"days": "Sun", "time": "Closed"}], "id": "4403900012", "name": "USPS COLLECTION BOX - BLUE BOX", "address": {"city": "N RIDGEVILLE", "state": "OH", "street": "34760 CENTER RIDGE RD", "postcode": "44039"}}},
{"geometry": {"type": "Point", "coordinates": [-82.0024926995, 41.3953637701]}, "type": "Feature", "properties": {"collection_times": [{"days": "Mon-Fri", "time": "5:00pm"}, {"days": "Sat", "time": "4:30pm"}, {"days": "Sun", "time": "Closed"}], "id": "4403900013", "name": "USPS COLLECTION BOX - BLUE BOX", "address": {"city": "N RIDGEVILLE", "state": "OH", "street": "34760 CENTER RIDGE RD", "postcode": "44039"}}},
{"geometry": {"type": "Point", "coordinates": [-82.0024926995, 41.3953637701]}, "type": "Feature", "properties": {"collection_times": [{"days": "Mon-Fri", "time": "5:00pm"}, {"days": "Sat", "time": "4:30pm"}, {"days": "Sun", "time": "Closed"}], "id": "4403900014", "name": "USPS COLLECTION BOX - BLUE BOX", "address": {"city": "N RIDGEVILLE", "state": "OH", "street": "34760 CENTER RIDGE RD", "postcode": "44039"}}},
{"geometry": {"type": "Point", "coordinates": [-82.0053721107, 41.3621441103]}, "type": "Feature", "properties": {"collection_times": [{"days": "Mon-Sat", "time": "2:45pm"}, {"days": "Sun", "time": "Closed"}], "id": "4403900017", "name": "USPS COLLECTION BOX - BLUE BOX", "address": {"city": "N RIDGEVILLE", "state": "OH", "street": "34845 LORAIN RD", "postcode": "44039"}}},
{"geometry": {"type": "Point", "coordinates": [-81.4047714023, 41.5200011263]}, "type": "Feature", "properties": {"collection_times": [{"days": "Mon-Fri", "time": "4:15pm"}, {"days": "Sat", "time": "12:15pm"}, {"days": "Sun", "time": "Closed"}], "id": "4404000000", "name": "USPS COLLECTION BOX - PO LOBBY", "address": {"city": "GATES MILLS", "state": "OH", "street": "1500 RIVER RD", "postcode": "44040"}}},
{"geometry": {"type": "Point", "coordinates": [-81.4047714023, 41.5200011263]}, "type": "Feature", "properties": {"collection_times": [{"days": "Mon-Fri", "time": "4:15pm"}, {"days": "Sat", "time": "12:15pm"}, {"days": "Sun", "time": "Closed"}], "id": "4404000001", "name": "USPS COLLECTION BOX - BLUE BOX", "address": {"city": "GATES MILLS", "state": "OH", "street": "1500 RIVER RD", "postcode": "44040"}}},
{"geometry": {"type": "Point", "coordinates": [-81.4047714023, 41.5200011263]}, "type": "Feature", "properties": {"collection_times": [{"days": "Mon-Fri", "time": "4:15pm"}, {"days": "Sat", "time": "12:15pm"}, {"days": "Sun", "time": "Closed"}], "id": "4404000002", "name": "USPS COLLECTION BOX - PO LOBBY", "address": {"city": "GATES MILLS", "state": "OH", "street": "1500 RIVER RD", "postcode": "44040"}}},
{"geometry": {"type": "Point", "coordinates": [-80.9471920978, 41.8060306045]}, "type": "Feature", "properties": {"collection_times": [{"days": "Mon-Sat", "time": "2:45pm"}, {"days": "Sun", "time": "Closed"}], "id": "4404100002", "name": "USPS COLLECTION BOX - BLUE BOX", "address": {"city": "GENEVA", "state": "OH", "street": "56 N BROADWAY", "postcode": "44041"}}},
{"geometry": {"type": "Point", "coordinates": [-80.9474378139, 41.7960966723]}, "type": "Feature", "properties": {"collection_times": [{"days": "Mon-Fri", "time": "5:00pm"}, {"days": "Sat", "time": "3:00pm"}, {"days": "Sun", "time": "Closed"}], "id": "4404100013", "name": "USPS COLLECTION BOX - PO LOBBY", "address": {"city": "GENEVA", "state": "OH", "street": "1041 S BROADWAY", "postcode": "44041"}}},
{"geometry": {"type": "Point", "coordinates": [-80.9481167019, 41.8036682145]}, "type": "Feature", "properties": {"collection_times": [{"days": "Mon-Sat", "time": "2:45pm"}, {"days": "Sun", "time": "Closed"}], "id": "4404100014", "name": "USPS COLLECTION BOX - BLUE BOX", "address": {"city": "GENEVA", "state": "OH", "street": "30 PARK ST", "postcode": "44041"}}},
{"geometry": {"type": "Point", "coordinates": [-80.9409907758, 41.8608035996]}, "type": "Feature", "properties": {"collection_times": [{"days": "Mon-Fri", "time": "11:00am"}, {"days": "Sat", "time": "10:30am"}, {"days": "Sun", "time": "Closed"}], "id": "4404100017", "name": "USPS COLLECTION BOX - BLUE BOX", "address": {"city": "GENEVA", "state": "OH", "street": "5125 LAKE RD E", "postcode": "44041"}}},
{"geometry": {"type": "Point", "coordinates": [-80.9474378139, 41.7960966723]}, "type": "Feature", "properties": {"collection_times": [{"days": "Mon-Fri", "time": "5:00pm"}, {"days": "Sat", "time": "3:00pm"}, {"days": "Sun", "time": "Closed"}], "id": "4404100025", "name": "USPS COLLECTION BOX - BLUE BOX", "address": {"city": "GENEVA", "state": "OH", "street": "1041 S BROADWAY", "postcode": "44041"}}},
{"geometry": {"type": "Point", "coordinates": [-80.9474378139, 41.7960966723]}, "type": "Feature", "properties": {"collection_times": [{"days": "Mon-Fri", "time": "5:00pm"}, {"days": "Sat", "time": "3:00pm"}, {"days": "Sun", "time": "Closed"}], "id": "4404100026", "name": "USPS COLLECTION BOX - PO LOBBY", "address": {"city": "GENEVA", "state": "OH", "street": "1041 S BROADWAY", "postcode": "44041"}}},
{"geometry": {"type": "Point", "coordinates": [-82.0566946963, 41.2736491222]}, "type": "Feature", "properties": {"collection_times": [{"days": "Mon-Fri", "time": "5:00pm"}, {"days": "Sat", "time": "3:30pm"}, {"days": "Sun", "time": "Closed"}], "id": "4404400001", "name": "USPS COLLECTION BOX - BLUE BOX", "address": {"city": "GRAFTON", "state": "OH", "street": "926 MAIN ST", "postcode": "44044"}}},
{"geometry": {"type": "Point", "coordinates": [-82.0546434454, 41.2716026031]}, "type": "Feature", "properties": {"collection_times": [{"days": "Mon-Sat", "time": "2:00pm"}, {"days": "Sun", "time": "Closed"}], "id": "4404400003", "name": "USPS COLLECTION BOX - BLUE BOX", "address": {"city": "GRAFTON", "state": "OH", "street": "1009 CHESTNUT ST", "postcode": "44044"}}},
{"geometry": {"type": "Point", "coordinates": [-82.0540330386, 41.2735509366]}, "type": "Feature", "properties": {"collection_times": [{"days": "Mon-Sat", "time": "2:00pm"}, {"days": "Sun", "time": "Closed"}], "id": "4404400004", "name": "USPS COLLECTION BOX - BLUE BOX", "address": {"city": "GRAFTON", "state": "OH", "street": "998 CENTER ST", "postcode": "44044"}}},
{"geometry": {"type": "Point", "coordinates": [-82.0638590107, 41.2836728835]}, "type": "Feature", "properties": {"collection_times": [{"days": "Mon-Sat", "time": "2:00pm"}, {"days": "Sun", "time": "Closed"}], "id": "4404400005", "name": "USPS COLLECTION BOX - BLUE BOX", "address": {"city": "GRAFTON", "state": "OH", "street": "460 MAIN ST", "postcode": "44044"}}},
{"geometry": {"type": "Point", "coordinates": [-82.0696883176, 41.3174789348]}, "type": "Feature", "properties": {"collection_times": [{"days": "Mon-Sat", "time": "2:00pm"}, {"days": "Sun", "time": "Closed"}], "id": "4404400006", "name": "USPS COLLECTION BOX - BLUE BOX", "address": {"city": "GRAFTON", "state": "OH", "street": "2545 GRAFTON RD", "postcode": "44044"}}},
{"geometry": {"type": "Point", "coordinates": [-82.0000972076, 41.313898118]}, "type": "Feature", "properties": {"collection_times": [{"days": "Mon-Sat", "time": "11:00am"}, {"days": "Sun", "time": "Closed"}], "id": "4404400007", "name": "USPS COLLECTION BOX - BLUE BOX", "address": {"city": "GRAFTON", "state": "OH", "street": "34981 ROYALTON RD", "postcode": "44044"}}},
{"geometry": {"type": "Point", "coordinates": [-82.0566946963, 41.2736491222]}, "type": "Feature", "properties": {"collection_times": [{"days": "Mon-Fri", "time": "5:00pm"}, {"days": "Sat", "time": "3:30pm"}, {"days": "Sun", "time": "Closed"}], "id": "4404400008", "name": "USPS COLLECTION BOX - PO LOBBY", "address": {"city": "GRAFTON", "state": "OH", "street": "926 MAIN ST", "postcode": "44044"}}},
{"geometry": {"type": "Point", "coordinates": [-82.0514940041, 41.2701994376]}, "type": "Feature", "properties": {"collection_times": [{"days": "Mon-Sat", "time": "2:00pm"}, {"days": "Sun", "time": "Closed"}], "id": "4404400010", "name": "USPS COLLECTION BOX - BLUE BOX", "address": {"city": "GRAFTON", "state": "OH", "street": "1001 ELM ST", "postcode": "44044"}}},
{"geometry": {"type": "Point", "coordinates": [-81.2808344071, 41.7349363453]}, "type": "Feature", "properties": {"collection_times": [{"days": "Mon-Fri", "time": "4:30pm"}, {"days": "Sat", "time": "12:00pm"}, {"days": "Sun", "time": "Closed"}], "id": "4404500000", "name": "USPS COLLECTION BOX - PO LOBBY", "address": {"city": "GRAND RIVER", "state": "OH", "street": "340 WETMORE AVE", "postcode": "44045"}}},
{"geometry": {"type": "Point", "coordinates": [-81.2808344071, 41.7349363453]}, "type": "Feature", "properties": {"collection_times": [{"days": "Mon-Fri", "time": "4:30pm"}, {"days": "Sat", "time": "12:00pm"}, {"days": "Sun", "time": "Closed"}], "id": "4404500001", "name": "USPS COLLECTION BOX - BLUE BOX", "address": {"city": "GRAND RIVER", "state": "OH", "street": "340 WETMORE AVE", "postcode": "44045"}}},
{"geometry": {"type": "Point", "coordinates": [-81.0517686896, 41.5358224028]}, "type": "Feature", "properties": {"collection_times": [{"days": "Mon-Fri", "time": "4:00pm"}, {"days": "Sat", "time": "11:00am"}, {"days": "Sun", "time": "Closed"}], "id": "4404600000", "name": "USPS COLLECTION BOX - PO LOBBY", "address": {"city": "HUNTSBURG", "state": "OH", "street": "12341 MADISON RD", "postcode": "44046"}}},
{"geometry": {"type": "Point", "coordinates": [-81.0517686896, 41.5358224028]}, "type": "Feature", "properties": {"collection_times": [{"days": "Mon-Fri", "time": "4:00pm"}, {"days": "Sat", "time": "11:00am"}, {"days": "Sun", "time": "Closed"}], "id": "4404600001", "name": "USPS COLLECTION BOX - BLUE BOX", "address": {"city": "HUNTSBURG", "state": "OH", "street": "12341 MADISON RD", "postcode": "44046"}}},
{"geometry": {"type": "Point", "coordinates": [-80.7695423604, 41.7361272354]}, "type": "Feature", "properties": {"collection_times": [{"days": "Mon-Sat", "time": "2:30pm"}, {"days": "Sun", "time": "Closed"}], "id": "4404700005", "name": "USPS COLLECTION BOX - BLUE BOX", "address": {"city": "JEFFERSON", "state": "OH", "street": "107 S CHESTNUT ST", "postcode": "44047"}}},
{"geometry": {"type": "Point", "coordinates": [-80.7714225237, 41.738263026]}, "type": "Feature", "properties": {"collection_times": [{"days": "Mon-Fri", "time": "5:00pm"}, {"days": "Sat", "time": "2:45pm"}, {"days": "Sun", "time": "Closed"}], "id": "4404700007", "name": "USPS COLLECTION BOX - PO LOBBY", "address": {"city": "JEFFERSON", "state": "OH", "street": "37 W JEFFERSON ST", "postcode": "44047"}}},
{"geometry": {"type": "Point", "coordinates": [-80.7714225237, 41.738263026]}, "type": "Feature", "properties": {"collection_times": [{"days": "Mon-Fri", "time": "5:00pm"}, {"days": "Sat", "time": "2:45pm"}, {"days": "Sun", "time": "Closed"}], "id": "4404700008", "name": "USPS COLLECTION BOX - BLUE BOX", "address": {"city": "JEFFERSON", "state": "OH", "street": "37 W JEFFERSON ST", "postcode": "44047"}}},
{"geometry": {"type": "Point", "coordinates": [-80.7714225237, 41.738263026]}, "type": "Feature", "properties": {"collection_times": [{"days": "Mon-Fri", "time": "5:00pm"}, {"days": "Sat", "time": "2:45pm"}, {"days": "Sun", "time": "Closed"}], "id": "4404700009", "name": "USPS COLLECTION BOX - BLUE BOX", "address": {"city": "JEFFERSON", "state": "OH", "street": "37 W JEFFERSON ST", "postcode": "44047"}}},
{"geometry": {"type": "Point", "coordinates": [-80.6772272447, 41.8887493592]}, "type": "Feature", "properties": {"collection_times": [{"days": "Mon-Fri", "time": "4:40pm"}, {"days": "Sat", "time": "11:00am"}, {"days": "Sun", "time": "Closed"}], "id": "4404800000", "name": "USPS COLLECTION BOX - PO LOBBY", "address": {"city": "KINGSVILLE", "state": "OH", "street": "3110 W MAIN ST", "postcode": "44048"}}},
{"geometry": {"type": "Point", "coordinates": [-80.6772272447, 41.8887493592]}, "type": "Feature", "properties": {"collection_times": [{"days": "Mon-Fri", "time": "4:40pm"}, {"days": "Sat", "time": "11:00am"}, {"days": "Sun", "time": "Closed"}], "id": "4404800001", "name": "USPS COLLECTION BOX - BLUE BOX", "address": {"city": "KINGSVILLE", "state": "OH", "street": "3110 W MAIN ST", "postcode": "44048"}}},
{"geometry": {"type": "Point", "coordinates": [-80.617744295, 41.8776308514]}, "type": "Feature", "properties": {"collection_times": [{"days": "Mon-Sat", "time": "10:00am"}, {"days": "Sun", "time": "Closed"}], "id": "4404800002", "name": "USPS COLLECTION BOX - BLUE BOX", "address": {"city": "KINGSVILLE", "state": "OH", "street": "5535 STATE ROUTE 193", "postcode": "44048"}}},
{"geometry": {"type": "Point", "coordinates": [-82.1195252142, 41.2373687144]}, "type": "Feature", "properties": {"collection_times": [{"days": "Mon-Fri", "time": "5:00pm"}, {"days": "Sat", "time": "12:00pm"}, {"days": "Sun", "time": "Closed"}], "id": "4405000000", "name": "USPS COLLECTION BOX - PO LOBBY", "address": {"city": "LA GRANGE", "state": "OH", "street": "112 PUBLIC SQ", "postcode": "44050"}}},
{"geometry": {"type": "Point", "coordinates": [-82.1195252142, 41.2373687144]}, "type": "Feature", "properties": {"collection_times": [{"days": "Mon-Fri", "time": "4:45pm"}, {"days": "Sat", "time": "12:00pm"}, {"days": "Sun", "time": "Closed"}], "id": "4405000001", "name": "USPS COLLECTION BOX - BLUE BOX", "address": {"city": "LA GRANGE", "state": "OH", "street": "112 PUBLIC SQ", "postcode": "44050"}}},
{"geometry": {"type": "Point", "coordinates": [-82.1177223663, 41.2456307391]}, "type": "Feature", "properties": {"collection_times": [{"days": "Mon-Fri", "time": "10:00am"}, {"days": "Sat-Sun", "time": "Closed"}], "id": "4405000003", "name": "USPS COLLECTION BOX - BLUE BOX", "address": {"city": "LA GRANGE", "state": "OH", "street": "540 N CENTER ST", "postcode": "44050"}}},
{"geometry": {"type": "Point", "coordinates": [-82.179257326, 41.4667847205]}, "type": "Feature", "properties": {"collection_times": [{"days": "Mon-Sat", "time": "5:00pm"}, {"days": "Sun", "time": "Closed"}], "id": "4405200004", "name": "USPS COLLECTION BOX - BLUE BOX", "address": {"city": "LORAIN", "state": "OH", "street": "439 W 4TH ST", "postcode": "44052"}}},
{"geometry": {"type": "Point", "coordinates": [-82.1780367121, 41.4681145634]}, "type": "Feature", "properties": {"collection_times": [{"days": "Mon-Sat", "time": "12:30pm"}, {"days": "Sun", "time": "Closed"}], "id": "4405200007", "name": "USPS COLLECTION BOX - BLUE BOX", "address": {"city": "LORAIN", "state": "OH", "street": "300 BROADWAY", "postcode": "44052"}}},
{"geometry": {"type": "Point", "coordinates": [-82.1363788122, 41.4787055951]}, "type": "Feature", "properties": {"collection_times": [{"days": "Mon-Sat", "time": "12:00pm"}, {"days": "Sun", "time": "Closed"}], "id": "4405200010", "name": "USPS COLLECTION BOX - BLUE BOX", "address": {"city": "LORAIN", "state": "OH", "street": "3165 GARFIELD BLVD", "postcode": "44052"}}},
{"geometry": {"type": "Point", "coordinates": [-82.1473886113, 41.4653677327]}, "type": "Feature", "properties": {"collection_times": [{"days": "Mon-Sat", "time": "1:15pm"}, {"days": "Sun", "time": "Closed"}], "id": "4405200012", "name": "USPS COLLECTION BOX - BLUE BOX", "address": {"city": "LORAIN", "state": "OH", "street": "2253 COLORADO AVE", "postcode": "44052"}}},
{"geometry": {"type": "Point", "coordinates": [-82.1568617467, 41.4671208779]}, "type": "Feature", "properties": {"collection_times": [{"days": "Mon-Sat", "time": "1:15pm"}, {"days": "Sun", "time": "Closed"}], "id": "4405200017", "name": "USPS COLLECTION BOX - BLUE BOX", "address": {"city": "LORAIN", "state": "OH", "street": "1600 KANSAS AVE", "postcode": "44052"}}},
{"geometry": {"type": "Point", "coordinates": [-82.170430286, 41.4718586286]}, "type": "Feature", "properties": {"collection_times": [{"days": "Mon-Sat", "time": "12:00pm"}, {"days": "Sun", "time": "Closed"}], "id": "4405200019", "name": "USPS COLLECTION BOX - BLUE BOX", "address": {"city": "LORAIN", "state": "OH", "street": "500 E ERIE AVE", "postcode": "44052"}}},
{"geometry": {"type": "Point", "coordinates": [-82.1843631767, 41.4692845099]}, "type": "Feature", "properties": {"collection_times": [{"days": "Mon-Sat", "time": "12:15pm"}, {"days": "Sun", "time": "Closed"}], "id": "4405200022", "name": "USPS COLLECTION BOX - BLUE BOX", "address": {"city": "LORAIN", "state": "OH", "street": "1106 W 1ST ST", "postcode": "44052"}}},
{"geometry": {"type": "Point", "coordinates": [-82.1713678565, 41.457460881]}, "type": "Feature", "properties": {"collection_times": [{"days": "Mon-Sat", "time": "12:15pm"}, {"days": "Sun", "time": "Closed"}], "id": "4405200023", "name": "USPS COLLECTION BOX - BLUE BOX", "address": {"city": "LORAIN", "state": "OH", "street": "200 W ERIE AVE", "postcode": "44052"}}},
{"geometry": {"type": "Point", "coordinates": [-82.1965500199, 41.4425721135]}, "type": "Feature", "properties": {"collection_times": [{"days": "Mon-Sat", "time": "12:15pm"}, {"days": "Sun", "time": "Closed"}], "id": "4405200024", "name": "USPS COLLECTION BOX - BLUE BOX", "address": {"city": "LORAIN", "state": "OH", "street": "1822 W 30TH ST", "postcode": "44052"}}},
{"geometry": {"type": "Point", "coordinates": [-82.1766869559, 41.4638961318]}, "type": "Feature", "properties": {"collection_times": [{"days": "Mon-Sat", "time": "2:30pm"}, {"days": "Sun", "time": "Closed"}], "id": "4405200031", "name": "USPS COLLECTION BOX - BLUE BOX", "address": {"city": "LORAIN", "state": "OH", "street": "310 W 7TH ST", "postcode": "44052"}}},
{"geometry": {"type": "Point", "coordinates": [-82.1730363446, 41.4402144763]}, "type": "Feature", "properties": {"collection_times": [{"days": "Mon-Sat", "time": "1:00pm"}, {"days": "Sun", "time": "Closed"}], "id": "4405200033", "name": "USPS COLLECTION BOX - BLUE BOX", "address": {"city": "LORAIN", "state": "OH", "street": "3279 AMHERST AVE", "postcode": "44052"}}},
{"geometry": {"type": "Point", "coordinates": [-82.1840920336, 41.4412485776]}, "type": "Feature", "properties": {"collection_times": [{"days": "Mon-Sat", "time": "1:15pm"}, {"days": "Sun", "time": "Closed"}], "id": "4405200034", "name": "USPS COLLECTION BOX - BLUE BOX", "address": {"city": "LORAIN", "state": "OH", "street": "1147 MEISTER RD", "postcode": "44052"}}},
{"geometry": {"type": "Point", "coordinates": [-82.1935535849, 41.4479332835]}, "type": "Feature", "properties": {"collection_times": [{"days": "Mon-Sat", "time": "12:00pm"}, {"days": "Sun", "time": "Closed"}], "id": "4405200039", "name": "USPS COLLECTION BOX - BLUE BOX", "address": {"city": "LORAIN", "state": "OH", "street": "2350 POLE AVE", "postcode": "44052"}}},
{"geometry": {"type": "Point", "coordinates": [-82.179453897, 41.4448729687]}, "type": "Feature", "properties": {"collection_times": [{"days": "Mon-Sat", "time": "9:30am"}, {"days": "Sun", "time": "Closed"}], "id": "4405200044", "name": "USPS COLLECTION BOX - BLUE BOX", "address": {"city": "LORAIN", "state": "OH", "street": "1001 HIGHLAND PARK BLVD", "postcode": "44052"}}},
{"geometry": {"type": "Point", "coordinates": [-82.1668009679, 41.4556970432]}, "type": "Feature", "properties": {"collection_times": [{"days": "Mon-Sat", "time": "1:00pm"}, {"days": "Sun", "time": "Closed"}], "id": "4405200050", "name": "USPS COLLECTION BOX - BLUE BOX", "address": {"city": "LORAIN", "state": "OH", "street": "1657 BROADWAY", "postcode": "44052"}}},
{"geometry": {"type": "Point", "coordinates": [-82.1678892901, 41.4537203188]}, "type": "Feature", "properties": {"collection_times": [{"days": "Mon-Sat", "time": "12:00pm"}, {"days": "Sun", "time": "Closed"}], "id": "4405200062", "name": "USPS COLLECTION BOX - BLUE BOX", "address": {"city": "LORAIN", "state": "OH", "street": "1800 LIVINGSTON AVE", "postcode": "44052"}}},
{"geometry": {"type": "Point", "coordinates": [-82.135923373, 41.4651962037]}, "type": "Feature", "properties": {"collection_times": [{"days": "Mon-Sat", "time": "5:00pm"}, {"days": "Sun", "time": "Closed"}], "id": "4405200063", "name": "USPS COLLECTION BOX - BLUE BOX", "address": {"city": "LORAIN", "state": "OH", "street": "3190 COLORADO AVE", "postcode": "44052"}}},
{"geometry": {"type": "Point", "coordinates": [-82.179257326, 41.4667847205]}, "type": "Feature", "properties": {"collection_times": [{"days": "Mon-Fri", "time": "5:00pm"}, {"days": "Sat", "time": "12:00pm"}, {"days": "Sun", "time": "Closed"}], "id": "4405200067", "name": "USPS COLLECTION BOX - PO LOBBY", "address": {"city": "LORAIN", "state": "OH", "street": "439 W 4TH ST", "postcode": "44052"}}},
{"geometry": {"type": "Point", "coordinates": [-82.179257326, 41.4667847205]}, "type": "Feature", "properties": {"collection_times": [{"days": "Mon-Fri", "time": "5:00pm"}, {"days": "Sat", "time": "12:00pm"}, {"days": "Sun", "time": "Closed"}], "id": "4405200068", "name": "USPS COLLECTION BOX - PO LOBBY", "address": {"city": "LORAIN", "state": "OH", "street": "439 W 4TH ST", "postcode": "44052"}}},
{"geometry": {"type": "Point", "coordinates": [-82.1752650393, 41.4657841343]}, "type": "Feature", "properties": {"collection_times": [{"days": "Mon-Sat", "time": "12:15pm"}, {"days": "Sun", "time": "Closed"}], "id": "4405200069", "name": "USPS COLLECTION BOX - BLUE BOX", "address": {"city": "LORAIN", "state": "OH", "street": "600 BROADWAY", "postcode": "44052"}}},
{"geometry": {"type": "Point", "coordinates": [-82.2801852188, 41.4093700042]}, "type": "Feature", "properties": {"collection_times": [{"days": "Mon-Sat", "time": "12:30pm"}, {"days": "Sun", "time": "Closed"}], "id": "4405300000", "name": "USPS COLLECTION BOX - BLUE BOX", "address": {"city": "LORAIN", "state": "OH", "street": "7470 INDUSTRIAL PARKWAY DR", "postcode": "44053"}}},
{"geometry": {"type": "Point", "coordinates": [-82.2042262407, 41.4557550082]}, "type": "Feature", "properties": {"collection_times": [{"days": "Mon-Sat", "time": "12:15pm"}, {"days": "Sun", "time": "Closed"}], "id": "4405300002", "name": "USPS COLLECTION BOX - BLUE BOX", "address": {"city": "LORAIN", "state": "OH", "street": "1399 MADISON AVE", "postcode": "44053"}}},
{"geometry": {"type": "Point", "coordinates": [-82.1854171931, 41.435955824]}, "type": "Feature", "properties": {"collection_times": [{"days": "Mon-Sat", "time": "12:45pm"}, {"days": "Sun", "time": "Closed"}], "id": "4405300004", "name": "USPS COLLECTION BOX - BLUE BOX", "address": {"city": "LORAIN", "state": "OH", "street": "3817 OBERLIN AVE", "postcode": "44053"}}},
{"geometry": {"type": "Point", "coordinates": [-82.2037128365, 41.4350272012]}, "type": "Feature", "properties": {"collection_times": [{"days": "Mon-Sat", "time": "11:30am"}, {"days": "Sun", "time": "Closed"}], "id": "4405300007", "name": "USPS COLLECTION BOX - BLUE BOX", "address": {"city": "LORAIN", "state": "OH", "street": "3910 MIAMI AVE", "postcode": "44053"}}},
{"geometry": {"type": "Point", "coordinates": [-82.1929999601, 41.4360078742]}, "type": "Feature", "properties": {"collection_times": [{"days": "Mon-Sat", "time": "12:45pm"}, {"days": "Sun", "time": "Closed"}], "id": "4405300008", "name": "USPS COLLECTION BOX - BLUE BOX", "address": {"city": "LORAIN", "state": "OH", "street": "1626 W 38TH ST", "postcode": "44053"}}},
{"geometry": {"type": "Point", "coordinates": [-82.2088835501, 41.4186976356]}, "type": "Feature", "properties": {"collection_times": [{"days": "Mon-Sat", "time": "12:30pm"}, {"days": "Sun", "time": "Closed"}], "id": "4405300009", "name": "USPS COLLECTION BOX - BLUE BOX", "address": {"city": "LORAIN", "state": "OH", "street": "5971 LEAVITT RD", "postcode": "44053"}}},
{"geometry": {"type": "Point", "coordinates": [-82.2088385977, 41.4200745999]}, "type": "Feature", "properties": {"collection_times": [{"days": "Mon-Sat", "time": "12:30pm"}, {"days": "Sun", "time": "Closed"}], "id": "4405300011", "name": "USPS COLLECTION BOX - BLUE BOX", "address": {"city": "LORAIN", "state": "OH", "street": "5350 LEAVITT RD", "postcode": "44053"}}},
{"geometry": {"type": "Point", "coordinates": [-82.1628735441, 41.4170888115]}, "type": "Feature", "properties": {"collection_times": [{"days": "Mon-Sat", "time": "1:00pm"}, {"days": "Sun", "time": "Closed"}], "id": "4405300012", "name": "USPS COLLECTION BOX - BLUE BOX", "address": {"city": "LORAIN", "state": "OH", "street": "6100 S BROADWAY", "postcode": "44053"}}},
{"geometry": {"type": "Point", "coordinates": [-82.186920734, 41.4304562478]}, "type": "Feature", "properties": {"collection_times": [{"days": "Mon-Sat", "time": "12:45pm"}, {"days": "Sun", "time": "Closed"}], "id": "4405300014", "name": "USPS COLLECTION BOX - BLUE BOX", "address": {"city": "LORAIN", "state": "OH", "street": "1210 W 44TH ST", "postcode": "44053"}}},
{"geometry": {"type": "Point", "coordinates": [-82.1856916396, 41.4201763344]}, "type": "Feature", "properties": {"collection_times": [{"days": "Mon-Sat", "time": "12:30pm"}, {"days": "Sun", "time": "Closed"}], "id": "4405300015", "name": "USPS COLLECTION BOX - BLUE BOX", "address": {"city": "LORAIN", "state": "OH", "street": "5320 OBERLIN AVE", "postcode": "44053"}}},
{"geometry": {"type": "Point", "coordinates": [-82.1936387579, 41.4218514042]}, "type": "Feature", "properties": {"collection_times": [{"days": "Mon-Sat", "time": "12:30pm"}, {"days": "Sun", "time": "Closed"}], "id": "4405300017", "name": "USPS COLLECTION BOX - BLUE BOX", "address": {"city": "LORAIN", "state": "OH", "street": "5432 EDGEWOOD DR", "postcode": "44053"}}},
{"geometry": {"type": "Point", "coordinates": [-82.2124974897, 41.4477061554]}, "type": "Feature", "properties": {"collection_times": [{"days": "Mon-Sat", "time": "9:30am"}, {"days": "Sun", "time": "Closed"}], "id": "4405300019", "name": "USPS COLLECTION BOX - BLUE BOX", "address": {"city": "LORAIN", "state": "OH", "street": "2130 W PARK DR", "postcode": "44053"}}},
{"geometry": {"type": "Point", "coordinates": [-82.0946698194, 41.474893043]}, "type": "Feature", "properties": {"collection_times": [{"days": "Mon-Sat", "time": "11:00am"}, {"days": "Sun", "time": "Closed"}], "id": "4405400003", "name": "USPS COLLECTION BOX - BLUE BOX", "address": {"city": "LORAIN", "state": "OH", "street": "487 IRVING PARK BLVD", "postcode": "44054"}}},
{"geometry": {"type": "Point", "coordinates": [-82.0946698194, 41.474893043]}, "type": "Feature", "properties": {"collection_times": [{"days": "Mon-Sat", "time": "12:00pm"}, {"days": "Sun", "time": "Closed"}], "id": "4405400009", "name": "USPS COLLECTION BOX - BLUE BOX", "address": {"city": "LORAIN", "state": "OH", "street": "4214 IVANHOE AVE", "postcode": "44054"}}},
{"geometry": {"type": "Point", "coordinates": [-82.0946698194, 41.474893043]}, "type": "Feature", "properties": {"collection_times": [{"days": "Mon-Sat", "time": "12:00pm"}, {"days": "Sun", "time": "Closed"}], "id": "4405400010", "name": "USPS COLLECTION BOX - BLUE BOX", "address": {"city": "LORAIN", "state": "OH", "street": "4214 IVANHOE AVE", "postcode": "44054"}}},
{"geometry": {"type": "Point", "coordinates": [-82.0946698194, 41.474893043]}, "type": "Feature", "properties": {"collection_times": [{"days": "Mon-Sat", "time": "12:15pm"}, {"days": "Sun", "time": "Closed"}], "id": "4405400014", "name": "USPS COLLECTION BOX - BLUE BOX", "address": {"city": "LORAIN", "state": "OH", "street": "4350 COLORADO AVE", "postcode": "44054"}}},
{"geometry": {"type": "Point", "coordinates": [-82.0946698194, 41.474893043]}, "type": "Feature", "properties": {"collection_times": [{"days": "Mon-Sat", "time": "12:15pm"}, {"days": "Sun", "time": "Closed"}], "id": "4405400015", "name": "USPS COLLECTION BOX - BLUE BOX", "address": {"city": "LORAIN", "state": "OH", "street": "5231 DETROIT RD", "postcode": "44054"}}},
{"geometry": {"type": "Point", "coordinates": [-82.1367124066, 41.4449226529]}, "type": "Feature", "properties": {"collection_times": [{"days": "Mon-Sat", "time": "12:15pm"}, {"days": "Sun", "time": "Closed"}], "id": "4405500001", "name": "USPS COLLECTION BOX - BLUE BOX", "address": {"city": "LORAIN", "state": "OH", "street": "2835 PEARL AVE", "postcode": "44055"}}},
{"geometry": {"type": "Point", "coordinates": [-82.1312249853, 41.4182432604]}, "type": "Feature", "properties": {"collection_times": [{"days": "Mon-Sat", "time": "1:00pm"}, {"days": "Sun", "time": "Closed"}], "id": "4405500002", "name": "USPS COLLECTION BOX - BLUE BOX", "address": {"city": "LORAIN", "state": "OH", "street": "1915 N RIDGE RD E", "postcode": "44055"}}},
{"geometry": {"type": "Point", "coordinates": [-82.1525397703, 41.4187587611]}, "type": "Feature", "properties": {"collection_times": [{"days": "Mon-Sat", "time": "1:00pm"}, {"days": "Sun", "time": "Closed"}], "id": "4405500003", "name": "USPS COLLECTION BOX - BLUE BOX", "address": {"city": "LORAIN", "state": "OH", "street": "105 SHEFFIELD CTR", "postcode": "44055"}}},
{"geometry": {"type": "Point", "coordinates": [-82.1637560315, 41.4378639368]}, "type": "Feature", "properties": {"collection_times": [{"days": "Mon-Sat", "time": "11:00am"}, {"days": "Sun", "time": "Closed"}], "id": "4405500009", "name": "USPS COLLECTION BOX - BLUE BOX", "address": {"city": "LORAIN", "state": "OH", "street": "3553 BROADWAY", "postcode": "44055"}}},
{"geometry": {"type": "Point", "coordinates": [-82.1148939115, 41.435725147]}, "type": "Feature", "properties": {"collection_times": [{"days": "Mon-Sat", "time": "12:45pm"}, {"days": "Sun", "time": "Closed"}], "id": "4405500013", "name": "USPS COLLECTION BOX - BLUE BOX", "address": {"city": "LORAIN", "state": "OH", "street": "3826 PALM AVE", "postcode": "44055"}}},
{"geometry": {"type": "Point", "coordinates": [-82.1271718426, 41.4358824805]}, "type": "Feature", "properties": {"collection_times": [{"days": "Mon-Sat", "time": "12:45pm"}, {"days": "Sun", "time": "Closed"}], "id": "4405500014", "name": "USPS COLLECTION BOX - BLUE BOX", "address": {"city": "LORAIN", "state": "OH", "street": "2002 HOMEWOOD DR", "postcode": "44055"}}},
{"geometry": {"type": "Point", "coordinates": [-82.1141025119, 41.427106108]}, "type": "Feature", "properties": {"collection_times": [{"days": "Mon-Sat", "time": "12:45pm"}, {"days": "Sun", "time": "Closed"}], "id": "4405500016", "name": "USPS COLLECTION BOX - BLUE BOX", "address": {"city": "LORAIN", "state": "OH", "street": "4601 PALM AVE", "postcode": "44055"}}},
{"geometry": {"type": "Point", "coordinates": [-82.1209061576, 41.4437050474]}, "type": "Feature", "properties": {"collection_times": [{"days": "Mon-Sat", "time": "12:15pm"}, {"days": "Sun", "time": "Closed"}], "id": "4405500017", "name": "USPS COLLECTION BOX - BLUE BOX", "address": {"city": "LORAIN", "state": "OH", "street": "2177 E 30TH ST", "postcode": "44055"}}},
{"geometry": {"type": "Point", "coordinates": [-82.1525397703, 41.4187587611]}, "type": "Feature", "properties": {"collection_times": [{"days": "Mon-Sat", "time": "1:00pm"}, {"days": "Sun", "time": "Closed"}], "id": "4405500019", "name": "USPS COLLECTION BOX - BLUE BOX", "address": {"city": "LORAIN", "state": "OH", "street": "105 SHEFFIELD CTR", "postcode": "44055"}}},
{"geometry": {"type": "Point", "coordinates": [-81.0482340082, 41.7714394376]}, "type": "Feature", "properties": {"collection_times": [{"days": "Mon-Sat", "time": "9:15am"}, {"days": "Sun", "time": "Closed"}], "id": "4405700000", "name": "USPS COLLECTION BOX - BLUE BOX", "address": {"city": "MADISON", "state": "OH", "street": "46 W MAIN ST", "postcode": "44057"}}},
{"geometry": {"type": "Point", "coordinates": [-81.049046701, 41.7705971708]}, "type": "Feature", "properties": {"collection_times": [{"days": "Mon-Sat", "time": "10:00am"}, {"days": "Sun", "time": "Closed"}], "id": "4405700001", "name": "USPS COLLECTION BOX - BLUE BOX", "address": {"city": "MADISON", "state": "OH", "street": "49 PARK ST", "postcode": "44057"}}},
{"geometry": {"type": "Point", "coordinates": [-81.0471669792, 41.7726117499]}, "type": "Feature", "properties": {"collection_times": [{"days": "Mon-Sat", "time": "3:15pm"}, {"days": "Sun", "time": "Closed"}], "id": "4405700002", "name": "USPS COLLECTION BOX - BLUE BOX", "address": {"city": "MADISON", "state": "OH", "street": "46 N LAKE ST", "postcode": "44057"}}},
{"geometry": {"type": "Point", "coordinates": [-81.0484881931, 41.820589938]}, "type": "Feature", "properties": {"collection_times": [{"days": "Mon-Sat", "time": "9:00am"}, {"days": "Sun", "time": "Closed"}], "id": "4405700003", "name": "USPS COLLECTION BOX - BLUE BOX", "address": {"city": "MADISON", "state": "OH", "street": "1971 HUBBARD RD", "postcode": "44057"}}},
{"geometry": {"type": "Point", "coordinates": [-81.0472181042, 41.8018894123]}, "type": "Feature", "properties": {"collection_times": [{"days": "Mon-Sat", "time": "9:15am"}, {"days": "Sun", "time": "Closed"}], "id": "4405700004", "name": "USPS COLLECTION BOX - BLUE BOX", "address": {"city": "MADISON", "state": "OH", "street": "6708 N RIDGE RD", "postcode": "44057"}}},
{"geometry": {"type": "Point", "coordinates": [-81.054355845, 41.8027599673]}, "type": "Feature", "properties": {"collection_times": [{"days": "Mon-Sat", "time": "9:30am"}, {"days": "Sun", "time": "Closed"}], "id": "4405700005", "name": "USPS COLLECTION BOX - BLUE BOX", "address": {"city": "MADISON", "state": "OH", "street": "6576 N RIDGE RD", "postcode": "44057"}}},
{"geometry": {"type": "Point", "coordinates": [-81.0492637966, 41.8021143753]}, "type": "Feature", "properties": {"collection_times": [{"days": "Mon-Sat", "time": "9:45am"}, {"days": "Sun", "time": "Closed"}], "id": "4405700006", "name": "USPS COLLECTION BOX - BLUE BOX", "address": {"city": "MADISON", "state": "OH", "street": "6666 N RIDGE RD", "postcode": "44057"}}},
{"geometry": {"type": "Point", "coordinates": [-81.047318398, 41.778462665]}, "type": "Feature", "properties": {"collection_times": [{"days": "Mon-Fri", "time": "5:00pm"}, {"days": "Sat", "time": "4:00pm"}, {"days": "Sun", "time": "Closed"}], "id": "4405700009", "name": "USPS COLLECTION BOX - PO LOBBY", "address": {"city": "MADISON", "state": "OH", "street": "375 N LAKE ST", "postcode": "44057"}}},
{"geometry": {"type": "Point", "coordinates": [-81.047318398, 41.778462665]}, "type": "Feature", "properties": {"collection_times": [{"days": "Mon-Fri", "time": "5:00pm"}, {"days": "Sat", "time": "4:00pm"}, {"days": "Sun", "time": "Closed"}], "id": "4405700010", "name": "USPS COLLECTION BOX - BLUE BOX", "address": {"city": "MADISON", "state": "OH", "street": "375 N LAKE ST", "postcode": "44057"}}},
{"geometry": {"type": "Point", "coordinates": [-81.047318398, 41.778462665]}, "type": "Feature", "properties": {"collection_times": [{"days": "Mon-Fri", "time": "5:00pm"}, {"days": "Sat", "time": "4:00pm"}, {"days": "Sun", "time": "Closed"}], "id": "4405700011", "name": "USPS COLLECTION BOX - BLUE BOX", "address": {"city": "MADISON", "state": "OH", "street": "375 N LAKE ST", "postcode": "44057"}}},
{"geometry": {"type": "Point", "coordinates": [-81.048528565, 41.8041659973]}, "type": "Feature", "properties": {"collection_times": [{"days": "Mon-Sat", "time": "12:00pm"}, {"days": "Sun", "time": "Closed"}], "id": "4405700013", "name": "USPS COLLECTION BOX - BLUE BOX", "address": {"city": "MADISON", "state": "OH", "street": "2610 HUBBARD RD", "postcode": "44057"}}},
{"geometry": {"type": "Point", "coordinates": [-81.0717195843, 41.8017567142]}, "type": "Feature", "properties": {"collection_times": [{"days": "Mon-Sat", "time": "12:00pm"}, {"days": "Sun", "time": "Closed"}], "id": "4405700014", "name": "USPS COLLECTION BOX - BLUE BOX", "address": {"city": "MADISON", "state": "OH", "street": "6067 N RIDGE RD", "postcode": "44057"}}},
{"geometry": {"type": "Point", "coordinates": [-81.3756096211, 41.6476628922]}, "type": "Feature", "properties": {"collection_times": [{"days": "Mon-Sat", "time": "10:00am"}, {"days": "Sun", "time": "Closed"}], "id": "4406000001", "name": "USPS COLLECTION BOX - BLUE BOX", "address": {"city": "MENTOR ON THE", "state": "OH", "street": "8204 BROADMOOR RD", "postcode": "44060"}}},
{"geometry": {"type": "Point", "coordinates": [-81.3716680018, 41.6562523572]}, "type": "Feature", "properties": {"collection_times": [{"days": "Mon-Fri", "time": "10:30am"}, {"days": "Sat", "time": "11:15am"}, {"days": "Sun", "time": "Closed"}], "id": "4406000002", "name": "USPS COLLECTION BOX - BLUE BOX", "address": {"city": "MENTOR ON THE", "state": "OH", "street": "7541 MENTOR AVE", "postcode": "44060"}}},
{"geometry": {"type": "Point", "coordinates": [-81.364773717, 41.6532500074]}, "type": "Feature", "properties": {"collection_times": [{"days": "Mon-Fri", "time": "10:45am"}, {"days": "Sat", "time": "11:30am"}, {"days": "Sun", "time": "Closed"}], "id": "4406000006", "name": "USPS COLLECTION BOX - BLUE BOX", "address": {"city": "MENTOR ON THE", "state": "OH", "street": "8000 PLAZA BLVD", "postcode": "44060"}}},
{"geometry": {"type": "Point", "coordinates": [-81.3362181901, 41.6674729882]}, "type": "Feature", "properties": {"collection_times": [{"days": "Mon-Fri", "time": "11:15am"}, {"days": "Sat", "time": "11:45am"}, {"days": "Sun", "time": "Closed"}], "id": "4406000009", "name": "USPS COLLECTION BOX - BLUE BOX", "address": {"city": "MENTOR ON THE", "state": "OH", "street": "8492 MENTOR AVE", "postcode": "44060"}}},
{"geometry": {"type": "Point", "coordinates": [-81.3238010667, 41.6739288894]}, "type": "Feature", "properties": {"collection_times": [{"days": "Mon-Fri", "time": "11:15am"}, {"days": "Sat", "time": "11:45am"}, {"days": "Sun", "time": "Closed"}], "id": "4406000011", "name": "USPS COLLECTION BOX - BLUE BOX", "address": {"city": "MENTOR ON THE", "state": "OH", "street": "8840 MENTOR AVE", "postcode": "44060"}}},
{"geometry": {"type": "Point", "coordinates": [-81.3223114049, 41.6714545629]}, "type": "Feature", "properties": {"collection_times": [{"days": "Mon-Fri", "time": "11:15am"}, {"days": "Sat", "time": "11:45am"}, {"days": "Sun", "time": "Closed"}], "id": "4406000012", "name": "USPS COLLECTION BOX - BLUE BOX", "address": {"city": "MENTOR ON THE", "state": "OH", "street": "17 MEADOWLAWN DR", "postcode": "44060"}}},
{"geometry": {"type": "Point", "coordinates": [-81.3158477171, 41.6755227588]}, "type": "Feature", "properties": {"collection_times": [{"days": "Mon-Fri", "time": "11:30am"}, {"days": "Sat", "time": "12:00pm"}, {"days": "Sun", "time": "Closed"}], "id": "4406000013", "name": "USPS COLLECTION BOX - BLUE BOX", "address": {"city": "MENTOR ON THE", "state": "OH", "street": "9040 MENTOR AVE", "postcode": "44060"}}},
{"geometry": {"type": "Point", "coordinates": [-81.3096158893, 41.6771398637]}, "type": "Feature", "properties": {"collection_times": [{"days": "Mon-Fri", "time": "11:30am"}, {"days": "Sat", "time": "12:00pm"}, {"days": "Sun", "time": "Closed"}], "id": "4406000014", "name": "USPS COLLECTION BOX - BLUE BOX", "address": {"city": "MENTOR ON THE", "state": "OH", "street": "9200 MENTOR AVE", "postcode": "44060"}}},
{"geometry": {"type": "Point", "coordinates": [-81.2958185191, 41.6827657158]}, "type": "Feature", "properties": {"collection_times": [{"days": "Mon-Fri", "time": "11:45am"}, {"days": "Sat", "time": "12:15pm"}, {"days": "Sun", "time": "Closed"}], "id": "4406000015", "name": "USPS COLLECTION BOX - BLUE BOX", "address": {"city": "MENTOR ON THE", "state": "OH", "street": "9597 MENTOR AVE", "postcode": "44060"}}},
{"geometry": {"type": "Point", "coordinates": [-81.2820127248, 41.6728528204]}, "type": "Feature", "properties": {"collection_times": [{"days": "Mon-Fri", "time": "11:45am"}, {"days": "Sat", "time": "12:15pm"}, {"days": "Sun", "time": "Closed"}], "id": "4406000016", "name": "USPS COLLECTION BOX - BLUE BOX", "address": {"city": "MENTOR ON THE", "state": "OH", "street": "9853 JOHNNYCAKE RIDGE RD", "postcode": "44060"}}},
{"geometry": {"type": "Point", "coordinates": [-81.3614013823, 41.711982056]}, "type": "Feature", "properties": {"collection_times": [{"days": "Mon-Fri", "time": "1:15pm"}, {"days": "Sat", "time": "12:30pm"}, {"days": "Sun", "time": "Closed"}], "id": "4406000022", "name": "USPS COLLECTION BOX - BLUE BOX", "address": {"city": "MENTOR ON THE", "state": "OH", "street": "5860 ANDREWS RD", "postcode": "44060"}}},
{"geometry": {"type": "Point", "coordinates": [-81.3612946346, 41.7060868696]}, "type": "Feature", "properties": {"collection_times": [{"days": "Mon-Fri", "time": "1:15pm"}, {"days": "Sat", "time": "12:45pm"}, {"days": "Sun", "time": "Closed"}], "id": "4406000023", "name": "USPS COLLECTION BOX - BLUE BOX", "address": {"city": "MENTOR ON THE", "state": "OH", "street": "6079 ANDREWS RD", "postcode": "44060"}}},
{"geometry": {"type": "Point", "coordinates": [-81.3795105211, 41.7003938575]}, "type": "Feature", "properties": {"collection_times": [{"days": "Mon-Sat", "time": "12:45pm"}, {"days": "Sun", "time": "Closed"}], "id": "4406000024", "name": "USPS COLLECTION BOX - BLUE BOX", "address": {"city": "MENTOR ON THE", "state": "OH", "street": "7294 LAKESHORE BLVD", "postcode": "44060"}}},
{"geometry": {"type": "Point", "coordinates": [-81.378581214, 41.686586974]}, "type": "Feature", "properties": {"collection_times": [{"days": "Mon-Fri", "time": "12:30pm"}, {"days": "Sat", "time": "1:15pm"}, {"days": "Sun", "time": "Closed"}], "id": "4406000025", "name": "USPS COLLECTION BOX - BLUE BOX", "address": {"city": "MENTOR ON THE", "state": "OH", "street": "7335 BELLFLOWER RD", "postcode": "44060"}}},
{"geometry": {"type": "Point", "coordinates": [-81.3295595474, 41.6773948929]}, "type": "Feature", "properties": {"collection_times": [{"days": "Mon-Fri", "time": "12:30pm"}, {"days": "Sat", "time": "1:15pm"}, {"days": "Sun", "time": "Closed"}], "id": "4406000026", "name": "USPS COLLECTION BOX - BLUE BOX", "address": {"city": "MENTOR ON THE", "state": "OH", "street": "6813 INDEPENDENCE DR", "postcode": "44060"}}},
{"geometry": {"type": "Point", "coordinates": [-81.3776525912, 41.6685149099]}, "type": "Feature", "properties": {"collection_times": [{"days": "Mon-Sat", "time": "10:30am"}, {"days": "Sun", "time": "Closed"}], "id": "4406000027", "name": "USPS COLLECTION BOX - BLUE BOX", "address": {"city": "MENTOR ON THE", "state": "OH", "street": "7378 AVON DR", "postcode": "44060"}}},
{"geometry": {"type": "Point", "coordinates": [-81.3823631338, 41.6589081001]}, "type": "Feature", "properties": {"collection_times": [{"days": "Mon-Fri", "time": "12:15pm"}, {"days": "Sat", "time": "1:30pm"}, {"days": "Sun", "time": "Closed"}], "id": "4406000028", "name": "USPS COLLECTION BOX - BLUE BOX", "address": {"city": "MENTOR ON THE", "state": "OH", "street": "7252 INDUSTRIAL PARK BLVD", "postcode": "44060"}}},
{"geometry": {"type": "Point", "coordinates": [-81.3716762796, 41.6637666213]}, "type": "Feature", "properties": {"collection_times": [{"days": "Mon-Sat", "time": "10:45am"}, {"days": "Sun", "time": "Closed"}], "id": "4406000029", "name": "USPS COLLECTION BOX - BLUE BOX", "address": {"city": "MENTOR ON THE", "state": "OH", "street": "7531 TYLER BLVD", "postcode": "44060"}}},
{"geometry": {"type": "Point", "coordinates": [-81.3591546619, 41.6476901003]}, "type": "Feature", "properties": {"collection_times": [{"days": "Mon-Fri", "time": "11:00am"}, {"days": "Sat", "time": "11:30am"}, {"days": "Sun", "time": "Closed"}], "id": "4406000030", "name": "USPS COLLECTION BOX - BLUE BOX", "address": {"city": "MENTOR ON THE", "state": "OH", "street": "8121 DEEPWOOD BLVD", "postcode": "44060"}}},
{"geometry": {"type": "Point", "coordinates": [-81.3402960143, 41.6662344634]}, "type": "Feature", "properties": {"collection_times": [{"days": "Mon-Fri", "time": "11:15am"}, {"days": "Sat", "time": "11:45am"}, {"days": "Sun", "time": "Closed"}], "id": "4406000031", "name": "USPS COLLECTION BOX - BLUE BOX", "address": {"city": "MENTOR ON THE", "state": "OH", "street": "8390 MENTOR AVE", "postcode": "44060"}}},
{"geometry": {"type": "Point", "coordinates": [-81.3356421071, 41.6879483347]}, "type": "Feature", "properties": {"collection_times": [{"days": "Mon-Fri", "time": "12:45pm"}, {"days": "Sat", "time": "1:00pm"}, {"days": "Sun", "time": "Closed"}], "id": "4406000032", "name": "USPS COLLECTION BOX - BLUE BOX", "address": {"city": "MENTOR ON THE", "state": "OH", "street": "8465 MARKET ST", "postcode": "44060"}}},
{"geometry": {"type": "Point", "coordinates": [-81.3354008861, 41.6979477549]}, "type": "Feature", "properties": {"collection_times": [{"days": "Mon-Fri", "time": "12:45pm"}, {"days": "Sat", "time": "1:00pm"}, {"days": "Sun", "time": "Closed"}], "id": "4406000033", "name": "USPS COLLECTION BOX - BLUE BOX", "address": {"city": "MENTOR ON THE", "state": "OH", "street": "8500 CIVIC CENTER BLVD", "postcode": "44060"}}},
{"geometry": {"type": "Point", "coordinates": [-81.3458345439, 41.7033980038]}, "type": "Feature", "properties": {"collection_times": [{"days": "Mon-Sat", "time": "1:00pm"}, {"days": "Sun", "time": "Closed"}], "id": "4406000034", "name": "USPS COLLECTION BOX - BLUE BOX", "address": {"city": "MENTOR ON THE", "state": "OH", "street": "6154 CAMBRIDGE PARK DR", "postcode": "44060"}}},
{"geometry": {"type": "Point", "coordinates": [-81.3577362941, 41.7050588782]}, "type": "Feature", "properties": {"collection_times": [{"days": "Mon-Sat", "time": "12:45pm"}, {"days": "Sun", "time": "Closed"}], "id": "4406000035", "name": "USPS COLLECTION BOX - BLUE BOX", "address": {"city": "MENTOR ON THE", "state": "OH", "street": "7883 MUNSON RD", "postcode": "44060"}}},
{"geometry": {"type": "Point", "coordinates": [-81.3358787613, 41.679378022]}, "type": "Feature", "properties": {"collection_times": [{"days": "Mon-Fri", "time": "10:15am"}, {"days": "Sat-Sun", "time": "Closed"}], "id": "4406000037", "name": "USPS COLLECTION BOX - BLUE BOX", "address": {"city": "MENTOR ON THE", "state": "OH", "street": "8500 STATION ST", "postcode": "44060"}}},
{"geometry": {"type": "Point", "coordinates": [-81.3325140274, 41.6862761238]}, "type": "Feature", "properties": {"collection_times": [{"days": "Mon-Sat", "time": "5:00pm"}, {"days": "Sun", "time": "Closed"}], "id": "4406000039", "name": "USPS COLLECTION BOX - EXPRESS", "address": {"city": "MENTOR ON THE", "state": "OH", "street": "8600 TYLER BLVD", "postcode": "44060"}}},
{"geometry": {"type": "Point", "coordinates": [-81.3325345363, 41.6862947831]}, "type": "Feature", "properties": {"collection_times": [{"days": "Mon-Sat", "time": "5:00pm"}, {"days": "Sun", "time": "Closed"}], "id": "4406000041", "name": "USPS COLLECTION BOX - BLUE BOX", "address": {"city": "MENTOR ON THE", "state": "OH", "street": "8600 TYLER BLVD", "postcode": "44060"}}},
{"geometry": {"type": "Point", "coordinates": [-81.3325345363, 41.6862947831]}, "type": "Feature", "properties": {"collection_times": [{"days": "Mon-Sat", "time": "5:00pm"}, {"days": "Sun", "time": "Closed"}], "id": "4406000043", "name": "USPS COLLECTION BOX - BLUE BOX", "address": {"city": "MENTOR ON THE", "state": "OH", "street": "8600 TYLER BLVD", "postcode": "44060"}}},
{"geometry": {"type": "Point", "coordinates": [-81.3398638951, 41.6689896217]}, "type": "Feature", "properties": {"collection_times": [{"days": "Mon-Fri", "time": "10:15am"}, {"days": "Sat", "time": "11:15am"}, {"days": "Sun", "time": "Closed"}], "id": "4406000044", "name": "USPS COLLECTION BOX - BLUE BOX", "address": {"city": "MENTOR ON THE", "state": "OH", "street": "7413 CENTER ST", "postcode": "44060"}}},
{"geometry": {"type": "Point", "coordinates": [-81.3470648212, 41.6646359874]}, "type": "Feature", "properties": {"collection_times": [{"days": "Mon-Sat", "time": "10:45am"}, {"days": "Sun", "time": "Closed"}], "id": "4406000045", "name": "USPS COLLECTION BOX - BLUE BOX", "address": {"city": "MENTOR ON THE", "state": "OH", "street": "8224 MENTOR AVE", "postcode": "44060"}}},
{"geometry": {"type": "Point", "coordinates": [-81.321960028, 41.6742927871]}, "type": "Feature", "properties": {"collection_times": [{"days": "Mon-Fri", "time": "11:30am"}, {"days": "Sat", "time": "12:00pm"}, {"days": "Sun", "time": "Closed"}], "id": "4406000046", "name": "USPS COLLECTION BOX - BLUE BOX", "address": {"city": "MENTOR ON THE", "state": "OH", "street": "8900 MENTOR AVE", "postcode": "44060"}}},
{"geometry": {"type": "Point", "coordinates": [-81.3080141629, 41.6777632831]}, "type": "Feature", "properties": {"collection_times": [{"days": "Mon-Fri", "time": "11:30am"}, {"days": "Sat", "time": "12:00pm"}, {"days": "Sun", "time": "Closed"}], "id": "4406000048", "name": "USPS COLLECTION BOX - BLUE BOX", "address": {"city": "MENTOR ON THE", "state": "OH", "street": "9303 MENTOR AVE", "postcode": "44060"}}},
{"geometry": {"type": "Point", "coordinates": [-81.3325345363, 41.6862947831]}, "type": "Feature", "properties": {"collection_times": [{"days": "Mon-Sat", "time": "5:00pm"}, {"days": "Sun", "time": "Closed"}], "id": "4406000049", "name": "USPS COLLECTION BOX - PO LOBBY", "address": {"city": "MENTOR ON THE", "state": "OH", "street": "8600 TYLER BLVD", "postcode": "44060"}}},
{"geometry": {"type": "Point", "coordinates": [-81.3113707594, 41.7428695451]}, "type": "Feature", "properties": {"collection_times": [{"days": "Mon-Fri", "time": "1:15pm"}, {"days": "Sat", "time": "12:30pm"}, {"days": "Sun", "time": "Closed"}], "id": "4406000050", "name": "USPS COLLECTION BOX - BLUE BOX", "address": {"city": "MENTOR ON THE", "state": "OH", "street": "4701 CORDUROY RD", "postcode": "44060"}}},
{"geometry": {"type": "Point", "coordinates": [-81.3569614559, 41.6567231749]}, "type": "Feature", "properties": {"collection_times": [{"days": "Mon-Sat", "time": "11:30am"}, {"days": "Sun", "time": "Closed"}], "id": "4406000051", "name": "USPS COLLECTION BOX - BLUE BOX", "address": {"city": "MENTOR ON THE", "state": "OH", "street": "7850 MENTOR AVE", "postcode": "44060"}}},
{"geometry": {"type": "Point", "coordinates": [-81.3325345363, 41.6862947831]}, "type": "Feature", "properties": {"collection_times": [{"days": "Mon-Sat", "time": "5:00pm"}, {"days": "Sun", "time": "Closed"}], "id": "4406000057", "name": "USPS COLLECTION BOX - PO LOBBY", "address": {"city": "MENTOR ON THE", "state": "OH", "street": "8600 TYLER BLVD", "postcode": "44060"}}},
{"geometry": {"type": "Point", "coordinates": [-81.2832547765, 41.6787955118]}, "type": "Feature", "properties": {"collection_times": [{"days": "Mon-Fri", "time": "11:45am"}, {"days": "Sat", "time": "12:15pm"}, {"days": "Sun", "time": "Closed"}], "id": "4406000060", "name": "USPS COLLECTION BOX - BLUE BOX", "address": {"city": "MENTOR ON THE", "state": "OH", "street": "9930 JOHNNYCAKE RIDGE RD", "postcode": "44060"}}},
{"geometry": {"type": "Point", "coordinates": [-81.3325345363, 41.6862947831]}, "type": "Feature", "properties": {"collection_times": [{"days": "Mon-Sat", "time": "5:00pm"}, {"days": "Sun", "time": "Closed"}], "id": "4406000061", "name": "USPS COLLECTION BOX - APC", "address": {"city": "MENTOR ON THE", "state": "OH", "street": "8600 TYLER BLVD", "postcode": "44060"}}},
{"geometry": {"type": "Point", "coordinates": [-81.3285278543, 41.7183517881]}, "type": "Feature", "properties": {"collection_times": [{"days": "Mon-Fri", "time": "1:15pm"}, {"days": "Sat", "time": "12:30pm"}, {"days": "Sun", "time": "Closed"}], "id": "4406000063", "name": "USPS COLLECTION BOX - BLUE BOX", "address": {"city": "MENTOR ON THE", "state": "OH", "street": "8674 LAKESHORE BLVD", "postcode": "44060"}}},
{"geometry": {"type": "Point", "coordinates": [-81.071072214, 41.4618910163]}, "type": "Feature", "properties": {"collection_times": [{"days": "Mon-Fri", "time": "4:15pm"}, {"days": "Sat", "time": "12:00pm"}, {"days": "Sun", "time": "Closed"}], "id": "4406200000", "name": "USPS COLLECTION BOX - PO LOBBY", "address": {"city": "MIDDLEFIELD", "state": "OH", "street": "15993 E HIGH ST", "postcode": "44062"}}},
{"geometry": {"type": "Point", "coordinates": [-81.071072214, 41.4618910163]}, "type": "Feature", "properties": {"collection_times": [{"days": "Mon-Fri", "time": "4:15pm"}, {"days": "Sat", "time": "12:00pm"}, {"days": "Sun", "time": "Closed"}], "id": "4406200001", "name": "USPS COLLECTION BOX - BLUE BOX", "address": {"city": "MIDDLEFIELD", "state": "OH", "street": "15993 E HIGH ST", "postcode": "44062"}}},
{"geometry": {"type": "Point", "coordinates": [-81.071072214, 41.4618910163]}, "type": "Feature", "properties": {"collection_times": [{"days": "Mon-Fri", "time": "4:15pm"}, {"days": "Sat", "time": "12:00pm"}, {"days": "Sun", "time": "Closed"}], "id": "4406200003", "name": "USPS COLLECTION BOX - BLUE BOX", "address": {"city": "MIDDLEFIELD", "state": "OH", "street": "15993 E HIGH ST", "postcode": "44062"}}},
{"geometry": {"type": "Point", "coordinates": [-81.0245624703, 41.4547635646]}, "type": "Feature", "properties": {"collection_times": [{"days": "Mon-Sat", "time": "12:00pm"}, {"days": "Sun", "time": "Closed"}], "id": "4406200004", "name": "USPS COLLECTION BOX - BLUE BOX", "address": {"city": "MIDDLEFIELD", "state": "OH", "street": "15050 S SPRINGDALE AVE", "postcode": "44062"}}},
{"geometry": {"type": "Point", "coordinates": [-81.0858328187, 41.4628356246]}, "type": "Feature", "properties": {"collection_times": [{"days": "Mon-Sat", "time": "12:00pm"}, {"days": "Sun", "time": "Closed"}], "id": "4406200005", "name": "USPS COLLECTION BOX - BLUE BOX", "address": {"city": "MIDDLEFIELD", "state": "OH", "street": "15575 W HIGH ST", "postcode": "44062"}}},
{"geometry": {"type": "Point", "coordinates": [-81.0738438869, 41.4620838386]}, "type": "Feature", "properties": {"collection_times": [{"days": "Mon-Sat", "time": "12:00pm"}, {"days": "Sun", "time": "Closed"}], "id": "4406200006", "name": "USPS COLLECTION BOX - BLUE BOX", "address": {"city": "MIDDLEFIELD", "state": "OH", "street": "15925 W HIGH ST", "postcode": "44062"}}},
{"geometry": {"type": "Point", "coordinates": [-81.09122392, 41.4632585169]}, "type": "Feature", "properties": {"collection_times": [{"days": "Mon-Sat", "time": "12:00pm"}, {"days": "Sun", "time": "Closed"}], "id": "4406200007", "name": "USPS COLLECTION BOX - BLUE BOX", "address": {"city": "MIDDLEFIELD", "state": "OH", "street": "15400 W HIGH ST", "postcode": "44062"}}},
{"geometry": {"type": "Point", "coordinates": [-81.071072214, 41.4618910163]}, "type": "Feature", "properties": {"collection_times": [{"days": "Mon-Fri", "time": "4:15pm"}, {"days": "Sat", "time": "12:00pm"}, {"days": "Sun", "time": "Closed"}], "id": "4406200008", "name": "USPS COLLECTION BOX - BLUE BOX", "address": {"city": "MIDDLEFIELD", "state": "OH", "street": "15993 E HIGH ST", "postcode": "44062"}}},
{"geometry": {"type": "Point", "coordinates": [-81.0888710146, 41.4660538489]}, "type": "Feature", "properties": {"collection_times": [{"days": "Mon-Sat", "time": "12:00pm"}, {"days": "Sun", "time": "Closed"}], "id": "4406200009", "name": "USPS COLLECTION BOX - BLUE BOX", "address": {"city": "MIDDLEFIELD", "state": "OH", "street": "14855 NORTHVIEW DR", "postcode": "44062"}}},
{"geometry": {"type": "Point", "coordinates": [-81.051123977, 41.6073239915]}, "type": "Feature", "properties": {"collection_times": [{"days": "Mon-Fri", "time": "4:00pm"}, {"days": "Sat", "time": "11:00am"}, {"days": "Sun", "time": "Closed"}], "id": "4406400000", "name": "USPS COLLECTION BOX - PO LOBBY", "address": {"city": "MONTVILLE", "state": "OH", "street": "16576 GAR HWY", "postcode": "44064"}}},
{"geometry": {"type": "Point", "coordinates": [-81.051123977, 41.6073239915]}, "type": "Feature", "properties": {"collection_times": [{"days": "Mon-Fri", "time": "4:15pm"}, {"days": "Sat", "time": "11:00am"}, {"days": "Sun", "time": "Closed"}], "id": "4406400001", "name": "USPS COLLECTION BOX - BLUE BOX", "address": {"city": "MONTVILLE", "state": "OH", "street": "16576 GAR HWY", "postcode": "44064"}}},
{"geometry": {"type": "Point", "coordinates": [-81.2560525774, 41.4633238412]}, "type": "Feature", "properties": {"collection_times": [{"days": "Mon-Fri", "time": "4:30pm"}, {"days": "Sat", "time": "12:00pm"}, {"days": "Sun", "time": "Closed"}], "id": "4406500000", "name": "USPS COLLECTION BOX - BLUE BOX", "address": {"city": "NEWBURY", "state": "OH", "street": "10756 KINSMAN RD", "postcode": "44065"}}},
{"geometry": {"type": "Point", "coordinates": [-81.2560525774, 41.4633238412]}, "type": "Feature", "properties": {"collection_times": [{"days": "Mon-Fri", "time": "4:30pm"}, {"days": "Sat", "time": "12:00pm"}, {"days": "Sun", "time": "Closed"}], "id": "4406500001", "name": "USPS COLLECTION BOX - PO LOBBY", "address": {"city": "NEWBURY", "state": "OH", "street": "10756 KINSMAN RD", "postcode": "44065"}}},
{"geometry": {"type": "Point", "coordinates": [-81.2447412367, 41.463283359]}, "type": "Feature", "properties": {"collection_times": [{"days": "Mon-Sat", "time": "12:00pm"}, {"days": "Sun", "time": "Closed"}], "id": "4406500003", "name": "USPS COLLECTION BOX - BLUE BOX", "address": {"city": "NEWBURY", "state": "OH", "street": "11044 KINSMAN RD", "postcode": "44065"}}},
{"geometry": {"type": "Point", "coordinates": [-81.1927192974, 41.470953293]}, "type": "Feature", "properties": {"collection_times": [{"days": "Mon-Sat", "time": "11:00am"}, {"days": "Sun", "time": "Closed"}], "id": "4406500004", "name": "USPS COLLECTION BOX - BLUE BOX", "address": {"city": "NEWBURY", "state": "OH", "street": "12418 KINSMAN RD", "postcode": "44065"}}},
{"geometry": {"type": "Point", "coordinates": [-81.5645612906, 41.3120207621]}, "type": "Feature", "properties": {"collection_times": [{"days": "Mon-Fri", "time": "2:00pm"}, {"days": "Sat", "time": "12:00pm"}, {"days": "Sun", "time": "Closed"}], "id": "4406700000", "name": "USPS COLLECTION BOX - BLUE BOX", "address": {"city": "MACEDONIA", "state": "OH", "street": "830 VILLAGE CLUB RD", "postcode": "44067"}}},
{"geometry": {"type": "Point", "coordinates": [-81.5574446832, 41.3143063201]}, "type": "Feature", "properties": {"collection_times": [{"days": "Mon-Sat", "time": "2:00pm"}, {"days": "Sun", "time": "Closed"}], "id": "4406700001", "name": "USPS COLLECTION BOX - BLUE BOX", "address": {"city": "MACEDONIA", "state": "OH", "street": "526 W AURORA RD", "postcode": "44067"}}},
{"geometry": {"type": "Point", "coordinates": [-81.5292310382, 41.3416858241]}, "type": "Feature", "properties": {"collection_times": [{"days": "Mon-Sat", "time": "2:00pm"}, {"days": "Sun", "time": "Closed"}], "id": "4406700003", "name": "USPS COLLECTION BOX - BLUE BOX", "address": {"city": "MACEDONIA", "state": "OH", "street": "10333 NORTHFIELD RD", "postcode": "44067"}}},
{"geometry": {"type": "Point", "coordinates": [-81.5390105599, 41.3170589843]}, "type": "Feature", "properties": {"collection_times": [{"days": "Mon-Sat", "time": "2:00pm"}, {"days": "Sun", "time": "Closed"}], "id": "4406700005", "name": "USPS COLLECTION BOX - BLUE BOX", "address": {"city": "MACEDONIA", "state": "OH", "street": "9458 OLDE 8 RD", "postcode": "44067"}}},
{"geometry": {"type": "Point", "coordinates": [-81.5261281368, 41.3230341101]}, "type": "Feature", "properties": {"collection_times": [{"days": "Mon-Fri", "time": "5:00pm"}, {"days": "Sat", "time": "3:30pm"}, {"days": "Sun", "time": "Closed"}], "id": "4406700006", "name": "USPS COLLECTION BOX - BLUE BOX", "address": {"city": "MACEDONIA", "state": "OH", "street": "10377 VALLEY VIEW RD", "postcode": "44067"}}},
{"geometry": {"type": "Point", "coordinates": [-81.5261281368, 41.3230341101]}, "type": "Feature", "properties": {"collection_times": [{"days": "Mon-Fri", "time": "5:00pm"}, {"days": "Sat", "time": "3:30pm"}, {"days": "Sun", "time": "Closed"}], "id": "4406700013", "name": "USPS COLLECTION BOX - PO LOBBY", "address": {"city": "MACEDONIA", "state": "OH", "street": "10377 VALLEY VIEW RD", "postcode": "44067"}}},
{"geometry": {"type": "Point", "coordinates": [-81.5261281368, 41.3230341101]}, "type": "Feature", "properties": {"collection_times": [{"days": "Mon-Fri", "time": "5:00pm"}, {"days": "Sat", "time": "3:30pm"}, {"days": "Sun", "time": "Closed"}], "id": "4406700020", "name": "USPS COLLECTION BOX - PO LOBBY", "address": {"city": "MACEDONIA", "state": "OH", "street": "10377 VALLEY VIEW RD", "postcode": "44067"}}},
{"geometry": {"type": "Point", "coordinates": [-81.5050336126, 41.3150444052]}, "type": "Feature", "properties": {"collection_times": [{"days": "Mon-Fri", "time": "2:00pm"}, {"days": "Sat", "time": "12:30pm"}, {"days": "Sun", "time": "Closed"}], "id": "4406700022", "name": "USPS COLLECTION BOX - BLUE BOX", "address": {"city": "MACEDONIA", "state": "OH", "street": "8536 CROW DR", "postcode": "44067"}}},
{"geometry": {"type": "Point", "coordinates": [-81.5159558727, 41.3124655547]}, "type": "Feature", "properties": {"collection_times": [{"days": "Mon-Sat", "time": "2:00pm"}, {"days": "Sun", "time": "Closed"}], "id": "4406700023", "name": "USPS COLLECTION BOX - BLUE BOX", "address": {"city": "MACEDONIA", "state": "OH", "street": "8210 MACEDONIA COMMONS BLVD", "postcode": "44067"}}},
{"geometry": {"type": "Point", "coordinates": [-81.5053553774, 41.3111974227]}, "type": "Feature", "properties": {"collection_times": [{"days": "Mon-Sat", "time": "2:00pm"}, {"days": "Sun", "time": "Closed"}], "id": "4406700024", "name": "USPS COLLECTION BOX - BLUE BOX", "address": {"city": "MACEDONIA", "state": "OH", "street": "9699 VALLEY VIEW RD", "postcode": "44067"}}},
{"geometry": {"type": "Point", "coordinates": [-80.6498342778, 41.9217579676]}, "type": "Feature", "properties": {"collection_times": [{"days": "Mon-Fri", "time": "4:30pm"}, {"days": "Sat", "time": "11:00am"}, {"days": "Sun", "time": "Closed"}], "id": "4406800001", "name": "USPS COLLECTION BOX - BLUE BOX", "address": {"city": "NORTH KINGSVILLE", "state": "OH", "street": "2716 E CENTER ST", "postcode": "44068"}}},
{"geometry": {"type": "Point", "coordinates": [-80.6498342778, 41.9217579676]}, "type": "Feature", "properties": {"collection_times": [{"days": "Mon-Fri", "time": "4:30pm"}, {"days": "Sat", "time": "11:00am"}, {"days": "Sun", "time": "Closed"}], "id": "4406800002", "name": "USPS COLLECTION BOX - PO LOBBY", "address": {"city": "NORTH KINGSVILLE", "state": "OH", "street": "2716 E CENTER ST", "postcode": "44068"}}},
{"geometry": {"type": "Point", "coordinates": [-81.9204130917, 41.4194630101]}, "type": "Feature", "properties": {"collection_times": [{"days": "Mon-Fri", "time": "2:30pm"}, {"days": "Sat", "time": "2:00pm"}, {"days": "Sun", "time": "Closed"}], "id": "4407000000", "name": "USPS COLLECTION BOX - BLUE BOX", "address": {"city": "NORTH OLMSTED", "state": "OH", "street": "26700 BROOKPARK ROAD EXT", "postcode": "44070"}}},
{"geometry": {"type": "Point", "coordinates": [-81.9130657336, 41.4202070913]}, "type": "Feature", "properties": {"collection_times": [{"days": "Mon-Sat", "time": "2:30pm"}, {"days": "Sun", "time": "Closed"}], "id": "4407000002", "name": "USPS COLLECTION BOX - BLUE BOX", "address": {"city": "NORTH OLMSTED", "state": "OH", "street": "4768 CANTERBURY RD", "postcode": "44070"}}},
{"geometry": {"type": "Point", "coordinates": [-81.9668966003, 41.3923005475]}, "type": "Feature", "properties": {"collection_times": [{"days": "Mon-Sat", "time": "2:00pm"}, {"days": "Sun", "time": "Closed"}], "id": "4407000003", "name": "USPS COLLECTION BOX - BLUE BOX", "address": {"city": "NORTH OLMSTED", "state": "OH", "street": "31351 LORAIN RD", "postcode": "44070"}}},
{"geometry": {"type": "Point", "coordinates": [-81.8947370834, 41.4265555365]}, "type": "Feature", "properties": {"collection_times": [{"days": "Mon-Fri", "time": "2:30pm"}, {"days": "Sat", "time": "11:30am"}, {"days": "Sun", "time": "Closed"}], "id": "4407000005", "name": "USPS COLLECTION BOX - BLUE BOX", "address": {"city": "NORTH OLMSTED", "state": "OH", "street": "24485 LORAIN RD", "postcode": "44070"}}},
{"geometry": {"type": "Point", "coordinates": [-81.9126457831, 41.4135044458]}, "type": "Feature", "properties": {"collection_times": [{"days": "Mon-Sat", "time": "1:30pm"}, {"days": "Sun", "time": "Closed"}], "id": "4407000007", "name": "USPS COLLECTION BOX - BLUE BOX", "address": {"city": "NORTH OLMSTED", "state": "OH", "street": "26101 COUNTRY CLUB BLVD", "postcode": "44070"}}},
{"geometry": {"type": "Point", "coordinates": [-81.8852575844, 41.4315006477]}, "type": "Feature", "properties": {"collection_times": [{"days": "Mon-Fri", "time": "2:30pm"}, {"days": "Sat", "time": "2:15pm"}, {"days": "Sun", "time": "Closed"}], "id": "4407000009", "name": "USPS COLLECTION BOX - BLUE BOX", "address": {"city": "NORTH OLMSTED", "state": "OH", "street": "23789 LORAIN RD", "postcode": "44070"}}},
{"geometry": {"type": "Point", "coordinates": [-81.9110369807, 41.4188016365]}, "type": "Feature", "properties": {"collection_times": [{"days": "Mon-Sat", "time": "11:30am"}, {"days": "Sun", "time": "Closed"}], "id": "4407000013", "name": "USPS COLLECTION BOX - BLUE BOX", "address": {"city": "NORTH OLMSTED", "state": "OH", "street": "25913 BROOKPARK RD", "postcode": "44070"}}},
{"geometry": {"type": "Point", "coordinates": [-81.9016339575, 41.4196551027]}, "type": "Feature", "properties": {"collection_times": [{"days": "Mon-Fri", "time": "2:20pm"}, {"days": "Sat", "time": "2:00pm"}, {"days": "Sun", "time": "Closed"}], "id": "4407000016", "name": "USPS COLLECTION BOX - BLUE BOX", "address": {"city": "NORTH OLMSTED", "state": "OH", "street": "4763 GREAT NORTHERN BLVD", "postcode": "44070"}}},
{"geometry": {"type": "Point", "coordinates": [-81.906430197, 41.4216787283]}, "type": "Feature", "properties": {"collection_times": [{"days": "Mon-Sat", "time": "1:00pm"}, {"days": "Sun", "time": "Closed"}], "id": "4407000021", "name": "USPS COLLECTION BOX - BLUE BOX", "address": {"city": "NORTH OLMSTED", "state": "OH", "street": "25735 LORAIN RD", "postcode": "44070"}}},
{"geometry": {"type": "Point", "coordinates": [-81.9429548576, 41.4072653035]}, "type": "Feature", "properties": {"collection_times": [{"days": "Mon-Sat", "time": "2:00pm"}, {"days": "Sun", "time": "Closed"}], "id": "4407000023", "name": "USPS COLLECTION BOX - BLUE BOX", "address": {"city": "NORTH OLMSTED", "state": "OH", "street": "28981 LORAIN RD", "postcode": "44070"}}},
{"geometry": {"type": "Point", "coordinates": [-81.9370561414, 41.409634987]}, "type": "Feature", "properties": {"collection_times": [{"days": "Mon-Fri", "time": "5:00pm"}, {"days": "Sat", "time": "4:15pm"}, {"days": "Sun", "time": "Closed"}], "id": "4407000027", "name": "USPS COLLECTION BOX - PO LOBBY", "address": {"city": "NORTH OLMSTED", "state": "OH", "street": "28475 LORAIN RD", "postcode": "44070"}}},
{"geometry": {"type": "Point", "coordinates": [-81.8753563967, 41.439517986]}, "type": "Feature", "properties": {"collection_times": [{"days": "Mon-Sat", "time": "2:15pm"}, {"days": "Sun", "time": "Closed"}], "id": "4407000031", "name": "USPS COLLECTION BOX - BLUE BOX", "address": {"city": "NORTH OLMSTED", "state": "OH", "street": "22958 MAPLE RIDGE RD", "postcode": "44070"}}},
{"geometry": {"type": "Point", "coordinates": [-81.9129182394, 41.4177214607]}, "type": "Feature", "properties": {"collection_times": [{"days": "Mon-Fri", "time": "2:15pm"}, {"days": "Sat-Sun", "time": "Closed"}], "id": "4407000033", "name": "USPS COLLECTION BOX - EXPRESS", "address": {"city": "NORTH OLMSTED", "state": "OH", "street": "24950 COUNTRY CLUB BLVD", "postcode": "44070"}}},
{"geometry": {"type": "Point", "coordinates": [-81.9129182394, 41.4177214607]}, "type": "Feature", "properties": {"collection_times": [{"days": "Mon-Fri", "time": "2:15pm"}, {"days": "Sat-Sun", "time": "Closed"}], "id": "4407000034", "name": "USPS COLLECTION BOX - EXPRESS", "address": {"city": "NORTH OLMSTED", "state": "OH", "street": "25000 COUNTRY CLUB BLVD", "postcode": "44070"}}},
{"geometry": {"type": "Point", "coordinates": [-81.9370561414, 41.409634987]}, "type": "Feature", "properties": {"collection_times": [{"days": "Mon-Fri", "time": "5:00pm"}, {"days": "Sat", "time": "4:15pm"}, {"days": "Sun", "time": "Closed"}], "id": "4407000036", "name": "USPS COLLECTION BOX - PO LOBBY", "address": {"city": "NORTH OLMSTED", "state": "OH", "street": "28475 LORAIN RD", "postcode": "44070"}}},
{"geometry": {"type": "Point", "coordinates": [-81.9370561414, 41.409634987]}, "type": "Feature", "properties": {"collection_times": [{"days": "Mon-Fri", "time": "5:00pm"}, {"days": "Sat", "time": "4:15pm"}, {"days": "Sun", "time": "Closed"}], "id": "4407000037", "name": "USPS COLLECTION BOX - BLUE BOX", "address": {"city": "NORTH OLMSTED", "state": "OH", "street": "28475 LORAIN RD", "postcode": "44070"}}},
{"geometry": {"type": "Point", "coordinates": [-81.9129182394, 41.4177214607]}, "type": "Feature", "properties": {"collection_times": [{"days": "Mon-Fri", "time": "2:00pm"}, {"days": "Sat-Sun", "time": "Closed"}], "id": "4407000038", "name": "USPS COLLECTION BOX - EXPRESS", "address": {"city": "NORTH OLMSTED", "state": "OH", "street": "25221 COUNTRY CLUB BLVD", "postcode": "44070"}}},
{"geometry": {"type": "Point", "coordinates": [-81.9129182394, 41.4177214607]}, "type": "Feature", "properties": {"collection_times": [{"days": "Mon-Fri", "time": "2:00pm"}, {"days": "Sat-Sun", "time": "Closed"}], "id": "4407000039", "name": "USPS COLLECTION BOX - EXPRESS", "address": {"city": "NORTH OLMSTED", "state": "OH", "street": "25111 COUNTRY CLUB BLVD", "postcode": "44070"}}},
{"geometry": {"type": "Point", "coordinates": [-81.883677484, 41.4422870204]}, "type": "Feature", "properties": {"collection_times": [{"days": "Mon-Sat", "time": "2:15pm"}, {"days": "Sun", "time": "Closed"}], "id": "4407000040", "name": "USPS COLLECTION BOX - BLUE BOX", "address": {"city": "NORTH OLMSTED", "state": "OH", "street": "3153 CLAGUE RD", "postcode": "44070"}}},
{"geometry": {"type": "Point", "coordinates": [-81.9370561414, 41.409634987]}, "type": "Feature", "properties": {"collection_times": [{"days": "Mon-Fri", "time": "5:00pm"}, {"days": "Sat", "time": "4:15pm"}, {"days": "Sun", "time": "Closed"}], "id": "4407000048", "name": "USPS COLLECTION BOX - APC", "address": {"city": "NORTH OLMSTED", "state": "OH", "street": "28475 LORAIN RD", "postcode": "44070"}}},
{"geometry": {"type": "Point", "coordinates": [-81.3401740853, 41.4640794904]}, "type": "Feature", "properties": {"collection_times": [{"days": "Mon-Fri", "time": "4:30pm"}, {"days": "Sat", "time": "12:00pm"}, {"days": "Sun", "time": "Closed"}], "id": "4407200000", "name": "USPS COLLECTION BOX - PO LOBBY", "address": {"city": "NOVELTY", "state": "OH", "street": "14837 CHILLICOTHE RD", "postcode": "44072"}}},
{"geometry": {"type": "Point", "coordinates": [-81.3401740853, 41.4640794904]}, "type": "Feature", "properties": {"collection_times": [{"days": "Mon-Fri", "time": "4:30pm"}, {"days": "Sat", "time": "12:00pm"}, {"days": "Sun", "time": "Closed"}], "id": "4407200001", "name": "USPS COLLECTION BOX - BLUE BOX", "address": {"city": "NOVELTY", "state": "OH", "street": "14837 CHILLICOTHE RD", "postcode": "44072"}}},
{"geometry": {"type": "Point", "coordinates": [-81.3401740853, 41.4640794904]}, "type": "Feature", "properties": {"collection_times": [{"days": "Mon-Fri", "time": "4:30pm"}, {"days": "Sat", "time": "12:00pm"}, {"days": "Sun", "time": "Closed"}], "id": "4407200002", "name": "USPS COLLECTION BOX - BLUE BOX", "address": {"city": "NOVELTY", "state": "OH", "street": "14837 CHILLICOTHE RD", "postcode": "44072"}}},
{"geometry": {"type": "Point", "coordinates": [-81.3401740853, 41.4640794904]}, "type": "Feature", "properties": {"collection_times": [{"days": "Mon-Fri", "time": "4:30pm"}, {"days": "Sat", "time": "12:00pm"}, {"days": "Sun", "time": "Closed"}], "id": "4407200003", "name": "USPS COLLECTION BOX - BLUE BOX", "address": {"city": "NOVELTY", "state": "OH", "street": "14837 CHILLICOTHE RD", "postcode": "44072"}}},
{"geometry": {"type": "Point", "coordinates": [-82.2263973512, 41.2882707118]}, "type": "Feature", "properties": {"collection_times": [{"days": "Mon-Fri", "time": "5:00pm"}, {"days": "Sat", "time": "1:30pm"}, {"days": "Sun", "time": "Closed"}], "id": "4407400000", "name": "USPS COLLECTION BOX - PO LOBBY", "address": {"city": "OBERLIN", "state": "OH", "street": "68 S MAIN ST", "postcode": "44074"}}},
{"geometry": {"type": "Point", "coordinates": [-82.2263973512, 41.2882707118]}, "type": "Feature", "properties": {"collection_times": [{"days": "Mon-Fri", "time": "5:00pm"}, {"days": "Sat", "time": "1:20pm"}, {"days": "Sun", "time": "Closed"}], "id": "4407400002", "name": "USPS COLLECTION BOX - BLUE BOX", "address": {"city": "OBERLIN", "state": "OH", "street": "68 S MAIN ST", "postcode": "44074"}}},
{"geometry": {"type": "Point", "coordinates": [-82.2263973512, 41.2882707118]}, "type": "Feature", "properties": {"collection_times": [{"days": "Mon-Fri", "time": "5:00pm"}, {"days": "Sat", "time": "1:20pm"}, {"days": "Sun", "time": "Closed"}], "id": "4407400003", "name": "USPS COLLECTION BOX - EXPRESS", "address": {"city": "OBERLIN", "state": "OH", "street": "68 S MAIN ST", "postcode": "44074"}}},
{"geometry": {"type": "Point", "coordinates": [-82.2174706492, 41.2897740358]}, "type": "Feature", "properties": {"collection_times": [{"days": "Mon-Fri", "time": "4:15pm"}, {"days": "Sat", "time": "1:15pm"}, {"days": "Sun", "time": "Closed"}], "id": "4407400004", "name": "USPS COLLECTION BOX - BLUE BOX", "address": {"city": "OBERLIN", "state": "OH", "street": "69 S MAIN ST", "postcode": "44074"}}},
{"geometry": {"type": "Point", "coordinates": [-82.2263973515, 41.288270758]}, "type": "Feature", "properties": {"collection_times": [{"days": "Mon-Fri", "time": "4:00pm"}, {"days": "Sat", "time": "1:00pm"}, {"days": "Sun", "time": "Closed"}], "id": "4407400005", "name": "USPS COLLECTION BOX - BLUE BOX", "address": {"city": "OBERLIN", "state": "OH", "street": "11 S MAIN ST", "postcode": "44074"}}},
{"geometry": {"type": "Point", "coordinates": [-82.2186204853, 41.291670319]}, "type": "Feature", "properties": {"collection_times": [{"days": "Mon-Fri", "time": "3:15pm"}, {"days": "Sat", "time": "12:30pm"}, {"days": "Sun", "time": "Closed"}], "id": "4407400006", "name": "USPS COLLECTION BOX - BLUE BOX", "address": {"city": "OBERLIN", "state": "OH", "street": "37 W COLLEGE ST", "postcode": "44074"}}},
{"geometry": {"type": "Point", "coordinates": [-82.2257336176, 41.2942255104]}, "type": "Feature", "properties": {"collection_times": [{"days": "Mon-Sat", "time": "8:45am"}, {"days": "Sun", "time": "Closed"}], "id": "4407400008", "name": "USPS COLLECTION BOX - BLUE BOX", "address": {"city": "OBERLIN", "state": "OH", "street": "224 W LORAIN ST", "postcode": "44074"}}},
{"geometry": {"type": "Point", "coordinates": [-82.2218015262, 41.2941569205]}, "type": "Feature", "properties": {"collection_times": [{"days": "Mon-Fri", "time": "3:30pm"}, {"days": "Sat", "time": "12:45pm"}, {"days": "Sun", "time": "Closed"}], "id": "4407400009", "name": "USPS COLLECTION BOX - BLUE BOX", "address": {"city": "OBERLIN", "state": "OH", "street": "135 W LORAIN ST", "postcode": "44074"}}},
{"geometry": {"type": "Point", "coordinates": [-82.2200246576, 41.2920216578]}, "type": "Feature", "properties": {"collection_times": [{"days": "Mon-Sat", "time": "9:30am"}, {"days": "Sun", "time": "Closed"}], "id": "4407400010", "name": "USPS COLLECTION BOX - BLUE BOX", "address": {"city": "OBERLIN", "state": "OH", "street": "10 N PROFESSOR ST", "postcode": "44074"}}},
{"geometry": {"type": "Point", "coordinates": [-82.2219008306, 41.29827123]}, "type": "Feature", "properties": {"collection_times": [{"days": "Mon-Sat", "time": "9:15am"}, {"days": "Sun", "time": "Closed"}], "id": "4407400016", "name": "USPS COLLECTION BOX - BLUE BOX", "address": {"city": "OBERLIN", "state": "OH", "street": "244 N PROFESSOR ST", "postcode": "44074"}}},
{"geometry": {"type": "Point", "coordinates": [-82.2116008068, 41.2915804141]}, "type": "Feature", "properties": {"collection_times": [{"days": "Mon-Sat", "time": "11:00am"}, {"days": "Sun", "time": "Closed"}], "id": "4407400017", "name": "USPS COLLECTION BOX - BLUE BOX", "address": {"city": "OBERLIN", "state": "OH", "street": "143 E COLLEGE ST", "postcode": "44074"}}},
{"geometry": {"type": "Point", "coordinates": [-82.2167603086, 41.3091518903]}, "type": "Feature", "properties": {"collection_times": [{"days": "Mon-Fri", "time": "3:30pm"}, {"days": "Sat", "time": "12:45pm"}, {"days": "Sun", "time": "Closed"}], "id": "4407400023", "name": "USPS COLLECTION BOX - BLUE BOX", "address": {"city": "OBERLIN", "state": "OH", "street": "12289 LEAVITT RD", "postcode": "44074"}}},
{"geometry": {"type": "Point", "coordinates": [-82.2201429535, 41.2886005405]}, "type": "Feature", "properties": {"collection_times": [{"days": "Mon-Fri", "time": "3:15pm"}, {"days": "Sat", "time": "12:30pm"}, {"days": "Sun", "time": "Closed"}], "id": "4407400024", "name": "USPS COLLECTION BOX - BLUE BOX", "address": {"city": "OBERLIN", "state": "OH", "street": "111 S PROFESSOR ST", "postcode": "44074"}}},
{"geometry": {"type": "Point", "coordinates": [-82.2054009189, 41.2940409688]}, "type": "Feature", "properties": {"collection_times": [{"days": "Mon-Fri", "time": "3:15pm"}, {"days": "Sat", "time": "12:30pm"}, {"days": "Sun", "time": "Closed"}], "id": "4407400026", "name": "USPS COLLECTION BOX - BLUE BOX", "address": {"city": "OBERLIN", "state": "OH", "street": "331 E LORAIN ST", "postcode": "44074"}}},
{"geometry": {"type": "Point", "coordinates": [-82.2176480931, 41.2837125541]}, "type": "Feature", "properties": {"collection_times": [{"days": "Mon-Fri", "time": "3:15pm"}, {"days": "Sat", "time": "12:30pm"}, {"days": "Sun", "time": "Closed"}], "id": "4407400027", "name": "USPS COLLECTION BOX - BLUE BOX", "address": {"city": "OBERLIN", "state": "OH", "street": "291 S MAIN ST", "postcode": "44074"}}},
{"geometry": {"type": "Point", "coordinates": [-82.2263973512, 41.2882707118]}, "type": "Feature", "properties": {"collection_times": [{"days": "Mon-Fri", "time": "5:00pm"}, {"days": "Sat", "time": "1:20pm"}, {"days": "Sun", "time": "Closed"}], "id": "4407400029", "name": "USPS COLLECTION BOX - BLUE BOX", "address": {"city": "OBERLIN", "state": "OH", "street": "68 S MAIN ST", "postcode": "44074"}}},
{"geometry": {"type": "Point", "coordinates": [-80.8679621744, 41.5340834659]}, "type": "Feature", "properties": {"collection_times": [{"days": "Mon-Fri", "time": "4:30pm"}, {"days": "Sat", "time": "12:00pm"}, {"days": "Sun", "time": "Closed"}], "id": "4407600000", "name": "USPS COLLECTION BOX - PO LOBBY", "address": {"city": "ORWELL", "state": "OH", "street": "47 S MAPLE ST", "postcode": "44076"}}},
{"geometry": {"type": "Point", "coordinates": [-80.8679621744, 41.5340834659]}, "type": "Feature", "properties": {"collection_times": [{"days": "Mon-Fri", "time": "4:30pm"}, {"days": "Sat", "time": "12:00pm"}, {"days": "Sun", "time": "Closed"}], "id": "4407600001", "name": "USPS COLLECTION BOX - BLUE BOX", "address": {"city": "ORWELL", "state": "OH", "street": "47 S MAPLE ST", "postcode": "44076"}}},
{"geometry": {"type": "Point", "coordinates": [-81.240359183, 41.7151631572]}, "type": "Feature", "properties": {"collection_times": [{"days": "Mon-Fri", "time": "2:15pm"}, {"days": "Sat", "time": "2:00pm"}, {"days": "Sun", "time": "Closed"}], "id": "4407700009", "name": "USPS COLLECTION BOX - BLUE BOX", "address": {"city": "PAINESVILLE", "state": "OH", "street": "7941 PAINESVILLE RAVENNA RD", "postcode": "44077"}}},
{"geometry": {"type": "Point", "coordinates": [-81.240359183, 41.7151631572]}, "type": "Feature", "properties": {"collection_times": [{"days": "Mon-Fri", "time": "4:30pm"}, {"days": "Sat", "time": "11:30am"}, {"days": "Sun", "time": "Closed"}], "id": "4407700010", "name": "USPS COLLECTION BOX - BLUE BOX", "address": {"city": "PAINESVILLE", "state": "OH", "street": "705 HIGH ST", "postcode": "44077"}}},
{"geometry": {"type": "Point", "coordinates": [-81.240359183, 41.7151631572]}, "type": "Feature", "properties": {"collection_times": [{"days": "Mon-Sat", "time": "11:30am"}, {"days": "Sun", "time": "Closed"}], "id": "4407700014", "name": "USPS COLLECTION BOX - BLUE BOX", "address": {"city": "PAINESVILLE", "state": "OH", "street": "56 LIBERTY ST", "postcode": "44077"}}},
{"geometry": {"type": "Point", "coordinates": [-81.240359183, 41.7151631572]}, "type": "Feature", "properties": {"collection_times": [{"days": "Mon-Sat", "time": "12:30pm"}, {"days": "Sun", "time": "Closed"}], "id": "4407700015", "name": "USPS COLLECTION BOX - BLUE BOX", "address": {"city": "PAINESVILLE", "state": "OH", "street": "1525 MADISON AVE", "postcode": "44077"}}},
{"geometry": {"type": "Point", "coordinates": [-81.240359183, 41.7151631572]}, "type": "Feature", "properties": {"collection_times": [{"days": "Mon-Sat", "time": "10:30am"}, {"days": "Sun", "time": "Closed"}], "id": "4407700020", "name": "USPS COLLECTION BOX - BLUE BOX", "address": {"city": "PAINESVILLE", "state": "OH", "street": "1507 MENTOR AVE", "postcode": "44077"}}},
{"geometry": {"type": "Point", "coordinates": [-81.240359183, 41.7151631572]}, "type": "Feature", "properties": {"collection_times": [{"days": "Mon-Sat", "time": "2:30pm"}, {"days": "Sun", "time": "Closed"}], "id": "4407700022", "name": "USPS COLLECTION BOX - BLUE BOX", "address": {"city": "PAINESVILLE", "state": "OH", "street": "1651 MENTOR AVE", "postcode": "44077"}}},
{"geometry": {"type": "Point", "coordinates": [-81.240359183, 41.7151631572]}, "type": "Feature", "properties": {"collection_times": [{"days": "Mon-Fri", "time": "5:00pm"}, {"days": "Sat", "time": "3:30pm"}, {"days": "Sun", "time": "Closed"}], "id": "4407700024", "name": "USPS COLLECTION BOX - PO LOBBY", "address": {"city": "PAINESVILLE", "state": "OH", "street": "215 E JACKSON ST", "postcode": "44077"}}},
{"geometry": {"type": "Point", "coordinates": [-81.240359183, 41.7151631572]}, "type": "Feature", "properties": {"collection_times": [{"days": "Mon-Fri", "time": "5:00pm"}, {"days": "Sat", "time": "3:00pm"}, {"days": "Sun", "time": "Closed"}], "id": "4407700026", "name": "USPS COLLECTION BOX - BLUE BOX", "address": {"city": "PAINESVILLE", "state": "OH", "street": "215 E JACKSON ST", "postcode": "44077"}}},
{"geometry": {"type": "Point", "coordinates": [-81.240359183, 41.7151631572]}, "type": "Feature", "properties": {"collection_times": [{"days": "Mon-Fri", "time": "5:00pm"}, {"days": "Sat", "time": "3:00pm"}, {"days": "Sun", "time": "Closed"}], "id": "4407700027", "name": "USPS COLLECTION BOX - BLUE BOX", "address": {"city": "PAINESVILLE", "state": "OH", "street": "215 E JACKSON ST", "postcode": "44077"}}},
{"geometry": {"type": "Point", "coordinates": [-81.240359183, 41.7151631572]}, "type": "Feature", "properties": {"collection_times": [{"days": "Mon-Fri", "time": "5:00pm"}, {"days": "Sat", "time": "1:30pm"}, {"days": "Sun", "time": "Closed"}], "id": "4407700029", "name": "USPS COLLECTION BOX - BLUE BOX", "address": {"city": "PAINESVILLE", "state": "OH", "street": "85 S PARK PL", "postcode": "44077"}}},
{"geometry": {"type": "Point", "coordinates": [-81.240359183, 41.7151631572]}, "type": "Feature", "properties": {"collection_times": [{"days": "Mon-Fri", "time": "5:00pm"}, {"days": "Sat", "time": "1:30pm"}, {"days": "Sun", "time": "Closed"}], "id": "4407700033", "name": "USPS COLLECTION BOX - BLUE BOX", "address": {"city": "PAINESVILLE", "state": "OH", "street": "85 S PARK PL", "postcode": "44077"}}},
{"geometry": {"type": "Point", "coordinates": [-81.240359183, 41.7151631572]}, "type": "Feature", "properties": {"collection_times": [{"days": "Mon-Sat", "time": "10:30am"}, {"days": "Sun", "time": "Closed"}], "id": "4407700034", "name": "USPS COLLECTION BOX - BLUE BOX", "address": {"city": "PAINESVILLE", "state": "OH", "street": "2736 N RIDGE RD", "postcode": "44077"}}},
{"geometry": {"type": "Point", "coordinates": [-81.240359183, 41.7151631572]}, "type": "Feature", "properties": {"collection_times": [{"days": "Mon-Sat", "time": "10:30am"}, {"days": "Sun", "time": "Closed"}], "id": "4407700036", "name": "USPS COLLECTION BOX - BLUE BOX", "address": {"city": "PAINESVILLE", "state": "OH", "street": "1871 N RIDGE RD", "postcode": "44077"}}},
{"geometry": {"type": "Point", "coordinates": [-81.240359183, 41.7151631572]}, "type": "Feature", "properties": {"collection_times": [{"days": "Mon-Sat", "time": "12:00pm"}, {"days": "Sun", "time": "Closed"}], "id": "4407700037", "name": "USPS COLLECTION BOX - BLUE BOX", "address": {"city": "PAINESVILLE", "state": "OH", "street": "8 N STATE ST", "postcode": "44077"}}},
{"geometry": {"type": "Point", "coordinates": [-81.240359183, 41.7151631572]}, "type": "Feature", "properties": {"collection_times": [{"days": "Mon-Sat", "time": "12:30pm"}, {"days": "Sun", "time": "Closed"}], "id": "4407700047", "name": "USPS COLLECTION BOX - BLUE BOX", "address": {"city": "PAINESVILLE", "state": "OH", "street": "301 EAST ST", "postcode": "44077"}}},
{"geometry": {"type": "Point", "coordinates": [-81.240359183, 41.7151631572]}, "type": "Feature", "properties": {"collection_times": [{"days": "Mon-Sat", "time": "10:00am"}, {"days": "Sun", "time": "Closed"}], "id": "4407700048", "name": "USPS COLLECTION BOX - BLUE BOX", "address": {"city": "PAINESVILLE", "state": "OH", "street": "9946 JOHNNYCAKE RIDGE RD", "postcode": "44077"}}},
{"geometry": {"type": "Point", "coordinates": [-81.240359183, 41.7151631572]}, "type": "Feature", "properties": {"collection_times": [{"days": "Mon-Fri", "time": "1:45pm"}, {"days": "Sat", "time": "2:00pm"}, {"days": "Sun", "time": "Closed"}], "id": "4407700049", "name": "USPS COLLECTION BOX - BLUE BOX", "address": {"city": "PAINESVILLE", "state": "OH", "street": "7184 N EXCALIBUR DR", "postcode": "44077"}}},
{"geometry": {"type": "Point", "coordinates": [-81.2428950009, 41.7159457627]}, "type": "Feature", "properties": {"collection_times": [{"days": "Mon-Sat", "time": "1:00pm"}, {"days": "Sun", "time": "Closed"}], "id": "4407700053", "name": "USPS COLLECTION BOX - BLUE BOX", "address": {"city": "PAINESVILLE", "state": "OH", "street": "65 W WALNUT AVE", "postcode": "44077"}}},
{"geometry": {"type": "Point", "coordinates": [-81.240359183, 41.7151631572]}, "type": "Feature", "properties": {"collection_times": [{"days": "Mon-Sat", "time": "12:00pm"}, {"days": "Sun", "time": "Closed"}], "id": "4407700056", "name": "USPS COLLECTION BOX - BLUE BOX", "address": {"city": "PAINESVILLE", "state": "OH", "street": "54 S STATE ST", "postcode": "44077"}}},
{"geometry": {"type": "Point", "coordinates": [-81.240359183, 41.7151631572]}, "type": "Feature", "properties": {"collection_times": [{"days": "Mon-Sat", "time": "2:00pm"}, {"days": "Sun", "time": "Closed"}], "id": "4407700058", "name": "USPS COLLECTION BOX - BLUE BOX", "address": {"city": "PAINESVILLE", "state": "OH", "street": "7757 AUBURN RD", "postcode": "44077"}}},
{"geometry": {"type": "Point", "coordinates": [-81.240359183, 41.7151631572]}, "type": "Feature", "properties": {"collection_times": [{"days": "Mon-Fri", "time": "4:30pm"}, {"days": "Sat", "time": "11:30am"}, {"days": "Sun", "time": "Closed"}], "id": "4407700061", "name": "USPS COLLECTION BOX - PO LOBBY", "address": {"city": "PAINESVILLE", "state": "OH", "street": "705 HIGH ST", "postcode": "44077"}}},
{"geometry": {"type": "Point", "coordinates": [-81.240359183, 41.7151631572]}, "type": "Feature", "properties": {"collection_times": [{"days": "Mon-Sat", "time": "1:30pm"}, {"days": "Sun", "time": "Closed"}], "id": "4407700068", "name": "USPS COLLECTION BOX - BLUE BOX", "address": {"city": "PAINESVILLE", "state": "OH", "street": "25 NORTH PARK PL", "postcode": "44077"}}},
{"geometry": {"type": "Point", "coordinates": [-81.240359183, 41.7151631572]}, "type": "Feature", "properties": {"collection_times": [{"days": "Mon-Sat", "time": "1:00pm"}, {"days": "Sun", "time": "Closed"}], "id": "4407700073", "name": "USPS COLLECTION BOX - BLUE BOX", "address": {"city": "PAINESVILLE", "state": "OH", "street": "605 CEDARBROOK DR", "postcode": "44077"}}},
{"geometry": {"type": "Point", "coordinates": [-81.240359183, 41.7151631572]}, "type": "Feature", "properties": {"collection_times": [{"days": "Mon-Sat", "time": "10:30am"}, {"days": "Sun", "time": "Closed"}], "id": "4407700078", "name": "USPS COLLECTION BOX - BLUE BOX", "address": {"city": "PAINESVILLE", "state": "OH", "street": "47 NORTH PARK PL", "postcode": "44077"}}},
{"geometry": {"type": "Point", "coordinates": [-81.240359183, 41.7151631572]}, "type": "Feature", "properties": {"collection_times": [{"days": "Mon-Fri", "time": "5:00pm"}, {"days": "Sat", "time": "3:30pm"}, {"days": "Sun", "time": "Closed"}], "id": "4407700079", "name": "USPS COLLECTION BOX - APC", "address": {"city": "PAINESVILLE", "state": "OH", "street": "215 E JACKSON ST", "postcode": "44077"}}},
{"geometry": {"type": "Point", "coordinates": [-81.240359183, 41.7151631572]}, "type": "Feature", "properties": {"collection_times": [{"days": "Mon-Fri", "time": "1:45pm"}, {"days": "Sat", "time": "2:00pm"}, {"days": "Sun", "time": "Closed"}], "id": "4407700081", "name": "USPS COLLECTION BOX - BLUE BOX", "address": {"city": "PAINESVILLE", "state": "OH", "street": "7596 FREDLE DR", "postcode": "44077"}}},
{"geometry": {"type": "Point", "coordinates": [-81.240359183, 41.7151631572]}, "type": "Feature", "properties": {"collection_times": [{"days": "Mon-Fri", "time": "1:45pm"}, {"days": "Sat", "time": "2:00pm"}, {"days": "Sun", "time": "Closed"}], "id": "4407700082", "name": "USPS COLLECTION BOX - BLUE BOX", "address": {"city": "PAINESVILLE", "state": "OH", "street": "7537 FREDLE DR", "postcode": "44077"}}},
{"geometry": {"type": "Point", "coordinates": [-81.240359183, 41.7151631572]}, "type": "Feature", "properties": {"collection_times": [{"days": "Mon-Fri", "time": "1:45pm"}, {"days": "Sat-Sun", "time": "Closed"}], "id": "4407700084", "name": "USPS COLLECTION BOX - BLUE BOX", "address": {"city": "PAINESVILLE", "state": "OH", "street": "7590 AUBURN RD", "postcode": "44077"}}},
{"geometry": {"type": "Point", "coordinates": [-81.0649283933, 41.3716916857]}, "type": "Feature", "properties": {"collection_times": [{"days": "Mon-Fri", "time": "3:30pm"}, {"days": "Sat", "time": "11:00am"}, {"days": "Sun", "time": "Closed"}], "id": "4408000000", "name": "USPS COLLECTION BOX - PO LOBBY", "address": {"city": "PARKMAN", "state": "OH", "street": "16200 MCCALL RD", "postcode": "44080"}}},
{"geometry": {"type": "Point", "coordinates": [-81.0649283933, 41.3716916857]}, "type": "Feature", "properties": {"collection_times": [{"days": "Mon-Fri", "time": "3:30pm"}, {"days": "Sat", "time": "11:00am"}, {"days": "Sun", "time": "Closed"}], "id": "4408000001", "name": "USPS COLLECTION BOX - BLUE BOX", "address": {"city": "PARKMAN", "state": "OH", "street": "16200 MCCALL RD", "postcode": "44080"}}},
{"geometry": {"type": "Point", "coordinates": [-81.1466975977, 41.7694567984]}, "type": "Feature", "properties": {"collection_times": [{"days": "Mon-Fri", "time": "4:30pm"}, {"days": "Sat", "time": "12:00pm"}, {"days": "Sun", "time": "Closed"}], "id": "4408100000", "name": "USPS COLLECTION BOX - PO LOBBY", "address": {"city": "PERRY", "state": "OH", "street": "3754 CENTER RD", "postcode": "44081"}}},
{"geometry": {"type": "Point", "coordinates": [-81.1466975977, 41.7694567984]}, "type": "Feature", "properties": {"collection_times": [{"days": "Mon-Fri", "time": "4:30pm"}, {"days": "Sat", "time": "12:00pm"}, {"days": "Sun", "time": "Closed"}], "id": "4408100001", "name": "USPS COLLECTION BOX - BLUE BOX", "address": {"city": "PERRY", "state": "OH", "street": "3754 CENTER RD", "postcode": "44081"}}},
{"geometry": {"type": "Point", "coordinates": [-81.1466975977, 41.7694567984]}, "type": "Feature", "properties": {"collection_times": [{"days": "Mon-Fri", "time": "4:30pm"}, {"days": "Sat", "time": "12:00pm"}, {"days": "Sun", "time": "Closed"}], "id": "4408100002", "name": "USPS COLLECTION BOX - BLUE BOX", "address": {"city": "PERRY", "state": "OH", "street": "3754 CENTER RD", "postcode": "44081"}}},
{"geometry": {"type": "Point", "coordinates": [-80.570312581, 41.7506445528]}, "type": "Feature", "properties": {"collection_times": [{"days": "Mon-Fri", "time": "4:00pm"}, {"days": "Sat", "time": "11:00am"}, {"days": "Sun", "time": "Closed"}], "id": "4408200000", "name": "USPS COLLECTION BOX - PO LOBBY", "address": {"city": "PIERPONT", "state": "OH", "street": "62 STATE ROUTE 7 S", "postcode": "44082"}}},
{"geometry": {"type": "Point", "coordinates": [-80.570312581, 41.7506445528]}, "type": "Feature", "properties": {"collection_times": [{"days": "Mon-Fri", "time": "4:00pm"}, {"days": "Sat", "time": "11:00am"}, {"days": "Sun", "time": "Closed"}], "id": "4408200001", "name": "USPS COLLECTION BOX - BLUE BOX", "address": {"city": "PIERPONT", "state": "OH", "street": "62 STATE ROUTE 7 S", "postcode": "44082"}}},
{"geometry": {"type": "Point", "coordinates": [-80.8582382673, 41.6606055616]}, "type": "Feature", "properties": {"collection_times": [{"days": "Mon-Fri", "time": "4:00pm"}, {"days": "Sat", "time": "11:00am"}, {"days": "Sun", "time": "Closed"}], "id": "4408400000", "name": "USPS COLLECTION BOX - PO LOBBY", "address": {"city": "ROCK CREEK", "state": "OH", "street": "3046 E WATER ST", "postcode": "44084"}}},
{"geometry": {"type": "Point", "coordinates": [-80.8582382673, 41.6606055616]}, "type": "Feature", "properties": {"collection_times": [{"days": "Mon-Fri", "time": "4:00pm"}, {"days": "Sat", "time": "11:00am"}, {"days": "Sun", "time": "Closed"}], "id": "4408400001", "name": "USPS COLLECTION BOX - BLUE BOX", "address": {"city": "ROCK CREEK", "state": "OH", "street": "3046 E WATER ST", "postcode": "44084"}}},
{"geometry": {"type": "Point", "coordinates": [-80.8726731332, 41.6053248396]}, "type": "Feature", "properties": {"collection_times": [{"days": "Mon-Fri", "time": "4:00pm"}, {"days": "Sat", "time": "12:00pm"}, {"days": "Sun", "time": "Closed"}], "id": "4408500000", "name": "USPS COLLECTION BOX - PO LOBBY", "address": {"city": "ROME", "state": "OH", "street": "3232 US HIGHWAY 6", "postcode": "44085"}}},
{"geometry": {"type": "Point", "coordinates": [-80.8726731332, 41.6053248396]}, "type": "Feature", "properties": {"collection_times": [{"days": "Mon-Fri", "time": "4:00pm"}, {"days": "Sat", "time": "12:00pm"}, {"days": "Sun", "time": "Closed"}], "id": "4408500001", "name": "USPS COLLECTION BOX - BLUE BOX", "address": {"city": "ROME", "state": "OH", "street": "3232 US HIGHWAY 6", "postcode": "44085"}}},
{"geometry": {"type": "Point", "coordinates": [-81.05132508, 41.6902127432]}, "type": "Feature", "properties": {"collection_times": [{"days": "Mon-Fri", "time": "4:00pm"}, {"days": "Sat", "time": "11:00am"}, {"days": "Sun", "time": "Closed"}], "id": "4408600000", "name": "USPS COLLECTION BOX - PO LOBBY", "address": {"city": "THOMPSON", "state": "OH", "street": "6714 MADISON RD", "postcode": "44086"}}},
{"geometry": {"type": "Point", "coordinates": [-81.05132508, 41.6902127432]}, "type": "Feature", "properties": {"collection_times": [{"days": "Mon-Fri", "time": "4:30pm"}, {"days": "Sat", "time": "11:00am"}, {"days": "Sun", "time": "Closed"}], "id": "4408600001", "name": "USPS COLLECTION BOX - BLUE BOX", "address": {"city": "THOMPSON", "state": "OH", "street": "6714 MADISON RD", "postcode": "44086"}}},
{"geometry": {"type": "Point", "coordinates": [-81.4402571455, 41.3088717253]}, "type": "Feature", "properties": {"collection_times": [{"days": "Mon-Fri", "time": "5:00pm"}, {"days": "Sat", "time": "3:00pm"}, {"days": "Sun", "time": "Closed"}], "id": "4408700000", "name": "USPS COLLECTION BOX - PO LOBBY", "address": {"city": "TWINSBURG", "state": "OH", "street": "8935 DARROW RD", "postcode": "44087"}}},
{"geometry": {"type": "Point", "coordinates": [-81.4402571455, 41.3088717253]}, "type": "Feature", "properties": {"collection_times": [{"days": "Mon-Fri", "time": "5:00pm"}, {"days": "Sat", "time": "3:00pm"}, {"days": "Sun", "time": "Closed"}], "id": "4408700001", "name": "USPS COLLECTION BOX - BLUE BOX", "address": {"city": "TWINSBURG", "state": "OH", "street": "8935 DARROW RD", "postcode": "44087"}}},
{"geometry": {"type": "Point", "coordinates": [-81.4402571455, 41.3088717253]}, "type": "Feature", "properties": {"collection_times": [{"days": "Mon-Fri", "time": "5:00pm"}, {"days": "Sat", "time": "3:00pm"}, {"days": "Sun", "time": "Closed"}], "id": "4408700002", "name": "USPS COLLECTION BOX - BLUE BOX", "address": {"city": "TWINSBURG", "state": "OH", "street": "8935 DARROW RD", "postcode": "44087"}}},
{"geometry": {"type": "Point", "coordinates": [-81.4406818278, 41.3126441815]}, "type": "Feature", "properties": {"collection_times": [{"days": "Mon-Sat", "time": "3:15pm"}, {"days": "Sun", "time": "Closed"}], "id": "4408700003", "name": "USPS COLLECTION BOX - BLUE BOX", "address": {"city": "TWINSBURG", "state": "OH", "street": "9777 RAVENNA RD", "postcode": "44087"}}},
{"geometry": {"type": "Point", "coordinates": [-81.4628232708, 41.3266184757]}, "type": "Feature", "properties": {"collection_times": [{"days": "Mon-Sat", "time": "12:30pm"}, {"days": "Sun", "time": "Closed"}], "id": "4408700006", "name": "USPS COLLECTION BOX - BLUE BOX", "address": {"city": "TWINSBURG", "state": "OH", "street": "2040 PRESIDENTIAL PKWY", "postcode": "44087"}}},
{"geometry": {"type": "Point", "coordinates": [-81.4403943688, 41.2922748111]}, "type": "Feature", "properties": {"collection_times": [{"days": "Mon-Sat", "time": "3:00pm"}, {"days": "Sun", "time": "Closed"}], "id": "4408700011", "name": "USPS COLLECTION BOX - BLUE BOX", "address": {"city": "TWINSBURG", "state": "OH", "street": "8285 DARROW RD", "postcode": "44087"}}},
{"geometry": {"type": "Point", "coordinates": [-81.4574786622, 41.3113358289]}, "type": "Feature", "properties": {"collection_times": [{"days": "Mon-Fri", "time": "3:45pm"}, {"days": "Sat", "time": "3:00pm"}, {"days": "Sun", "time": "Closed"}], "id": "4408700012", "name": "USPS COLLECTION BOX - BLUE BOX", "address": {"city": "TWINSBURG", "state": "OH", "street": "2305 E AURORA RD", "postcode": "44087"}}},
{"geometry": {"type": "Point", "coordinates": [-81.4242824677, 41.3059013154]}, "type": "Feature", "properties": {"collection_times": [{"days": "Mon-Sat", "time": "3:00pm"}, {"days": "Sun", "time": "Closed"}], "id": "4408700013", "name": "USPS COLLECTION BOX - BLUE BOX", "address": {"city": "TWINSBURG", "state": "OH", "street": "9261 RAVENNA RD", "postcode": "44087"}}},
{"geometry": {"type": "Point", "coordinates": [-81.4564932533, 41.3283300371]}, "type": "Feature", "properties": {"collection_times": [{"days": "Mon-Sat", "time": "12:30pm"}, {"days": "Sun", "time": "Closed"}], "id": "4408700014", "name": "USPS COLLECTION BOX - BLUE BOX", "address": {"city": "TWINSBURG", "state": "OH", "street": "2170 PEBBLE CREEK DR", "postcode": "44087"}}},
{"geometry": {"type": "Point", "coordinates": [-81.4402571455, 41.3088717253]}, "type": "Feature", "properties": {"collection_times": [{"days": "Mon-Fri", "time": "5:00pm"}, {"days": "Sat", "time": "3:00pm"}, {"days": "Sun", "time": "Closed"}], "id": "4408700023", "name": "USPS COLLECTION BOX - PO LOBBY", "address": {"city": "TWINSBURG", "state": "OH", "street": "8935 DARROW RD", "postcode": "44087"}}},
{"geometry": {"type": "Point", "coordinates": [-81.4399649547, 41.3404283387]}, "type": "Feature", "properties": {"collection_times": [{"days": "Mon-Sat", "time": "3:15pm"}, {"days": "Sun", "time": "Closed"}], "id": "4408700028", "name": "USPS COLLECTION BOX - BLUE BOX", "address": {"city": "TWINSBURG", "state": "OH", "street": "10049 DARROW RD", "postcode": "44087"}}},
{"geometry": {"type": "Point", "coordinates": [-80.9478074016, 41.8043960236]}, "type": "Feature", "properties": {"collection_times": [{"days": "Mon-Fri", "time": "4:00pm"}, {"days": "Sat", "time": "11:00am"}, {"days": "Sun", "time": "Closed"}], "id": "4408800000", "name": "USPS COLLECTION BOX - PO LOBBY", "address": {"city": "UNIONVILLE", "state": "OH", "street": "6887 S RIDGE RD", "postcode": "44088"}}},
{"geometry": {"type": "Point", "coordinates": [-80.9478074016, 41.8043960236]}, "type": "Feature", "properties": {"collection_times": [{"days": "Mon-Fri", "time": "5:00pm"}, {"days": "Sat", "time": "11:00am"}, {"days": "Sun", "time": "Closed"}], "id": "4408800001", "name": "USPS COLLECTION BOX - BLUE BOX", "address": {"city": "UNIONVILLE", "state": "OH", "street": "6887 S RIDGE RD", "postcode": "44088"}}},
{"geometry": {"type": "Point", "coordinates": [-82.3206290005, 41.4267338519]}, "type": "Feature", "properties": {"collection_times": [{"days": "Mon-Sat", "time": "9:15am"}, {"days": "Sun", "time": "Closed"}], "id": "4408900000", "name": "USPS COLLECTION BOX - BLUE BOX", "address": {"city": "VERMILION", "state": "OH", "street": "385 OVERLOOK RD", "postcode": "44089"}}},
{"geometry": {"type": "Point", "coordinates": [-82.3365804215, 41.4249472079]}, "type": "Feature", "properties": {"collection_times": [{"days": "Mon-Fri", "time": "4:00pm"}, {"days": "Sat", "time": "3:00pm"}, {"days": "Sun", "time": "Closed"}], "id": "4408900002", "name": "USPS COLLECTION BOX - BLUE BOX", "address": {"city": "VERMILION", "state": "OH", "street": "4208 LIBERTY AVE", "postcode": "44089"}}},
{"geometry": {"type": "Point", "coordinates": [-82.342762565, 41.4249566715]}, "type": "Feature", "properties": {"collection_times": [{"days": "Mon-Sat", "time": "10:45am"}, {"days": "Sun", "time": "Closed"}], "id": "4408900003", "name": "USPS COLLECTION BOX - BLUE BOX", "address": {"city": "VERMILION", "state": "OH", "street": "4453 LIBERTY AVE", "postcode": "44089"}}},
{"geometry": {"type": "Point", "coordinates": [-82.3482902556, 41.4249461107]}, "type": "Feature", "properties": {"collection_times": [{"days": "Mon-Fri", "time": "4:15pm"}, {"days": "Sat", "time": "3:15pm"}, {"days": "Sun", "time": "Closed"}], "id": "4408900004", "name": "USPS COLLECTION BOX - BLUE BOX", "address": {"city": "VERMILION", "state": "OH", "street": "4721 LIBERTY AVE", "postcode": "44089"}}},
{"geometry": {"type": "Point", "coordinates": [-82.3637885606, 41.4220737673]}, "type": "Feature", "properties": {"collection_times": [{"days": "Mon-Sat", "time": "10:00am"}, {"days": "Sun", "time": "Closed"}], "id": "4408900005", "name": "USPS COLLECTION BOX - BLUE BOX", "address": {"city": "VERMILION", "state": "OH", "street": "5502 LIBERTY AVE", "postcode": "44089"}}},
{"geometry": {"type": "Point", "coordinates": [-82.3566866861, 41.4065634865]}, "type": "Feature", "properties": {"collection_times": [{"days": "Mon-Fri", "time": "5:00pm"}, {"days": "Sat", "time": "3:30pm"}, {"days": "Sun", "time": "Closed"}], "id": "4408900007", "name": "USPS COLLECTION BOX - PO LOBBY", "address": {"city": "VERMILION", "state": "OH", "street": "4325 LIBERTY AVE", "postcode": "44089"}}},
{"geometry": {"type": "Point", "coordinates": [-82.3566866861, 41.4065634865]}, "type": "Feature", "properties": {"collection_times": [{"days": "Mon-Fri", "time": "5:00pm"}, {"days": "Sat", "time": "3:30pm"}, {"days": "Sun", "time": "Closed"}], "id": "4408900009", "name": "USPS COLLECTION BOX - BLUE BOX", "address": {"city": "VERMILION", "state": "OH", "street": "4325 LIBERTY AVE", "postcode": "44089"}}},
{"geometry": {"type": "Point", "coordinates": [-82.3652979333, 41.4095853027]}, "type": "Feature", "properties": {"collection_times": [{"days": "Mon-Fri", "time": "4:00pm"}, {"days": "Sat", "time": "3:00pm"}, {"days": "Sun", "time": "Closed"}], "id": "4408900016", "name": "USPS COLLECTION BOX - BLUE BOX", "address": {"city": "VERMILION", "state": "OH", "street": "1317 STATE ST", "postcode": "44089"}}},
{"geometry": {"type": "Point", "coordinates": [-82.3566866861, 41.4065634865]}, "type": "Feature", "properties": {"collection_times": [{"days": "Mon-Fri", "time": "5:00pm"}, {"days": "Sat", "time": "3:30pm"}, {"days": "Sun", "time": "Closed"}], "id": "4408900022", "name": "USPS COLLECTION BOX - BLUE BOX", "address": {"city": "VERMILION", "state": "OH", "street": "4325 LIBERTY AVE", "postcode": "44089"}}},
{"geometry": {"type": "Point", "coordinates": [-82.3566866861, 41.4065634865]}, "type": "Feature", "properties": {"collection_times": [{"days": "Mon-Fri", "time": "5:00pm"}, {"days": "Sat", "time": "3:30pm"}, {"days": "Sun", "time": "Closed"}], "id": "4408900023", "name": "USPS COLLECTION BOX - PO LOBBY", "address": {"city": "VERMILION", "state": "OH", "street": "4325 LIBERTY AVE", "postcode": "44089"}}},
{"geometry": {"type": "Point", "coordinates": [-82.2172517267, 41.1823259072]}, "type": "Feature", "properties": {"collection_times": [{"days": "Mon-Sat", "time": "2:00pm"}, {"days": "Sun", "time": "Closed"}], "id": "4409000000", "name": "USPS COLLECTION BOX - BLUE BOX", "address": {"city": "WELLINGTON", "state": "OH", "street": "817 N MAIN ST", "postcode": "44090"}}},
{"geometry": {"type": "Point", "coordinates": [-82.2171104178, 41.1821488556]}, "type": "Feature", "properties": {"collection_times": [{"days": "Mon-Sat", "time": "2:00pm"}, {"days": "Sun", "time": "Closed"}], "id": "4409000001", "name": "USPS COLLECTION BOX - BLUE BOX", "address": {"city": "WELLINGTON", "state": "OH", "street": "814 N MAIN ST", "postcode": "44090"}}},
{"geometry": {"type": "Point", "coordinates": [-82.212460818, 41.1685160101]}, "type": "Feature", "properties": {"collection_times": [{"days": "Mon-Sat", "time": "12:15pm"}, {"days": "Sun", "time": "Closed"}], "id": "4409000008", "name": "USPS COLLECTION BOX - BLUE BOX", "address": {"city": "WELLINGTON", "state": "OH", "street": "209 E HERRICK AVE", "postcode": "44090"}}},
{"geometry": {"type": "Point", "coordinates": [-82.2170810366, 41.1684896045]}, "type": "Feature", "properties": {"collection_times": [{"days": "Mon-Sat", "time": "1:30pm"}, {"days": "Sun", "time": "Closed"}], "id": "4409000009", "name": "USPS COLLECTION BOX - BLUE BOX", "address": {"city": "WELLINGTON", "state": "OH", "street": "115 WILLARD MEMORIAL SQ", "postcode": "44090"}}},
{"geometry": {"type": "Point", "coordinates": [-82.2155069373, 41.1810648388]}, "type": "Feature", "properties": {"collection_times": [{"days": "Mon-Fri", "time": "5:00pm"}, {"days": "Sat", "time": "4:45pm"}, {"days": "Sun", "time": "Closed"}], "id": "4409000010", "name": "USPS COLLECTION BOX - PO LOBBY", "address": {"city": "WELLINGTON", "state": "OH", "street": "101 MCCORMICK ST", "postcode": "44090"}}},
{"geometry": {"type": "Point", "coordinates": [-82.2155069373, 41.1810648388]}, "type": "Feature", "properties": {"collection_times": [{"days": "Mon-Fri", "time": "5:00pm"}, {"days": "Sat", "time": "4:45pm"}, {"days": "Sun", "time": "Closed"}], "id": "4409000011", "name": "USPS COLLECTION BOX - BLUE BOX", "address": {"city": "WELLINGTON", "state": "OH", "street": "101 MCCORMICK ST", "postcode": "44090"}}},
{"geometry": {"type": "Point", "coordinates": [-82.2178444643, 41.155488083]}, "type": "Feature", "properties": {"collection_times": [{"days": "Mon-Sat", "time": "11:00am"}, {"days": "Sun", "time": "Closed"}], "id": "4409000013", "name": "USPS COLLECTION BOX - BLUE BOX", "address": {"city": "WELLINGTON", "state": "OH", "street": "502 S MAIN ST", "postcode": "44090"}}},
{"geometry": {"type": "Point", "coordinates": [-81.4877706924, 41.5964809896]}, "type": "Feature", "properties": {"collection_times": [{"days": "Mon-Sat", "time": "2:00pm"}, {"days": "Sun", "time": "Closed"}], "id": "4409200000", "name": "USPS COLLECTION BOX - BLUE BOX", "address": {"city": "WILOUGHBY HLS", "state": "OH", "street": "28300 EUCLID AVE", "postcode": "44092"}}},
{"geometry": {"type": "Point", "coordinates": [-81.4873146246, 41.5967139275]}, "type": "Feature", "properties": {"collection_times": [{"days": "Mon-Sat", "time": "9:00am"}, {"days": "Sun", "time": "Closed"}], "id": "4409200001", "name": "USPS COLLECTION BOX - BLUE BOX", "address": {"city": "WILOUGHBY HLS", "state": "OH", "street": "28400 EUCLID AVE", "postcode": "44092"}}},
{"geometry": {"type": "Point", "coordinates": [-81.4759221754, 41.6047262136]}, "type": "Feature", "properties": {"collection_times": [{"days": "Mon-Sat", "time": "10:00am"}, {"days": "Sun", "time": "Closed"}], "id": "4409200004", "name": "USPS COLLECTION BOX - BLUE BOX", "address": {"city": "WILOUGHBY HLS", "state": "OH", "street": "29166 EUCLID AVE", "postcode": "44092"}}},
{"geometry": {"type": "Point", "coordinates": [-82.7112131521, 40.4130547318]}, "type": "Feature", "properties": {"collection_times": [{"days": "Mon-Sat", "time": "10:00am"}, {"days": "Sun", "time": "Closed"}], "id": "4409200006", "name": "USPS COLLECTION BOX - BLUE BOX", "address": {"city": "WILOUGHBY HLS", "state": "OH", "street": "29310 EUCLID AVE", "postcode": "44092"}}},
{"geometry": {"type": "Point", "coordinates": [-81.4643259167, 41.6136141591]}, "type": "Feature", "properties": {"collection_times": [{"days": "Mon-Sat", "time": "10:00am"}, {"days": "Sun", "time": "Closed"}], "id": "4409200008", "name": "USPS COLLECTION BOX - BLUE BOX", "address": {"city": "WILOUGHBY HLS", "state": "OH", "street": "29954 EUCLID AVE", "postcode": "44092"}}},
{"geometry": {"type": "Point", "coordinates": [-81.4611348538, 41.6159365158]}, "type": "Feature", "properties": {"collection_times": [{"days": "Mon-Sat", "time": "10:00am"}, {"days": "Sun", "time": "Closed"}], "id": "4409200009", "name": "USPS COLLECTION BOX - BLUE BOX", "address": {"city": "WILOUGHBY HLS", "state": "OH", "street": "30180 EUCLID AVE", "postcode": "44092"}}},
{"geometry": {"type": "Point", "coordinates": [-81.4577744019, 41.6184024022]}, "type": "Feature", "properties": {"collection_times": [{"days": "Mon-Sat", "time": "10:00am"}, {"days": "Sun", "time": "Closed"}], "id": "4409200010", "name": "USPS COLLECTION BOX - BLUE BOX", "address": {"city": "WILOUGHBY HLS", "state": "OH", "street": "30432 EUCLID AVE", "postcode": "44092"}}},
{"geometry": {"type": "Point", "coordinates": [-81.4800116645, 41.5836151279]}, "type": "Feature", "properties": {"collection_times": [{"days": "Mon-Sat", "time": "9:30am"}, {"days": "Sun", "time": "Closed"}], "id": "4409200012", "name": "USPS COLLECTION BOX - BLUE BOX", "address": {"city": "WILOUGHBY HLS", "state": "OH", "street": "28301 CHARDON RD", "postcode": "44092"}}},
{"geometry": {"type": "Point", "coordinates": [-81.4828567223, 41.583152068]}, "type": "Feature", "properties": {"collection_times": [{"days": "Mon-Sat", "time": "2:00pm"}, {"days": "Sun", "time": "Closed"}], "id": "4409200014", "name": "USPS COLLECTION BOX - BLUE BOX", "address": {"city": "WILOUGHBY HLS", "state": "OH", "street": "28090 CHARDON RD", "postcode": "44092"}}},
{"geometry": {"type": "Point", "coordinates": [-81.4738105936, 41.5980058237]}, "type": "Feature", "properties": {"collection_times": [{"days": "Mon-Sat", "time": "10:00am"}, {"days": "Sun", "time": "Closed"}], "id": "4409200016", "name": "USPS COLLECTION BOX - BLUE BOX", "address": {"city": "WILOUGHBY HLS", "state": "OH", "street": "2143 E 290TH ST", "postcode": "44092"}}},
{"geometry": {"type": "Point", "coordinates": [-81.4680685108, 41.6028500407]}, "type": "Feature", "properties": {"collection_times": [{"days": "Mon-Sat", "time": "10:00am"}, {"days": "Sun", "time": "Closed"}], "id": "4409200019", "name": "USPS COLLECTION BOX - BLUE BOX", "address": {"city": "WILOUGHBY HLS", "state": "OH", "street": "29338 RIDGE RD", "postcode": "44092"}}},
{"geometry": {"type": "Point", "coordinates": [-81.4525989564, 41.6147222169]}, "type": "Feature", "properties": {"collection_times": [{"days": "Mon-Sat", "time": "11:00am"}, {"days": "Sun", "time": "Closed"}], "id": "4409200024", "name": "USPS COLLECTION BOX - BLUE BOX", "address": {"city": "WILOUGHBY HLS", "state": "OH", "street": "1701 EMPIRE RD", "postcode": "44092"}}},
{"geometry": {"type": "Point", "coordinates": [-81.478123662, 41.6234441733]}, "type": "Feature", "properties": {"collection_times": [{"days": "Mon-Sat", "time": "11:00am"}, {"days": "Sun", "time": "Closed"}], "id": "4409200025", "name": "USPS COLLECTION BOX - BLUE BOX", "address": {"city": "WILOUGHBY HLS", "state": "OH", "street": "29857 GRAND BLVD", "postcode": "44092"}}},
{"geometry": {"type": "Point", "coordinates": [-81.4776854141, 41.6065431902]}, "type": "Feature", "properties": {"collection_times": [{"days": "Mon-Fri", "time": "5:00pm"}, {"days": "Sat", "time": "3:30pm"}, {"days": "Sun", "time": "Closed"}], "id": "4409200031", "name": "USPS COLLECTION BOX - PO LOBBY", "address": {"city": "WILOUGHBY HLS", "state": "OH", "street": "1400 LLOYD RD", "postcode": "44092"}}},
{"geometry": {"type": "Point", "coordinates": [-81.4776854141, 41.6065431902]}, "type": "Feature", "properties": {"collection_times": [{"days": "Mon-Fri", "time": "5:00pm"}, {"days": "Sat", "time": "3:30pm"}, {"days": "Sun", "time": "Closed"}], "id": "4409200032", "name": "USPS COLLECTION BOX - BLUE BOX", "address": {"city": "WILOUGHBY HLS", "state": "OH", "street": "1400 LLOYD RD", "postcode": "44092"}}},
{"geometry": {"type": "Point", "coordinates": [-81.4866753962, 41.582646452]}, "type": "Feature", "properties": {"collection_times": [{"days": "Mon-Sat", "time": "9:30am"}, {"days": "Sun", "time": "Closed"}], "id": "4409200038", "name": "USPS COLLECTION BOX - BLUE BOX", "address": {"city": "WILOUGHBY HLS", "state": "OH", "street": "27505 CHARDON RD", "postcode": "44092"}}},
{"geometry": {"type": "Point", "coordinates": [-80.6132608378, 41.5341172491]}, "type": "Feature", "properties": {"collection_times": [{"days": "Mon-Fri", "time": "3:45pm"}, {"days": "Sat", "time": "12:15pm"}, {"days": "Sun", "time": "Closed"}], "id": "4409300000", "name": "USPS COLLECTION BOX - PO LOBBY", "address": {"city": "WILLIAMSFIELD", "state": "OH", "street": "5911 U S HWY 322", "postcode": "44093"}}},
{"geometry": {"type": "Point", "coordinates": [-80.6132608378, 41.5341172491]}, "type": "Feature", "properties": {"collection_times": [{"days": "Mon-Fri", "time": "3:45pm"}, {"days": "Sat", "time": "12:15pm"}, {"days": "Sun", "time": "Closed"}], "id": "4409300001", "name": "USPS COLLECTION BOX - BLUE BOX", "address": {"city": "WILLIAMSFIELD", "state": "OH", "street": "5911 U S HWY 322", "postcode": "44093"}}},
{"geometry": {"type": "Point", "coordinates": [-81.4058759679, 41.639632014]}, "type": "Feature", "properties": {"collection_times": [{"days": "Mon-Sat", "time": "1:00pm"}, {"days": "Sun", "time": "Closed"}], "id": "4409400001", "name": "USPS COLLECTION BOX - BLUE BOX", "address": {"city": "WILOUGHBY HLS", "state": "OH", "street": "1 PUBLIC SQ", "postcode": "44094"}}},
{"geometry": {"type": "Point", "coordinates": [-81.4065865845, 41.6419716766]}, "type": "Feature", "properties": {"collection_times": [{"days": "Mon-Fri", "time": "5:00pm"}, {"days": "Sat", "time": "2:00pm"}, {"days": "Sun", "time": "Closed"}], "id": "4409400003", "name": "USPS COLLECTION BOX - BLUE BOX", "address": {"city": "WILOUGHBY HLS", "state": "OH", "street": "4040 ERIE ST", "postcode": "44094"}}},
{"geometry": {"type": "Point", "coordinates": [-81.4066492814, 41.6407248379]}, "type": "Feature", "properties": {"collection_times": [{"days": "Mon-Sat", "time": "1:00pm"}, {"days": "Sun", "time": "Closed"}], "id": "4409400006", "name": "USPS COLLECTION BOX - BLUE BOX", "address": {"city": "WILOUGHBY HLS", "state": "OH", "street": "4098 ERIE ST", "postcode": "44094"}}},
{"geometry": {"type": "Point", "coordinates": [-81.4081114186, 41.6377579768]}, "type": "Feature", "properties": {"collection_times": [{"days": "Mon-Sat", "time": "1:00pm"}, {"days": "Sun", "time": "Closed"}], "id": "4409400007", "name": "USPS COLLECTION BOX - BLUE BOX", "address": {"city": "WILOUGHBY HLS", "state": "OH", "street": "38052 EUCLID AVE", "postcode": "44094"}}},
{"geometry": {"type": "Point", "coordinates": [-81.3909691603, 41.698232022]}, "type": "Feature", "properties": {"collection_times": [{"days": "Mon-Sat", "time": "1:30pm"}, {"days": "Sun", "time": "Closed"}], "id": "4409400010", "name": "USPS COLLECTION BOX - BLUE BOX", "address": {"city": "WILOUGHBY HLS", "state": "OH", "street": "38803 LAKE SHORE BLVD", "postcode": "44094"}}},
{"geometry": {"type": "Point", "coordinates": [-81.398934023, 41.6958235176]}, "type": "Feature", "properties": {"collection_times": [{"days": "Mon-Sat", "time": "1:30pm"}, {"days": "Sun", "time": "Closed"}], "id": "4409400012", "name": "USPS COLLECTION BOX - BLUE BOX", "address": {"city": "WILOUGHBY HLS", "state": "OH", "street": "38513 LAKESHORE BLVD", "postcode": "44094"}}},
{"geometry": {"type": "Point", "coordinates": [-81.4309460755, 41.6293412237]}, "type": "Feature", "properties": {"collection_times": [{"days": "Mon-Sat", "time": "1:15pm"}, {"days": "Sun", "time": "Closed"}], "id": "4409400014", "name": "USPS COLLECTION BOX - BLUE BOX", "address": {"city": "WILOUGHBY HLS", "state": "OH", "street": "4740 BEIDLER RD", "postcode": "44094"}}},
{"geometry": {"type": "Point", "coordinates": [-81.4293703742, 41.6345095715]}, "type": "Feature", "properties": {"collection_times": [{"days": "Mon-Sat", "time": "1:15pm"}, {"days": "Sun", "time": "Closed"}], "id": "4409400015", "name": "USPS COLLECTION BOX - BLUE BOX", "address": {"city": "WILOUGHBY HLS", "state": "OH", "street": "36255 READING AVE", "postcode": "44094"}}},
{"geometry": {"type": "Point", "coordinates": [-81.404440697, 41.6509680795]}, "type": "Feature", "properties": {"collection_times": [{"days": "Mon-Sat", "time": "1:30pm"}, {"days": "Sun", "time": "Closed"}], "id": "4409400017", "name": "USPS COLLECTION BOX - BLUE BOX", "address": {"city": "WILOUGHBY HLS", "state": "OH", "street": "3525 LOST NATION RD", "postcode": "44094"}}},
{"geometry": {"type": "Point", "coordinates": [-81.410175682, 41.6266133204]}, "type": "Feature", "properties": {"collection_times": [{"days": "Mon-Sat", "time": "1:00pm"}, {"days": "Sun", "time": "Closed"}], "id": "4409400021", "name": "USPS COLLECTION BOX - BLUE BOX", "address": {"city": "WILOUGHBY HLS", "state": "OH", "street": "4863 WALDAMERE AVE", "postcode": "44094"}}},
{"geometry": {"type": "Point", "coordinates": [-81.426319523, 41.6196007396]}, "type": "Feature", "properties": {"collection_times": [{"days": "Mon-Sat", "time": "1:15pm"}, {"days": "Sun", "time": "Closed"}], "id": "4409400023", "name": "USPS COLLECTION BOX - BLUE BOX", "address": {"city": "WILOUGHBY HLS", "state": "OH", "street": "5258 ROBINHOOD DR", "postcode": "44094"}}},
{"geometry": {"type": "Point", "coordinates": [-81.4414384437, 41.6062160594]}, "type": "Feature", "properties": {"collection_times": [{"days": "Mon-Sat", "time": "1:15pm"}, {"days": "Sun", "time": "Closed"}], "id": "4409400024", "name": "USPS COLLECTION BOX - BLUE BOX", "address": {"city": "WILOUGHBY HLS", "state": "OH", "street": "34601 RIDGE RD", "postcode": "44094"}}},
{"geometry": {"type": "Point", "coordinates": [-81.4214575617, 41.6304910599]}, "type": "Feature", "properties": {"collection_times": [{"days": "Mon-Fri", "time": "1:00pm"}, {"days": "Sat", "time": "10:30am"}, {"days": "Sun", "time": "Closed"}], "id": "4409400025", "name": "USPS COLLECTION BOX - BLUE BOX", "address": {"city": "WILOUGHBY HLS", "state": "OH", "street": "4700 HAMANN PKWY", "postcode": "44094"}}},
{"geometry": {"type": "Point", "coordinates": [-81.4376830268, 41.6253889578]}, "type": "Feature", "properties": {"collection_times": [{"days": "Mon-Sat", "time": "1:00pm"}, {"days": "Sun", "time": "Closed"}], "id": "4409400027", "name": "USPS COLLECTION BOX - BLUE BOX", "address": {"city": "WILOUGHBY HLS", "state": "OH", "street": "35104 EUCLID AVE", "postcode": "44094"}}},
{"geometry": {"type": "Point", "coordinates": [-81.4321053753, 41.6265707339]}, "type": "Feature", "properties": {"collection_times": [{"days": "Mon-Sat", "time": "1:00pm"}, {"days": "Sun", "time": "Closed"}], "id": "4409400030", "name": "USPS COLLECTION BOX - BLUE BOX", "address": {"city": "WILOUGHBY HLS", "state": "OH", "street": "36001 EUCLID AVE", "postcode": "44094"}}},
{"geometry": {"type": "Point", "coordinates": [-81.4312086924, 41.6267872153]}, "type": "Feature", "properties": {"collection_times": [{"days": "Mon-Sat", "time": "1:00pm"}, {"days": "Sun", "time": "Closed"}], "id": "4409400031", "name": "USPS COLLECTION BOX - BLUE BOX", "address": {"city": "WILOUGHBY HLS", "state": "OH", "street": "36100 EUCLID AVE", "postcode": "44094"}}},
{"geometry": {"type": "Point", "coordinates": [-81.4349787826, 41.6270805892]}, "type": "Feature", "properties": {"collection_times": [{"days": "Mon-Sat", "time": "1:00pm"}, {"days": "Sun", "time": "Closed"}], "id": "4409400032", "name": "USPS COLLECTION BOX - BLUE BOX", "address": {"city": "WILOUGHBY HLS", "state": "OH", "street": "4850 E 355TH ST", "postcode": "44094"}}},
{"geometry": {"type": "Point", "coordinates": [-81.4391285323, 41.6210168408]}, "type": "Feature", "properties": {"collection_times": [{"days": "Mon-Sat", "time": "1:15pm"}, {"days": "Sun", "time": "Closed"}], "id": "4409400034", "name": "USPS COLLECTION BOX - BLUE BOX", "address": {"city": "WILOUGHBY HLS", "state": "OH", "street": "34801 S TURTLE TRL", "postcode": "44094"}}},
{"geometry": {"type": "Point", "coordinates": [-81.4241676352, 41.6184348289]}, "type": "Feature", "properties": {"collection_times": [{"days": "Mon-Sat", "time": "1:15pm"}, {"days": "Sun", "time": "Closed"}], "id": "4409400036", "name": "USPS COLLECTION BOX - BLUE BOX", "address": {"city": "WILOUGHBY HLS", "state": "OH", "street": "36853 RIDGE RD", "postcode": "44094"}}},
{"geometry": {"type": "Point", "coordinates": [-81.4388115697, 41.587706983]}, "type": "Feature", "properties": {"collection_times": [{"days": "Mon-Sat", "time": "1:30pm"}, {"days": "Sun", "time": "Closed"}], "id": "4409400037", "name": "USPS COLLECTION BOX - BLUE BOX", "address": {"city": "WILOUGHBY HLS", "state": "OH", "street": "34900 CHARDON RD", "postcode": "44094"}}},
{"geometry": {"type": "Point", "coordinates": [-81.3715934754, 41.6378526135]}, "type": "Feature", "properties": {"collection_times": [{"days": "Mon-Fri", "time": "4:30pm"}, {"days": "Sat", "time": "10:00am"}, {"days": "Sun", "time": "Closed"}], "id": "4409400040", "name": "USPS COLLECTION BOX - BLUE BOX", "address": {"city": "WILOUGHBY HLS", "state": "OH", "street": "4230 STATE ROUTE 306", "postcode": "44094"}}},
{"geometry": {"type": "Point", "coordinates": [-81.3591586607, 41.6210498853]}, "type": "Feature", "properties": {"collection_times": [{"days": "Mon-Sat", "time": "11:00am"}, {"days": "Sun", "time": "Closed"}], "id": "4409400041", "name": "USPS COLLECTION BOX - BLUE BOX", "address": {"city": "WILOUGHBY HLS", "state": "OH", "street": "9179 CHILLICOTHE RD", "postcode": "44094"}}},
{"geometry": {"type": "Point", "coordinates": [-81.3491054255, 41.5849010043]}, "type": "Feature", "properties": {"collection_times": [{"days": "Mon-Sat", "time": "12:00pm"}, {"days": "Sun", "time": "Closed"}], "id": "4409400042", "name": "USPS COLLECTION BOX - BLUE BOX", "address": {"city": "WILOUGHBY HLS", "state": "OH", "street": "10535 CHILLICOTHE RD", "postcode": "44094"}}},
{"geometry": {"type": "Point", "coordinates": [-81.4392822365, 41.6210718464]}, "type": "Feature", "properties": {"collection_times": [{"days": "Mon-Sat", "time": "1:15pm"}, {"days": "Sun", "time": "Closed"}], "id": "4409400053", "name": "USPS COLLECTION BOX - BLUE BOX", "address": {"city": "WILOUGHBY HLS", "state": "OH", "street": "34865 N TURTLE TRL", "postcode": "44094"}}},
{"geometry": {"type": "Point", "coordinates": [-81.4380781351, 41.5878051686]}, "type": "Feature", "properties": {"collection_times": [{"days": "Mon-Sat", "time": "1:30pm"}, {"days": "Sun", "time": "Closed"}], "id": "4409400058", "name": "USPS COLLECTION BOX - BLUE BOX", "address": {"city": "WILOUGHBY HLS", "state": "OH", "street": "34950 CHARDON RD", "postcode": "44094"}}},
{"geometry": {"type": "Point", "coordinates": [-81.4065865845, 41.6419716766]}, "type": "Feature", "properties": {"collection_times": [{"days": "Mon-Fri", "time": "5:00pm"}, {"days": "Sat", "time": "2:00pm"}, {"days": "Sun", "time": "Closed"}], "id": "4409400067", "name": "USPS COLLECTION BOX - PO LOBBY", "address": {"city": "WILOUGHBY HLS", "state": "OH", "street": "4040 ERIE ST", "postcode": "44094"}}},
{"geometry": {"type": "Point", "coordinates": [-81.4398422663, 41.6209302816]}, "type": "Feature", "properties": {"collection_times": [{"days": "Mon-Sat", "time": "11:00am"}, {"days": "Sun", "time": "Closed"}], "id": "4409400070", "name": "USPS COLLECTION BOX - BLUE BOX", "address": {"city": "WILOUGHBY HLS", "state": "OH", "street": "5105 SOM CENTER RD", "postcode": "44094"}}},
{"geometry": {"type": "Point", "coordinates": [-81.3978492496, 41.6431167809]}, "type": "Feature", "properties": {"collection_times": [{"days": "Mon-Sat", "time": "1:00pm"}, {"days": "Sun", "time": "Closed"}], "id": "4409400072", "name": "USPS COLLECTION BOX - BLUE BOX", "address": {"city": "WILOUGHBY HLS", "state": "OH", "street": "38588 MENTOR AVE", "postcode": "44094"}}},
{"geometry": {"type": "Point", "coordinates": [-81.4065865845, 41.6419716766]}, "type": "Feature", "properties": {"collection_times": [{"days": "Mon-Sat", "time": "5:00pm"}, {"days": "Sun", "time": "Closed"}], "id": "4409400084", "name": "USPS COLLECTION BOX - APC", "address": {"city": "WILOUGHBY HLS", "state": "OH", "street": "4040 ERIE ST", "postcode": "44094"}}},
{"geometry": {"type": "Point", "coordinates": [-81.3579776177, 41.618840097]}, "type": "Feature", "properties": {"collection_times": [{"days": "Mon-Fri", "time": "4:00pm"}, {"days": "Sat", "time": "1:00pm"}, {"days": "Sun", "time": "Closed"}], "id": "4409400085", "name": "USPS COLLECTION BOX - BLUE BOX", "address": {"city": "WILOUGHBY HLS", "state": "OH", "street": "9270 CHILLICOTHE RD", "postcode": "44094"}}},
{"geometry": {"type": "Point", "coordinates": [-81.4404570656, 41.5982826361]}, "type": "Feature", "properties": {"collection_times": [{"days": "Mon-Fri", "time": "4:30pm"}, {"days": "Sat", "time": "10:30am"}, {"days": "Sun", "time": "Closed"}], "id": "4409400086", "name": "USPS COLLECTION BOX - BLUE BOX", "address": {"city": "WILOUGHBY HLS", "state": "OH", "street": "2550 SOM CENTER RD", "postcode": "44094"}}},
{"geometry": {"type": "Point", "coordinates": [-81.4737751049, 41.6398813881]}, "type": "Feature", "properties": {"collection_times": [{"days": "Mon-Sat", "time": "10:00am"}, {"days": "Sun", "time": "Closed"}], "id": "4409500000", "name": "USPS COLLECTION BOX - BLUE BOX", "address": {"city": "WILLOWICK", "state": "OH", "street": "30500 LAKESHORE BLVD", "postcode": "44095"}}},
{"geometry": {"type": "Point", "coordinates": [-81.4753304734, 41.6382200572]}, "type": "Feature", "properties": {"collection_times": [{"days": "Mon-Sat", "time": "1:15pm"}, {"days": "Sun", "time": "Closed"}], "id": "4409500001", "name": "USPS COLLECTION BOX - BLUE BOX", "address": {"city": "WILLOWICK", "state": "OH", "street": "30400 LAKESHORE BLVD", "postcode": "44095"}}},
{"geometry": {"type": "Point", "coordinates": [-81.4770612315, 41.636155227]}, "type": "Feature", "properties": {"collection_times": [{"days": "Mon-Sat", "time": "1:15pm"}, {"days": "Sun", "time": "Closed"}], "id": "4409500002", "name": "USPS COLLECTION BOX - BLUE BOX", "address": {"city": "WILLOWICK", "state": "OH", "street": "29720 LAKESHORE BLVD", "postcode": "44095"}}},
{"geometry": {"type": "Point", "coordinates": [-81.4590993159, 41.6302473703]}, "type": "Feature", "properties": {"collection_times": [{"days": "Mon-Sat", "time": "1:00pm"}, {"days": "Sun", "time": "Closed"}], "id": "4409500007", "name": "USPS COLLECTION BOX - BLUE BOX", "address": {"city": "WILLOWICK", "state": "OH", "street": "839 PENDLEY RD", "postcode": "44095"}}},
{"geometry": {"type": "Point", "coordinates": [-81.483715509, 41.6286645712]}, "type": "Feature", "properties": {"collection_times": [{"days": "Mon-Sat", "time": "1:15pm"}, {"days": "Sun", "time": "Closed"}], "id": "4409500012", "name": "USPS COLLECTION BOX - BLUE BOX", "address": {"city": "WILLOWICK", "state": "OH", "street": "218 E 288TH ST", "postcode": "44095"}}},
{"geometry": {"type": "Point", "coordinates": [-81.4662290096, 41.6252635642]}, "type": "Feature", "properties": {"collection_times": [{"days": "Mon-Sat", "time": "1:15pm"}, {"days": "Sun", "time": "Closed"}], "id": "4409500017", "name": "USPS COLLECTION BOX - BLUE BOX", "address": {"city": "WILLOWICK", "state": "OH", "street": "30201 BARJODE RD", "postcode": "44095"}}},
{"geometry": {"type": "Point", "coordinates": [-81.4356625329, 41.6425619731]}, "type": "Feature", "properties": {"collection_times": [{"days": "Mon-Sat", "time": "2:45pm"}, {"days": "Sun", "time": "Closed"}], "id": "4409500021", "name": "USPS COLLECTION BOX - BLUE BOX", "address": {"city": "WILLOWICK", "state": "OH", "street": "35475 VINE ST", "postcode": "44095"}}},
{"geometry": {"type": "Point", "coordinates": [-81.4772068688, 41.6276070059]}, "type": "Feature", "properties": {"collection_times": [{"days": "Mon-Sat", "time": "1:15pm"}, {"days": "Sun", "time": "Closed"}], "id": "4409500022", "name": "USPS COLLECTION BOX - BLUE BOX", "address": {"city": "WILLOWICK", "state": "OH", "street": "411 FAIRWAY BLVD", "postcode": "44095"}}},
{"geometry": {"type": "Point", "coordinates": [-81.456675433, 41.6290892535]}, "type": "Feature", "properties": {"collection_times": [{"days": "Mon-Sat", "time": "2:00pm"}, {"days": "Sun", "time": "Closed"}], "id": "4409500023", "name": "USPS COLLECTION BOX - BLUE BOX", "address": {"city": "WILLOWICK", "state": "OH", "street": "31729 DANIEL DR", "postcode": "44095"}}},
{"geometry": {"type": "Point", "coordinates": [-81.4501987327, 41.659429785]}, "type": "Feature", "properties": {"collection_times": [{"days": "Mon-Sat", "time": "10:30am"}, {"days": "Sun", "time": "Closed"}], "id": "4409500024", "name": "USPS COLLECTION BOX - BLUE BOX", "address": {"city": "WILLOWICK", "state": "OH", "street": "33963 ROBERTS RD", "postcode": "44095"}}},
{"geometry": {"type": "Point", "coordinates": [-81.4366479377, 41.654848185]}, "type": "Feature", "properties": {"collection_times": [{"days": "Mon-Sat", "time": "2:30pm"}, {"days": "Sun", "time": "Closed"}], "id": "4409500027", "name": "USPS COLLECTION BOX - BLUE BOX", "address": {"city": "WILLOWICK", "state": "OH", "street": "35314 GLEN DR", "postcode": "44095"}}},
{"geometry": {"type": "Point", "coordinates": [-81.4196133287, 41.6841749207]}, "type": "Feature", "properties": {"collection_times": [{"days": "Mon-Sat", "time": "2:30pm"}, {"days": "Sun", "time": "Closed"}], "id": "4409500028", "name": "USPS COLLECTION BOX - BLUE BOX", "address": {"city": "WILLOWICK", "state": "OH", "street": "115 SAINT LAWRENCE BLVD", "postcode": "44095"}}},
{"geometry": {"type": "Point", "coordinates": [-81.4268849774, 41.6782624917]}, "type": "Feature", "properties": {"collection_times": [{"days": "Mon-Sat", "time": "2:30pm"}, {"days": "Sun", "time": "Closed"}], "id": "4409500031", "name": "USPS COLLECTION BOX - BLUE BOX", "address": {"city": "WILLOWICK", "state": "OH", "street": "36201 LAKESHORE BLVD", "postcode": "44095"}}},
{"geometry": {"type": "Point", "coordinates": [-81.4688917334, 41.6416242087]}, "type": "Feature", "properties": {"collection_times": [{"days": "Mon-Fri", "time": "5:00pm"}, {"days": "Sat", "time": "2:00pm"}, {"days": "Sun", "time": "Closed"}], "id": "4409500032", "name": "USPS COLLECTION BOX - BLUE BOX", "address": {"city": "WILLOWICK", "state": "OH", "street": "260 E 312TH ST", "postcode": "44095"}}},
{"geometry": {"type": "Point", "coordinates": [-81.4448766003, 41.6425217525]}, "type": "Feature", "properties": {"collection_times": [{"days": "Mon-Fri", "time": "5:00pm"}, {"days": "Sat", "time": "1:30pm"}, {"days": "Sun", "time": "Closed"}], "id": "4409500035", "name": "USPS COLLECTION BOX - BLUE BOX", "address": {"city": "WILLOWICK", "state": "OH", "street": "34100 VINE ST", "postcode": "44095"}}},
{"geometry": {"type": "Point", "coordinates": [-81.4514396566, 41.6425253014]}, "type": "Feature", "properties": {"collection_times": [{"days": "Mon-Sat", "time": "4:00pm"}, {"days": "Sun", "time": "Closed"}], "id": "4409500036", "name": "USPS COLLECTION BOX - BLUE BOX", "address": {"city": "WILLOWICK", "state": "OH", "street": "33400 VINE ST", "postcode": "44095"}}},
{"geometry": {"type": "Point", "coordinates": [-81.443069039, 41.6633974294]}, "type": "Feature", "properties": {"collection_times": [{"days": "Mon-Sat", "time": "11:00am"}, {"days": "Sun", "time": "Closed"}], "id": "4409500038", "name": "USPS COLLECTION BOX - BLUE BOX", "address": {"city": "WILLOWICK", "state": "OH", "street": "34854 LAKE SHORE BLVD APT J", "postcode": "44095"}}},
{"geometry": {"type": "Point", "coordinates": [-81.4420990127, 41.6548067814]}, "type": "Feature", "properties": {"collection_times": [{"days": "Mon-Sat", "time": "1:45pm"}, {"days": "Sun", "time": "Closed"}], "id": "4409500041", "name": "USPS COLLECTION BOX - BLUE BOX", "address": {"city": "WILLOWICK", "state": "OH", "street": "34640 GLEN DR", "postcode": "44095"}}},
{"geometry": {"type": "Point", "coordinates": [-81.4438628045, 41.6425217525]}, "type": "Feature", "properties": {"collection_times": [{"days": "Mon-Sat", "time": "1:30pm"}, {"days": "Sun", "time": "Closed"}], "id": "4409500044", "name": "USPS COLLECTION BOX - BLUE BOX", "address": {"city": "WILLOWICK", "state": "OH", "street": "34440 VINE ST", "postcode": "44095"}}},
{"geometry": {"type": "Point", "coordinates": [-81.4688917334, 41.6416242087]}, "type": "Feature", "properties": {"collection_times": [{"days": "Mon-Fri", "time": "5:00pm"}, {"days": "Sat", "time": "2:00pm"}, {"days": "Sun", "time": "Closed"}], "id": "4409500047", "name": "USPS COLLECTION BOX - PO LOBBY", "address": {"city": "WILLOWICK", "state": "OH", "street": "260 E 312TH ST", "postcode": "44095"}}},
{"geometry": {"type": "Point", "coordinates": [-81.4688917334, 41.6416242087]}, "type": "Feature", "properties": {"collection_times": [{"days": "Mon-Fri", "time": "5:00pm"}, {"days": "Sat", "time": "2:00pm"}, {"days": "Sun", "time": "Closed"}], "id": "4409500048", "name": "USPS COLLECTION BOX - PO LOBBY", "address": {"city": "WILLOWICK", "state": "OH", "street": "260 E 312TH ST", "postcode": "44095"}}},
{"geometry": {"type": "Point", "coordinates": [-81.4359369794, 41.6384121531]}, "type": "Feature", "properties": {"collection_times": [{"days": "Mon-Fri", "time": "5:00pm"}, {"days": "Sat", "time": "1:45pm"}, {"days": "Sun", "time": "Closed"}], "id": "4409500053", "name": "USPS COLLECTION BOX - BLUE BOX", "address": {"city": "WILLOWICK", "state": "OH", "street": "35585 CURTIS BLVD", "postcode": "44095"}}},
{"geometry": {"type": "Point", "coordinates": [-81.4342152379, 41.6632459269]}, "type": "Feature", "properties": {"collection_times": [{"days": "Mon-Fri", "time": "5:00pm"}, {"days": "Sat", "time": "2:00pm"}, {"days": "Sun", "time": "Closed"}], "id": "4409500054", "name": "USPS COLLECTION BOX - BLUE BOX", "address": {"city": "WILLOWICK", "state": "OH", "street": "35350 LAKESHORE BLVD", "postcode": "44095"}}},
{"geometry": {"type": "Point", "coordinates": [-81.4342152379, 41.6632459269]}, "type": "Feature", "properties": {"collection_times": [{"days": "Mon-Fri", "time": "5:00pm"}, {"days": "Sat", "time": "2:00pm"}, {"days": "Sun", "time": "Closed"}], "id": "4409500055", "name": "USPS COLLECTION BOX - PO LOBBY", "address": {"city": "WILLOWICK", "state": "OH", "street": "35350 LAKESHORE BLVD", "postcode": "44095"}}},
{"geometry": {"type": "Point", "coordinates": [-81.4447455624, 41.6361378377]}, "type": "Feature", "properties": {"collection_times": [{"days": "Mon-Fri", "time": "5:00pm"}, {"days": "Sat", "time": "1:30pm"}, {"days": "Sun", "time": "Closed"}], "id": "4409500056", "name": "USPS COLLECTION BOX - BLUE BOX", "address": {"city": "WILLOWICK", "state": "OH", "street": "34525 MELINZ PKWY", "postcode": "44095"}}},
{"geometry": {"type": "Point", "coordinates": [-81.4367804292, 41.6385824992]}, "type": "Feature", "properties": {"collection_times": [{"days": "Mon-Sat", "time": "1:45pm"}, {"days": "Sun", "time": "Closed"}], "id": "4409500058", "name": "USPS COLLECTION BOX - BLUE BOX", "address": {"city": "WILLOWICK", "state": "OH", "street": "35353 CURTIS BLVD", "postcode": "44095"}}},
{"geometry": {"type": "Point", "coordinates": [-81.4422164326, 41.6523748688]}, "type": "Feature", "properties": {"collection_times": [{"days": "Mon-Sat", "time": "2:45pm"}, {"days": "Sun", "time": "Closed"}], "id": "4409500059", "name": "USPS COLLECTION BOX - BLUE BOX", "address": {"city": "WILLOWICK", "state": "OH", "street": "3936 E 365 TH ST", "postcode": "44095"}}},
{"geometry": {"type": "Point", "coordinates": [-80.9343332757, 41.5353390488]}, "type": "Feature", "properties": {"collection_times": [{"days": "Mon-Fri", "time": "4:00pm"}, {"days": "Sat", "time": "11:00am"}, {"days": "Sun", "time": "Closed"}], "id": "4409900000", "name": "USPS COLLECTION BOX - PO LOBBY", "address": {"city": "WINDSOR", "state": "OH", "street": "5103 US HIGHWAY 322", "postcode": "44099"}}},
{"geometry": {"type": "Point", "coordinates": [-80.9343332757, 41.5353390488]}, "type": "Feature", "properties": {"collection_times": [{"days": "Mon-Fri", "time": "4:00pm"}, {"days": "Sat", "time": "11:00am"}, {"days": "Sun", "time": "Closed"}], "id": "4409900001", "name": "USPS COLLECTION BOX - BLUE BOX", "address": {"city": "WINDSOR", "state": "OH", "street": "5103 US HIGHWAY 322", "postcode": "44099"}}}
]}
