{"type": "FeatureCollection", "features": [
{"geometry": {"type": "Point", "coordinates": [-81.1523674993, 41.0238083658]}, "type": "Feature", "properties": {"collection_times": [{"days": "Mon-Fri", "time": "4:00pm"}, {"days": "Sat", "time": "11:45am"}, {"days": "Sun", "time": "Closed"}], "id": "4420100001", "name": "USPS COLLECTION BOX - BLUE BOX", "address": {"city": "ATWATER", "state": "OH", "street": "6713 WATERLOO RD", "postcode": "44201"}}},
{"geometry": {"type": "Point", "coordinates": [-81.1523674993, 41.0238083658]}, "type": "Feature", "properties": {"collection_times": [{"days": "Mon-Fri", "time": "4:00pm"}, {"days": "Sat", "time": "12:00pm"}, {"days": "Sun", "time": "Closed"}], "id": "4420100002", "name": "USPS COLLECTION BOX - PO LOBBY", "address": {"city": "ATWATER", "state": "OH", "street": "6713 WATERLOO RD", "postcode": "44201"}}},
{"geometry": {"type": "Point", "coordinates": [-81.1523674993, 41.0238083658]}, "type": "Feature", "properties": {"collection_times": [{"days": "Mon-Fri", "time": "4:00pm"}, {"days": "Sat", "time": "12:00pm"}, {"days": "Sun", "time": "Closed"}], "id": "4420100004", "name": "USPS COLLECTION BOX - PO LOBBY", "address": {"city": "ATWATER", "state": "OH", "street": "6713 WATERLOO RD", "postcode": "44201"}}},
{"geometry": {"type": "Point", "coordinates": [-81.3456050499, 41.3020010997]}, "type": "Feature", "properties": {"collection_times": [{"days": "Mon-Sat", "time": "11:00am"}, {"days": "Sun", "time": "Closed"}], "id": "4420200002", "name": "USPS COLLECTION BOX - BLUE BOX", "address": {"city": "AURORA", "state": "OH", "street": "549 S CHILLICOTHE RD", "postcode": "44202"}}},
{"geometry": {"type": "Point", "coordinates": [-81.3556531033, 41.3149899891]}, "type": "Feature", "properties": {"collection_times": [{"days": "Mon-Fri", "time": "5:00pm"}, {"days": "Sat", "time": "3:00pm"}, {"days": "Sun", "time": "Closed"}], "id": "4420200004", "name": "USPS COLLECTION BOX - BLUE BOX", "address": {"city": "AURORA", "state": "OH", "street": "400 AURORA COMMONS CIR", "postcode": "44202"}}},
{"geometry": {"type": "Point", "coordinates": [-81.3900062317, 41.3515540678]}, "type": "Feature", "properties": {"collection_times": [{"days": "Mon-Fri", "time": "1:00pm"}, {"days": "Sat", "time": "11:00am"}, {"days": "Sun", "time": "Closed"}], "id": "4420200010", "name": "USPS COLLECTION BOX - BLUE BOX", "address": {"city": "AURORA", "state": "OH", "street": "7235 MARKET PLACE DR", "postcode": "44202"}}},
{"geometry": {"type": "Point", "coordinates": [-81.5899700662, 41.0077648993]}, "type": "Feature", "properties": {"collection_times": [{"days": "Mon-Sat", "time": "2:45pm"}, {"days": "Sun", "time": "Closed"}], "id": "4420300001", "name": "USPS COLLECTION BOX - BLUE BOX", "address": {"city": "NORTON", "state": "OH", "street": "90 5TH ST SE", "postcode": "44203"}}},
{"geometry": {"type": "Point", "coordinates": [-81.5898056349, 41.0153204582]}, "type": "Feature", "properties": {"collection_times": [{"days": "Mon-Sat", "time": "2:45pm"}, {"days": "Sun", "time": "Closed"}], "id": "4420300005", "name": "USPS COLLECTION BOX - BLUE BOX", "address": {"city": "NORTON", "state": "OH", "street": "155 5TH ST NE", "postcode": "44203"}}},
{"geometry": {"type": "Point", "coordinates": [-81.6054156726, 41.0154057718]}, "type": "Feature", "properties": {"collection_times": [{"days": "Mon-Sat", "time": "10:30am"}, {"days": "Sun", "time": "Closed"}], "id": "4420300009", "name": "USPS COLLECTION BOX - BLUE BOX", "address": {"city": "NORTON", "state": "OH", "street": "177 WOOSTER RD N", "postcode": "44203"}}},
{"geometry": {"type": "Point", "coordinates": [-81.598987612, 41.0240697024]}, "type": "Feature", "properties": {"collection_times": [{"days": "Mon-Sat", "time": "2:45pm"}, {"days": "Sun", "time": "Closed"}], "id": "4420300012", "name": "USPS COLLECTION BOX - BLUE BOX", "address": {"city": "NORTON", "state": "OH", "street": "256 NORTON AVE", "postcode": "44203"}}},
{"geometry": {"type": "Point", "coordinates": [-81.6088382617, 41.0136986214]}, "type": "Feature", "properties": {"collection_times": [{"days": "Mon-Sat", "time": "2:45pm"}, {"days": "Sun", "time": "Closed"}], "id": "4420300020", "name": "USPS COLLECTION BOX - BLUE BOX", "address": {"city": "NORTON", "state": "OH", "street": "524 W PARK AVE", "postcode": "44203"}}},
{"geometry": {"type": "Point", "coordinates": [-81.5860982415, 41.0103898852]}, "type": "Feature", "properties": {"collection_times": [{"days": "Mon-Sat", "time": "2:45pm"}, {"days": "Sun", "time": "Closed"}], "id": "4420300023", "name": "USPS COLLECTION BOX - BLUE BOX", "address": {"city": "NORTON", "state": "OH", "street": "550 ROBINSON AVE", "postcode": "44203"}}},
{"geometry": {"type": "Point", "coordinates": [-81.583894389, 41.0172084607]}, "type": "Feature", "properties": {"collection_times": [{"days": "Mon-Sat", "time": "2:45pm"}, {"days": "Sun", "time": "Closed"}], "id": "4420300027", "name": "USPS COLLECTION BOX - BLUE BOX", "address": {"city": "NORTON", "state": "OH", "street": "604 E HOPOCAN AVE", "postcode": "44203"}}},
{"geometry": {"type": "Point", "coordinates": [-81.6379851877, 41.0375719163]}, "type": "Feature", "properties": {"collection_times": [{"days": "Mon-Sat", "time": "2:30pm"}, {"days": "Sun", "time": "Closed"}], "id": "4420300033", "name": "USPS COLLECTION BOX - BLUE BOX", "address": {"city": "NORTON", "state": "OH", "street": "3725 CLEVELAND MASSILLON RD", "postcode": "44203"}}},
{"geometry": {"type": "Point", "coordinates": [-81.6383137771, 41.0256936476]}, "type": "Feature", "properties": {"collection_times": [{"days": "Mon-Sat", "time": "3:00pm"}, {"days": "Sun", "time": "Closed"}], "id": "4420300037", "name": "USPS COLLECTION BOX - BLUE BOX", "address": {"city": "NORTON", "state": "OH", "street": "4160 CLEVELAND MASSILLON RD", "postcode": "44203"}}},
{"geometry": {"type": "Point", "coordinates": [-81.6416080695, 41.025763059]}, "type": "Feature", "properties": {"collection_times": [{"days": "Mon-Fri", "time": "5:00pm"}, {"days": "Sat", "time": "3:00pm"}, {"days": "Sun", "time": "Closed"}], "id": "4420300038", "name": "USPS COLLECTION BOX - BLUE BOX", "address": {"city": "NORTON", "state": "OH", "street": "3200 GREENWICH RD", "postcode": "44203"}}},
{"geometry": {"type": "Point", "coordinates": [-81.6407807263, 41.0257866441]}, "type": "Feature", "properties": {"collection_times": [{"days": "Mon-Sat", "time": "3:00pm"}, {"days": "Sun", "time": "Closed"}], "id": "4420300039", "name": "USPS COLLECTION BOX - BLUE BOX", "address": {"city": "NORTON", "state": "OH", "street": "3200 GREENWICH RD", "postcode": "44203"}}},
{"geometry": {"type": "Point", "coordinates": [-81.6055545543, 41.0150036091]}, "type": "Feature", "properties": {"collection_times": [{"days": "Mon-Sat", "time": "2:45pm"}, {"days": "Sun", "time": "Closed"}], "id": "4420300040", "name": "USPS COLLECTION BOX - BLUE BOX", "address": {"city": "NORTON", "state": "OH", "street": "145 WOOSTER RD N", "postcode": "44203"}}},
{"geometry": {"type": "Point", "coordinates": [-81.6496184061, 41.000710915]}, "type": "Feature", "properties": {"collection_times": [{"days": "Mon-Sat", "time": "2:45pm"}, {"days": "Sun", "time": "Closed"}], "id": "4420300043", "name": "USPS COLLECTION BOX - BLUE BOX", "address": {"city": "NORTON", "state": "OH", "street": "1738 WOOSTER RD W", "postcode": "44203"}}},
{"geometry": {"type": "Point", "coordinates": [-81.6094131798, 41.0120223686]}, "type": "Feature", "properties": {"collection_times": [{"days": "Mon-Fri", "time": "5:00pm"}, {"days": "Sat", "time": "3:15pm"}, {"days": "Sun", "time": "Closed"}], "id": "4420300048", "name": "USPS COLLECTION BOX - BLUE BOX", "address": {"city": "NORTON", "state": "OH", "street": "531 WOOSTER RD W", "postcode": "44203"}}},
{"geometry": {"type": "Point", "coordinates": [-81.6094131798, 41.0120223686]}, "type": "Feature", "properties": {"collection_times": [{"days": "Mon-Fri", "time": "5:00pm"}, {"days": "Sat", "time": "3:15pm"}, {"days": "Sun", "time": "Closed"}], "id": "4420300049", "name": "USPS COLLECTION BOX - BLUE BOX", "address": {"city": "NORTON", "state": "OH", "street": "531 WOOSTER RD W", "postcode": "44203"}}},
{"geometry": {"type": "Point", "coordinates": [-81.6094131798, 41.0120223686]}, "type": "Feature", "properties": {"collection_times": [{"days": "Mon-Fri", "time": "5:00pm"}, {"days": "Sat", "time": "3:15pm"}, {"days": "Sun", "time": "Closed"}], "id": "4420300050", "name": "USPS COLLECTION BOX - PO LOBBY", "address": {"city": "NORTON", "state": "OH", "street": "531 WOOSTER RD W", "postcode": "44203"}}},
{"geometry": {"type": "Point", "coordinates": [-81.6109643658, 41.0121125272]}, "type": "Feature", "properties": {"collection_times": [{"days": "Mon-Sat", "time": "3:00pm"}, {"days": "Sun", "time": "Closed"}], "id": "4420300052", "name": "USPS COLLECTION BOX - BLUE BOX", "address": {"city": "NORTON", "state": "OH", "street": "581 WOOSTER RD W", "postcode": "44203"}}},
{"geometry": {"type": "Point", "coordinates": [-81.6416080695, 41.025763059]}, "type": "Feature", "properties": {"collection_times": [{"days": "Mon-Fri", "time": "5:00pm"}, {"days": "Sat", "time": "3:00pm"}, {"days": "Sun", "time": "Closed"}], "id": "4420300062", "name": "USPS COLLECTION BOX - PO LOBBY", "address": {"city": "NORTON", "state": "OH", "street": "3200 GREENWICH RD", "postcode": "44203"}}},
{"geometry": {"type": "Point", "coordinates": [-81.6361535868, 41.1889147977]}, "type": "Feature", "properties": {"collection_times": [{"days": "Mon-Fri", "time": "4:30pm"}, {"days": "Sat", "time": "11:00am"}, {"days": "Sun", "time": "Closed"}], "id": "4421000002", "name": "USPS COLLECTION BOX - BLUE BOX", "address": {"city": "BATH", "state": "OH", "street": "1970 N CLEVELAND MASSILLON RD", "postcode": "44210"}}},
{"geometry": {"type": "Point", "coordinates": [-81.8412966458, 41.2315694562]}, "type": "Feature", "properties": {"collection_times": [{"days": "Mon-Sat", "time": "2:15pm"}, {"days": "Sun", "time": "Closed"}], "id": "4421200005", "name": "USPS COLLECTION BOX - BLUE BOX", "address": {"city": "BRUNSWICK", "state": "OH", "street": "1673 PEARL RD", "postcode": "44212"}}},
{"geometry": {"type": "Point", "coordinates": [-81.8410992723, 41.2533386782]}, "type": "Feature", "properties": {"collection_times": [{"days": "Mon-Sat", "time": "2:00pm"}, {"days": "Sun", "time": "Closed"}], "id": "4421200006", "name": "USPS COLLECTION BOX - BLUE BOX", "address": {"city": "BRUNSWICK", "state": "OH", "street": "813 PEARL RD", "postcode": "44212"}}},
{"geometry": {"type": "Point", "coordinates": [-81.8282732952, 41.2383467734]}, "type": "Feature", "properties": {"collection_times": [{"days": "Mon-Fri", "time": "5:00pm"}, {"days": "Sat", "time": "2:00pm"}, {"days": "Sun", "time": "Closed"}], "id": "4421200008", "name": "USPS COLLECTION BOX - BLUE BOX", "address": {"city": "BRUNSWICK", "state": "OH", "street": "3955 CENTER RD", "postcode": "44212"}}},
{"geometry": {"type": "Point", "coordinates": [-81.8034525626, 41.2383521297]}, "type": "Feature", "properties": {"collection_times": [{"days": "Mon-Sat", "time": "2:30pm"}, {"days": "Sun", "time": "Closed"}], "id": "4421200009", "name": "USPS COLLECTION BOX - BLUE BOX", "address": {"city": "BRUNSWICK", "state": "OH", "street": "3303 CENTER RD", "postcode": "44212"}}},
{"geometry": {"type": "Point", "coordinates": [-81.7942457862, 41.2383721029]}, "type": "Feature", "properties": {"collection_times": [{"days": "Mon-Sat", "time": "2:30pm"}, {"days": "Sun", "time": "Closed"}], "id": "4421200011", "name": "USPS COLLECTION BOX - BLUE BOX", "address": {"city": "BRUNSWICK", "state": "OH", "street": "3031 CENTER RD", "postcode": "44212"}}},
{"geometry": {"type": "Point", "coordinates": [-81.8282732952, 41.2383467734]}, "type": "Feature", "properties": {"collection_times": [{"days": "Mon-Fri", "time": "5:00pm"}, {"days": "Sat", "time": "2:00pm"}, {"days": "Sun", "time": "Closed"}], "id": "4421200014", "name": "USPS COLLECTION BOX - PO LOBBY", "address": {"city": "BRUNSWICK", "state": "OH", "street": "3955 CENTER RD", "postcode": "44212"}}},
{"geometry": {"type": "Point", "coordinates": [-81.8276490889, 41.238329402]}, "type": "Feature", "properties": {"collection_times": [{"days": "Mon-Fri", "time": "5:00pm"}, {"days": "Sat", "time": "2:00pm"}, {"days": "Sun", "time": "Closed"}], "id": "4421200015", "name": "USPS COLLECTION BOX - BLUE BOX", "address": {"city": "BRUNSWICK", "state": "OH", "street": "3955 CENTER RD", "postcode": "44212"}}},
{"geometry": {"type": "Point", "coordinates": [-81.8183651366, 41.2382751002]}, "type": "Feature", "properties": {"collection_times": [{"days": "Mon-Sat", "time": "3:00pm"}, {"days": "Sun", "time": "Closed"}], "id": "4421200017", "name": "USPS COLLECTION BOX - BLUE BOX", "address": {"city": "BRUNSWICK", "state": "OH", "street": "3688 CENTER RD", "postcode": "44212"}}},
{"geometry": {"type": "Point", "coordinates": [-81.8282732952, 41.2383467734]}, "type": "Feature", "properties": {"collection_times": [{"days": "Mon-Fri", "time": "5:00pm"}, {"days": "Sat", "time": "2:00pm"}, {"days": "Sun", "time": "Closed"}], "id": "4421200018", "name": "USPS COLLECTION BOX - APC", "address": {"city": "BRUNSWICK", "state": "OH", "street": "3955 CENTER RD", "postcode": "44212"}}},
{"geometry": {"type": "Point", "coordinates": [-81.8314798013, 41.2467932893]}, "type": "Feature", "properties": {"collection_times": [{"days": "Mon-Sat", "time": "2:00pm"}, {"days": "Sun", "time": "Closed"}], "id": "4421200019", "name": "USPS COLLECTION BOX - BLUE BOX", "address": {"city": "BRUNSWICK", "state": "OH", "street": "5270 CENTER RD", "postcode": "44212"}}},
{"geometry": {"type": "Point", "coordinates": [-81.8276490889, 41.238329402]}, "type": "Feature", "properties": {"collection_times": [{"days": "Mon-Fri", "time": "5:00pm"}, {"days": "Sat", "time": "2:00pm"}, {"days": "Sun", "time": "Closed"}], "id": "4421200022", "name": "USPS COLLECTION BOX - BLUE BOX", "address": {"city": "BRUNSWICK", "state": "OH", "street": "3955 CENTER RD", "postcode": "44212"}}},
{"geometry": {"type": "Point", "coordinates": [-81.7952873916, 41.2386580215]}, "type": "Feature", "properties": {"collection_times": [{"days": "Mon-Sat", "time": "2:30pm"}, {"days": "Sun", "time": "Closed"}], "id": "4421200023", "name": "USPS COLLECTION BOX - BLUE BOX", "address": {"city": "BRUNSWICK", "state": "OH", "street": "3031 CENTER RD", "postcode": "44212"}}},
{"geometry": {"type": "Point", "coordinates": [-81.9948495313, 40.9894828327]}, "type": "Feature", "properties": {"collection_times": [{"days": "Mon-Fri", "time": "3:45pm"}, {"days": "Sat", "time": "11:00am"}, {"days": "Sun", "time": "Closed"}], "id": "4421400001", "name": "USPS COLLECTION BOX - BLUE BOX", "address": {"city": "BURBANK", "state": "OH", "street": "55 S FRONT ST", "postcode": "44214"}}},
{"geometry": {"type": "Point", "coordinates": [-81.9948495313, 40.9894828327]}, "type": "Feature", "properties": {"collection_times": [{"days": "Mon-Fri", "time": "3:45pm"}, {"days": "Sat", "time": "11:00am"}, {"days": "Sun", "time": "Closed"}], "id": "4421400002", "name": "USPS COLLECTION BOX - PO LOBBY", "address": {"city": "BURBANK", "state": "OH", "street": "55 S FRONT ST", "postcode": "44214"}}},
{"geometry": {"type": "Point", "coordinates": [-81.9006327082, 41.0708417492]}, "type": "Feature", "properties": {"collection_times": [{"days": "Mon-Fri", "time": "4:15pm"}, {"days": "Sat", "time": "11:45am"}, {"days": "Sun", "time": "Closed"}], "id": "4421500001", "name": "USPS COLLECTION BOX - BLUE BOX", "address": {"city": "CHIPPEWA LAKE", "state": "OH", "street": "5825 HEATHERHEDGE DR", "postcode": "44215"}}},
{"geometry": {"type": "Point", "coordinates": [-81.9006327082, 41.0708417492]}, "type": "Feature", "properties": {"collection_times": [{"days": "Mon-Fri", "time": "4:15pm"}, {"days": "Sat", "time": "11:45am"}, {"days": "Sun", "time": "Closed"}], "id": "4421500002", "name": "USPS COLLECTION BOX - PO LOBBY", "address": {"city": "CHIPPEWA LAKE", "state": "OH", "street": "5825 HEATHERHEDGE DR", "postcode": "44215"}}},
{"geometry": {"type": "Point", "coordinates": [-81.6263708966, 40.9273094941]}, "type": "Feature", "properties": {"collection_times": [{"days": "Mon-Fri", "time": "4:30pm"}, {"days": "Sat", "time": "12:00pm"}, {"days": "Sun", "time": "Closed"}], "id": "4421600001", "name": "USPS COLLECTION BOX - BLUE BOX", "address": {"city": "CLINTON", "state": "OH", "street": "2733 W COMET RD", "postcode": "44216"}}},
{"geometry": {"type": "Point", "coordinates": [-81.8942212028, 40.9852445057]}, "type": "Feature", "properties": {"collection_times": [{"days": "Mon-Fri", "time": "3:45pm"}, {"days": "Sat", "time": "11:45am"}, {"days": "Sun", "time": "Closed"}], "id": "4421700001", "name": "USPS COLLECTION BOX - BLUE BOX", "address": {"city": "CRESTON", "state": "OH", "street": "122 S MAIN ST", "postcode": "44217"}}},
{"geometry": {"type": "Point", "coordinates": [-81.8942212028, 40.9852445057]}, "type": "Feature", "properties": {"collection_times": [{"days": "Mon-Fri", "time": "4:00pm"}, {"days": "Sat", "time": "12:00pm"}, {"days": "Sun", "time": "Closed"}], "id": "4421700002", "name": "USPS COLLECTION BOX - PO LOBBY", "address": {"city": "CRESTON", "state": "OH", "street": "122 S MAIN ST", "postcode": "44217"}}},
{"geometry": {"type": "Point", "coordinates": [-81.4833547066, 41.1339582298]}, "type": "Feature", "properties": {"collection_times": [{"days": "Mon-Fri", "time": "11:00am"}, {"days": "Sat", "time": "10:00am"}, {"days": "Sun", "time": "Closed"}], "id": "4422100002", "name": "USPS COLLECTION BOX - BLUE BOX", "address": {"city": "CUYAHOGA FALLS", "state": "OH", "street": "2020 FRONT ST", "postcode": "44221"}}},
{"geometry": {"type": "Point", "coordinates": [-81.473018019, 41.1362249294]}, "type": "Feature", "properties": {"collection_times": [{"days": "Mon-Sat", "time": "1:00pm"}, {"days": "Sun", "time": "Closed"}], "id": "4422100003", "name": "USPS COLLECTION BOX - BLUE BOX", "address": {"city": "CUYAHOGA FALLS", "state": "OH", "street": "2200 HIGH ST", "postcode": "44221"}}},
{"geometry": {"type": "Point", "coordinates": [-81.4745137868, 41.146145205]}, "type": "Feature", "properties": {"collection_times": [{"days": "Mon-Fri", "time": "12:00pm"}, {"days": "Sat", "time": "2:30pm"}, {"days": "Sun", "time": "Closed"}], "id": "4422100006", "name": "USPS COLLECTION BOX - BLUE BOX", "address": {"city": "CUYAHOGA FALLS", "state": "OH", "street": "2630 BAILEY RD", "postcode": "44221"}}},
{"geometry": {"type": "Point", "coordinates": [-81.4736710045, 41.1496004962]}, "type": "Feature", "properties": {"collection_times": [{"days": "Mon-Fri", "time": "12:45pm"}, {"days": "Sat", "time": "11:00am"}, {"days": "Sun", "time": "Closed"}], "id": "4422100007", "name": "USPS COLLECTION BOX - BLUE BOX", "address": {"city": "CUYAHOGA FALLS", "state": "OH", "street": "2819 HUDSON DR", "postcode": "44221"}}},
{"geometry": {"type": "Point", "coordinates": [-81.4928077317, 41.1584371997]}, "type": "Feature", "properties": {"collection_times": [{"days": "Mon-Sat", "time": "9:45am"}, {"days": "Sun", "time": "Closed"}], "id": "4422100010", "name": "USPS COLLECTION BOX - BLUE BOX", "address": {"city": "CUYAHOGA FALLS", "state": "OH", "street": "526 GRAHAM RD", "postcode": "44221"}}},
{"geometry": {"type": "Point", "coordinates": [-81.4750727086, 41.1191317814]}, "type": "Feature", "properties": {"collection_times": [{"days": "Mon-Fri", "time": "11:30am"}, {"days": "Sat", "time": "10:30am"}, {"days": "Sun", "time": "Closed"}], "id": "4422100011", "name": "USPS COLLECTION BOX - BLUE BOX", "address": {"city": "CUYAHOGA FALLS", "state": "OH", "street": "645 HOWE RD", "postcode": "44221"}}},
{"geometry": {"type": "Point", "coordinates": [-81.478757728, 41.1636232918]}, "type": "Feature", "properties": {"collection_times": [{"days": "Mon-Fri", "time": "12:45pm"}, {"days": "Sat", "time": "1:00pm"}, {"days": "Sun", "time": "Closed"}], "id": "4422100013", "name": "USPS COLLECTION BOX - BLUE BOX", "address": {"city": "CUYAHOGA FALLS", "state": "OH", "street": "911 GRAHAM RD", "postcode": "44221"}}},
{"geometry": {"type": "Point", "coordinates": [-81.4793787815, 41.1499731283]}, "type": "Feature", "properties": {"collection_times": [{"days": "Mon-Sat", "time": "10:45am"}, {"days": "Sun", "time": "Closed"}], "id": "4422100017", "name": "USPS COLLECTION BOX - BLUE BOX", "address": {"city": "CUYAHOGA FALLS", "state": "OH", "street": "2826 BAILEY RD", "postcode": "44221"}}},
{"geometry": {"type": "Point", "coordinates": [-81.4680531323, 41.1349128777]}, "type": "Feature", "properties": {"collection_times": [{"days": "Mon-Fri", "time": "11:45am"}, {"days": "Sat", "time": "10:30am"}, {"days": "Sun", "time": "Closed"}], "id": "4422100018", "name": "USPS COLLECTION BOX - BLUE BOX", "address": {"city": "CUYAHOGA FALLS", "state": "OH", "street": "2054 BAILEY RD", "postcode": "44221"}}},
{"geometry": {"type": "Point", "coordinates": [-81.4898621638, 41.1343462404]}, "type": "Feature", "properties": {"collection_times": [{"days": "Mon-Sat", "time": "12:00pm"}, {"days": "Sun", "time": "Closed"}], "id": "4422100021", "name": "USPS COLLECTION BOX - BLUE BOX", "address": {"city": "CUYAHOGA FALLS", "state": "OH", "street": "544 BROAD BLVD", "postcode": "44221"}}},
{"geometry": {"type": "Point", "coordinates": [-81.4958952545, 41.1287886991]}, "type": "Feature", "properties": {"collection_times": [{"days": "Mon-Fri", "time": "11:00am"}, {"days": "Sat", "time": "1:00pm"}, {"days": "Sun", "time": "Closed"}], "id": "4422100024", "name": "USPS COLLECTION BOX - BLUE BOX", "address": {"city": "CUYAHOGA FALLS", "state": "OH", "street": "1009 CHESTNUT BLVD", "postcode": "44221"}}},
{"geometry": {"type": "Point", "coordinates": [-81.4837557297, 41.1363560876]}, "type": "Feature", "properties": {"collection_times": [{"days": "Mon-Fri", "time": "11:15am"}, {"days": "Sat", "time": "10:00am"}, {"days": "Sun", "time": "Closed"}], "id": "4422100027", "name": "USPS COLLECTION BOX - BLUE BOX", "address": {"city": "CUYAHOGA FALLS", "state": "OH", "street": "2150 FRONT ST", "postcode": "44221"}}},
{"geometry": {"type": "Point", "coordinates": [-81.4851504383, 41.1282812097]}, "type": "Feature", "properties": {"collection_times": [{"days": "Mon-Sat", "time": "12:00pm"}, {"days": "Sun", "time": "Closed"}], "id": "4422100032", "name": "USPS COLLECTION BOX - BLUE BOX", "address": {"city": "CUYAHOGA FALLS", "state": "OH", "street": "1707 FRONT ST", "postcode": "44221"}}},
{"geometry": {"type": "Point", "coordinates": [-81.4840727627, 41.1300237083]}, "type": "Feature", "properties": {"collection_times": [{"days": "Mon-Sat", "time": "12:00pm"}, {"days": "Sun", "time": "Closed"}], "id": "4422100033", "name": "USPS COLLECTION BOX - BLUE BOX", "address": {"city": "CUYAHOGA FALLS", "state": "OH", "street": "1817 FRONT ST", "postcode": "44221"}}},
{"geometry": {"type": "Point", "coordinates": [-81.4662693649, 41.1332325297]}, "type": "Feature", "properties": {"collection_times": [{"days": "Mon-Fri", "time": "11:45am"}, {"days": "Sat", "time": "11:00am"}, {"days": "Sun", "time": "Closed"}], "id": "4422100037", "name": "USPS COLLECTION BOX - BLUE BOX", "address": {"city": "CUYAHOGA FALLS", "state": "OH", "street": "1923 BAILEY RD", "postcode": "44221"}}},
{"geometry": {"type": "Point", "coordinates": [-81.4655038558, 41.1472156509]}, "type": "Feature", "properties": {"collection_times": [{"days": "Mon-Fri", "time": "12:00pm"}, {"days": "Sat", "time": "11:00am"}, {"days": "Sun", "time": "Closed"}], "id": "4422100039", "name": "USPS COLLECTION BOX - BLUE BOX", "address": {"city": "CUYAHOGA FALLS", "state": "OH", "street": "2726 OAK PARK BLVD", "postcode": "44221"}}},
{"geometry": {"type": "Point", "coordinates": [-81.4811750216, 41.119143996]}, "type": "Feature", "properties": {"collection_times": [{"days": "Mon-Fri", "time": "11:30am"}, {"days": "Sat", "time": "9:30am"}, {"days": "Sun", "time": "Closed"}], "id": "4422100041", "name": "USPS COLLECTION BOX - BLUE BOX", "address": {"city": "CUYAHOGA FALLS", "state": "OH", "street": "360 HOWE RD", "postcode": "44221"}}},
{"geometry": {"type": "Point", "coordinates": [-81.4570362355, 41.119595925]}, "type": "Feature", "properties": {"collection_times": [{"days": "Mon-Fri", "time": "11:30am"}, {"days": "Sat", "time": "1:00pm"}, {"days": "Sun", "time": "Closed"}], "id": "4422100043", "name": "USPS COLLECTION BOX - BLUE BOX", "address": {"city": "CUYAHOGA FALLS", "state": "OH", "street": "1207 HUNTERS LAKE DR W", "postcode": "44221"}}},
{"geometry": {"type": "Point", "coordinates": [-81.4824911465, 41.1248660072]}, "type": "Feature", "properties": {"collection_times": [{"days": "Mon-Sat", "time": "10:30am"}, {"days": "Sun", "time": "Closed"}], "id": "4422100044", "name": "USPS COLLECTION BOX - BLUE BOX", "address": {"city": "CUYAHOGA FALLS", "state": "OH", "street": "224 ORCHARD AVE", "postcode": "44221"}}},
{"geometry": {"type": "Point", "coordinates": [-81.4958905227, 41.1420366566]}, "type": "Feature", "properties": {"collection_times": [{"days": "Mon-Fri", "time": "12:15pm"}, {"days": "Sat", "time": "10:30am"}, {"days": "Sun", "time": "Closed"}], "id": "4422100049", "name": "USPS COLLECTION BOX - BLUE BOX", "address": {"city": "CUYAHOGA FALLS", "state": "OH", "street": "1020 PORTAGE TRL", "postcode": "44221"}}},
{"geometry": {"type": "Point", "coordinates": [-81.4864623349, 41.136612571]}, "type": "Feature", "properties": {"collection_times": [{"days": "Mon-Fri", "time": "12:15pm"}, {"days": "Sat", "time": "11:30am"}, {"days": "Sun", "time": "Closed"}], "id": "4422100050", "name": "USPS COLLECTION BOX - BLUE BOX", "address": {"city": "CUYAHOGA FALLS", "state": "OH", "street": "355 PORTAGE TRL", "postcode": "44221"}}},
{"geometry": {"type": "Point", "coordinates": [-81.4916862866, 41.1394566231]}, "type": "Feature", "properties": {"collection_times": [{"days": "Mon-Fri", "time": "12:15pm"}, {"days": "Sat", "time": "9:30am"}, {"days": "Sun", "time": "Closed"}], "id": "4422100051", "name": "USPS COLLECTION BOX - BLUE BOX", "address": {"city": "CUYAHOGA FALLS", "state": "OH", "street": "655 PORTAGE TRL", "postcode": "44221"}}},
{"geometry": {"type": "Point", "coordinates": [-81.4855278022, 41.1302271772]}, "type": "Feature", "properties": {"collection_times": [{"days": "Mon-Fri", "time": "12:00pm"}, {"days": "Sat", "time": "9:45am"}, {"days": "Sun", "time": "Closed"}], "id": "4422100058", "name": "USPS COLLECTION BOX - BLUE BOX", "address": {"city": "CUYAHOGA FALLS", "state": "OH", "street": "2310 2ND ST", "postcode": "44221"}}},
{"geometry": {"type": "Point", "coordinates": [-81.4874743565, 41.138331495]}, "type": "Feature", "properties": {"collection_times": [{"days": "Mon-Fri", "time": "12:15pm"}, {"days": "Sat", "time": "9:30am"}, {"days": "Sun", "time": "Closed"}], "id": "4422100060", "name": "USPS COLLECTION BOX - BLUE BOX", "address": {"city": "CUYAHOGA FALLS", "state": "OH", "street": "431 STOW AVE", "postcode": "44221"}}},
{"geometry": {"type": "Point", "coordinates": [-81.4520405998, 41.141131693]}, "type": "Feature", "properties": {"collection_times": [{"days": "Mon-Sat", "time": "2:00pm"}, {"days": "Sun", "time": "Closed"}], "id": "4422100067", "name": "USPS COLLECTION BOX - BLUE BOX", "address": {"city": "CUYAHOGA FALLS", "state": "OH", "street": "2275 WINTER PKWY", "postcode": "44221"}}},
{"geometry": {"type": "Point", "coordinates": [-81.4601051347, 41.1205028789]}, "type": "Feature", "properties": {"collection_times": [{"days": "Mon-Sat", "time": "11:30am"}, {"days": "Sun", "time": "Closed"}], "id": "4422100069", "name": "USPS COLLECTION BOX - BLUE BOX", "address": {"city": "CUYAHOGA FALLS", "state": "OH", "street": "1817 BEACON HILL CIR", "postcode": "44221"}}},
{"geometry": {"type": "Point", "coordinates": [-81.4829265388, 41.135885698]}, "type": "Feature", "properties": {"collection_times": [{"days": "Mon-Fri", "time": "11:15am"}, {"days": "Sat", "time": "10:00am"}, {"days": "Sun", "time": "Closed"}], "id": "4422100070", "name": "USPS COLLECTION BOX - BLUE BOX", "address": {"city": "CUYAHOGA FALLS", "state": "OH", "street": "2166 FRONT ST", "postcode": "44221"}}},
{"geometry": {"type": "Point", "coordinates": [-81.4843412943, 41.1357669741]}, "type": "Feature", "properties": {"collection_times": [{"days": "Mon-Fri", "time": "5:00pm"}, {"days": "Sat", "time": "2:30pm"}, {"days": "Sun", "time": "Closed"}], "id": "4422100073", "name": "USPS COLLECTION BOX - BLUE BOX", "address": {"city": "CUYAHOGA FALLS", "state": "OH", "street": "2054 2ND ST", "postcode": "44221"}}},
{"geometry": {"type": "Point", "coordinates": [-81.4843412943, 41.1357669741]}, "type": "Feature", "properties": {"collection_times": [{"days": "Mon-Fri", "time": "5:00pm"}, {"days": "Sat", "time": "2:30pm"}, {"days": "Sun", "time": "Closed"}], "id": "4422100074", "name": "USPS COLLECTION BOX - BLUE BOX", "address": {"city": "CUYAHOGA FALLS", "state": "OH", "street": "2054 2ND ST", "postcode": "44221"}}},
{"geometry": {"type": "Point", "coordinates": [-81.4843412943, 41.1357669741]}, "type": "Feature", "properties": {"collection_times": [{"days": "Mon-Fri", "time": "5:00pm"}, {"days": "Sat", "time": "2:30pm"}, {"days": "Sun", "time": "Closed"}], "id": "4422100075", "name": "USPS COLLECTION BOX - BLUE BOX", "address": {"city": "CUYAHOGA FALLS", "state": "OH", "street": "2054 2ND ST", "postcode": "44221"}}},
{"geometry": {"type": "Point", "coordinates": [-81.4774878582, 41.1389502528]}, "type": "Feature", "properties": {"collection_times": [{"days": "Mon-Fri", "time": "5:00pm"}, {"days": "Sat", "time": "2:30pm"}, {"days": "Sun", "time": "Closed"}], "id": "4422100076", "name": "USPS COLLECTION BOX - EXPRESS", "address": {"city": "CUYAHOGA FALLS", "state": "OH", "street": "2054 2ND ST", "postcode": "44221"}}},
{"geometry": {"type": "Point", "coordinates": [-81.4855278022, 41.1302271772]}, "type": "Feature", "properties": {"collection_times": [{"days": "Mon-Sat", "time": "9:30am"}, {"days": "Sun", "time": "Closed"}], "id": "4422100080", "name": "USPS COLLECTION BOX - BLUE BOX", "address": {"city": "CUYAHOGA FALLS", "state": "OH", "street": "2310 2ND ST", "postcode": "44221"}}},
{"geometry": {"type": "Point", "coordinates": [-81.498994607, 41.1311794592]}, "type": "Feature", "properties": {"collection_times": [{"days": "Mon-Sat", "time": "1:45pm"}, {"days": "Sun", "time": "Closed"}], "id": "4422300002", "name": "USPS COLLECTION BOX - BLUE BOX", "address": {"city": "CUYAHOGA FALLS", "state": "OH", "street": "1300 SACKETT AVE", "postcode": "44223"}}},
{"geometry": {"type": "Point", "coordinates": [-81.4986657444, 41.1491213978]}, "type": "Feature", "properties": {"collection_times": [{"days": "Mon-Sat", "time": "12:45pm"}, {"days": "Sun", "time": "Closed"}], "id": "4422300003", "name": "USPS COLLECTION BOX - BLUE BOX", "address": {"city": "CUYAHOGA FALLS", "state": "OH", "street": "2803 13TH ST", "postcode": "44223"}}},
{"geometry": {"type": "Point", "coordinates": [-81.5008944391, 41.1533717694]}, "type": "Feature", "properties": {"collection_times": [{"days": "Mon-Sat", "time": "12:30pm"}, {"days": "Sun", "time": "Closed"}], "id": "4422300008", "name": "USPS COLLECTION BOX - BLUE BOX", "address": {"city": "CUYAHOGA FALLS", "state": "OH", "street": "171 GRAHAM RD", "postcode": "44223"}}},
{"geometry": {"type": "Point", "coordinates": [-81.5045959177, 41.1289211905]}, "type": "Feature", "properties": {"collection_times": [{"days": "Mon-Sat", "time": "1:45pm"}, {"days": "Sun", "time": "Closed"}], "id": "4422300009", "name": "USPS COLLECTION BOX - BLUE BOX", "address": {"city": "CUYAHOGA FALLS", "state": "OH", "street": "1807 CHESTNUT BLVD", "postcode": "44223"}}},
{"geometry": {"type": "Point", "coordinates": [-81.5099535389, 41.1328509802]}, "type": "Feature", "properties": {"collection_times": [{"days": "Mon-Sat", "time": "1:15pm"}, {"days": "Sun", "time": "Closed"}], "id": "4422300010", "name": "USPS COLLECTION BOX - BLUE BOX", "address": {"city": "CUYAHOGA FALLS", "state": "OH", "street": "1900 23RD ST", "postcode": "44223"}}},
{"geometry": {"type": "Point", "coordinates": [-81.5064070279, 41.1345331479]}, "type": "Feature", "properties": {"collection_times": [{"days": "Mon-Sat", "time": "1:30pm"}, {"days": "Sun", "time": "Closed"}], "id": "4422300011", "name": "USPS COLLECTION BOX - BLUE BOX", "address": {"city": "CUYAHOGA FALLS", "state": "OH", "street": "2007 BROAD BLVD", "postcode": "44223"}}},
{"geometry": {"type": "Point", "coordinates": [-81.5077697966, 41.1265978591]}, "type": "Feature", "properties": {"collection_times": [{"days": "Mon-Sat", "time": "1:30pm"}, {"days": "Sun", "time": "Closed"}], "id": "4422300012", "name": "USPS COLLECTION BOX - BLUE BOX", "address": {"city": "CUYAHOGA FALLS", "state": "OH", "street": "2117 GRANT AVE", "postcode": "44223"}}},
{"geometry": {"type": "Point", "coordinates": [-81.5085529155, 41.1376656232]}, "type": "Feature", "properties": {"collection_times": [{"days": "Mon-Sat", "time": "1:15pm"}, {"days": "Sun", "time": "Closed"}], "id": "4422300013", "name": "USPS COLLECTION BOX - BLUE BOX", "address": {"city": "CUYAHOGA FALLS", "state": "OH", "street": "2226 STATE RD", "postcode": "44223"}}},
{"geometry": {"type": "Point", "coordinates": [-81.5094649768, 41.1345059398]}, "type": "Feature", "properties": {"collection_times": [{"days": "Mon-Sat", "time": "1:30pm"}, {"days": "Sun", "time": "Closed"}], "id": "4422300014", "name": "USPS COLLECTION BOX - BLUE BOX", "address": {"city": "CUYAHOGA FALLS", "state": "OH", "street": "2250 BROAD BLVD", "postcode": "44223"}}},
{"geometry": {"type": "Point", "coordinates": [-81.5024523961, 41.1450602997]}, "type": "Feature", "properties": {"collection_times": [{"days": "Mon-Sat", "time": "1:00pm"}, {"days": "Sun", "time": "Closed"}], "id": "4422300015", "name": "USPS COLLECTION BOX - BLUE BOX", "address": {"city": "CUYAHOGA FALLS", "state": "OH", "street": "2674 N HAVEN BLVD", "postcode": "44223"}}},
{"geometry": {"type": "Point", "coordinates": [-81.508456095, 41.1466035588]}, "type": "Feature", "properties": {"collection_times": [{"days": "Mon-Sat", "time": "12:45pm"}, {"days": "Sun", "time": "Closed"}], "id": "4422300017", "name": "USPS COLLECTION BOX - BLUE BOX", "address": {"city": "CUYAHOGA FALLS", "state": "OH", "street": "2699 STATE RD", "postcode": "44223"}}},
{"geometry": {"type": "Point", "coordinates": [-81.4991637702, 41.1544541768]}, "type": "Feature", "properties": {"collection_times": [{"days": "Mon-Sat", "time": "12:30pm"}, {"days": "Sun", "time": "Closed"}], "id": "4422300019", "name": "USPS COLLECTION BOX - BLUE BOX", "address": {"city": "CUYAHOGA FALLS", "state": "OH", "street": "275 GRAHAM RD", "postcode": "44223"}}},
{"geometry": {"type": "Point", "coordinates": [-81.5097133982, 41.1442345943]}, "type": "Feature", "properties": {"collection_times": [{"days": "Mon-Sat", "time": "1:15pm"}, {"days": "Sun", "time": "Closed"}], "id": "4422300024", "name": "USPS COLLECTION BOX - BLUE BOX", "address": {"city": "CUYAHOGA FALLS", "state": "OH", "street": "45 CATHEDRAL LN", "postcode": "44223"}}},
{"geometry": {"type": "Point", "coordinates": [-81.5074728216, 41.1419186387]}, "type": "Feature", "properties": {"collection_times": [{"days": "Mon-Sat", "time": "1:00pm"}, {"days": "Sun", "time": "Closed"}], "id": "4422300029", "name": "USPS COLLECTION BOX - BLUE BOX", "address": {"city": "CUYAHOGA FALLS", "state": "OH", "street": "2117 VALLEY RD", "postcode": "44223"}}},
{"geometry": {"type": "Point", "coordinates": [-81.5086002338, 41.1628472707]}, "type": "Feature", "properties": {"collection_times": [{"days": "Mon-Fri", "time": "5:30pm"}, {"days": "Sat", "time": "4:15pm"}, {"days": "Sun", "time": "Closed"}], "id": "4422300035", "name": "USPS COLLECTION BOX - BLUE BOX", "address": {"city": "CUYAHOGA FALLS", "state": "OH", "street": "3345 STATE RD", "postcode": "44223"}}},
{"geometry": {"type": "Point", "coordinates": [-81.508456095, 41.1466035588]}, "type": "Feature", "properties": {"collection_times": [{"days": "Mon-Sat", "time": "12:45pm"}, {"days": "Sun", "time": "Closed"}], "id": "4422300036", "name": "USPS COLLECTION BOX - BLUE BOX", "address": {"city": "CUYAHOGA FALLS", "state": "OH", "street": "2699 STATE RD", "postcode": "44223"}}},
{"geometry": {"type": "Point", "coordinates": [-81.5086002338, 41.1628472707]}, "type": "Feature", "properties": {"collection_times": [{"days": "Mon-Fri", "time": "5:30pm"}, {"days": "Sat", "time": "4:15pm"}, {"days": "Sun", "time": "Closed"}], "id": "4422300039", "name": "USPS COLLECTION BOX - APC", "address": {"city": "CUYAHOGA FALLS", "state": "OH", "street": "3345 STATE RD", "postcode": "44223"}}},
{"geometry": {"type": "Point", "coordinates": [-81.4471100268, 41.16084807]}, "type": "Feature", "properties": {"collection_times": [{"days": "Mon-Fri", "time": "2:15pm"}, {"days": "Sat", "time": "2:45pm"}, {"days": "Sun", "time": "Closed"}], "id": "4422400002", "name": "USPS COLLECTION BOX - BLUE BOX", "address": {"city": "SILVER LAKE", "state": "OH", "street": "3468 ADALINE DR", "postcode": "44224"}}},
{"geometry": {"type": "Point", "coordinates": [-81.4269311128, 41.1601702346]}, "type": "Feature", "properties": {"collection_times": [{"days": "Mon-Fri", "time": "2:00pm"}, {"days": "Sat", "time": "2:45pm"}, {"days": "Sun", "time": "Closed"}], "id": "4422400004", "name": "USPS COLLECTION BOX - BLUE BOX", "address": {"city": "SILVER LAKE", "state": "OH", "street": "3641 CHARRING CROSS DR", "postcode": "44224"}}},
{"geometry": {"type": "Point", "coordinates": [-81.4403825392, 41.1714036129]}, "type": "Feature", "properties": {"collection_times": [{"days": "Mon-Fri", "time": "5:30pm"}, {"days": "Sat", "time": "4:00pm"}, {"days": "Sun", "time": "Closed"}], "id": "4422400009", "name": "USPS COLLECTION BOX - BLUE BOX", "address": {"city": "SILVER LAKE", "state": "OH", "street": "3900 DARROW RD", "postcode": "44224"}}},
{"geometry": {"type": "Point", "coordinates": [-81.4404373566, 41.1712799279]}, "type": "Feature", "properties": {"collection_times": [{"days": "Mon-Fri", "time": "5:30pm"}, {"days": "Sat", "time": "4:00pm"}, {"days": "Sun", "time": "Closed"}], "id": "4422400010", "name": "USPS COLLECTION BOX - EXPRESS", "address": {"city": "SILVER LAKE", "state": "OH", "street": "3900 DARROW RD", "postcode": "44224"}}},
{"geometry": {"type": "Point", "coordinates": [-81.4403825392, 41.1714036129]}, "type": "Feature", "properties": {"collection_times": [{"days": "Mon-Fri", "time": "5:30pm"}, {"days": "Sat", "time": "4:00pm"}, {"days": "Sun", "time": "Closed"}], "id": "4422400012", "name": "USPS COLLECTION BOX - BLUE BOX", "address": {"city": "SILVER LAKE", "state": "OH", "street": "3900 DARROW RD", "postcode": "44224"}}},
{"geometry": {"type": "Point", "coordinates": [-81.4404713391, 41.2009047895]}, "type": "Feature", "properties": {"collection_times": [{"days": "Mon-Fri", "time": "1:30pm"}, {"days": "Sat", "time": "2:15pm"}, {"days": "Sun", "time": "Closed"}], "id": "4422400014", "name": "USPS COLLECTION BOX - BLUE BOX", "address": {"city": "SILVER LAKE", "state": "OH", "street": "4970 DARROW RD", "postcode": "44224"}}},
{"geometry": {"type": "Point", "coordinates": [-81.4403647948, 41.1683586765]}, "type": "Feature", "properties": {"collection_times": [{"days": "Mon-Fri", "time": "2:30pm"}, {"days": "Sat", "time": "3:00pm"}, {"days": "Sun", "time": "Closed"}], "id": "4422400015", "name": "USPS COLLECTION BOX - BLUE BOX", "address": {"city": "SILVER LAKE", "state": "OH", "street": "3760 DARROW RD", "postcode": "44224"}}},
{"geometry": {"type": "Point", "coordinates": [-81.4501963668, 41.170247862]}, "type": "Feature", "properties": {"collection_times": [{"days": "Mon-Fri", "time": "2:30pm"}, {"days": "Sat", "time": "3:00pm"}, {"days": "Sun", "time": "Closed"}], "id": "4422400020", "name": "USPS COLLECTION BOX - BLUE BOX", "address": {"city": "SILVER LAKE", "state": "OH", "street": "3809 ENGLEWOOD DR", "postcode": "44224"}}},
{"geometry": {"type": "Point", "coordinates": [-81.4056413508, 41.1671776785]}, "type": "Feature", "properties": {"collection_times": [{"days": "Mon-Fri", "time": "1:45pm"}, {"days": "Sat", "time": "2:30pm"}, {"days": "Sun", "time": "Closed"}], "id": "4422400021", "name": "USPS COLLECTION BOX - BLUE BOX", "address": {"city": "SILVER LAKE", "state": "OH", "street": "4044 FISHCREEK RD", "postcode": "44224"}}},
{"geometry": {"type": "Point", "coordinates": [-81.4378758492, 41.1594557273]}, "type": "Feature", "properties": {"collection_times": [{"days": "Mon-Fri", "time": "2:00pm"}, {"days": "Sat", "time": "2:45pm"}, {"days": "Sun", "time": "Closed"}], "id": "4422400026", "name": "USPS COLLECTION BOX - BLUE BOX", "address": {"city": "SILVER LAKE", "state": "OH", "street": "3425 KENT RD", "postcode": "44224"}}},
{"geometry": {"type": "Point", "coordinates": [-81.4404499679, 41.1964196461]}, "type": "Feature", "properties": {"collection_times": [{"days": "Mon-Fri", "time": "1:30pm"}, {"days": "Sat", "time": "2:15pm"}, {"days": "Sun", "time": "Closed"}], "id": "4422400027", "name": "USPS COLLECTION BOX - BLUE BOX", "address": {"city": "SILVER LAKE", "state": "OH", "street": "4833 DARROW RD", "postcode": "44224"}}},
{"geometry": {"type": "Point", "coordinates": [-81.4061992861, 41.1567208344]}, "type": "Feature", "properties": {"collection_times": [{"days": "Mon-Fri", "time": "2:00pm"}, {"days": "Sat", "time": "2:30pm"}, {"days": "Sun", "time": "Closed"}], "id": "4422400029", "name": "USPS COLLECTION BOX - BLUE BOX", "address": {"city": "SILVER LAKE", "state": "OH", "street": "4301 KENT RD", "postcode": "44224"}}},
{"geometry": {"type": "Point", "coordinates": [-81.4595665847, 41.1520669656]}, "type": "Feature", "properties": {"collection_times": [{"days": "Mon-Fri", "time": "2:30pm"}, {"days": "Sat", "time": "2:45pm"}, {"days": "Sun", "time": "Closed"}], "id": "4422400032", "name": "USPS COLLECTION BOX - BLUE BOX", "address": {"city": "SILVER LAKE", "state": "OH", "street": "2884 SILVER LAKE BLVD", "postcode": "44224"}}},
{"geometry": {"type": "Point", "coordinates": [-81.4820889787, 41.1823168701]}, "type": "Feature", "properties": {"collection_times": [{"days": "Mon-Fri", "time": "1:30pm"}, {"days": "Sat", "time": "2:15pm"}, {"days": "Sun", "time": "Closed"}], "id": "4422400034", "name": "USPS COLLECTION BOX - BLUE BOX", "address": {"city": "SILVER LAKE", "state": "OH", "street": "4400 COURTHOUSE BLVD", "postcode": "44224"}}},
{"geometry": {"type": "Point", "coordinates": [-81.4375528749, 41.2028808585]}, "type": "Feature", "properties": {"collection_times": [{"days": "Mon-Fri", "time": "1:30pm"}, {"days": "Sat", "time": "2:15pm"}, {"days": "Sun", "time": "Closed"}], "id": "4422400035", "name": "USPS COLLECTION BOX - BLUE BOX", "address": {"city": "SILVER LAKE", "state": "OH", "street": "1614 NORTON RD", "postcode": "44224"}}},
{"geometry": {"type": "Point", "coordinates": [-81.4231527419, 41.1850301172]}, "type": "Feature", "properties": {"collection_times": [{"days": "Mon-Fri", "time": "1:45pm"}, {"days": "Sat", "time": "2:30pm"}, {"days": "Sun", "time": "Closed"}], "id": "4422400041", "name": "USPS COLLECTION BOX - BLUE BOX", "address": {"city": "SILVER LAKE", "state": "OH", "street": "4936 FISHCREEK RD", "postcode": "44224"}}},
{"geometry": {"type": "Point", "coordinates": [-81.4431471143, 41.1584880669]}, "type": "Feature", "properties": {"collection_times": [{"days": "Mon-Fri", "time": "2:15pm"}, {"days": "Sat", "time": "2:45pm"}, {"days": "Sun", "time": "Closed"}], "id": "4422400043", "name": "USPS COLLECTION BOX - BLUE BOX", "address": {"city": "SILVER LAKE", "state": "OH", "street": "3285 KENT RD", "postcode": "44224"}}},
{"geometry": {"type": "Point", "coordinates": [-81.4403825392, 41.1714036129]}, "type": "Feature", "properties": {"collection_times": [{"days": "Mon-Fri", "time": "5:30pm"}, {"days": "Sat", "time": "4:00pm"}, {"days": "Sun", "time": "Closed"}], "id": "4422400049", "name": "USPS COLLECTION BOX - APC", "address": {"city": "SILVER LAKE", "state": "OH", "street": "3900 DARROW RD", "postcode": "44224"}}},
{"geometry": {"type": "Point", "coordinates": [-81.6575209126, 40.960319423]}, "type": "Feature", "properties": {"collection_times": [{"days": "Mon-Sat", "time": "2:00pm"}, {"days": "Sun", "time": "Closed"}], "id": "4423000004", "name": "USPS COLLECTION BOX - BLUE BOX", "address": {"city": "DOYLESTOWN", "state": "OH", "street": "18592 EDWARDS RD", "postcode": "44230"}}},
{"geometry": {"type": "Point", "coordinates": [-81.6623039678, 40.9801107692]}, "type": "Feature", "properties": {"collection_times": [{"days": "Mon-Sat", "time": "12:00pm"}, {"days": "Sun", "time": "Closed"}], "id": "4423000008", "name": "USPS COLLECTION BOX - BLUE BOX", "address": {"city": "DOYLESTOWN", "state": "OH", "street": "14740 OAK GROVE DR", "postcode": "44230"}}},
{"geometry": {"type": "Point", "coordinates": [-81.695800232, 40.9716354302]}, "type": "Feature", "properties": {"collection_times": [{"days": "Mon-Fri", "time": "5:00pm"}, {"days": "Sat", "time": "12:00pm"}, {"days": "Sun", "time": "Closed"}], "id": "4423000013", "name": "USPS COLLECTION BOX - BLUE BOX", "address": {"city": "DOYLESTOWN", "state": "OH", "street": "85 GATES ST", "postcode": "44230"}}},
{"geometry": {"type": "Point", "coordinates": [-81.0987240095, 41.2867314981]}, "type": "Feature", "properties": {"collection_times": [{"days": "Mon-Fri", "time": "4:30pm"}, {"days": "Sat", "time": "12:00pm"}, {"days": "Sun", "time": "Closed"}], "id": "4423100001", "name": "USPS COLLECTION BOX - BLUE BOX", "address": {"city": "GARRETTSVILLE", "state": "OH", "street": "10809 NORTH ST", "postcode": "44231"}}},
{"geometry": {"type": "Point", "coordinates": [-81.0987240095, 41.2867314981]}, "type": "Feature", "properties": {"collection_times": [{"days": "Mon-Fri", "time": "4:30pm"}, {"days": "Sat", "time": "12:00pm"}, {"days": "Sun", "time": "Closed"}], "id": "4423100009", "name": "USPS COLLECTION BOX - BLUE BOX", "address": {"city": "GARRETTSVILLE", "state": "OH", "street": "10809 NORTH ST", "postcode": "44231"}}},
{"geometry": {"type": "Point", "coordinates": [-81.4650061799, 40.9321901321]}, "type": "Feature", "properties": {"collection_times": [{"days": "Mon-Fri", "time": "5:00pm"}, {"days": "Sat", "time": "12:00pm"}, {"days": "Sun", "time": "Closed"}], "id": "4423200001", "name": "USPS COLLECTION BOX - BLUE BOX", "address": {"city": "GREEN", "state": "OH", "street": "4735 MASSILLON RD", "postcode": "44232"}}},
{"geometry": {"type": "Point", "coordinates": [-81.744986192, 41.2417281574]}, "type": "Feature", "properties": {"collection_times": [{"days": "Mon-Fri", "time": "5:00pm"}, {"days": "Sat", "time": "12:00pm"}, {"days": "Sun", "time": "Closed"}], "id": "4423300001", "name": "USPS COLLECTION BOX - BLUE BOX", "address": {"city": "HINCKLEY", "state": "OH", "street": "1294 RIDGE RD", "postcode": "44233"}}},
{"geometry": {"type": "Point", "coordinates": [-81.744986192, 41.2417281574]}, "type": "Feature", "properties": {"collection_times": [{"days": "Mon-Fri", "time": "5:00pm"}, {"days": "Sat", "time": "12:00pm"}, {"days": "Sun", "time": "Closed"}], "id": "4423300002", "name": "USPS COLLECTION BOX - BLUE BOX", "address": {"city": "HINCKLEY", "state": "OH", "street": "1294 RIDGE RD", "postcode": "44233"}}},
{"geometry": {"type": "Point", "coordinates": [-81.744986192, 41.2417281574]}, "type": "Feature", "properties": {"collection_times": [{"days": "Mon-Fri", "time": "5:00pm"}, {"days": "Sat", "time": "12:00pm"}, {"days": "Sun", "time": "Closed"}], "id": "4423300003", "name": "USPS COLLECTION BOX - PO LOBBY", "address": {"city": "HINCKLEY", "state": "OH", "street": "1294 RIDGE RD", "postcode": "44233"}}},
{"geometry": {"type": "Point", "coordinates": [-81.744986192, 41.2417281574]}, "type": "Feature", "properties": {"collection_times": [{"days": "Mon-Fri", "time": "5:00pm"}, {"days": "Sat", "time": "12:00pm"}, {"days": "Sun", "time": "Closed"}], "id": "4423300004", "name": "USPS COLLECTION BOX - PO LOBBY", "address": {"city": "HINCKLEY", "state": "OH", "street": "1294 RIDGE RD", "postcode": "44233"}}},
{"geometry": {"type": "Point", "coordinates": [-81.1452845792, 41.3104750828]}, "type": "Feature", "properties": {"collection_times": [{"days": "Mon-Fri", "time": "4:30pm"}, {"days": "Sat", "time": "12:00pm"}, {"days": "Sun", "time": "Closed"}], "id": "4423400001", "name": "USPS COLLECTION BOX - BLUE BOX", "address": {"city": "HIRAM", "state": "OH", "street": "11676 HAYDEN AVE", "postcode": "44234"}}},
{"geometry": {"type": "Point", "coordinates": [-82.1254134735, 41.0272765905]}, "type": "Feature", "properties": {"collection_times": [{"days": "Mon-Fri", "time": "4:00pm"}, {"days": "Sat", "time": "11:00am"}, {"days": "Sun", "time": "Closed"}], "id": "4423500001", "name": "USPS COLLECTION BOX - BLUE BOX", "address": {"city": "HOMERVILLE", "state": "OH", "street": "12079 GREENWICH RD", "postcode": "44235"}}},
{"geometry": {"type": "Point", "coordinates": [-81.4485627004, 41.239954902]}, "type": "Feature", "properties": {"collection_times": [{"days": "Mon-Sat", "time": "2:00pm"}, {"days": "Sun", "time": "Closed"}], "id": "4423600003", "name": "USPS COLLECTION BOX - BLUE BOX", "address": {"city": "HUDSON", "state": "OH", "street": "116 W STREETSBORO ST", "postcode": "44236"}}},
{"geometry": {"type": "Point", "coordinates": [-81.4407785068, 41.2399112651]}, "type": "Feature", "properties": {"collection_times": [{"days": "Mon-Fri", "time": "2:00pm"}, {"days": "Sat-Sun", "time": "Closed"}], "id": "4423600008", "name": "USPS COLLECTION BOX - BLUE BOX", "address": {"city": "HUDSON", "state": "OH", "street": "10 W STREETSBORO ST", "postcode": "44236"}}},
{"geometry": {"type": "Point", "coordinates": [-81.4485627004, 41.239954902]}, "type": "Feature", "properties": {"collection_times": [{"days": "Mon-Sat", "time": "2:15pm"}, {"days": "Sun", "time": "Closed"}], "id": "4423600012", "name": "USPS COLLECTION BOX - BLUE BOX", "address": {"city": "HUDSON", "state": "OH", "street": "116 W STREETSBORO ST", "postcode": "44236"}}},
{"geometry": {"type": "Point", "coordinates": [-81.4378983254, 41.2379781775]}, "type": "Feature", "properties": {"collection_times": [{"days": "Mon-Fri", "time": "5:00pm"}, {"days": "Sat", "time": "4:30pm"}, {"days": "Sun", "time": "Closed"}], "id": "4423600016", "name": "USPS COLLECTION BOX - BLUE BOX", "address": {"city": "HUDSON", "state": "OH", "street": "68 RAVENNA ST", "postcode": "44236"}}},
{"geometry": {"type": "Point", "coordinates": [-81.4378983254, 41.2379781775]}, "type": "Feature", "properties": {"collection_times": [{"days": "Mon-Fri", "time": "5:00pm"}, {"days": "Sat", "time": "4:30pm"}, {"days": "Sun", "time": "Closed"}], "id": "4423600018", "name": "USPS COLLECTION BOX - BLUE BOX", "address": {"city": "HUDSON", "state": "OH", "street": "68 RAVENNA ST", "postcode": "44236"}}},
{"geometry": {"type": "Point", "coordinates": [-81.4376061345, 41.2083734465]}, "type": "Feature", "properties": {"collection_times": [{"days": "Mon-Sat", "time": "2:00pm"}, {"days": "Sun", "time": "Closed"}], "id": "4423600022", "name": "USPS COLLECTION BOX - BLUE BOX", "address": {"city": "HUDSON", "state": "OH", "street": "1500 GEORGETOWN RD", "postcode": "44236"}}},
{"geometry": {"type": "Point", "coordinates": [-81.4404631122, 41.2421964772]}, "type": "Feature", "properties": {"collection_times": [{"days": "Mon-Sat", "time": "2:00pm"}, {"days": "Sun", "time": "Closed"}], "id": "4423600023", "name": "USPS COLLECTION BOX - BLUE BOX", "address": {"city": "HUDSON", "state": "OH", "street": "160 N MAIN ST", "postcode": "44236"}}},
{"geometry": {"type": "Point", "coordinates": [-81.4420791143, 41.2141351767]}, "type": "Feature", "properties": {"collection_times": [{"days": "Mon-Sat", "time": "2:00pm"}, {"days": "Sun", "time": "Closed"}], "id": "4423600024", "name": "USPS COLLECTION BOX - BLUE BOX", "address": {"city": "HUDSON", "state": "OH", "street": "1340 CORPORATE DR", "postcode": "44236"}}},
{"geometry": {"type": "Point", "coordinates": [-81.4347309212, 41.2467656902]}, "type": "Feature", "properties": {"collection_times": [{"days": "Mon-Sat", "time": "2:00pm"}, {"days": "Sun", "time": "Closed"}], "id": "4423600028", "name": "USPS COLLECTION BOX - BLUE BOX", "address": {"city": "HUDSON", "state": "OH", "street": "101 HUDSON ST", "postcode": "44236"}}},
{"geometry": {"type": "Point", "coordinates": [-81.4814879973, 41.2526054651]}, "type": "Feature", "properties": {"collection_times": [{"days": "Mon-Fri", "time": "2:30pm"}, {"days": "Sat-Sun", "time": "Closed"}], "id": "4423600029", "name": "USPS COLLECTION BOX - BLUE BOX", "address": {"city": "HUDSON", "state": "OH", "street": "85 EXECUTIVE PKWY", "postcode": "44236"}}},
{"geometry": {"type": "Point", "coordinates": [-81.4376061345, 41.2083734465]}, "type": "Feature", "properties": {"collection_times": [{"days": "Mon-Sat", "time": "2:00pm"}, {"days": "Sun", "time": "Closed"}], "id": "4423600031", "name": "USPS COLLECTION BOX - BLUE BOX", "address": {"city": "HUDSON", "state": "OH", "street": "1500 GEORGETOWN RD", "postcode": "44236"}}},
{"geometry": {"type": "Point", "coordinates": [-81.4404156621, 41.2254269829]}, "type": "Feature", "properties": {"collection_times": [{"days": "Mon-Sat", "time": "2:00pm"}, {"days": "Sun", "time": "Closed"}], "id": "4423600035", "name": "USPS COLLECTION BOX - BLUE BOX", "address": {"city": "HUDSON", "state": "OH", "street": "5863 DARROW RD", "postcode": "44236"}}},
{"geometry": {"type": "Point", "coordinates": [-81.4786772868, 41.2499840281]}, "type": "Feature", "properties": {"collection_times": [{"days": "Mon-Fri", "time": "2:30pm"}, {"days": "Sat-Sun", "time": "Closed"}], "id": "4423600037", "name": "USPS COLLECTION BOX - BLUE BOX", "address": {"city": "HUDSON", "state": "OH", "street": "581 BOSTON MILLS RD", "postcode": "44236"}}},
{"geometry": {"type": "Point", "coordinates": [-81.4378983254, 41.2379781775]}, "type": "Feature", "properties": {"collection_times": [{"days": "Mon-Fri", "time": "5:00pm"}, {"days": "Sat", "time": "4:30pm"}, {"days": "Sun", "time": "Closed"}], "id": "4423600038", "name": "USPS COLLECTION BOX - APC", "address": {"city": "HUDSON", "state": "OH", "street": "68 RAVENNA ST", "postcode": "44236"}}},
{"geometry": {"type": "Point", "coordinates": [-81.4420705647, 41.2408355008]}, "type": "Feature", "properties": {"collection_times": [{"days": "Mon-Sat", "time": "2:00pm"}, {"days": "Sun", "time": "Closed"}], "id": "4423600039", "name": "USPS COLLECTION BOX - BLUE BOX", "address": {"city": "HUDSON", "state": "OH", "street": "82 1ST ST", "postcode": "44236"}}},
{"geometry": {"type": "Point", "coordinates": [-81.4378983254, 41.2379781775]}, "type": "Feature", "properties": {"collection_times": [{"days": "Mon-Fri", "time": "5:00pm"}, {"days": "Sat", "time": "4:30pm"}, {"days": "Sun", "time": "Closed"}], "id": "4423600041", "name": "USPS COLLECTION BOX - BLUE BOX", "address": {"city": "HUDSON", "state": "OH", "street": "68 RAVENNA ST", "postcode": "44236"}}},
{"geometry": {"type": "Point", "coordinates": [-81.3485943872, 41.1469778762]}, "type": "Feature", "properties": {"collection_times": [{"days": "Mon-Sat", "time": "1:00pm"}, {"days": "Sun", "time": "Closed"}], "id": "4424000006", "name": "USPS COLLECTION BOX - BLUE BOX", "address": {"city": "KENT", "state": "OH", "street": "936 MORRIS RD", "postcode": "44240"}}},
{"geometry": {"type": "Point", "coordinates": [-81.3141427665, 41.1692401804]}, "type": "Feature", "properties": {"collection_times": [{"days": "Mon-Fri", "time": "4:30pm"}, {"days": "Sat", "time": "1:00pm"}, {"days": "Sun", "time": "Closed"}], "id": "4424000008", "name": "USPS COLLECTION BOX - BLUE BOX", "address": {"city": "KENT", "state": "OH", "street": "2231 BRADY LAKE RD", "postcode": "44240"}}},
{"geometry": {"type": "Point", "coordinates": [-81.3491645734, 41.1587719771]}, "type": "Feature", "properties": {"collection_times": [{"days": "Mon-Sat", "time": "1:30pm"}, {"days": "Sun", "time": "Closed"}], "id": "4424000017", "name": "USPS COLLECTION BOX - BLUE BOX", "address": {"city": "KENT", "state": "OH", "street": "489 MILLER AVE", "postcode": "44240"}}},
{"geometry": {"type": "Point", "coordinates": [-81.3342843223, 41.1542446291]}, "type": "Feature", "properties": {"collection_times": [{"days": "Mon-Sat", "time": "3:30pm"}, {"days": "Sun", "time": "Closed"}], "id": "4424000018", "name": "USPS COLLECTION BOX - BLUE BOX", "address": {"city": "KENT", "state": "OH", "street": "1652 E MAIN ST", "postcode": "44240"}}},
{"geometry": {"type": "Point", "coordinates": [-81.3324824328, 41.1545447696]}, "type": "Feature", "properties": {"collection_times": [{"days": "Mon-Sat", "time": "1:30pm"}, {"days": "Sun", "time": "Closed"}], "id": "4424000019", "name": "USPS COLLECTION BOX - BLUE BOX", "address": {"city": "KENT", "state": "OH", "street": "1709 E MAIN ST", "postcode": "44240"}}},
{"geometry": {"type": "Point", "coordinates": [-81.3406329356, 41.1480156324]}, "type": "Feature", "properties": {"collection_times": [{"days": "Mon-Sat", "time": "1:15pm"}, {"days": "Sun", "time": "Closed"}], "id": "4424000022", "name": "USPS COLLECTION BOX - BLUE BOX", "address": {"city": "KENT", "state": "OH", "street": "14 PETRARCA DR", "postcode": "44240"}}},
{"geometry": {"type": "Point", "coordinates": [-81.3342450949, 41.1543027581]}, "type": "Feature", "properties": {"collection_times": [{"days": "Mon-Sat", "time": "1:00pm"}, {"days": "Sun", "time": "Closed"}], "id": "4424000037", "name": "USPS COLLECTION BOX - BLUE BOX", "address": {"city": "KENT", "state": "OH", "street": "1627 E MAIN ST", "postcode": "44240"}}},
{"geometry": {"type": "Point", "coordinates": [-81.3630986471, 41.153785805]}, "type": "Feature", "properties": {"collection_times": [{"days": "Mon-Sat", "time": "1:00pm"}, {"days": "Sun", "time": "Closed"}], "id": "4424000038", "name": "USPS COLLECTION BOX - BLUE BOX", "address": {"city": "KENT", "state": "OH", "street": "420 W MAIN ST", "postcode": "44240"}}},
{"geometry": {"type": "Point", "coordinates": [-81.3521503618, 41.1537550481]}, "type": "Feature", "properties": {"collection_times": [{"days": "Mon-Sat", "time": "1:30pm"}, {"days": "Sun", "time": "Closed"}], "id": "4424000039", "name": "USPS COLLECTION BOX - BLUE BOX", "address": {"city": "KENT", "state": "OH", "street": "421 E MAIN ST", "postcode": "44240"}}},
{"geometry": {"type": "Point", "coordinates": [-81.3878745396, 41.144992871]}, "type": "Feature", "properties": {"collection_times": [{"days": "Mon-Sat", "time": "12:00pm"}, {"days": "Sun", "time": "Closed"}], "id": "4424000052", "name": "USPS COLLECTION BOX - BLUE BOX", "address": {"city": "KENT", "state": "OH", "street": "1273 ELNO AVE", "postcode": "44240"}}},
{"geometry": {"type": "Point", "coordinates": [-81.3457605972, 41.188948606]}, "type": "Feature", "properties": {"collection_times": [{"days": "Mon-Sat", "time": "1:30pm"}, {"days": "Sun", "time": "Closed"}], "id": "4424000062", "name": "USPS COLLECTION BOX - BLUE BOX", "address": {"city": "KENT", "state": "OH", "street": "7279 STATE ROUTE 43", "postcode": "44240"}}},
{"geometry": {"type": "Point", "coordinates": [-81.3858942663, 41.1544175051]}, "type": "Feature", "properties": {"collection_times": [{"days": "Mon-Sat", "time": "1:45pm"}, {"days": "Sun", "time": "Closed"}], "id": "4424000067", "name": "USPS COLLECTION BOX - BLUE BOX", "address": {"city": "KENT", "state": "OH", "street": "351 SILVER MEADOWS BLVD", "postcode": "44240"}}},
{"geometry": {"type": "Point", "coordinates": [-81.3529476762, 41.1500748627]}, "type": "Feature", "properties": {"collection_times": [{"days": "Mon-Sat", "time": "1:30pm"}, {"days": "Sun", "time": "Closed"}], "id": "4424000071", "name": "USPS COLLECTION BOX - BLUE BOX", "address": {"city": "KENT", "state": "OH", "street": "360 E SUMMIT ST", "postcode": "44240"}}},
{"geometry": {"type": "Point", "coordinates": [-81.3454047543, 41.1005742606]}, "type": "Feature", "properties": {"collection_times": [{"days": "Mon-Sat", "time": "1:30pm"}, {"days": "Sun", "time": "Closed"}], "id": "4424000074", "name": "USPS COLLECTION BOX - BLUE BOX", "address": {"city": "KENT", "state": "OH", "street": "4064 BRIMFIELD PLZ", "postcode": "44240"}}},
{"geometry": {"type": "Point", "coordinates": [-81.3570226465, 41.1407029486]}, "type": "Feature", "properties": {"collection_times": [{"days": "Mon-Sat", "time": "1:00pm"}, {"days": "Sun", "time": "Closed"}], "id": "4424000078", "name": "USPS COLLECTION BOX - BLUE BOX", "address": {"city": "KENT", "state": "OH", "street": "1440 S WATER ST", "postcode": "44240"}}},
{"geometry": {"type": "Point", "coordinates": [-81.358169257, 41.1533717694]}, "type": "Feature", "properties": {"collection_times": [{"days": "Mon-Sat", "time": "1:30pm"}, {"days": "Sun", "time": "Closed"}], "id": "4424000085", "name": "USPS COLLECTION BOX - BLUE BOX", "address": {"city": "KENT", "state": "OH", "street": "115 S WATER ST", "postcode": "44240"}}},
{"geometry": {"type": "Point", "coordinates": [-81.3647583385, 41.1574423312]}, "type": "Feature", "properties": {"collection_times": [{"days": "Mon-Sat", "time": "1:45pm"}, {"days": "Sun", "time": "Closed"}], "id": "4424000092", "name": "USPS COLLECTION BOX - BLUE BOX", "address": {"city": "KENT", "state": "OH", "street": "301 WOODARD AVE", "postcode": "44240"}}},
{"geometry": {"type": "Point", "coordinates": [-81.358171623, 41.152893854]}, "type": "Feature", "properties": {"collection_times": [{"days": "Mon-Sat", "time": "1:30pm"}, {"days": "Sun", "time": "Closed"}], "id": "4424000093", "name": "USPS COLLECTION BOX - BLUE BOX", "address": {"city": "KENT", "state": "OH", "street": "155 N WATER ST", "postcode": "44240"}}},
{"geometry": {"type": "Point", "coordinates": [-81.3603115957, 41.1475338669]}, "type": "Feature", "properties": {"collection_times": [{"days": "Mon-Sat", "time": "5:00pm"}, {"days": "Sun", "time": "Closed"}], "id": "4424000095", "name": "USPS COLLECTION BOX - BLUE BOX", "address": {"city": "KENT", "state": "OH", "street": "626 FRANKLIN AVE", "postcode": "44240"}}},
{"geometry": {"type": "Point", "coordinates": [-81.3603115957, 41.1475338669]}, "type": "Feature", "properties": {"collection_times": [{"days": "Mon-Sat", "time": "5:00pm"}, {"days": "Sun", "time": "Closed"}], "id": "4424000096", "name": "USPS COLLECTION BOX - BLUE BOX", "address": {"city": "KENT", "state": "OH", "street": "626 FRANKLIN AVE", "postcode": "44240"}}},
{"geometry": {"type": "Point", "coordinates": [-81.3603115957, 41.1475338669]}, "type": "Feature", "properties": {"collection_times": [{"days": "Mon-Sat", "time": "5:00pm"}, {"days": "Sun", "time": "Closed"}], "id": "4424000097", "name": "USPS COLLECTION BOX - BLUE BOX", "address": {"city": "KENT", "state": "OH", "street": "626 FRANKLIN AVE", "postcode": "44240"}}},
{"geometry": {"type": "Point", "coordinates": [-81.3634995285, 41.2507238217]}, "type": "Feature", "properties": {"collection_times": [{"days": "Mon-Sat", "time": "11:00am"}, {"days": "Sun", "time": "Closed"}], "id": "4424100004", "name": "USPS COLLECTION BOX - BLUE BOX", "address": {"city": "STREETSBORO", "state": "OH", "street": "955 SINGLETARY DR", "postcode": "44241"}}},
{"geometry": {"type": "Point", "coordinates": [-81.3332649748, 41.2357257812]}, "type": "Feature", "properties": {"collection_times": [{"days": "Mon-Sat", "time": "1:30pm"}, {"days": "Sun", "time": "Closed"}], "id": "4424100011", "name": "USPS COLLECTION BOX - BLUE BOX", "address": {"city": "STREETSBORO", "state": "OH", "street": "9059 STATE ROUTE 14", "postcode": "44241"}}},
{"geometry": {"type": "Point", "coordinates": [-81.3453419843, 41.2472696544]}, "type": "Feature", "properties": {"collection_times": [{"days": "Mon-Sat", "time": "11:00am"}, {"days": "Sun", "time": "Closed"}], "id": "4424100013", "name": "USPS COLLECTION BOX - BLUE BOX", "address": {"city": "STREETSBORO", "state": "OH", "street": "9418 STATE ROUTE 43", "postcode": "44241"}}},
{"geometry": {"type": "Point", "coordinates": [-81.3349256368, 41.2391376209]}, "type": "Feature", "properties": {"collection_times": [{"days": "Mon-Fri", "time": "5:00pm"}, {"days": "Sat", "time": "12:30pm"}, {"days": "Sun", "time": "Closed"}], "id": "4424100015", "name": "USPS COLLECTION BOX - BLUE BOX", "address": {"city": "STREETSBORO", "state": "OH", "street": "1639 STREETSBORO PLZ", "postcode": "44241"}}},
{"geometry": {"type": "Point", "coordinates": [-81.3499657708, 41.2442757456]}, "type": "Feature", "properties": {"collection_times": [{"days": "Mon-Sat", "time": "11:00am"}, {"days": "Sun", "time": "Closed"}], "id": "4424100019", "name": "USPS COLLECTION BOX - BLUE BOX", "address": {"city": "STREETSBORO", "state": "OH", "street": "9264 MARKET SQUARE DR", "postcode": "44241"}}},
{"geometry": {"type": "Point", "coordinates": [-81.343565646, 41.2405077639]}, "type": "Feature", "properties": {"collection_times": [{"days": "Mon-Fri", "time": "5:00pm"}, {"days": "Sat", "time": "12:30pm"}, {"days": "Sun", "time": "Closed"}], "id": "4424100020", "name": "USPS COLLECTION BOX - PO LOBBY", "address": {"city": "STREETSBORO", "state": "OH", "street": "1639 STREETSBORO PLZ", "postcode": "44241"}}},
{"geometry": {"type": "Point", "coordinates": [-81.343565646, 41.2405077639]}, "type": "Feature", "properties": {"collection_times": [{"days": "Mon-Fri", "time": "5:00pm"}, {"days": "Sat", "time": "12:30pm"}, {"days": "Sun", "time": "Closed"}], "id": "4424100021", "name": "USPS COLLECTION BOX - PO LOBBY", "address": {"city": "STREETSBORO", "state": "OH", "street": "1639 STREETSBORO PLZ", "postcode": "44241"}}},
{"geometry": {"type": "Point", "coordinates": [-81.3512875818, 41.2393493185]}, "type": "Feature", "properties": {"collection_times": [{"days": "Mon-Sat", "time": "11:30am"}, {"days": "Sun", "time": "Closed"}], "id": "4424100022", "name": "USPS COLLECTION BOX - BLUE BOX", "address": {"city": "STREETSBORO", "state": "OH", "street": "1280 STATE ROUTE 303", "postcode": "44241"}}},
{"geometry": {"type": "Point", "coordinates": [-81.4289734866, 41.0224375135]}, "type": "Feature", "properties": {"collection_times": [{"days": "Mon-Fri", "time": "5:00pm"}, {"days": "Sat", "time": "12:00pm"}, {"days": "Sun", "time": "Closed"}], "id": "4425000001", "name": "USPS COLLECTION BOX - BLUE BOX", "address": {"city": "LAKEMORE", "state": "OH", "street": "1370 MAIN ST", "postcode": "44250"}}},
{"geometry": {"type": "Point", "coordinates": [-81.9328845367, 41.0266213673]}, "type": "Feature", "properties": {"collection_times": [{"days": "Mon-Fri", "time": "4:15pm"}, {"days": "Sat", "time": "11:45am"}, {"days": "Sun", "time": "Closed"}], "id": "4425100001", "name": "USPS COLLECTION BOX - BLUE BOX", "address": {"city": "WESTFIELD CTR", "state": "OH", "street": "6701 GREENWICH RD", "postcode": "44251"}}},
{"geometry": {"type": "Point", "coordinates": [-81.9328845367, 41.0266213673]}, "type": "Feature", "properties": {"collection_times": [{"days": "Mon-Fri", "time": "4:30pm"}, {"days": "Sat", "time": "12:00pm"}, {"days": "Sun", "time": "Closed"}], "id": "4425100002", "name": "USPS COLLECTION BOX - PO LOBBY", "address": {"city": "WESTFIELD CTR", "state": "OH", "street": "6701 GREENWICH RD", "postcode": "44251"}}},
{"geometry": {"type": "Point", "coordinates": [-81.9328845367, 41.0266213673]}, "type": "Feature", "properties": {"collection_times": [{"days": "Mon-Fri", "time": "4:30pm"}, {"days": "Sat", "time": "12:00pm"}, {"days": "Sun", "time": "Closed"}], "id": "4425100003", "name": "USPS COLLECTION BOX - PO LOBBY", "address": {"city": "WESTFIELD CTR", "state": "OH", "street": "6701 GREENWICH RD", "postcode": "44251"}}},
{"geometry": {"type": "Point", "coordinates": [-82.0264201891, 41.1679940297]}, "type": "Feature", "properties": {"collection_times": [{"days": "Mon-Fri", "time": "2:00pm"}, {"days": "Sat", "time": "11:00am"}, {"days": "Sun", "time": "Closed"}], "id": "4425300001", "name": "USPS COLLECTION BOX - BLUE BOX", "address": {"city": "LITCHFIELD", "state": "OH", "street": "9281 NORWALK RD", "postcode": "44253"}}},
{"geometry": {"type": "Point", "coordinates": [-82.0123479306, 41.0306764485]}, "type": "Feature", "properties": {"collection_times": [{"days": "Mon-Fri", "time": "5:00pm"}, {"days": "Sat", "time": "12:00pm"}, {"days": "Sun", "time": "Closed"}], "id": "4425400010", "name": "USPS COLLECTION BOX - PO LOBBY", "address": {"city": "LODI", "state": "OH", "street": "149 HARRIS ST", "postcode": "44254"}}},
{"geometry": {"type": "Point", "coordinates": [-82.0123479306, 41.0306764485]}, "type": "Feature", "properties": {"collection_times": [{"days": "Mon-Fri", "time": "5:00pm"}, {"days": "Sat", "time": "12:00pm"}, {"days": "Sun", "time": "Closed"}], "id": "4425400011", "name": "USPS COLLECTION BOX - PO LOBBY", "address": {"city": "LODI", "state": "OH", "street": "149 HARRIS ST", "postcode": "44254"}}},
{"geometry": {"type": "Point", "coordinates": [-82.0123479306, 41.0306764485]}, "type": "Feature", "properties": {"collection_times": [{"days": "Mon-Fri", "time": "5:00pm"}, {"days": "Sat", "time": "12:00pm"}, {"days": "Sun", "time": "Closed"}], "id": "4425400013", "name": "USPS COLLECTION BOX - BLUE BOX", "address": {"city": "LODI", "state": "OH", "street": "149 HARRIS ST", "postcode": "44254"}}},
{"geometry": {"type": "Point", "coordinates": [-81.2626177967, 41.3091889072]}, "type": "Feature", "properties": {"collection_times": [{"days": "Mon-Sat", "time": "11:30am"}, {"days": "Sun", "time": "Closed"}], "id": "4425500001", "name": "USPS COLLECTION BOX - BLUE BOX", "address": {"city": "MANTUA", "state": "OH", "street": "3218 STATE ROUTE 82", "postcode": "44255"}}},
{"geometry": {"type": "Point", "coordinates": [-81.2236518882, 41.2861265688]}, "type": "Feature", "properties": {"collection_times": [{"days": "Mon-Fri", "time": "4:00pm"}, {"days": "Sat", "time": "12:00pm"}, {"days": "Sun", "time": "Closed"}], "id": "4425500003", "name": "USPS COLLECTION BOX - BLUE BOX", "address": {"city": "MANTUA", "state": "OH", "street": "10748 N MAIN ST", "postcode": "44255"}}},
{"geometry": {"type": "Point", "coordinates": [-81.2236518882, 41.2861265688]}, "type": "Feature", "properties": {"collection_times": [{"days": "Mon-Fri", "time": "4:00pm"}, {"days": "Sat", "time": "12:00pm"}, {"days": "Sun", "time": "Closed"}], "id": "4425500004", "name": "USPS COLLECTION BOX - BLUE BOX", "address": {"city": "MANTUA", "state": "OH", "street": "10748 N MAIN ST", "postcode": "44255"}}},
{"geometry": {"type": "Point", "coordinates": [-81.1827903088, 41.2454349521]}, "type": "Feature", "properties": {"collection_times": [{"days": "Mon-Sat", "time": "11:30am"}, {"days": "Sun", "time": "Closed"}], "id": "4425500010", "name": "USPS COLLECTION BOX - BLUE BOX", "address": {"city": "MANTUA", "state": "OH", "street": "9270 LIMERIDGE RD", "postcode": "44255"}}},
{"geometry": {"type": "Point", "coordinates": [-81.1827949121, 41.2448756435]}, "type": "Feature", "properties": {"collection_times": [{"days": "Mon-Sat", "time": "11:30am"}, {"days": "Sun", "time": "Closed"}], "id": "4425500011", "name": "USPS COLLECTION BOX - BLUE BOX", "address": {"city": "MANTUA", "state": "OH", "street": "9250 LIMERIDGE RD", "postcode": "44255"}}},
{"geometry": {"type": "Point", "coordinates": [-81.86400101, 41.1223269207]}, "type": "Feature", "properties": {"collection_times": [{"days": "Mon-Sat", "time": "1:30pm"}, {"days": "Sun", "time": "Closed"}], "id": "4425600001", "name": "USPS COLLECTION BOX - BLUE BOX", "address": {"city": "MEDINA", "state": "OH", "street": "1033 S COURT ST", "postcode": "44256"}}},
{"geometry": {"type": "Point", "coordinates": [-81.8051955018, 41.1361865332]}, "type": "Feature", "properties": {"collection_times": [{"days": "Mon-Sat", "time": "12:00pm"}, {"days": "Sun", "time": "Closed"}], "id": "4425600007", "name": "USPS COLLECTION BOX - BLUE BOX", "address": {"city": "MEDINA", "state": "OH", "street": "3626 MEDINA RD", "postcode": "44256"}}},
{"geometry": {"type": "Point", "coordinates": [-81.8499978174, 41.135549633]}, "type": "Feature", "properties": {"collection_times": [{"days": "Mon-Sat", "time": "12:00pm"}, {"days": "Sun", "time": "Closed"}], "id": "4425600009", "name": "USPS COLLECTION BOX - BLUE BOX", "address": {"city": "MEDINA", "state": "OH", "street": "600 E SMITH RD", "postcode": "44256"}}},
{"geometry": {"type": "Point", "coordinates": [-81.847958566, 41.1381699686]}, "type": "Feature", "properties": {"collection_times": [{"days": "Mon-Sat", "time": "12:00pm"}, {"days": "Sun", "time": "Closed"}], "id": "4425600010", "name": "USPS COLLECTION BOX - BLUE BOX", "address": {"city": "MEDINA", "state": "OH", "street": "801 E WASHINGTON ST", "postcode": "44256"}}},
{"geometry": {"type": "Point", "coordinates": [-81.8785018929, 41.136098471]}, "type": "Feature", "properties": {"collection_times": [{"days": "Mon-Sat", "time": "2:15pm"}, {"days": "Sun", "time": "Closed"}], "id": "4425600011", "name": "USPS COLLECTION BOX - BLUE BOX", "address": {"city": "MEDINA", "state": "OH", "street": "801 W SMITH RD", "postcode": "44256"}}},
{"geometry": {"type": "Point", "coordinates": [-81.8593108165, 41.1513940075]}, "type": "Feature", "properties": {"collection_times": [{"days": "Mon-Sat", "time": "12:45pm"}, {"days": "Sun", "time": "Closed"}], "id": "4425600015", "name": "USPS COLLECTION BOX - BLUE BOX", "address": {"city": "MEDINA", "state": "OH", "street": "275 FOREST MEADOWS DR", "postcode": "44256"}}},
{"geometry": {"type": "Point", "coordinates": [-81.8582663286, 41.1401392483]}, "type": "Feature", "properties": {"collection_times": [{"days": "Mon-Sat", "time": "1:30pm"}, {"days": "Sun", "time": "Closed"}], "id": "4425600016", "name": "USPS COLLECTION BOX - BLUE BOX", "address": {"city": "MEDINA", "state": "OH", "street": "93 PUBLIC SQ", "postcode": "44256"}}},
{"geometry": {"type": "Point", "coordinates": [-81.8648106821, 41.1391127944]}, "type": "Feature", "properties": {"collection_times": [{"days": "Mon-Sat", "time": "1:15pm"}, {"days": "Sun", "time": "Closed"}], "id": "4425600030", "name": "USPS COLLECTION BOX - BLUE BOX", "address": {"city": "MEDINA", "state": "OH", "street": "120 W LIBERTY ST", "postcode": "44256"}}},
{"geometry": {"type": "Point", "coordinates": [-81.8639965957, 41.1422980905]}, "type": "Feature", "properties": {"collection_times": [{"days": "Mon-Fri", "time": "5:00pm"}, {"days": "Sat", "time": "2:00pm"}, {"days": "Sun", "time": "Closed"}], "id": "4425600031", "name": "USPS COLLECTION BOX - BLUE BOX", "address": {"city": "MEDINA", "state": "OH", "street": "303 N COURT ST", "postcode": "44256"}}},
{"geometry": {"type": "Point", "coordinates": [-81.8051955018, 41.1361865332]}, "type": "Feature", "properties": {"collection_times": [{"days": "Mon-Sat", "time": "12:00pm"}, {"days": "Sun", "time": "Closed"}], "id": "4425600051", "name": "USPS COLLECTION BOX - BLUE BOX", "address": {"city": "MEDINA", "state": "OH", "street": "3626 MEDINA RD", "postcode": "44256"}}},
{"geometry": {"type": "Point", "coordinates": [-81.864967805, 41.1380512678]}, "type": "Feature", "properties": {"collection_times": [{"days": "Mon-Sat", "time": "1:15pm"}, {"days": "Sun", "time": "Closed"}], "id": "4425600053", "name": "USPS COLLECTION BOX - BLUE BOX", "address": {"city": "MEDINA", "state": "OH", "street": "121 W WASHINGTON ST", "postcode": "44256"}}},
{"geometry": {"type": "Point", "coordinates": [-81.8688268589, 41.1332255068]}, "type": "Feature", "properties": {"collection_times": [{"days": "Mon-Sat", "time": "1:30pm"}, {"days": "Sun", "time": "Closed"}], "id": "4425600058", "name": "USPS COLLECTION BOX - BLUE BOX", "address": {"city": "MEDINA", "state": "OH", "street": "233 LAFAYETTE RD", "postcode": "44256"}}},
{"geometry": {"type": "Point", "coordinates": [-81.7808037852, 41.1362818615]}, "type": "Feature", "properties": {"collection_times": [{"days": "Mon-Sat", "time": "12:00pm"}, {"days": "Sun", "time": "Closed"}], "id": "4425600061", "name": "USPS COLLECTION BOX - BLUE BOX", "address": {"city": "MEDINA", "state": "OH", "street": "2783 MEDINA RD", "postcode": "44256"}}},
{"geometry": {"type": "Point", "coordinates": [-81.8625740484, 41.1399104733]}, "type": "Feature", "properties": {"collection_times": [{"days": "Mon-Sat", "time": "12:00pm"}, {"days": "Sun", "time": "Closed"}], "id": "4425600072", "name": "USPS COLLECTION BOX - BLUE BOX", "address": {"city": "MEDINA", "state": "OH", "street": "144 N BROADWAY ST", "postcode": "44256"}}},
{"geometry": {"type": "Point", "coordinates": [-81.8783294564, 41.1294197657]}, "type": "Feature", "properties": {"collection_times": [{"days": "Mon-Sat", "time": "1:45pm"}, {"days": "Sun", "time": "Closed"}], "id": "4425600073", "name": "USPS COLLECTION BOX - BLUE BOX", "address": {"city": "MEDINA", "state": "OH", "street": "507 LAFAYETTE RD", "postcode": "44256"}}},
{"geometry": {"type": "Point", "coordinates": [-81.902647414, 41.1212035662]}, "type": "Feature", "properties": {"collection_times": [{"days": "Mon-Sat", "time": "2:15pm"}, {"days": "Sun", "time": "Closed"}], "id": "4425600074", "name": "USPS COLLECTION BOX - BLUE BOX", "address": {"city": "MEDINA", "state": "OH", "street": "1166 LAFAYETTE RD", "postcode": "44256"}}},
{"geometry": {"type": "Point", "coordinates": [-81.8659497005, 41.1396379941]}, "type": "Feature", "properties": {"collection_times": [{"days": "Mon-Sat", "time": "1:00pm"}, {"days": "Sun", "time": "Closed"}], "id": "4425600076", "name": "USPS COLLECTION BOX - BLUE BOX", "address": {"city": "MEDINA", "state": "OH", "street": "132 N ELMWOOD AVE", "postcode": "44256"}}},
{"geometry": {"type": "Point", "coordinates": [-81.8639965957, 41.1422980905]}, "type": "Feature", "properties": {"collection_times": [{"days": "Mon-Fri", "time": "5:00pm"}, {"days": "Sat", "time": "2:00pm"}, {"days": "Sun", "time": "Closed"}], "id": "4425600078", "name": "USPS COLLECTION BOX - BLUE BOX", "address": {"city": "MEDINA", "state": "OH", "street": "303 N COURT ST", "postcode": "44256"}}},
{"geometry": {"type": "Point", "coordinates": [-81.8052378718, 41.1362958434]}, "type": "Feature", "properties": {"collection_times": [{"days": "Mon-Sat", "time": "12:30pm"}, {"days": "Sun", "time": "Closed"}], "id": "4425600089", "name": "USPS COLLECTION BOX - BLUE BOX", "address": {"city": "MEDINA", "state": "OH", "street": "3637 MEDINA RD", "postcode": "44256"}}},
{"geometry": {"type": "Point", "coordinates": [-81.8051955018, 41.1361865332]}, "type": "Feature", "properties": {"collection_times": [{"days": "Mon-Sat", "time": "12:00pm"}, {"days": "Sun", "time": "Closed"}], "id": "4425600092", "name": "USPS COLLECTION BOX - BLUE BOX", "address": {"city": "MEDINA", "state": "OH", "street": "3626 MEDINA RD", "postcode": "44256"}}},
{"geometry": {"type": "Point", "coordinates": [-81.862229255, 41.1489463199]}, "type": "Feature", "properties": {"collection_times": [{"days": "Mon-Sat", "time": "12:45pm"}, {"days": "Sun", "time": "Closed"}], "id": "4425600093", "name": "USPS COLLECTION BOX - BLUE BOX", "address": {"city": "MEDINA", "state": "OH", "street": "135 HARDING ST", "postcode": "44256"}}},
{"geometry": {"type": "Point", "coordinates": [-81.8639965957, 41.1422980905]}, "type": "Feature", "properties": {"collection_times": [{"days": "Mon-Fri", "time": "5:00pm"}, {"days": "Sat", "time": "2:00pm"}, {"days": "Sun", "time": "Closed"}], "id": "4425600094", "name": "USPS COLLECTION BOX - APC", "address": {"city": "MEDINA", "state": "OH", "street": "303 N COURT ST", "postcode": "44256"}}},
{"geometry": {"type": "Point", "coordinates": [-81.8456601024, 41.1564329208]}, "type": "Feature", "properties": {"collection_times": [{"days": "Mon-Sat", "time": "12:45pm"}, {"days": "Sun", "time": "Closed"}], "id": "4425600097", "name": "USPS COLLECTION BOX - BLUE BOX", "address": {"city": "MEDINA", "state": "OH", "street": "699 E REAGAN PKWY", "postcode": "44256"}}},
{"geometry": {"type": "Point", "coordinates": [-81.864967805, 41.1380512678]}, "type": "Feature", "properties": {"collection_times": [{"days": "Mon-Sat", "time": "1:15pm"}, {"days": "Sun", "time": "Closed"}], "id": "4425600100", "name": "USPS COLLECTION BOX - BLUE BOX", "address": {"city": "MEDINA", "state": "OH", "street": "121 W WASHINGTON ST", "postcode": "44256"}}},
{"geometry": {"type": "Point", "coordinates": [-81.8409796057, 41.1391854807]}, "type": "Feature", "properties": {"collection_times": [{"days": "Mon-Sat", "time": "12:00pm"}, {"days": "Sun", "time": "Closed"}], "id": "4425600105", "name": "USPS COLLECTION BOX - BLUE BOX", "address": {"city": "MEDINA", "state": "OH", "street": "990 E WASHINGTON ST", "postcode": "44256"}}},
{"geometry": {"type": "Point", "coordinates": [-81.3938700901, 41.0511283326]}, "type": "Feature", "properties": {"collection_times": [{"days": "Mon-Fri", "time": "5:00pm"}, {"days": "Sat", "time": "3:00pm"}, {"days": "Sun", "time": "Closed"}], "id": "4426000008", "name": "USPS COLLECTION BOX - BLUE BOX", "address": {"city": "MOGADORE", "state": "OH", "street": "3993 MOGADORE RD", "postcode": "44260"}}},
{"geometry": {"type": "Point", "coordinates": [-81.4027135769, 41.0499125442]}, "type": "Feature", "properties": {"collection_times": [{"days": "Mon-Sat", "time": "8:30am"}, {"days": "Sun", "time": "Closed"}], "id": "4426000009", "name": "USPS COLLECTION BOX - BLUE BOX", "address": {"city": "MOGADORE", "state": "OH", "street": "3651 DICK ST", "postcode": "44260"}}},
{"geometry": {"type": "Point", "coordinates": [-81.4114875835, 41.0510907714]}, "type": "Feature", "properties": {"collection_times": [{"days": "Mon-Sat", "time": "9:30am"}, {"days": "Sun", "time": "Closed"}], "id": "4426000010", "name": "USPS COLLECTION BOX - BLUE BOX", "address": {"city": "MOGADORE", "state": "OH", "street": "3410 MOGADORE RD", "postcode": "44260"}}},
{"geometry": {"type": "Point", "coordinates": [-81.390059266, 41.050938144]}, "type": "Feature", "properties": {"collection_times": [{"days": "Mon-Fri", "time": "5:00pm"}, {"days": "Sat", "time": "3:00pm"}, {"days": "Sun", "time": "Closed"}], "id": "4426000011", "name": "USPS COLLECTION BOX - BLUE BOX", "address": {"city": "MOGADORE", "state": "OH", "street": "3993 MOGADORE RD", "postcode": "44260"}}},
{"geometry": {"type": "Point", "coordinates": [-81.3474751601, 41.0280807715]}, "type": "Feature", "properties": {"collection_times": [{"days": "Mon-Sat", "time": "12:00pm"}, {"days": "Sun", "time": "Closed"}], "id": "4426000015", "name": "USPS COLLECTION BOX - BLUE BOX", "address": {"city": "MOGADORE", "state": "OH", "street": "1435 STATE ROUTE 43", "postcode": "44260"}}},
{"geometry": {"type": "Point", "coordinates": [-81.4404251257, 41.1468004323]}, "type": "Feature", "properties": {"collection_times": [{"days": "Mon-Fri", "time": "2:15pm"}, {"days": "Sat-Sun", "time": "Closed"}], "id": "4426200010", "name": "USPS COLLECTION BOX - BLUE BOX", "address": {"city": "MUNROE FALLS", "state": "OH", "street": "265 N MAIN ST", "postcode": "44262"}}},
{"geometry": {"type": "Point", "coordinates": [-81.4390475945, 41.1405101098]}, "type": "Feature", "properties": {"collection_times": [{"days": "Mon-Fri", "time": "5:00pm"}, {"days": "Sat", "time": "12:00pm"}, {"days": "Sun", "time": "Closed"}], "id": "4426200012", "name": "USPS COLLECTION BOX - EXPRESS", "address": {"city": "MUNROE FALLS", "state": "OH", "street": "38 S MAIN ST", "postcode": "44262"}}},
{"geometry": {"type": "Point", "coordinates": [-81.4393359497, 41.1381841723]}, "type": "Feature", "properties": {"collection_times": [{"days": "Mon-Fri", "time": "5:00pm"}, {"days": "Sat", "time": "12:00pm"}, {"days": "Sun", "time": "Closed"}], "id": "4426200013", "name": "USPS COLLECTION BOX - BLUE BOX", "address": {"city": "MUNROE FALLS", "state": "OH", "street": "38 S MAIN ST", "postcode": "44262"}}},
{"geometry": {"type": "Point", "coordinates": [-81.5591871081, 41.2402506417]}, "type": "Feature", "properties": {"collection_times": [{"days": "Mon-Fri", "time": "4:00pm"}, {"days": "Sat", "time": "11:00am"}, {"days": "Sun", "time": "Closed"}], "id": "4426400001", "name": "USPS COLLECTION BOX - PO LOBBY", "address": {"city": "PENINSULA", "state": "OH", "street": "1921 BRONSON ST", "postcode": "44264"}}},
{"geometry": {"type": "Point", "coordinates": [-81.5591871081, 41.2402506417]}, "type": "Feature", "properties": {"collection_times": [{"days": "Mon-Fri", "time": "4:00pm"}, {"days": "Sat", "time": "11:00am"}, {"days": "Sun", "time": "Closed"}], "id": "4426400005", "name": "USPS COLLECTION BOX - BLUE BOX", "address": {"city": "PENINSULA", "state": "OH", "street": "1921 BRONSON ST", "postcode": "44264"}}},
{"geometry": {"type": "Point", "coordinates": [-81.2482210262, 41.0324110662]}, "type": "Feature", "properties": {"collection_times": [{"days": "Mon-Fri", "time": "4:15pm"}, {"days": "Sat", "time": "11:00am"}, {"days": "Sun", "time": "Closed"}], "id": "4426500001", "name": "USPS COLLECTION BOX - BLUE BOX", "address": {"city": "RANDOLPH", "state": "OH", "street": "3984 WATERLOO RD", "postcode": "44265"}}},
{"geometry": {"type": "Point", "coordinates": [-81.2439286585, 41.1576449011]}, "type": "Feature", "properties": {"collection_times": [{"days": "Mon-Sat", "time": "2:45pm"}, {"days": "Sun", "time": "Closed"}], "id": "4426600010", "name": "USPS COLLECTION BOX - BLUE BOX", "address": {"city": "RAVENNA", "state": "OH", "street": "219 W MAIN ST", "postcode": "44266"}}},
{"geometry": {"type": "Point", "coordinates": [-81.227701524, 41.1572438998]}, "type": "Feature", "properties": {"collection_times": [{"days": "Mon-Sat", "time": "2:30pm"}, {"days": "Sun", "time": "Closed"}], "id": "4426600014", "name": "USPS COLLECTION BOX - BLUE BOX", "address": {"city": "RAVENNA", "state": "OH", "street": "909 E MAIN ST", "postcode": "44266"}}},
{"geometry": {"type": "Point", "coordinates": [-81.2245102165, 41.1571558846]}, "type": "Feature", "properties": {"collection_times": [{"days": "Mon-Sat", "time": "2:30pm"}, {"days": "Sun", "time": "Closed"}], "id": "4426600015", "name": "USPS COLLECTION BOX - BLUE BOX", "address": {"city": "RAVENNA", "state": "OH", "street": "1145 E MAIN ST", "postcode": "44266"}}},
{"geometry": {"type": "Point", "coordinates": [-81.243193256, 41.1562648128]}, "type": "Feature", "properties": {"collection_times": [{"days": "Mon-Sat", "time": "2:45pm"}, {"days": "Sun", "time": "Closed"}], "id": "4426600023", "name": "USPS COLLECTION BOX - BLUE BOX", "address": {"city": "RAVENNA", "state": "OH", "street": "245 S CHESTNUT ST", "postcode": "44266"}}},
{"geometry": {"type": "Point", "coordinates": [-81.231412085, 41.1687069376]}, "type": "Feature", "properties": {"collection_times": [{"days": "Mon-Sat", "time": "2:30pm"}, {"days": "Sun", "time": "Closed"}], "id": "4426600025", "name": "USPS COLLECTION BOX - BLUE BOX", "address": {"city": "RAVENNA", "state": "OH", "street": "710 WOODGATE BLVD", "postcode": "44266"}}},
{"geometry": {"type": "Point", "coordinates": [-81.2429496607, 41.1595025706]}, "type": "Feature", "properties": {"collection_times": [{"days": "Mon-Fri", "time": "5:00pm"}, {"days": "Sat", "time": "4:30pm"}, {"days": "Sun", "time": "Closed"}], "id": "4426600027", "name": "USPS COLLECTION BOX - BLUE BOX", "address": {"city": "RAVENNA", "state": "OH", "street": "150 N CHESTNUT ST", "postcode": "44266"}}},
{"geometry": {"type": "Point", "coordinates": [-81.2429496607, 41.1595025706]}, "type": "Feature", "properties": {"collection_times": [{"days": "Mon-Fri", "time": "5:00pm"}, {"days": "Sat", "time": "4:30pm"}, {"days": "Sun", "time": "Closed"}], "id": "4426600029", "name": "USPS COLLECTION BOX - BLUE BOX", "address": {"city": "RAVENNA", "state": "OH", "street": "150 N CHESTNUT ST", "postcode": "44266"}}},
{"geometry": {"type": "Point", "coordinates": [-81.2429496607, 41.1595025706]}, "type": "Feature", "properties": {"collection_times": [{"days": "Mon-Fri", "time": "5:00pm"}, {"days": "Sat", "time": "4:30pm"}, {"days": "Sun", "time": "Closed"}], "id": "4426600034", "name": "USPS COLLECTION BOX - BLUE BOX", "address": {"city": "RAVENNA", "state": "OH", "street": "150 N CHESTNUT ST", "postcode": "44266"}}},
{"geometry": {"type": "Point", "coordinates": [-81.2460487121, 41.1770415117]}, "type": "Feature", "properties": {"collection_times": [{"days": "Mon-Fri", "time": "2:30pm"}, {"days": "Sat-Sun", "time": "Closed"}], "id": "4426600036", "name": "USPS COLLECTION BOX - BLUE BOX", "address": {"city": "RAVENNA", "state": "OH", "street": "6847 N CHESTNUT ST", "postcode": "44266"}}},
{"geometry": {"type": "Point", "coordinates": [-81.2423094826, 41.1575913875]}, "type": "Feature", "properties": {"collection_times": [{"days": "Mon-Sat", "time": "2:45pm"}, {"days": "Sun", "time": "Closed"}], "id": "4426600037", "name": "USPS COLLECTION BOX - BLUE BOX", "address": {"city": "RAVENNA", "state": "OH", "street": "120 E MAIN ST", "postcode": "44266"}}},
{"geometry": {"type": "Point", "coordinates": [-81.781448435, 40.9744934635]}, "type": "Feature", "properties": {"collection_times": [{"days": "Mon-Fri", "time": "5:00pm"}, {"days": "Sat", "time": "2:30pm"}, {"days": "Sun", "time": "Closed"}], "id": "4427000014", "name": "USPS COLLECTION BOX - BLUE BOX", "address": {"city": "RITTMAN", "state": "OH", "street": "100 N MAIN ST", "postcode": "44270"}}},
{"geometry": {"type": "Point", "coordinates": [-81.781448435, 40.9744934635]}, "type": "Feature", "properties": {"collection_times": [{"days": "Mon-Fri", "time": "5:00pm"}, {"days": "Sat", "time": "2:30pm"}, {"days": "Sun", "time": "Closed"}], "id": "4427000034", "name": "USPS COLLECTION BOX - BLUE BOX", "address": {"city": "RITTMAN", "state": "OH", "street": "100 N MAIN ST", "postcode": "44270"}}},
{"geometry": {"type": "Point", "coordinates": [-81.781448435, 40.9744934635]}, "type": "Feature", "properties": {"collection_times": [{"days": "Mon-Fri", "time": "5:00pm"}, {"days": "Sat", "time": "2:30pm"}, {"days": "Sun", "time": "Closed"}], "id": "4427000036", "name": "USPS COLLECTION BOX - PO LOBBY", "address": {"city": "RITTMAN", "state": "OH", "street": "100 N MAIN ST", "postcode": "44270"}}},
{"geometry": {"type": "Point", "coordinates": [-81.2174519623, 41.0988225434]}, "type": "Feature", "properties": {"collection_times": [{"days": "Mon-Fri", "time": "4:45pm"}, {"days": "Sat", "time": "12:00pm"}, {"days": "Sun", "time": "Closed"}], "id": "4427200001", "name": "USPS COLLECTION BOX - BLUE BOX", "address": {"city": "ROOTSTOWN", "state": "OH", "street": "4865 TALLMADGE RD", "postcode": "44272"}}},
{"geometry": {"type": "Point", "coordinates": [-81.2423514111, 41.1057147442]}, "type": "Feature", "properties": {"collection_times": [{"days": "Mon-Sat", "time": "11:30am"}, {"days": "Sun", "time": "Closed"}], "id": "4427200002", "name": "USPS COLLECTION BOX - BLUE BOX", "address": {"city": "ROOTSTOWN", "state": "OH", "street": "4260 STATE ROUTE 44", "postcode": "44272"}}},
{"geometry": {"type": "Point", "coordinates": [-81.8610415642, 41.0090791667]}, "type": "Feature", "properties": {"collection_times": [{"days": "Mon-Fri", "time": "4:45pm"}, {"days": "Sat", "time": "11:45am"}, {"days": "Sun", "time": "Closed"}], "id": "4427300001", "name": "USPS COLLECTION BOX - BLUE BOX", "address": {"city": "SEVILLE", "state": "OH", "street": "44 E MARKET ST", "postcode": "44273"}}},
{"geometry": {"type": "Point", "coordinates": [-81.8610415642, 41.0090791667]}, "type": "Feature", "properties": {"collection_times": [{"days": "Mon-Fri", "time": "5:00pm"}, {"days": "Sat", "time": "12:00pm"}, {"days": "Sun", "time": "Closed"}], "id": "4427300002", "name": "USPS COLLECTION BOX - PO LOBBY", "address": {"city": "SEVILLE", "state": "OH", "street": "44 E MARKET ST", "postcode": "44273"}}},
{"geometry": {"type": "Point", "coordinates": [-81.9326572744, 41.0267734757]}, "type": "Feature", "properties": {"collection_times": [{"days": "Mon-Sat", "time": "11:30am"}, {"days": "Sun", "time": "Closed"}], "id": "4427300003", "name": "USPS COLLECTION BOX - BLUE BOX", "address": {"city": "SEVILLE", "state": "OH", "street": "123 GREENWICH RD", "postcode": "44273"}}},
{"geometry": {"type": "Point", "coordinates": [-81.7353442983, 41.0987841182]}, "type": "Feature", "properties": {"collection_times": [{"days": "Mon-Fri", "time": "5:00pm"}, {"days": "Sat", "time": "12:00pm"}, {"days": "Sun", "time": "Closed"}], "id": "4427400001", "name": "USPS COLLECTION BOX - BLUE BOX", "address": {"city": "SHARON CENTER", "state": "OH", "street": "1332 SHARON COPLEY RD", "postcode": "44274"}}},
{"geometry": {"type": "Point", "coordinates": [-81.7254811821, 41.0245839616]}, "type": "Feature", "properties": {"collection_times": [{"days": "Mon-Fri", "time": "5:00pm"}, {"days": "Sat", "time": "12:00pm"}, {"days": "Sun", "time": "Closed"}], "id": "4427400003", "name": "USPS COLLECTION BOX - BLUE BOX", "address": {"city": "SHARON CENTER", "state": "OH", "street": "1332 SHARON COPLEY RD", "postcode": "44274"}}},
{"geometry": {"type": "Point", "coordinates": [-82.124335107, 41.0996145651]}, "type": "Feature", "properties": {"collection_times": [{"days": "Mon-Fri", "time": "4:00pm"}, {"days": "Sat", "time": "11:00am"}, {"days": "Sun", "time": "Closed"}], "id": "4427500002", "name": "USPS COLLECTION BOX - PO LOBBY", "address": {"city": "SPENCER", "state": "OH", "street": "106 S JACKSON ST", "postcode": "44275"}}},
{"geometry": {"type": "Point", "coordinates": [-82.124335107, 41.0996145651]}, "type": "Feature", "properties": {"collection_times": [{"days": "Mon-Fri", "time": "4:00pm"}, {"days": "Sat", "time": "11:00am"}, {"days": "Sun", "time": "Closed"}], "id": "4427500003", "name": "USPS COLLECTION BOX - BLUE BOX", "address": {"city": "SPENCER", "state": "OH", "street": "106 S JACKSON ST", "postcode": "44275"}}},
{"geometry": {"type": "Point", "coordinates": [-81.8356596966, 40.9456105431]}, "type": "Feature", "properties": {"collection_times": [{"days": "Mon-Sat", "time": "10:00am"}, {"days": "Sun", "time": "Closed"}], "id": "4427600003", "name": "USPS COLLECTION BOX - BLUE BOX", "address": {"city": "STERLING", "state": "OH", "street": "13803 KAUFFMAN AVE", "postcode": "44276"}}},
{"geometry": {"type": "Point", "coordinates": [-81.4408687353, 41.1030250358]}, "type": "Feature", "properties": {"collection_times": [{"days": "Mon-Sat", "time": "10:00am"}, {"days": "Sun", "time": "Closed"}], "id": "4427800001", "name": "USPS COLLECTION BOX - BLUE BOX", "address": {"city": "TALLMADGE", "state": "OH", "street": "33 NORTH AVE", "postcode": "44278"}}},
{"geometry": {"type": "Point", "coordinates": [-81.4662170454, 41.1010313909]}, "type": "Feature", "properties": {"collection_times": [{"days": "Mon-Fri", "time": "2:00pm"}, {"days": "Sat", "time": "11:00am"}, {"days": "Sun", "time": "Closed"}], "id": "4427800006", "name": "USPS COLLECTION BOX - BLUE BOX", "address": {"city": "TALLMADGE", "state": "OH", "street": "49 MIDWAY PLZ", "postcode": "44278"}}},
{"geometry": {"type": "Point", "coordinates": [-81.4357145831, 41.1048113039]}, "type": "Feature", "properties": {"collection_times": [{"days": "Mon-Fri", "time": "5:00pm"}, {"days": "Sat", "time": "3:00pm"}, {"days": "Sun", "time": "Closed"}], "id": "4427800008", "name": "USPS COLLECTION BOX - BLUE BOX", "address": {"city": "TALLMADGE", "state": "OH", "street": "162 NORTHEAST AVE", "postcode": "44278"}}},
{"geometry": {"type": "Point", "coordinates": [-81.4357145831, 41.1048113039]}, "type": "Feature", "properties": {"collection_times": [{"days": "Mon-Fri", "time": "5:00pm"}, {"days": "Sat", "time": "3:00pm"}, {"days": "Sun", "time": "Closed"}], "id": "4427800009", "name": "USPS COLLECTION BOX - BLUE BOX", "address": {"city": "TALLMADGE", "state": "OH", "street": "162 NORTHEAST AVE", "postcode": "44278"}}},
{"geometry": {"type": "Point", "coordinates": [-81.4296667276, 41.098033336]}, "type": "Feature", "properties": {"collection_times": [{"days": "Mon-Fri", "time": "5:00pm"}, {"days": "Sat", "time": "3:00pm"}, {"days": "Sun", "time": "Closed"}], "id": "4427800010", "name": "USPS COLLECTION BOX - EXPRESS", "address": {"city": "TALLMADGE", "state": "OH", "street": "162 NORTHEAST AVE", "postcode": "44278"}}},
{"geometry": {"type": "Point", "coordinates": [-81.4527985081, 41.1016889887]}, "type": "Feature", "properties": {"collection_times": [{"days": "Mon-Sat", "time": "11:00am"}, {"days": "Sun", "time": "Closed"}], "id": "4427800018", "name": "USPS COLLECTION BOX - BLUE BOX", "address": {"city": "TALLMADGE", "state": "OH", "street": "286 WEST AVE", "postcode": "44278"}}},
{"geometry": {"type": "Point", "coordinates": [-81.4415422264, 41.0862303155]}, "type": "Feature", "properties": {"collection_times": [{"days": "Mon-Fri", "time": "2:00pm"}, {"days": "Sat", "time": "11:00am"}, {"days": "Sun", "time": "Closed"}], "id": "4427800023", "name": "USPS COLLECTION BOX - BLUE BOX", "address": {"city": "TALLMADGE", "state": "OH", "street": "600 SOUTH AVE", "postcode": "44278"}}},
{"geometry": {"type": "Point", "coordinates": [-81.415643742, 41.103038627]}, "type": "Feature", "properties": {"collection_times": [{"days": "Mon-Fri", "time": "2:00pm"}, {"days": "Sat", "time": "11:00am"}, {"days": "Sun", "time": "Closed"}], "id": "4427800024", "name": "USPS COLLECTION BOX - BLUE BOX", "address": {"city": "TALLMADGE", "state": "OH", "street": "46 N MUNROE RD", "postcode": "44278"}}},
{"geometry": {"type": "Point", "coordinates": [-81.9288218309, 41.2350148973]}, "type": "Feature", "properties": {"collection_times": [{"days": "Mon-Fri", "time": "5:00pm"}, {"days": "Sat", "time": "12:00pm"}, {"days": "Sun", "time": "Closed"}], "id": "4428000001", "name": "USPS COLLECTION BOX - PO LOBBY", "address": {"city": "VALLEY CITY", "state": "OH", "street": "1409 BARN RUN DR", "postcode": "44280"}}},
{"geometry": {"type": "Point", "coordinates": [-81.9288218309, 41.2350148973]}, "type": "Feature", "properties": {"collection_times": [{"days": "Mon-Fri", "time": "5:00pm"}, {"days": "Sat", "time": "12:00pm"}, {"days": "Sun", "time": "Closed"}], "id": "4428000002", "name": "USPS COLLECTION BOX - BLUE BOX", "address": {"city": "VALLEY CITY", "state": "OH", "street": "1409 BARN RUN DR", "postcode": "44280"}}},
{"geometry": {"type": "Point", "coordinates": [-81.9288218309, 41.2350148973]}, "type": "Feature", "properties": {"collection_times": [{"days": "Mon-Fri", "time": "5:00pm"}, {"days": "Sat", "time": "12:00pm"}, {"days": "Sun", "time": "Closed"}], "id": "4428000003", "name": "USPS COLLECTION BOX - PO LOBBY", "address": {"city": "VALLEY CITY", "state": "OH", "street": "1409 BARN RUN DR", "postcode": "44280"}}},
{"geometry": {"type": "Point", "coordinates": [-81.7278403847, 41.0248184357]}, "type": "Feature", "properties": {"collection_times": [{"days": "Mon-Fri", "time": "5:00pm"}, {"days": "Sat", "time": "3:45pm"}, {"days": "Sun", "time": "Closed"}], "id": "4428100002", "name": "USPS COLLECTION BOX - BLUE BOX", "address": {"city": "WADSWORTH", "state": "OH", "street": "119 S LYMAN ST", "postcode": "44281"}}},
{"geometry": {"type": "Point", "coordinates": [-81.7291724362, 41.0266955243]}, "type": "Feature", "properties": {"collection_times": [{"days": "Mon-Fri", "time": "3:30pm"}, {"days": "Sat", "time": "1:30pm"}, {"days": "Sun", "time": "Closed"}], "id": "4428100016", "name": "USPS COLLECTION BOX - BLUE BOX", "address": {"city": "WADSWORTH", "state": "OH", "street": "125 MAPLE ST", "postcode": "44281"}}},
{"geometry": {"type": "Point", "coordinates": [-81.7287365907, 41.0480846258]}, "type": "Feature", "properties": {"collection_times": [{"days": "Mon-Fri", "time": "3:15pm"}, {"days": "Sat-Sun", "time": "Closed"}], "id": "4428100029", "name": "USPS COLLECTION BOX - BLUE BOX", "address": {"city": "WADSWORTH", "state": "OH", "street": "1 PARK CENTER DR", "postcode": "44281"}}},
{"geometry": {"type": "Point", "coordinates": [-81.7589003589, 41.0304688772]}, "type": "Feature", "properties": {"collection_times": [{"days": "Mon-Fri", "time": "3:30pm"}, {"days": "Sat", "time": "1:30pm"}, {"days": "Sun", "time": "Closed"}], "id": "4428100030", "name": "USPS COLLECTION BOX - BLUE BOX", "address": {"city": "WADSWORTH", "state": "OH", "street": "195 WADSWORTH RD", "postcode": "44281"}}},
{"geometry": {"type": "Point", "coordinates": [-81.760408287, 41.0236372209]}, "type": "Feature", "properties": {"collection_times": [{"days": "Mon-Fri", "time": "3:30pm"}, {"days": "Sat-Sun", "time": "Closed"}], "id": "4428100035", "name": "USPS COLLECTION BOX - BLUE BOX", "address": {"city": "WADSWORTH", "state": "OH", "street": "150 QUADRAL DR", "postcode": "44281"}}},
{"geometry": {"type": "Point", "coordinates": [-81.728880653, 41.0494821865]}, "type": "Feature", "properties": {"collection_times": [{"days": "Mon-Fri", "time": "3:15pm"}, {"days": "Sat", "time": "1:15pm"}, {"days": "Sun", "time": "Closed"}], "id": "4428100037", "name": "USPS COLLECTION BOX - BLUE BOX", "address": {"city": "WADSWORTH", "state": "OH", "street": "1005 HIGH ST", "postcode": "44281"}}},
{"geometry": {"type": "Point", "coordinates": [-81.7287682163, 41.0398232973]}, "type": "Feature", "properties": {"collection_times": [{"days": "Mon-Fri", "time": "5:00pm"}, {"days": "Sat", "time": "3:45pm"}, {"days": "Sun", "time": "Closed"}], "id": "4428100040", "name": "USPS COLLECTION BOX - EXPRESS", "address": {"city": "WADSWORTH", "state": "OH", "street": "119 S LYMAN ST", "postcode": "44281"}}},
{"geometry": {"type": "Point", "coordinates": [-81.7278403847, 41.0248184357]}, "type": "Feature", "properties": {"collection_times": [{"days": "Mon-Fri", "time": "5:00pm"}, {"days": "Sat", "time": "3:45pm"}, {"days": "Sun", "time": "Closed"}], "id": "4428100043", "name": "USPS COLLECTION BOX - PO LOBBY", "address": {"city": "WADSWORTH", "state": "OH", "street": "119 S LYMAN ST", "postcode": "44281"}}},
{"geometry": {"type": "Point", "coordinates": [-81.7278403847, 41.0248184357]}, "type": "Feature", "properties": {"collection_times": [{"days": "Mon-Fri", "time": "5:00pm"}, {"days": "Sat", "time": "3:45pm"}, {"days": "Sun", "time": "Closed"}], "id": "4428100044", "name": "USPS COLLECTION BOX - PO LOBBY", "address": {"city": "WADSWORTH", "state": "OH", "street": "119 S LYMAN ST", "postcode": "44281"}}},
{"geometry": {"type": "Point", "coordinates": [-81.7313348455, 41.0489720918]}, "type": "Feature", "properties": {"collection_times": [{"days": "Mon-Fri", "time": "3:15pm"}, {"days": "Sat", "time": "1:15pm"}, {"days": "Sun", "time": "Closed"}], "id": "4428100045", "name": "USPS COLLECTION BOX - BLUE BOX", "address": {"city": "WADSWORTH", "state": "OH", "street": "160 GREAT OAKS TRL", "postcode": "44281"}}},
{"geometry": {"type": "Point", "coordinates": [-81.7235261819, 41.0622319229]}, "type": "Feature", "properties": {"collection_times": [{"days": "Mon-Fri", "time": "3:00pm"}, {"days": "Sat", "time": "1:00pm"}, {"days": "Sun", "time": "Closed"}], "id": "4428100046", "name": "USPS COLLECTION BOX - BLUE BOX", "address": {"city": "WADSWORTH", "state": "OH", "street": "825 AMBASSADOR DR", "postcode": "44281"}}},
{"geometry": {"type": "Point", "coordinates": [-81.73196474, 41.0488665009]}, "type": "Feature", "properties": {"collection_times": [{"days": "Mon-Fri", "time": "3:15pm"}, {"days": "Sat", "time": "1:15pm"}, {"days": "Sun", "time": "Closed"}], "id": "4428100047", "name": "USPS COLLECTION BOX - BLUE BOX", "address": {"city": "WADSWORTH", "state": "OH", "street": "175 GREAT OAKS TRL", "postcode": "44281"}}},
{"geometry": {"type": "Point", "coordinates": [-81.7296842779, 41.025538835]}, "type": "Feature", "properties": {"collection_times": [{"days": "Mon-Fri", "time": "3:30pm"}, {"days": "Sat", "time": "1:30pm"}, {"days": "Sun", "time": "Closed"}], "id": "4428100049", "name": "USPS COLLECTION BOX - BLUE BOX", "address": {"city": "WADSWORTH", "state": "OH", "street": "101 HIGH ST", "postcode": "44281"}}},
{"geometry": {"type": "Point", "coordinates": [-81.7278403847, 41.0248184357]}, "type": "Feature", "properties": {"collection_times": [{"days": "Mon-Fri", "time": "5:00pm"}, {"days": "Sat", "time": "3:45pm"}, {"days": "Sun", "time": "Closed"}], "id": "4428100050", "name": "USPS COLLECTION BOX - APC", "address": {"city": "WADSWORTH", "state": "OH", "street": "119 S LYMAN ST", "postcode": "44281"}}},
{"geometry": {"type": "Point", "coordinates": [-81.7257722267, 41.0514979337]}, "type": "Feature", "properties": {"collection_times": [{"days": "Mon-Fri", "time": "3:15pm"}, {"days": "Sat", "time": "1:15pm"}, {"days": "Sun", "time": "Closed"}], "id": "4428100051", "name": "USPS COLLECTION BOX - BLUE BOX", "address": {"city": "WADSWORTH", "state": "OH", "street": "222 E SMOKERISE DR", "postcode": "44281"}}},
{"geometry": {"type": "Point", "coordinates": [-81.0712672961, 41.1598835292]}, "type": "Feature", "properties": {"collection_times": [{"days": "Mon-Fri", "time": "3:45pm"}, {"days": "Sat", "time": "11:00am"}, {"days": "Sun", "time": "Closed"}], "id": "4428500001", "name": "USPS COLLECTION BOX - BLUE BOX", "address": {"city": "WAYLAND", "state": "OH", "street": "6243 WAYLAND RD", "postcode": "44285"}}},
{"geometry": {"type": "Point", "coordinates": [-81.6538356548, 41.2384300678]}, "type": "Feature", "properties": {"collection_times": [{"days": "Mon-Fri", "time": "5:00pm"}, {"days": "Sat", "time": "12:00pm"}, {"days": "Sun", "time": "Closed"}], "id": "4428600003", "name": "USPS COLLECTION BOX - BLUE BOX", "address": {"city": "RICHFIELD", "state": "OH", "street": "3900 BROADVIEW RD", "postcode": "44286"}}},
{"geometry": {"type": "Point", "coordinates": [-81.6538356548, 41.2384300678]}, "type": "Feature", "properties": {"collection_times": [{"days": "Mon-Fri", "time": "5:00pm"}, {"days": "Sat", "time": "12:00pm"}, {"days": "Sun", "time": "Closed"}], "id": "4428600005", "name": "USPS COLLECTION BOX - BLUE BOX", "address": {"city": "RICHFIELD", "state": "OH", "street": "3900 BROADVIEW RD", "postcode": "44286"}}},
{"geometry": {"type": "Point", "coordinates": [-81.6538356548, 41.2384300678]}, "type": "Feature", "properties": {"collection_times": [{"days": "Mon-Fri", "time": "5:00pm"}, {"days": "Sat", "time": "12:00pm"}, {"days": "Sun", "time": "Closed"}], "id": "4428600006", "name": "USPS COLLECTION BOX - PO LOBBY", "address": {"city": "RICHFIELD", "state": "OH", "street": "3900 BROADVIEW RD", "postcode": "44286"}}},
{"geometry": {"type": "Point", "coordinates": [-82.2118112693, 40.9740609508]}, "type": "Feature", "properties": {"collection_times": [{"days": "Mon-Sat", "time": "12:00pm"}, {"days": "Sun", "time": "Closed"}], "id": "4428700001", "name": "USPS COLLECTION BOX - BLUE BOX", "address": {"city": "WEST SALEM", "state": "OH", "street": "366 COUNTY ROAD 620", "postcode": "44287"}}},
{"geometry": {"type": "Point", "coordinates": [-82.1095752496, 40.9722834835]}, "type": "Feature", "properties": {"collection_times": [{"days": "Mon-Fri", "time": "4:00pm"}, {"days": "Sat", "time": "12:00pm"}, {"days": "Sun", "time": "Closed"}], "id": "4428700004", "name": "USPS COLLECTION BOX - BLUE BOX", "address": {"city": "WEST SALEM", "state": "OH", "street": "7 S MAIN ST", "postcode": "44287"}}},
{"geometry": {"type": "Point", "coordinates": [-82.1095752496, 40.9722834835]}, "type": "Feature", "properties": {"collection_times": [{"days": "Mon-Fri", "time": "4:00pm"}, {"days": "Sat", "time": "12:00pm"}, {"days": "Sun", "time": "Closed"}], "id": "4428700006", "name": "USPS COLLECTION BOX - BLUE BOX", "address": {"city": "WEST SALEM", "state": "OH", "street": "7 S MAIN ST", "postcode": "44287"}}},
{"geometry": {"type": "Point", "coordinates": [-82.1095752496, 40.9722834835]}, "type": "Feature", "properties": {"collection_times": [{"days": "Mon-Fri", "time": "4:30pm"}, {"days": "Sat", "time": "12:00pm"}, {"days": "Sun", "time": "Closed"}], "id": "4428700007", "name": "USPS COLLECTION BOX - PO LOBBY", "address": {"city": "WEST SALEM", "state": "OH", "street": "7 S MAIN ST", "postcode": "44287"}}},
{"geometry": {"type": "Point", "coordinates": [-81.0456604981, 41.2351702327]}, "type": "Feature", "properties": {"collection_times": [{"days": "Mon-Fri", "time": "4:00pm"}, {"days": "Sat", "time": "11:00am"}, {"days": "Sun", "time": "Closed"}], "id": "4428800003", "name": "USPS COLLECTION BOX - BLUE BOX", "address": {"city": "WINDHAM", "state": "OH", "street": "9575 E CENTER ST", "postcode": "44288"}}},
{"geometry": {"type": "Point", "coordinates": [-81.0456604981, 41.2351702327]}, "type": "Feature", "properties": {"collection_times": [{"days": "Mon-Fri", "time": "4:00pm"}, {"days": "Sat", "time": "11:00am"}, {"days": "Sun", "time": "Closed"}], "id": "4428800006", "name": "USPS COLLECTION BOX - PO LOBBY", "address": {"city": "WINDHAM", "state": "OH", "street": "9575 E CENTER ST", "postcode": "44288"}}}
]}
