{"type": "FeatureCollection", "features": [
{"geometry": {"type": "Point", "coordinates": [-81.5141826172, 41.0426349807]}, "type": "Feature", "properties": {"collection_times": [{"days": "Mon-Sat", "time": "12:00pm"}, {"days": "Sun", "time": "Closed"}], "id": "4430100007", "name": "USPS COLLECTION BOX - BLUE BOX", "address": {"city": "AKRON", "state": "OH", "street": "353 REED AVE", "postcode": "44301"}}},
{"geometry": {"type": "Point", "coordinates": [-81.519896309, 41.0448766879]}, "type": "Feature", "properties": {"collection_times": [{"days": "Mon-Sat", "time": "9:00am"}, {"days": "Sun", "time": "Closed"}], "id": "4430100010", "name": "USPS COLLECTION BOX - BLUE BOX", "address": {"city": "AKRON", "state": "OH", "street": "199 IDO AVE", "postcode": "44301"}}},
{"geometry": {"type": "Point", "coordinates": [-81.5100753837, 41.0513202654]}, "type": "Feature", "properties": {"collection_times": [{"days": "Mon-Sat", "time": "9:00am"}, {"days": "Sun", "time": "Closed"}], "id": "4430100013", "name": "USPS COLLECTION BOX - BLUE BOX", "address": {"city": "AKRON", "state": "OH", "street": "1115 BROWN ST", "postcode": "44301"}}},
{"geometry": {"type": "Point", "coordinates": [-81.5102977799, 41.0424196821]}, "type": "Feature", "properties": {"collection_times": [{"days": "Mon-Sat", "time": "1:30pm"}, {"days": "Sun", "time": "Closed"}], "id": "4430100014", "name": "USPS COLLECTION BOX - BLUE BOX", "address": {"city": "AKRON", "state": "OH", "street": "1441 BROWN ST", "postcode": "44301"}}},
{"geometry": {"type": "Point", "coordinates": [-81.5290404969, 41.0517013815]}, "type": "Feature", "properties": {"collection_times": [{"days": "Mon-Fri", "time": "9:00am"}, {"days": "Sat-Sun", "time": "Closed"}], "id": "4430100051", "name": "USPS COLLECTION BOX - BLUE BOX", "address": {"city": "AKRON", "state": "OH", "street": "1301 FIRESTONE PKWY", "postcode": "44301"}}},
{"geometry": {"type": "Point", "coordinates": [-81.5397136397, 41.0875379892]}, "type": "Feature", "properties": {"collection_times": [{"days": "Mon-Fri", "time": "5:00pm"}, {"days": "Sat", "time": "3:00pm"}, {"days": "Sun", "time": "Closed"}], "id": "4430200024", "name": "USPS COLLECTION BOX - BLUE BOX", "address": {"city": "AKRON", "state": "OH", "street": "634 W EXCHANGE ST", "postcode": "44302"}}},
{"geometry": {"type": "Point", "coordinates": [-81.5397136397, 41.0875379892]}, "type": "Feature", "properties": {"collection_times": [{"days": "Mon-Fri", "time": "5:00pm"}, {"days": "Sat", "time": "3:00pm"}, {"days": "Sun", "time": "Closed"}], "id": "4430200031", "name": "USPS COLLECTION BOX - BLUE BOX", "address": {"city": "AKRON", "state": "OH", "street": "634 W EXCHANGE ST", "postcode": "44302"}}},
{"geometry": {"type": "Point", "coordinates": [-81.5254041659, 41.0804317026]}, "type": "Feature", "properties": {"collection_times": [{"days": "Mon-Fri", "time": "2:00pm"}, {"days": "Sat-Sun", "time": "Closed"}], "id": "4430200033", "name": "USPS COLLECTION BOX - BLUE BOX", "address": {"city": "AKRON", "state": "OH", "street": "300 LOCUST ST", "postcode": "44302"}}},
{"geometry": {"type": "Point", "coordinates": [-81.5397136397, 41.0875379892]}, "type": "Feature", "properties": {"collection_times": [{"days": "Mon-Fri", "time": "5:00pm"}, {"days": "Sat", "time": "2:00pm"}, {"days": "Sun", "time": "Closed"}], "id": "4430200037", "name": "USPS COLLECTION BOX - PO LOBBY", "address": {"city": "AKRON", "state": "OH", "street": "634 W EXCHANGE ST", "postcode": "44302"}}},
{"geometry": {"type": "Point", "coordinates": [-81.5397136397, 41.0875379892]}, "type": "Feature", "properties": {"collection_times": [{"days": "Mon-Fri", "time": "5:00pm"}, {"days": "Sat", "time": "2:00pm"}, {"days": "Sun", "time": "Closed"}], "id": "4430200038", "name": "USPS COLLECTION BOX - PO LOBBY", "address": {"city": "AKRON", "state": "OH", "street": "634 W EXCHANGE ST", "postcode": "44302"}}},
{"geometry": {"type": "Point", "coordinates": [-81.5330094091, 41.0852120397]}, "type": "Feature", "properties": {"collection_times": [{"days": "Mon-Sat", "time": "2:00pm"}, {"days": "Sun", "time": "Closed"}], "id": "4430200040", "name": "USPS COLLECTION BOX - BLUE BOX", "address": {"city": "AKRON", "state": "OH", "street": "315 S MAPLE ST", "postcode": "44302"}}},
{"geometry": {"type": "Point", "coordinates": [-81.5384131657, 41.0944024479]}, "type": "Feature", "properties": {"collection_times": [{"days": "Mon-Fri", "time": "1:00pm"}, {"days": "Sat", "time": "3:00pm"}, {"days": "Sun", "time": "Closed"}], "id": "4430300003", "name": "USPS COLLECTION BOX - BLUE BOX", "address": {"city": "AKRON", "state": "OH", "street": "656 W MARKET ST", "postcode": "44303"}}},
{"geometry": {"type": "Point", "coordinates": [-81.5448411106, 41.1181472545]}, "type": "Feature", "properties": {"collection_times": [{"days": "Mon-Fri", "time": "12:00pm"}, {"days": "Sat", "time": "1:00pm"}, {"days": "Sun", "time": "Closed"}], "id": "4430300006", "name": "USPS COLLECTION BOX - BLUE BOX", "address": {"city": "AKRON", "state": "OH", "street": "775 DELAWARE AVE", "postcode": "44303"}}},
{"geometry": {"type": "Point", "coordinates": [-81.544141053, 41.1020621072]}, "type": "Feature", "properties": {"collection_times": [{"days": "Mon-Fri", "time": "12:30pm"}, {"days": "Sat", "time": "12:00pm"}, {"days": "Sun", "time": "Closed"}], "id": "4430300007", "name": "USPS COLLECTION BOX - BLUE BOX", "address": {"city": "AKRON", "state": "OH", "street": "214 N HIGHLAND AVE", "postcode": "44303"}}},
{"geometry": {"type": "Point", "coordinates": [-81.5337073549, 41.112676798]}, "type": "Feature", "properties": {"collection_times": [{"days": "Mon-Sat", "time": "1:00pm"}, {"days": "Sun", "time": "Closed"}], "id": "4430300008", "name": "USPS COLLECTION BOX - BLUE BOX", "address": {"city": "AKRON", "state": "OH", "street": "740 EAGLENEST AVE", "postcode": "44303"}}},
{"geometry": {"type": "Point", "coordinates": [-81.542786565, 41.1081839199]}, "type": "Feature", "properties": {"collection_times": [{"days": "Mon-Sat", "time": "10:00am"}, {"days": "Sun", "time": "Closed"}], "id": "4430300009", "name": "USPS COLLECTION BOX - BLUE BOX", "address": {"city": "AKRON", "state": "OH", "street": "591 MERRIMAN RD", "postcode": "44303"}}},
{"geometry": {"type": "Point", "coordinates": [-81.5459497972, 41.0992904344]}, "type": "Feature", "properties": {"collection_times": [{"days": "Mon-Sat", "time": "11:00am"}, {"days": "Sun", "time": "Closed"}], "id": "4430300020", "name": "USPS COLLECTION BOX - BLUE BOX", "address": {"city": "AKRON", "state": "OH", "street": "80 N PORTAGE PATH", "postcode": "44303"}}},
{"geometry": {"type": "Point", "coordinates": [-81.5447881315, 41.097110241]}, "type": "Feature", "properties": {"collection_times": [{"days": "Mon-Sat", "time": "1:00pm"}, {"days": "Sun", "time": "Closed"}], "id": "4430300025", "name": "USPS COLLECTION BOX - BLUE BOX", "address": {"city": "AKRON", "state": "OH", "street": "860 W MARKET ST", "postcode": "44303"}}},
{"geometry": {"type": "Point", "coordinates": [-81.5409269535, 41.0954529155]}, "type": "Feature", "properties": {"collection_times": [{"days": "Mon-Sat", "time": "11:30am"}, {"days": "Sun", "time": "Closed"}], "id": "4430300027", "name": "USPS COLLECTION BOX - BLUE BOX", "address": {"city": "AKRON", "state": "OH", "street": "733 W MARKET ST", "postcode": "44303"}}},
{"geometry": {"type": "Point", "coordinates": [-81.5311462487, 41.0913255717]}, "type": "Feature", "properties": {"collection_times": [{"days": "Mon-Sat", "time": "11:00am"}, {"days": "Sun", "time": "Closed"}], "id": "4430300028", "name": "USPS COLLECTION BOX - BLUE BOX", "address": {"city": "AKRON", "state": "OH", "street": "425 W MARKET ST", "postcode": "44303"}}},
{"geometry": {"type": "Point", "coordinates": [-81.5234889554, 41.0881114722]}, "type": "Feature", "properties": {"collection_times": [{"days": "Mon-Sat", "time": "12:00pm"}, {"days": "Sun", "time": "Closed"}], "id": "4430300029", "name": "USPS COLLECTION BOX - BLUE BOX", "address": {"city": "AKRON", "state": "OH", "street": "183 W MARKET ST", "postcode": "44303"}}},
{"geometry": {"type": "Point", "coordinates": [-81.5306517719, 41.0911102731]}, "type": "Feature", "properties": {"collection_times": [{"days": "Mon-Sat", "time": "10:00am"}, {"days": "Sun", "time": "Closed"}], "id": "4430300031", "name": "USPS COLLECTION BOX - BLUE BOX", "address": {"city": "AKRON", "state": "OH", "street": "400 W MARKET ST", "postcode": "44303"}}},
{"geometry": {"type": "Point", "coordinates": [-81.4998249338, 41.0804740913]}, "type": "Feature", "properties": {"collection_times": [{"days": "Mon-Fri", "time": "2:45pm"}, {"days": "Sat", "time": "11:00am"}, {"days": "Sun", "time": "Closed"}], "id": "4430400007", "name": "USPS COLLECTION BOX - BLUE BOX", "address": {"city": "AKRON", "state": "OH", "street": "74 ARCH ST", "postcode": "44304"}}},
{"geometry": {"type": "Point", "coordinates": [-81.4997623474, 41.0802211359]}, "type": "Feature", "properties": {"collection_times": [{"days": "Mon-Sat", "time": "10:00am"}, {"days": "Sun", "time": "Closed"}], "id": "4430400008", "name": "USPS COLLECTION BOX - BLUE BOX", "address": {"city": "AKRON", "state": "OH", "street": "75 ARCH ST", "postcode": "44304"}}},
{"geometry": {"type": "Point", "coordinates": [-81.5066533337, 41.0805272733]}, "type": "Feature", "properties": {"collection_times": [{"days": "Mon-Fri", "time": "2:45pm"}, {"days": "Sat-Sun", "time": "Closed"}], "id": "4430400028", "name": "USPS COLLECTION BOX - BLUE BOX", "address": {"city": "AKRON", "state": "OH", "street": "29 S FORGE ST", "postcode": "44304"}}},
{"geometry": {"type": "Point", "coordinates": [-81.4997386882, 41.0820003061]}, "type": "Feature", "properties": {"collection_times": [{"days": "Mon-Fri", "time": "2:45pm"}, {"days": "Sat", "time": "11:00am"}, {"days": "Sun", "time": "Closed"}], "id": "4430400031", "name": "USPS COLLECTION BOX - BLUE BOX", "address": {"city": "AKRON", "state": "OH", "street": "95 ARCH ST", "postcode": "44304"}}},
{"geometry": {"type": "Point", "coordinates": [-81.4997386882, 41.0820003061]}, "type": "Feature", "properties": {"collection_times": [{"days": "Mon-Fri", "time": "2:45pm"}, {"days": "Sat", "time": "11:00am"}, {"days": "Sun", "time": "Closed"}], "id": "4430400032", "name": "USPS COLLECTION BOX - BLUE BOX", "address": {"city": "AKRON", "state": "OH", "street": "95 ARCH ST", "postcode": "44304"}}},
{"geometry": {"type": "Point", "coordinates": [-81.4658621748, 41.0667493351]}, "type": "Feature", "properties": {"collection_times": [{"days": "Mon-Sat", "time": "9:00am"}, {"days": "Sun", "time": "Closed"}], "id": "4430500008", "name": "USPS COLLECTION BOX - BLUE BOX", "address": {"city": "AKRON", "state": "OH", "street": "1696 SHAW AVE", "postcode": "44305"}}},
{"geometry": {"type": "Point", "coordinates": [-81.4842726827, 41.0731174673]}, "type": "Feature", "properties": {"collection_times": [{"days": "Mon-Sat", "time": "9:00am"}, {"days": "Sun", "time": "Closed"}], "id": "4430500010", "name": "USPS COLLECTION BOX - BLUE BOX", "address": {"city": "AKRON", "state": "OH", "street": "172 N CASE AVE", "postcode": "44305"}}},
{"geometry": {"type": "Point", "coordinates": [-81.4420385426, 41.070505674]}, "type": "Feature", "properties": {"collection_times": [{"days": "Mon-Sat", "time": "10:30am"}, {"days": "Sun", "time": "Closed"}], "id": "4430500014", "name": "USPS COLLECTION BOX - BLUE BOX", "address": {"city": "AKRON", "state": "OH", "street": "255 DARROW RD", "postcode": "44305"}}},
{"geometry": {"type": "Point", "coordinates": [-81.4634585197, 41.0738497189]}, "type": "Feature", "properties": {"collection_times": [{"days": "Mon-Sat", "time": "9:00am"}, {"days": "Sun", "time": "Closed"}], "id": "4430500025", "name": "USPS COLLECTION BOX - BLUE BOX", "address": {"city": "AKRON", "state": "OH", "street": "1763 GOODYEAR BLVD", "postcode": "44305"}}},
{"geometry": {"type": "Point", "coordinates": [-81.4649090673, 41.0762605134]}, "type": "Feature", "properties": {"collection_times": [{"days": "Mon-Sat", "time": "10:30am"}, {"days": "Sun", "time": "Closed"}], "id": "4430500034", "name": "USPS COLLECTION BOX - BLUE BOX", "address": {"city": "AKRON", "state": "OH", "street": "210 E INNOVATION WAY", "postcode": "44305"}}},
{"geometry": {"type": "Point", "coordinates": [-81.4752868665, 41.0579777194]}, "type": "Feature", "properties": {"collection_times": [{"days": "Mon-Sat", "time": "10:30am"}, {"days": "Sun", "time": "Closed"}], "id": "4430500039", "name": "USPS COLLECTION BOX - BLUE BOX", "address": {"city": "AKRON", "state": "OH", "street": "201 S MARTHA AVE", "postcode": "44305"}}},
{"geometry": {"type": "Point", "coordinates": [-81.4482934882, 41.0725964534]}, "type": "Feature", "properties": {"collection_times": [{"days": "Mon-Sat", "time": "1:30pm"}, {"days": "Sun", "time": "Closed"}], "id": "4430500041", "name": "USPS COLLECTION BOX - BLUE BOX", "address": {"city": "AKRON", "state": "OH", "street": "2077 NEWTON ST", "postcode": "44305"}}},
{"geometry": {"type": "Point", "coordinates": [-81.4261965656, 41.0626387971]}, "type": "Feature", "properties": {"collection_times": [{"days": "Mon-Fri", "time": "3:30pm"}, {"days": "Sat", "time": "10:30am"}, {"days": "Sun", "time": "Closed"}], "id": "4430500046", "name": "USPS COLLECTION BOX - BLUE BOX", "address": {"city": "AKRON", "state": "OH", "street": "300 KENNEDY RD", "postcode": "44305"}}},
{"geometry": {"type": "Point", "coordinates": [-81.4903045905, 41.0766379532]}, "type": "Feature", "properties": {"collection_times": [{"days": "Mon-Sat", "time": "1:00pm"}, {"days": "Sun", "time": "Closed"}], "id": "4430500052", "name": "USPS COLLECTION BOX - BLUE BOX", "address": {"city": "AKRON", "state": "OH", "street": "885 E BUCHTEL AVE", "postcode": "44305"}}},
{"geometry": {"type": "Point", "coordinates": [-81.4670981143, 41.0840397996]}, "type": "Feature", "properties": {"collection_times": [{"days": "Mon-Sat", "time": "9:00am"}, {"days": "Sun", "time": "Closed"}], "id": "4430500054", "name": "USPS COLLECTION BOX - BLUE BOX", "address": {"city": "AKRON", "state": "OH", "street": "780 BRITTAIN RD", "postcode": "44305"}}},
{"geometry": {"type": "Point", "coordinates": [-81.4404980845, 41.0729710344]}, "type": "Feature", "properties": {"collection_times": [{"days": "Mon-Sat", "time": "9:00am"}, {"days": "Sun", "time": "Closed"}], "id": "4430500055", "name": "USPS COLLECTION BOX - BLUE BOX", "address": {"city": "AKRON", "state": "OH", "street": "370 NEWTON CIR", "postcode": "44305"}}},
{"geometry": {"type": "Point", "coordinates": [-81.5003561928, 41.0468534123]}, "type": "Feature", "properties": {"collection_times": [{"days": "Mon-Fri", "time": "1:00pm"}, {"days": "Sat", "time": "2:00pm"}, {"days": "Sun", "time": "Closed"}], "id": "4430600005", "name": "USPS COLLECTION BOX - BLUE BOX", "address": {"city": "AKRON", "state": "OH", "street": "745 E ARCHWOOD AVE", "postcode": "44306"}}},
{"geometry": {"type": "Point", "coordinates": [-81.4913976446, 41.0329500956]}, "type": "Feature", "properties": {"collection_times": [{"days": "Mon-Sat", "time": "12:00pm"}, {"days": "Sun", "time": "Closed"}], "id": "4430600016", "name": "USPS COLLECTION BOX - BLUE BOX", "address": {"city": "AKRON", "state": "OH", "street": "1400 S ARLINGTON ST", "postcode": "44306"}}},
{"geometry": {"type": "Point", "coordinates": [-81.4913976446, 41.0329500956]}, "type": "Feature", "properties": {"collection_times": [{"days": "Mon-Sat", "time": "12:00pm"}, {"days": "Sun", "time": "Closed"}], "id": "4430600017", "name": "USPS COLLECTION BOX - BLUE BOX", "address": {"city": "AKRON", "state": "OH", "street": "1400 S ARLINGTON ST", "postcode": "44306"}}},
{"geometry": {"type": "Point", "coordinates": [-81.4752786936, 41.0291712943]}, "type": "Feature", "properties": {"collection_times": [{"days": "Mon-Fri", "time": "2:00pm"}, {"days": "Sat", "time": "10:00am"}, {"days": "Sun", "time": "Closed"}], "id": "4430600051", "name": "USPS COLLECTION BOX - BLUE BOX", "address": {"city": "AKRON", "state": "OH", "street": "1481 EXETER RD", "postcode": "44306"}}},
{"geometry": {"type": "Point", "coordinates": [-81.4912322511, 41.0383123413]}, "type": "Feature", "properties": {"collection_times": [{"days": "Mon-Fri", "time": "5:00pm"}, {"days": "Sat", "time": "3:00pm"}, {"days": "Sun", "time": "Closed"}], "id": "4430600052", "name": "USPS COLLECTION BOX - BLUE BOX", "address": {"city": "AKRON", "state": "OH", "street": "1237 S ARLINGTON ST", "postcode": "44306"}}},
{"geometry": {"type": "Point", "coordinates": [-81.4633454712, 41.0287642698]}, "type": "Feature", "properties": {"collection_times": [{"days": "Mon-Fri", "time": "1:00pm"}, {"days": "Sat-Sun", "time": "Closed"}], "id": "4430600055", "name": "USPS COLLECTION BOX - BLUE BOX", "address": {"city": "AKRON", "state": "OH", "street": "1210 MASSILLON RD", "postcode": "44306"}}},
{"geometry": {"type": "Point", "coordinates": [-81.4912274147, 41.0382038909]}, "type": "Feature", "properties": {"collection_times": [{"days": "Mon-Fri", "time": "5:00pm"}, {"days": "Sat", "time": "3:00pm"}, {"days": "Sun", "time": "Closed"}], "id": "4430600062", "name": "USPS COLLECTION BOX - PO LOBBY", "address": {"city": "AKRON", "state": "OH", "street": "1237 S ARLINGTON ST", "postcode": "44306"}}},
{"geometry": {"type": "Point", "coordinates": [-81.4893901632, 41.0276468906]}, "type": "Feature", "properties": {"collection_times": [{"days": "Mon-Fri", "time": "12:30pm"}, {"days": "Sat", "time": "10:00am"}, {"days": "Sun", "time": "Closed"}], "id": "4430600064", "name": "USPS COLLECTION BOX - BLUE BOX", "address": {"city": "AKRON", "state": "OH", "street": "1000 ARLINGTON CIR", "postcode": "44306"}}},
{"geometry": {"type": "Point", "coordinates": [-81.4912274147, 41.0382038909]}, "type": "Feature", "properties": {"collection_times": [{"days": "Mon-Fri", "time": "5:00pm"}, {"days": "Sat", "time": "3:00pm"}, {"days": "Sun", "time": "Closed"}], "id": "4430600065", "name": "USPS COLLECTION BOX - PO LOBBY", "address": {"city": "AKRON", "state": "OH", "street": "1237 S ARLINGTON ST", "postcode": "44306"}}},
{"geometry": {"type": "Point", "coordinates": [-81.4912322511, 41.0383123413]}, "type": "Feature", "properties": {"collection_times": [{"days": "Mon-Fri", "time": "5:00pm"}, {"days": "Sat", "time": "3:00pm"}, {"days": "Sun", "time": "Closed"}], "id": "4430600070", "name": "USPS COLLECTION BOX - BLUE BOX", "address": {"city": "AKRON", "state": "OH", "street": "1237 S ARLINGTON ST", "postcode": "44306"}}},
{"geometry": {"type": "Point", "coordinates": [-81.5287637694, 41.077852852]}, "type": "Feature", "properties": {"collection_times": [{"days": "Mon-Fri", "time": "11:00am"}, {"days": "Sat-Sun", "time": "Closed"}], "id": "4430700003", "name": "USPS COLLECTION BOX - BLUE BOX", "address": {"city": "AKRON", "state": "OH", "street": "157 W CEDAR ST", "postcode": "44307"}}},
{"geometry": {"type": "Point", "coordinates": [-81.5288300151, 41.077075648]}, "type": "Feature", "properties": {"collection_times": [{"days": "Mon-Sat", "time": "2:30pm"}, {"days": "Sun", "time": "Closed"}], "id": "4430700010", "name": "USPS COLLECTION BOX - BLUE BOX", "address": {"city": "AKRON", "state": "OH", "street": "414 PINE ST", "postcode": "44307"}}},
{"geometry": {"type": "Point", "coordinates": [-81.5287637694, 41.077852852]}, "type": "Feature", "properties": {"collection_times": [{"days": "Mon-Fri", "time": "11:00am"}, {"days": "Sat-Sun", "time": "Closed"}], "id": "4430700014", "name": "USPS COLLECTION BOX - BLUE BOX", "address": {"city": "AKRON", "state": "OH", "street": "157 W CEDAR ST", "postcode": "44307"}}},
{"geometry": {"type": "Point", "coordinates": [-81.5278647206, 41.076844971]}, "type": "Feature", "properties": {"collection_times": [{"days": "Mon-Sat", "time": "2:30pm"}, {"days": "Sun", "time": "Closed"}], "id": "4430700024", "name": "USPS COLLECTION BOX - BLUE BOX", "address": {"city": "AKRON", "state": "OH", "street": "400 LOCUST ST", "postcode": "44307"}}},
{"geometry": {"type": "Point", "coordinates": [-81.5326202156, 41.0777913382]}, "type": "Feature", "properties": {"collection_times": [{"days": "Mon-Fri", "time": "2:00pm"}, {"days": "Sat-Sun", "time": "Closed"}], "id": "4430700029", "name": "USPS COLLECTION BOX - BLUE BOX", "address": {"city": "AKRON", "state": "OH", "street": "400 WABASH AVE", "postcode": "44307"}}},
{"geometry": {"type": "Point", "coordinates": [-81.5207409417, 41.0812124555]}, "type": "Feature", "properties": {"collection_times": [{"days": "Mon-Fri", "time": "2:00pm"}, {"days": "Sat-Sun", "time": "Closed"}], "id": "4430800002", "name": "USPS COLLECTION BOX - BLUE BOX", "address": {"city": "AKRON", "state": "OH", "street": "50 W BOWERY ST", "postcode": "44308"}}},
{"geometry": {"type": "Point", "coordinates": [-81.5147468886, 41.0844975325]}, "type": "Feature", "properties": {"collection_times": [{"days": "Mon-Fri", "time": "2:15pm"}, {"days": "Sat-Sun", "time": "Closed"}], "id": "4430800009", "name": "USPS COLLECTION BOX - BLUE BOX", "address": {"city": "AKRON", "state": "OH", "street": "85 E MARKET ST", "postcode": "44308"}}},
{"geometry": {"type": "Point", "coordinates": [-81.5168170668, 41.0795468493]}, "type": "Feature", "properties": {"collection_times": [{"days": "Mon-Fri", "time": "2:15pm"}, {"days": "Sat-Sun", "time": "Closed"}], "id": "4430800010", "name": "USPS COLLECTION BOX - BLUE BOX", "address": {"city": "AKRON", "state": "OH", "street": "177 S BROADWAY ST", "postcode": "44308"}}},
{"geometry": {"type": "Point", "coordinates": [-81.5181788347, 41.0812311997]}, "type": "Feature", "properties": {"collection_times": [{"days": "Mon-Fri", "time": "2:00pm"}, {"days": "Sat-Sun", "time": "Closed"}], "id": "4430800012", "name": "USPS COLLECTION BOX - BLUE BOX", "address": {"city": "AKRON", "state": "OH", "street": "209 S HIGH ST", "postcode": "44308"}}},
{"geometry": {"type": "Point", "coordinates": [-81.5184720264, 41.0772850317]}, "type": "Feature", "properties": {"collection_times": [{"days": "Mon-Fri", "time": "2:00pm"}, {"days": "Sat-Sun", "time": "Closed"}], "id": "4430800013", "name": "USPS COLLECTION BOX - BLUE BOX", "address": {"city": "AKRON", "state": "OH", "street": "277 S BROADWAY ST", "postcode": "44308"}}},
{"geometry": {"type": "Point", "coordinates": [-81.5204487508, 41.0758808594]}, "type": "Feature", "properties": {"collection_times": [{"days": "Mon-Fri", "time": "2:00pm"}, {"days": "Sat-Sun", "time": "Closed"}], "id": "4430800019", "name": "USPS COLLECTION BOX - BLUE BOX", "address": {"city": "AKRON", "state": "OH", "street": "44 E EXCHANGE ST", "postcode": "44308"}}},
{"geometry": {"type": "Point", "coordinates": [-81.5166525553, 41.0821621567]}, "type": "Feature", "properties": {"collection_times": [{"days": "Mon-Fri", "time": "3:00pm"}, {"days": "Sat-Sun", "time": "Closed"}], "id": "4430800020", "name": "USPS COLLECTION BOX - BLUE BOX", "address": {"city": "AKRON", "state": "OH", "street": "68 E MILL ST", "postcode": "44308"}}},
{"geometry": {"type": "Point", "coordinates": [-81.5177066519, 41.0806671114]}, "type": "Feature", "properties": {"collection_times": [{"days": "Mon-Fri", "time": "2:15pm"}, {"days": "Sat-Sun", "time": "Closed"}], "id": "4430800025", "name": "USPS COLLECTION BOX - BLUE BOX", "address": {"city": "AKRON", "state": "OH", "street": "161 S HIGH ST", "postcode": "44308"}}},
{"geometry": {"type": "Point", "coordinates": [-81.5188849622, 41.0788440692]}, "type": "Feature", "properties": {"collection_times": [{"days": "Mon-Fri", "time": "3:00pm"}, {"days": "Sat-Sun", "time": "Closed"}], "id": "4430800027", "name": "USPS COLLECTION BOX - BLUE BOX", "address": {"city": "AKRON", "state": "OH", "street": "217 S HIGH ST", "postcode": "44308"}}},
{"geometry": {"type": "Point", "coordinates": [-81.5182307028, 41.082176567]}, "type": "Feature", "properties": {"collection_times": [{"days": "Mon-Fri", "time": "3:00pm"}, {"days": "Sat-Sun", "time": "Closed"}], "id": "4430800029", "name": "USPS COLLECTION BOX - BLUE BOX", "address": {"city": "AKRON", "state": "OH", "street": "106 S MAIN ST", "postcode": "44308"}}},
{"geometry": {"type": "Point", "coordinates": [-81.5163261388, 41.0864103772]}, "type": "Feature", "properties": {"collection_times": [{"days": "Mon-Fri", "time": "2:45pm"}, {"days": "Sat-Sun", "time": "Closed"}], "id": "4430800031", "name": "USPS COLLECTION BOX - BLUE BOX", "address": {"city": "AKRON", "state": "OH", "street": "47 N MAIN ST", "postcode": "44308"}}},
{"geometry": {"type": "Point", "coordinates": [-81.5162749037, 41.0850451449]}, "type": "Feature", "properties": {"collection_times": [{"days": "Mon-Fri", "time": "1:00pm"}, {"days": "Sat-Sun", "time": "Closed"}], "id": "4430800032", "name": "USPS COLLECTION BOX - BLUE BOX", "address": {"city": "AKRON", "state": "OH", "street": "37 E MARKET ST", "postcode": "44308"}}},
{"geometry": {"type": "Point", "coordinates": [-81.5186127985, 41.0815318544]}, "type": "Feature", "properties": {"collection_times": [{"days": "Mon-Fri", "time": "12:00pm"}, {"days": "Sat-Sun", "time": "Closed"}], "id": "4430800034", "name": "USPS COLLECTION BOX - BLUE BOX", "address": {"city": "AKRON", "state": "OH", "street": "137 S MAIN ST", "postcode": "44308"}}},
{"geometry": {"type": "Point", "coordinates": [-81.5175173785, 41.0835996667]}, "type": "Feature", "properties": {"collection_times": [{"days": "Mon-Fri", "time": "1:00pm"}, {"days": "Sat-Sun", "time": "Closed"}], "id": "4430800043", "name": "USPS COLLECTION BOX - BLUE BOX", "address": {"city": "AKRON", "state": "OH", "street": "50 S MAIN ST", "postcode": "44308"}}},
{"geometry": {"type": "Point", "coordinates": [-81.5183560964, 41.0817672632]}, "type": "Feature", "properties": {"collection_times": [{"days": "Mon-Fri", "time": "2:45pm"}, {"days": "Sat-Sun", "time": "Closed"}], "id": "4430800048", "name": "USPS COLLECTION BOX - BLUE BOX", "address": {"city": "AKRON", "state": "OH", "street": "121 S MAIN ST", "postcode": "44308"}}},
{"geometry": {"type": "Point", "coordinates": [-81.5198974919, 41.0797325738]}, "type": "Feature", "properties": {"collection_times": [{"days": "Mon-Fri", "time": "2:30pm"}, {"days": "Sat-Sun", "time": "Closed"}], "id": "4430800049", "name": "USPS COLLECTION BOX - BLUE BOX", "address": {"city": "AKRON", "state": "OH", "street": "209 S MAIN ST", "postcode": "44308"}}},
{"geometry": {"type": "Point", "coordinates": [-81.5181788347, 41.0812311997]}, "type": "Feature", "properties": {"collection_times": [{"days": "Mon-Fri", "time": "2:30pm"}, {"days": "Sat-Sun", "time": "Closed"}], "id": "4430800050", "name": "USPS COLLECTION BOX - EXPRESS", "address": {"city": "AKRON", "state": "OH", "street": "209 S MAIN ST", "postcode": "44308"}}},
{"geometry": {"type": "Point", "coordinates": [-81.5154424685, 41.0821446271]}, "type": "Feature", "properties": {"collection_times": [{"days": "Mon-Fri", "time": "2:15pm"}, {"days": "Sat-Sun", "time": "Closed"}], "id": "4430800054", "name": "USPS COLLECTION BOX - BLUE BOX", "address": {"city": "AKRON", "state": "OH", "street": "75 S BROADWAY ST", "postcode": "44308"}}},
{"geometry": {"type": "Point", "coordinates": [-81.5159508367, 41.0807657232]}, "type": "Feature", "properties": {"collection_times": [{"days": "Mon-Fri", "time": "2:15pm"}, {"days": "Sat-Sun", "time": "Closed"}], "id": "4430800056", "name": "USPS COLLECTION BOX - BLUE BOX", "address": {"city": "AKRON", "state": "OH", "street": "135 S BROADWAY ST", "postcode": "44308"}}},
{"geometry": {"type": "Point", "coordinates": [-81.5175173785, 41.0835996667]}, "type": "Feature", "properties": {"collection_times": [{"days": "Mon-Fri", "time": "1:00pm"}, {"days": "Sat-Sun", "time": "Closed"}], "id": "4430800059", "name": "USPS COLLECTION BOX - BLUE BOX", "address": {"city": "AKRON", "state": "OH", "street": "50 S MAIN ST", "postcode": "44308"}}},
{"geometry": {"type": "Point", "coordinates": [-81.5177113838, 41.0831501423]}, "type": "Feature", "properties": {"collection_times": [{"days": "Mon-Fri", "time": "1:00pm"}, {"days": "Sat-Sun", "time": "Closed"}], "id": "4430800060", "name": "USPS COLLECTION BOX - BLUE BOX", "address": {"city": "AKRON", "state": "OH", "street": "76 S MAIN ST", "postcode": "44308"}}},
{"geometry": {"type": "Point", "coordinates": [-81.5154424685, 41.0821446271]}, "type": "Feature", "properties": {"collection_times": [{"days": "Mon-Fri", "time": "2:15pm"}, {"days": "Sat-Sun", "time": "Closed"}], "id": "4430800062", "name": "USPS COLLECTION BOX - BLUE BOX", "address": {"city": "AKRON", "state": "OH", "street": "75 S BROADWAY ST", "postcode": "44308"}}},
{"geometry": {"type": "Point", "coordinates": [-81.5177066519, 41.0806671114]}, "type": "Feature", "properties": {"collection_times": [{"days": "Mon-Fri", "time": "2:15pm"}, {"days": "Sat-Sun", "time": "Closed"}], "id": "4430800066", "name": "USPS COLLECTION BOX - BLUE BOX", "address": {"city": "AKRON", "state": "OH", "street": "161 S HIGH ST", "postcode": "44308"}}},
{"geometry": {"type": "Point", "coordinates": [-81.5181788347, 41.0812311997]}, "type": "Feature", "properties": {"collection_times": [{"days": "Mon-Fri", "time": "3:00pm"}, {"days": "Sat-Sun", "time": "Closed"}], "id": "4430800067", "name": "USPS COLLECTION BOX - BLUE BOX", "address": {"city": "AKRON", "state": "OH", "street": "166 S HIGH ST", "postcode": "44308"}}},
{"geometry": {"type": "Point", "coordinates": [-81.5181788347, 41.0812311997]}, "type": "Feature", "properties": {"collection_times": [{"days": "Mon-Fri", "time": "3:00pm"}, {"days": "Sat-Sun", "time": "Closed"}], "id": "4430800068", "name": "USPS COLLECTION BOX - BLUE BOX", "address": {"city": "AKRON", "state": "OH", "street": "166 S HIGH ST", "postcode": "44308"}}},
{"geometry": {"type": "Point", "coordinates": [-81.5147468886, 41.0844975325]}, "type": "Feature", "properties": {"collection_times": [{"days": "Mon-Fri", "time": "2:15pm"}, {"days": "Sat-Sun", "time": "Closed"}], "id": "4430800072", "name": "USPS COLLECTION BOX - BLUE BOX", "address": {"city": "AKRON", "state": "OH", "street": "85 E MARKET ST", "postcode": "44308"}}},
{"geometry": {"type": "Point", "coordinates": [-81.5170007217, 41.0846847972]}, "type": "Feature", "properties": {"collection_times": [{"days": "Mon-Fri", "time": "2:00pm"}, {"days": "Sat-Sun", "time": "Closed"}], "id": "4430800074", "name": "USPS COLLECTION BOX - BLUE BOX", "address": {"city": "AKRON", "state": "OH", "street": "2 S MAIN ST", "postcode": "44308"}}},
{"geometry": {"type": "Point", "coordinates": [-81.5170007217, 41.0846847972]}, "type": "Feature", "properties": {"collection_times": [{"days": "Mon-Fri", "time": "2:00pm"}, {"days": "Sat-Sun", "time": "Closed"}], "id": "4430800075", "name": "USPS COLLECTION BOX - BLUE BOX", "address": {"city": "AKRON", "state": "OH", "street": "2 S MAIN ST", "postcode": "44308"}}},
{"geometry": {"type": "Point", "coordinates": [-81.5166525553, 41.0821621567]}, "type": "Feature", "properties": {"collection_times": [{"days": "Mon-Fri", "time": "3:00pm"}, {"days": "Sat-Sun", "time": "Closed"}], "id": "4430800078", "name": "USPS COLLECTION BOX - BLUE BOX", "address": {"city": "AKRON", "state": "OH", "street": "68 E MILL ST", "postcode": "44308"}}},
{"geometry": {"type": "Point", "coordinates": [-81.5175173785, 41.0835996667]}, "type": "Feature", "properties": {"collection_times": [{"days": "Mon-Fri", "time": "1:00pm"}, {"days": "Sat-Sun", "time": "Closed"}], "id": "4430800085", "name": "USPS COLLECTION BOX - BLUE BOX", "address": {"city": "AKRON", "state": "OH", "street": "50 S MAIN ST", "postcode": "44308"}}},
{"geometry": {"type": "Point", "coordinates": [-81.5162749037, 41.0850451449]}, "type": "Feature", "properties": {"collection_times": [{"days": "Mon-Fri", "time": "1:00pm"}, {"days": "Sat-Sun", "time": "Closed"}], "id": "4430800086", "name": "USPS COLLECTION BOX - BLUE BOX", "address": {"city": "AKRON", "state": "OH", "street": "37 E MARKET ST", "postcode": "44308"}}},
{"geometry": {"type": "Point", "coordinates": [-81.5177113838, 41.0831501423]}, "type": "Feature", "properties": {"collection_times": [{"days": "Mon-Fri", "time": "1:00pm"}, {"days": "Sat-Sun", "time": "Closed"}], "id": "4430800088", "name": "USPS COLLECTION BOX - BLUE BOX", "address": {"city": "AKRON", "state": "OH", "street": "76 S MAIN ST", "postcode": "44308"}}},
{"geometry": {"type": "Point", "coordinates": [-81.5144819058, 41.0820275142]}, "type": "Feature", "properties": {"collection_times": [{"days": "Mon-Fri", "time": "2:30pm"}, {"days": "Sat-Sun", "time": "Closed"}], "id": "4430800089", "name": "USPS COLLECTION BOX - BLUE BOX", "address": {"city": "AKRON", "state": "OH", "street": "80 S SUMMIT ST", "postcode": "44308"}}},
{"geometry": {"type": "Point", "coordinates": [-81.5191013606, 41.0763883488]}, "type": "Feature", "properties": {"collection_times": [{"days": "Mon-Fri", "time": "2:00pm"}, {"days": "Sat-Sun", "time": "Closed"}], "id": "4430800094", "name": "USPS COLLECTION BOX - BLUE BOX", "address": {"city": "AKRON", "state": "OH", "street": "333 S BROADWAY ST", "postcode": "44308"}}},
{"geometry": {"type": "Point", "coordinates": [-81.5174487669, 41.0810432923]}, "type": "Feature", "properties": {"collection_times": [{"days": "Mon-Fri", "time": "3:00pm"}, {"days": "Sat-Sun", "time": "Closed"}], "id": "4430800095", "name": "USPS COLLECTION BOX - BLUE BOX", "address": {"city": "AKRON", "state": "OH", "street": "146 S HIGH ST", "postcode": "44308"}}},
{"geometry": {"type": "Point", "coordinates": [-81.5214649126, 41.079149375]}, "type": "Feature", "properties": {"collection_times": [{"days": "Mon-Fri", "time": "1:00pm"}, {"days": "Sat-Sun", "time": "Closed"}], "id": "4430800097", "name": "USPS COLLECTION BOX - BLUE BOX", "address": {"city": "AKRON", "state": "OH", "street": "51 W STATE ST", "postcode": "44308"}}},
{"geometry": {"type": "Point", "coordinates": [-81.5181788347, 41.0812311997]}, "type": "Feature", "properties": {"collection_times": [{"days": "Mon-Fri", "time": "3:00pm"}, {"days": "Sat-Sun", "time": "Closed"}], "id": "4430800103", "name": "USPS COLLECTION BOX - EXPRESS", "address": {"city": "AKRON", "state": "OH", "street": "166 S HIGH ST", "postcode": "44308"}}},
{"geometry": {"type": "Point", "coordinates": [-81.5144819058, 41.0820275142]}, "type": "Feature", "properties": {"collection_times": [{"days": "Mon-Fri", "time": "2:30pm"}, {"days": "Sat-Sun", "time": "Closed"}], "id": "4430800104", "name": "USPS COLLECTION BOX - BLUE BOX", "address": {"city": "AKRON", "state": "OH", "street": "80 S SUMMIT ST", "postcode": "44308"}}},
{"geometry": {"type": "Point", "coordinates": [-81.5186127985, 41.0815318544]}, "type": "Feature", "properties": {"collection_times": [{"days": "Mon-Fri", "time": "12:00pm"}, {"days": "Sat-Sun", "time": "Closed"}], "id": "4430800105", "name": "USPS COLLECTION BOX - BLUE BOX", "address": {"city": "AKRON", "state": "OH", "street": "137 S MAIN ST", "postcode": "44308"}}},
{"geometry": {"type": "Point", "coordinates": [-81.515572594, 41.0777014333]}, "type": "Feature", "properties": {"collection_times": [{"days": "Mon-Fri", "time": "12:00pm"}, {"days": "Sat-Sun", "time": "Closed"}], "id": "4430800111", "name": "USPS COLLECTION BOX - BLUE BOX", "address": {"city": "AKRON", "state": "OH", "street": "150 UNIVERSITY AVE", "postcode": "44308"}}},
{"geometry": {"type": "Point", "coordinates": [-81.5205504853, 41.0644345485]}, "type": "Feature", "properties": {"collection_times": [{"days": "Mon-Fri", "time": "6:30pm"}, {"days": "Sat", "time": "5:00pm"}, {"days": "Sun", "time": "Closed"}], "id": "4430900003", "name": "USPS COLLECTION BOX - PO LOBBY", "address": {"city": "AKRON", "state": "OH", "street": "675 WOLF LEDGES PKWY", "postcode": "44309"}}},
{"geometry": {"type": "Point", "coordinates": [-81.5205504853, 41.0644345485]}, "type": "Feature", "properties": {"collection_times": [{"days": "Mon-Fri", "time": "6:30pm"}, {"days": "Sat", "time": "5:00pm"}, {"days": "Sun", "time": "Closed"}], "id": "4430900004", "name": "USPS COLLECTION BOX - PO LOBBY", "address": {"city": "AKRON", "state": "OH", "street": "675 WOLF LEDGES PKWY", "postcode": "44309"}}},
{"geometry": {"type": "Point", "coordinates": [-81.5198877201, 41.0637469208]}, "type": "Feature", "properties": {"collection_times": [{"days": "Mon-Fri", "time": "6:30pm"}, {"days": "Sat", "time": "5:00pm"}, {"days": "Sun", "time": "Closed"}], "id": "4430900006", "name": "USPS COLLECTION BOX - BLUE BOX", "address": {"city": "AKRON", "state": "OH", "street": "183 E VORIS ST", "postcode": "44309"}}},
{"geometry": {"type": "Point", "coordinates": [-81.5204382375, 41.0654935898]}, "type": "Feature", "properties": {"collection_times": [{"days": "Mon-Fri", "time": "6:30pm"}, {"days": "Sat", "time": "5:00pm"}, {"days": "Sun", "time": "Closed"}], "id": "4430900007", "name": "USPS COLLECTION BOX - EXPRESS", "address": {"city": "AKRON", "state": "OH", "street": "183 E VORIS ST", "postcode": "44309"}}},
{"geometry": {"type": "Point", "coordinates": [-81.5198877201, 41.0637469208]}, "type": "Feature", "properties": {"collection_times": [{"days": "Mon-Fri", "time": "6:30pm"}, {"days": "Sat", "time": "5:00pm"}, {"days": "Sun", "time": "Closed"}], "id": "4430900008", "name": "USPS COLLECTION BOX - BLUE BOX", "address": {"city": "AKRON", "state": "OH", "street": "183 E VORIS ST", "postcode": "44309"}}},
{"geometry": {"type": "Point", "coordinates": [-81.5204382375, 41.0654935898]}, "type": "Feature", "properties": {"collection_times": [{"days": "Mon-Fri", "time": "6:30pm"}, {"days": "Sat", "time": "5:00pm"}, {"days": "Sun", "time": "Closed"}], "id": "4430900009", "name": "USPS COLLECTION BOX - EXPRESS", "address": {"city": "AKRON", "state": "OH", "street": "183 E VORIS ST", "postcode": "44309"}}},
{"geometry": {"type": "Point", "coordinates": [-81.5205504853, 41.0644345485]}, "type": "Feature", "properties": {"collection_times": [{"days": "Mon-Fri", "time": "6:30pm"}, {"days": "Sat", "time": "5:00pm"}, {"days": "Sun", "time": "Closed"}], "id": "4430900010", "name": "USPS COLLECTION BOX - APC", "address": {"city": "AKRON", "state": "OH", "street": "675 WOLF LEDGES PKWY", "postcode": "44309"}}},
{"geometry": {"type": "Point", "coordinates": [-81.4663554117, 41.1036604293]}, "type": "Feature", "properties": {"collection_times": [{"days": "Mon-Sat", "time": "9:00am"}, {"days": "Sun", "time": "Closed"}], "id": "4431000001", "name": "USPS COLLECTION BOX - BLUE BOX", "address": {"city": "AKRON", "state": "OH", "street": "1510 BRITTAIN RD", "postcode": "44310"}}},
{"geometry": {"type": "Point", "coordinates": [-81.4701571743, 41.1059145652]}, "type": "Feature", "properties": {"collection_times": [{"days": "Mon-Sat", "time": "11:00am"}, {"days": "Sun", "time": "Closed"}], "id": "4431000006", "name": "USPS COLLECTION BOX - BLUE BOX", "address": {"city": "AKRON", "state": "OH", "street": "1435 BETANA AVE", "postcode": "44310"}}},
{"geometry": {"type": "Point", "coordinates": [-81.4660598465, 41.1114820095]}, "type": "Feature", "properties": {"collection_times": [{"days": "Mon-Sat", "time": "11:00am"}, {"days": "Sun", "time": "Closed"}], "id": "4431000022", "name": "USPS COLLECTION BOX - BLUE BOX", "address": {"city": "AKRON", "state": "OH", "street": "2000 BRITTAIN RD", "postcode": "44310"}}},
{"geometry": {"type": "Point", "coordinates": [-81.494790022, 41.0946082197]}, "type": "Feature", "properties": {"collection_times": [{"days": "Mon-Sat", "time": "11:00am"}, {"days": "Sun", "time": "Closed"}], "id": "4431000036", "name": "USPS COLLECTION BOX - BLUE BOX", "address": {"city": "AKRON", "state": "OH", "street": "694 DAMON ST", "postcode": "44310"}}},
{"geometry": {"type": "Point", "coordinates": [-81.4949346919, 41.0978188334]}, "type": "Feature", "properties": {"collection_times": [{"days": "Mon-Sat", "time": "11:45am"}, {"days": "Sun", "time": "Closed"}], "id": "4431000042", "name": "USPS COLLECTION BOX - BLUE BOX", "address": {"city": "AKRON", "state": "OH", "street": "601 FOUSE AVE", "postcode": "44310"}}},
{"geometry": {"type": "Point", "coordinates": [-81.5038831147, 41.0958742034]}, "type": "Feature", "properties": {"collection_times": [{"days": "Mon-Sat", "time": "12:30pm"}, {"days": "Sun", "time": "Closed"}], "id": "4431000047", "name": "USPS COLLECTION BOX - BLUE BOX", "address": {"city": "AKRON", "state": "OH", "street": "406 ZELLER AVE", "postcode": "44310"}}},
{"geometry": {"type": "Point", "coordinates": [-81.4884284176, 41.0988361781]}, "type": "Feature", "properties": {"collection_times": [{"days": "Mon-Fri", "time": "3:30pm"}, {"days": "Sat", "time": "9:30am"}, {"days": "Sun", "time": "Closed"}], "id": "4431000051", "name": "USPS COLLECTION BOX - BLUE BOX", "address": {"city": "AKRON", "state": "OH", "street": "1024 HOME AVE", "postcode": "44310"}}},
{"geometry": {"type": "Point", "coordinates": [-81.4747616926, 41.1108822493]}, "type": "Feature", "properties": {"collection_times": [{"days": "Mon-Sat", "time": "10:00am"}, {"days": "Sun", "time": "Closed"}], "id": "4431000058", "name": "USPS COLLECTION BOX - BLUE BOX", "address": {"city": "AKRON", "state": "OH", "street": "1101 INDEPENDENCE AVE", "postcode": "44310"}}},
{"geometry": {"type": "Point", "coordinates": [-81.4747534469, 41.110939072]}, "type": "Feature", "properties": {"collection_times": [{"days": "Mon-Sat", "time": "10:00am"}, {"days": "Sun", "time": "Closed"}], "id": "4431000059", "name": "USPS COLLECTION BOX - BLUE BOX", "address": {"city": "AKRON", "state": "OH", "street": "1111 INDEPENDENCE AVE", "postcode": "44310"}}},
{"geometry": {"type": "Point", "coordinates": [-81.4804283128, 41.1048345243]}, "type": "Feature", "properties": {"collection_times": [{"days": "Mon-Fri", "time": "3:45pm"}, {"days": "Sat", "time": "10:00am"}, {"days": "Sun", "time": "Closed"}], "id": "4431000061", "name": "USPS COLLECTION BOX - BLUE BOX", "address": {"city": "AKRON", "state": "OH", "street": "1498 INDUSTRIAL PKWY", "postcode": "44310"}}},
{"geometry": {"type": "Point", "coordinates": [-81.5103510131, 41.1133439869]}, "type": "Feature", "properties": {"collection_times": [{"days": "Mon-Sat", "time": "9:00am"}, {"days": "Sun", "time": "Closed"}], "id": "4431000065", "name": "USPS COLLECTION BOX - BLUE BOX", "address": {"city": "AKRON", "state": "OH", "street": "1025 N MAIN ST", "postcode": "44310"}}},
{"geometry": {"type": "Point", "coordinates": [-81.5109720666, 41.1014883721]}, "type": "Feature", "properties": {"collection_times": [{"days": "Mon-Sat", "time": "9:00am"}, {"days": "Sun", "time": "Closed"}], "id": "4431000067", "name": "USPS COLLECTION BOX - BLUE BOX", "address": {"city": "AKRON", "state": "OH", "street": "600 N MAIN ST", "postcode": "44310"}}},
{"geometry": {"type": "Point", "coordinates": [-81.5031420882, 41.1000227113]}, "type": "Feature", "properties": {"collection_times": [{"days": "Mon-Sat", "time": "11:00am"}, {"days": "Sun", "time": "Closed"}], "id": "4431000072", "name": "USPS COLLECTION BOX - BLUE BOX", "address": {"city": "AKRON", "state": "OH", "street": "513 MARVIEW AVE", "postcode": "44310"}}},
{"geometry": {"type": "Point", "coordinates": [-81.4985385451, 41.1137296401]}, "type": "Feature", "properties": {"collection_times": [{"days": "Mon-Fri", "time": "5:00pm"}, {"days": "Sat", "time": "3:00pm"}, {"days": "Sun", "time": "Closed"}], "id": "4431000076", "name": "USPS COLLECTION BOX - BLUE BOX", "address": {"city": "AKRON", "state": "OH", "street": "574 E CUYAHOGA FALLS AVE", "postcode": "44310"}}},
{"geometry": {"type": "Point", "coordinates": [-81.4683961904, 41.1019166033]}, "type": "Feature", "properties": {"collection_times": [{"days": "Mon-Fri", "time": "3:45pm"}, {"days": "Sat", "time": "9:00am"}, {"days": "Sun", "time": "Closed"}], "id": "4431000080", "name": "USPS COLLECTION BOX - BLUE BOX", "address": {"city": "AKRON", "state": "OH", "street": "1288 E TALLMADGE AVE", "postcode": "44310"}}},
{"geometry": {"type": "Point", "coordinates": [-81.4958053497, 41.1022833206]}, "type": "Feature", "properties": {"collection_times": [{"days": "Mon-Fri", "time": "3:30pm"}, {"days": "Sat", "time": "9:00am"}, {"days": "Sun", "time": "Closed"}], "id": "4431000081", "name": "USPS COLLECTION BOX - BLUE BOX", "address": {"city": "AKRON", "state": "OH", "street": "530 E TALLMADGE AVE", "postcode": "44310"}}},
{"geometry": {"type": "Point", "coordinates": [-81.4660598465, 41.1114820095]}, "type": "Feature", "properties": {"collection_times": [{"days": "Mon-Sat", "time": "11:00am"}, {"days": "Sun", "time": "Closed"}], "id": "4431000085", "name": "USPS COLLECTION BOX - BLUE BOX", "address": {"city": "AKRON", "state": "OH", "street": "2000 BRITTAIN RD", "postcode": "44310"}}},
{"geometry": {"type": "Point", "coordinates": [-81.4804283128, 41.1048345243]}, "type": "Feature", "properties": {"collection_times": [{"days": "Mon-Fri", "time": "3:45pm"}, {"days": "Sat", "time": "10:00am"}, {"days": "Sun", "time": "Closed"}], "id": "4431000087", "name": "USPS COLLECTION BOX - BLUE BOX", "address": {"city": "AKRON", "state": "OH", "street": "1498 INDUSTRIAL PKWY", "postcode": "44310"}}},
{"geometry": {"type": "Point", "coordinates": [-81.5122106246, 41.0969150528]}, "type": "Feature", "properties": {"collection_times": [{"days": "Mon-Fri", "time": "4:00pm"}, {"days": "Sat", "time": "10:00am"}, {"days": "Sun", "time": "Closed"}], "id": "4431000089", "name": "USPS COLLECTION BOX - BLUE BOX", "address": {"city": "AKRON", "state": "OH", "street": "444 N MAIN ST", "postcode": "44310"}}},
{"geometry": {"type": "Point", "coordinates": [-81.4985385451, 41.1137296401]}, "type": "Feature", "properties": {"collection_times": [{"days": "Mon-Fri", "time": "5:00pm"}, {"days": "Sat", "time": "3:00pm"}, {"days": "Sun", "time": "Closed"}], "id": "4431000090", "name": "USPS COLLECTION BOX - PO LOBBY", "address": {"city": "AKRON", "state": "OH", "street": "574 E CUYAHOGA FALLS AVE", "postcode": "44310"}}},
{"geometry": {"type": "Point", "coordinates": [-81.4823451676, 41.1021154887]}, "type": "Feature", "properties": {"collection_times": [{"days": "Mon-Sat", "time": "9:30am"}, {"days": "Sun", "time": "Closed"}], "id": "4431000093", "name": "USPS COLLECTION BOX - BLUE BOX", "address": {"city": "AKRON", "state": "OH", "street": "904 E TALLMADGE AVE", "postcode": "44310"}}},
{"geometry": {"type": "Point", "coordinates": [-81.4776702976, 41.1020269228]}, "type": "Feature", "properties": {"collection_times": [{"days": "Mon-Fri", "time": "3:45pm"}, {"days": "Sat", "time": "9:00am"}, {"days": "Sun", "time": "Closed"}], "id": "4431000097", "name": "USPS COLLECTION BOX - BLUE BOX", "address": {"city": "AKRON", "state": "OH", "street": "1030 E TALLMADGE AVE", "postcode": "44310"}}},
{"geometry": {"type": "Point", "coordinates": [-81.4776702976, 41.1020269228]}, "type": "Feature", "properties": {"collection_times": [{"days": "Mon-Fri", "time": "3:45pm"}, {"days": "Sat", "time": "9:00am"}, {"days": "Sun", "time": "Closed"}], "id": "4431000100", "name": "USPS COLLECTION BOX - BLUE BOX", "address": {"city": "AKRON", "state": "OH", "street": "1030 E TALLMADGE AVE", "postcode": "44310"}}},
{"geometry": {"type": "Point", "coordinates": [-81.4985385451, 41.1137296401]}, "type": "Feature", "properties": {"collection_times": [{"days": "Mon-Fri", "time": "5:00pm"}, {"days": "Sat", "time": "3:00pm"}, {"days": "Sun", "time": "Closed"}], "id": "4431000101", "name": "USPS COLLECTION BOX - BLUE BOX", "address": {"city": "AKRON", "state": "OH", "street": "574 E CUYAHOGA FALLS AVE", "postcode": "44310"}}},
{"geometry": {"type": "Point", "coordinates": [-81.5194075236, 41.0596087004]}, "type": "Feature", "properties": {"collection_times": [{"days": "Mon-Fri", "time": "10:00am"}, {"days": "Sat-Sun", "time": "Closed"}], "id": "4431100001", "name": "USPS COLLECTION BOX - BLUE BOX", "address": {"city": "AKRON", "state": "OH", "street": "205 E CROSIER ST", "postcode": "44311"}}},
{"geometry": {"type": "Point", "coordinates": [-81.5204860326, 41.0646723838]}, "type": "Feature", "properties": {"collection_times": [{"days": "Mon-Fri", "time": "2:15pm"}, {"days": "Sat-Sun", "time": "Closed"}], "id": "4431100002", "name": "USPS COLLECTION BOX - BLUE BOX", "address": {"city": "AKRON", "state": "OH", "street": "445 S MAIN ST", "postcode": "44311"}}},
{"geometry": {"type": "Point", "coordinates": [-81.5246604146, 41.0648965872]}, "type": "Feature", "properties": {"collection_times": [{"days": "Mon-Fri", "time": "11:00am"}, {"days": "Sat-Sun", "time": "Closed"}], "id": "4431100006", "name": "USPS COLLECTION BOX - BLUE BOX", "address": {"city": "AKRON", "state": "OH", "street": "773 S BROADWAY ST", "postcode": "44311"}}},
{"geometry": {"type": "Point", "coordinates": [-81.5247396766, 41.0598902833]}, "type": "Feature", "properties": {"collection_times": [{"days": "Mon-Fri", "time": "10:00am"}, {"days": "Sat-Sun", "time": "Closed"}], "id": "4431100011", "name": "USPS COLLECTION BOX - BLUE BOX", "address": {"city": "AKRON", "state": "OH", "street": "998 SWEITZER AVE", "postcode": "44311"}}},
{"geometry": {"type": "Point", "coordinates": [-81.5180047576, 41.0704321504]}, "type": "Feature", "properties": {"collection_times": [{"days": "Mon-Fri", "time": "11:00am"}, {"days": "Sat-Sun", "time": "Closed"}], "id": "4431100015", "name": "USPS COLLECTION BOX - BLUE BOX", "address": {"city": "AKRON", "state": "OH", "street": "470 GRANT ST", "postcode": "44311"}}},
{"geometry": {"type": "Point", "coordinates": [-81.5189545385, 41.0672118777]}, "type": "Feature", "properties": {"collection_times": [{"days": "Mon-Fri", "time": "12:00pm"}, {"days": "Sat-Sun", "time": "Closed"}], "id": "4431100016", "name": "USPS COLLECTION BOX - BLUE BOX", "address": {"city": "AKRON", "state": "OH", "street": "319 PALMYRA AVE", "postcode": "44311"}}},
{"geometry": {"type": "Point", "coordinates": [-81.5200453618, 41.0725046945]}, "type": "Feature", "properties": {"collection_times": [{"days": "Mon-Fri", "time": "3:15pm"}, {"days": "Sat-Sun", "time": "Closed"}], "id": "4431100025", "name": "USPS COLLECTION BOX - BLUE BOX", "address": {"city": "AKRON", "state": "OH", "street": "411 WOLF LEDGES PKWY", "postcode": "44311"}}},
{"geometry": {"type": "Point", "coordinates": [-81.5200453618, 41.0725046945]}, "type": "Feature", "properties": {"collection_times": [{"days": "Mon-Fri", "time": "3:15pm"}, {"days": "Sat-Sun", "time": "Closed"}], "id": "4431100027", "name": "USPS COLLECTION BOX - BLUE BOX", "address": {"city": "AKRON", "state": "OH", "street": "411 WOLF LEDGES PKWY", "postcode": "44311"}}},
{"geometry": {"type": "Point", "coordinates": [-81.5249333483, 41.072462108]}, "type": "Feature", "properties": {"collection_times": [{"days": "Mon-Fri", "time": "2:30pm"}, {"days": "Sat-Sun", "time": "Closed"}], "id": "4431100028", "name": "USPS COLLECTION BOX - BLUE BOX", "address": {"city": "AKRON", "state": "OH", "street": "520 S MAIN ST", "postcode": "44311"}}},
{"geometry": {"type": "Point", "coordinates": [-81.5249333483, 41.072462108]}, "type": "Feature", "properties": {"collection_times": [{"days": "Mon-Fri", "time": "2:30pm"}, {"days": "Sat-Sun", "time": "Closed"}], "id": "4431100029", "name": "USPS COLLECTION BOX - BLUE BOX", "address": {"city": "AKRON", "state": "OH", "street": "520 S MAIN ST", "postcode": "44311"}}},
{"geometry": {"type": "Point", "coordinates": [-81.5233966846, 41.0747428529]}, "type": "Feature", "properties": {"collection_times": [{"days": "Mon-Fri", "time": "9:00am"}, {"days": "Sat-Sun", "time": "Closed"}], "id": "4431100033", "name": "USPS COLLECTION BOX - BLUE BOX", "address": {"city": "AKRON", "state": "OH", "street": "388 S MAIN ST", "postcode": "44311"}}},
{"geometry": {"type": "Point", "coordinates": [-81.5233966846, 41.0747428529]}, "type": "Feature", "properties": {"collection_times": [{"days": "Mon-Fri", "time": "9:00am"}, {"days": "Sat-Sun", "time": "Closed"}], "id": "4431100034", "name": "USPS COLLECTION BOX - BLUE BOX", "address": {"city": "AKRON", "state": "OH", "street": "388 S MAIN ST", "postcode": "44311"}}},
{"geometry": {"type": "Point", "coordinates": [-81.5257945424, 41.070705414]}, "type": "Feature", "properties": {"collection_times": [{"days": "Mon-Fri", "time": "2:00pm"}, {"days": "Sat-Sun", "time": "Closed"}], "id": "4431100036", "name": "USPS COLLECTION BOX - BLUE BOX", "address": {"city": "AKRON", "state": "OH", "street": "1 GOJO PLZ", "postcode": "44311"}}},
{"geometry": {"type": "Point", "coordinates": [-81.5243675787, 41.0675899843]}, "type": "Feature", "properties": {"collection_times": [{"days": "Mon-Fri", "time": "9:00am"}, {"days": "Sat-Sun", "time": "Closed"}], "id": "4431100037", "name": "USPS COLLECTION BOX - BLUE BOX", "address": {"city": "AKRON", "state": "OH", "street": "631 S BROADWAY ST", "postcode": "44311"}}},
{"geometry": {"type": "Point", "coordinates": [-81.4274326874, 41.0313779432]}, "type": "Feature", "properties": {"collection_times": [{"days": "Mon-Sat", "time": "9:00am"}, {"days": "Sun", "time": "Closed"}], "id": "4431200001", "name": "USPS COLLECTION BOX - BLUE BOX", "address": {"city": "AKRON", "state": "OH", "street": "2801 E WATERLOO RD", "postcode": "44312"}}},
{"geometry": {"type": "Point", "coordinates": [-81.4141149354, 41.0275297776]}, "type": "Feature", "properties": {"collection_times": [{"days": "Mon-Sat", "time": "10:30am"}, {"days": "Sun", "time": "Closed"}], "id": "4431200002", "name": "USPS COLLECTION BOX - BLUE BOX", "address": {"city": "AKRON", "state": "OH", "street": "3271 E WATERLOO RD", "postcode": "44312"}}},
{"geometry": {"type": "Point", "coordinates": [-81.430039929, 41.0447974297]}, "type": "Feature", "properties": {"collection_times": [{"days": "Mon-Sat", "time": "11:30am"}, {"days": "Sun", "time": "Closed"}], "id": "4431200003", "name": "USPS COLLECTION BOX - BLUE BOX", "address": {"city": "AKRON", "state": "OH", "street": "2790 ALBRECHT AVE", "postcode": "44312"}}},
{"geometry": {"type": "Point", "coordinates": [-81.4923120718, 40.9930335113]}, "type": "Feature", "properties": {"collection_times": [{"days": "Mon-Sat", "time": "9:00am"}, {"days": "Sun", "time": "Closed"}], "id": "4431200006", "name": "USPS COLLECTION BOX - BLUE BOX", "address": {"city": "AKRON", "state": "OH", "street": "2876 S ARLINGTON RD", "postcode": "44312"}}},
{"geometry": {"type": "Point", "coordinates": [-81.4581269237, 41.04885143]}, "type": "Feature", "properties": {"collection_times": [{"days": "Mon-Sat", "time": "9:45am"}, {"days": "Sun", "time": "Closed"}], "id": "4431200008", "name": "USPS COLLECTION BOX - BLUE BOX", "address": {"city": "AKRON", "state": "OH", "street": "1926 BAKER AVE", "postcode": "44312"}}},
{"geometry": {"type": "Point", "coordinates": [-81.4222736106, 41.0258104319]}, "type": "Feature", "properties": {"collection_times": [{"days": "Mon-Sat", "time": "10:00am"}, {"days": "Sun", "time": "Closed"}], "id": "4431200013", "name": "USPS COLLECTION BOX - BLUE BOX", "address": {"city": "AKRON", "state": "OH", "street": "1500 CANTON RD", "postcode": "44312"}}},
{"geometry": {"type": "Point", "coordinates": [-81.4375883901, 41.0502189306]}, "type": "Feature", "properties": {"collection_times": [{"days": "Mon-Sat", "time": "8:00am"}, {"days": "Sun", "time": "Closed"}], "id": "4431200014", "name": "USPS COLLECTION BOX - BLUE BOX", "address": {"city": "AKRON", "state": "OH", "street": "480 CANTON RD", "postcode": "44312"}}},
{"geometry": {"type": "Point", "coordinates": [-81.4291018425, 41.0563028886]}, "type": "Feature", "properties": {"collection_times": [{"days": "Mon-Sat", "time": "2:00pm"}, {"days": "Sun", "time": "Closed"}], "id": "4431200017", "name": "USPS COLLECTION BOX - BLUE BOX", "address": {"city": "AKRON", "state": "OH", "street": "52 HIGHGROVE BLVD", "postcode": "44312"}}},
{"geometry": {"type": "Point", "coordinates": [-81.4620345746, 40.9951663275]}, "type": "Feature", "properties": {"collection_times": [{"days": "Mon-Sat", "time": "9:30am"}, {"days": "Sun", "time": "Closed"}], "id": "4431200026", "name": "USPS COLLECTION BOX - BLUE BOX", "address": {"city": "AKRON", "state": "OH", "street": "2425 MASSILLON RD", "postcode": "44312"}}},
{"geometry": {"type": "Point", "coordinates": [-81.4387855446, 40.9756629418]}, "type": "Feature", "properties": {"collection_times": [{"days": "Mon-Sat", "time": "12:30pm"}, {"days": "Sun", "time": "Closed"}], "id": "4431200029", "name": "USPS COLLECTION BOX - BLUE BOX", "address": {"city": "AKRON", "state": "OH", "street": "2361 E TURKEYFOOT LAKE RD", "postcode": "44312"}}},
{"geometry": {"type": "Point", "coordinates": [-81.4466079041, 41.0276833519]}, "type": "Feature", "properties": {"collection_times": [{"days": "Mon-Fri", "time": "5:00pm"}, {"days": "Sat", "time": "3:00pm"}, {"days": "Sun", "time": "Closed"}], "id": "4431200034", "name": "USPS COLLECTION BOX - EXPRESS", "address": {"city": "AKRON", "state": "OH", "street": "2390 WEDGEWOOD DR", "postcode": "44312"}}},
{"geometry": {"type": "Point", "coordinates": [-81.4425904343, 41.0497026921]}, "type": "Feature", "properties": {"collection_times": [{"days": "Mon-Fri", "time": "4:45pm"}, {"days": "Sat", "time": "3:00pm"}, {"days": "Sun", "time": "Closed"}], "id": "4431200035", "name": "USPS COLLECTION BOX - BLUE BOX", "address": {"city": "AKRON", "state": "OH", "street": "2420 WEDGEWOOD DR", "postcode": "44312"}}},
{"geometry": {"type": "Point", "coordinates": [-81.4399266131, 41.0498932652]}, "type": "Feature", "properties": {"collection_times": [{"days": "Mon-Sat", "time": "8:15am"}, {"days": "Sun", "time": "Closed"}], "id": "4431200037", "name": "USPS COLLECTION BOX - BLUE BOX", "address": {"city": "AKRON", "state": "OH", "street": "2525 WEDGEWOOD DR", "postcode": "44312"}}},
{"geometry": {"type": "Point", "coordinates": [-81.44376107, 41.0497280026]}, "type": "Feature", "properties": {"collection_times": [{"days": "Mon-Fri", "time": "5:00pm"}, {"days": "Sat", "time": "3:00pm"}, {"days": "Sun", "time": "Closed"}], "id": "4431200038", "name": "USPS COLLECTION BOX - BLUE BOX", "address": {"city": "AKRON", "state": "OH", "street": "2390 WEDGEWOOD DR", "postcode": "44312"}}},
{"geometry": {"type": "Point", "coordinates": [-81.4582061819, 41.0056485857]}, "type": "Feature", "properties": {"collection_times": [{"days": "Mon-Sat", "time": "9:30am"}, {"days": "Sun", "time": "Closed"}], "id": "4431200042", "name": "USPS COLLECTION BOX - BLUE BOX", "address": {"city": "AKRON", "state": "OH", "street": "2140 MARTIN CREST DR", "postcode": "44312"}}},
{"geometry": {"type": "Point", "coordinates": [-81.4367509634, 41.0442719358]}, "type": "Feature", "properties": {"collection_times": [{"days": "Mon-Sat", "time": "9:30am"}, {"days": "Sun", "time": "Closed"}], "id": "4431200044", "name": "USPS COLLECTION BOX - BLUE BOX", "address": {"city": "AKRON", "state": "OH", "street": "711 CANTON RD", "postcode": "44312"}}},
{"geometry": {"type": "Point", "coordinates": [-81.44376107, 41.0497280026]}, "type": "Feature", "properties": {"collection_times": [{"days": "Mon-Fri", "time": "5:00pm"}, {"days": "Sat", "time": "3:00pm"}, {"days": "Sun", "time": "Closed"}], "id": "4431200048", "name": "USPS COLLECTION BOX - BLUE BOX", "address": {"city": "AKRON", "state": "OH", "street": "2390 WEDGEWOOD DR", "postcode": "44312"}}},
{"geometry": {"type": "Point", "coordinates": [-81.44376107, 41.0497280026]}, "type": "Feature", "properties": {"collection_times": [{"days": "Mon-Fri", "time": "5:00pm"}, {"days": "Sat", "time": "3:00pm"}, {"days": "Sun", "time": "Closed"}], "id": "4431200050", "name": "USPS COLLECTION BOX - PO LOBBY", "address": {"city": "AKRON", "state": "OH", "street": "2390 WEDGEWOOD DR", "postcode": "44312"}}},
{"geometry": {"type": "Point", "coordinates": [-81.4464617653, 41.0574775668]}, "type": "Feature", "properties": {"collection_times": [{"days": "Mon-Sat", "time": "8:15am"}, {"days": "Sun", "time": "Closed"}], "id": "4431200051", "name": "USPS COLLECTION BOX - BLUE BOX", "address": {"city": "AKRON", "state": "OH", "street": "2331 E MARKET ST", "postcode": "44312"}}},
{"geometry": {"type": "Point", "coordinates": [-81.4504996215, 41.0323022005]}, "type": "Feature", "properties": {"collection_times": [{"days": "Mon-Sat", "time": "9:45am"}, {"days": "Sun", "time": "Closed"}], "id": "4431200064", "name": "USPS COLLECTION BOX - BLUE BOX", "address": {"city": "AKRON", "state": "OH", "street": "2215 E WATERLOO RD", "postcode": "44312"}}},
{"geometry": {"type": "Point", "coordinates": [-81.4932679027, 40.9763147522]}, "type": "Feature", "properties": {"collection_times": [{"days": "Mon-Sat", "time": "10:00am"}, {"days": "Sun", "time": "Closed"}], "id": "4431200065", "name": "USPS COLLECTION BOX - BLUE BOX", "address": {"city": "AKRON", "state": "OH", "street": "3465 S ARLINGTON RD", "postcode": "44312"}}},
{"geometry": {"type": "Point", "coordinates": [-81.4425904343, 41.0497026921]}, "type": "Feature", "properties": {"collection_times": [{"days": "Mon-Fri", "time": "4:45pm"}, {"days": "Sat", "time": "3:00pm"}, {"days": "Sun", "time": "Closed"}], "id": "4431200068", "name": "USPS COLLECTION BOX - BLUE BOX", "address": {"city": "AKRON", "state": "OH", "street": "2420 WEDGEWOOD DR", "postcode": "44312"}}},
{"geometry": {"type": "Point", "coordinates": [-81.5796463834, 41.1423513237]}, "type": "Feature", "properties": {"collection_times": [{"days": "Mon-Sat", "time": "10:30am"}, {"days": "Sun", "time": "Closed"}], "id": "4431300003", "name": "USPS COLLECTION BOX - BLUE BOX", "address": {"city": "AKRON", "state": "OH", "street": "1840 BROOKWOOD DR", "postcode": "44313"}}},
{"geometry": {"type": "Point", "coordinates": [-81.5983347691, 41.1225852623]}, "type": "Feature", "properties": {"collection_times": [{"days": "Mon-Fri", "time": "4:15pm"}, {"days": "Sat", "time": "9:30am"}, {"days": "Sun", "time": "Closed"}], "id": "4431300005", "name": "USPS COLLECTION BOX - BLUE BOX", "address": {"city": "AKRON", "state": "OH", "street": "2603 W MARKET ST", "postcode": "44313"}}},
{"geometry": {"type": "Point", "coordinates": [-81.5871853808, 41.1181361537]}, "type": "Feature", "properties": {"collection_times": [{"days": "Mon-Fri", "time": "3:30pm"}, {"days": "Sat", "time": "11:00am"}, {"days": "Sun", "time": "Closed"}], "id": "4431300010", "name": "USPS COLLECTION BOX - BLUE BOX", "address": {"city": "AKRON", "state": "OH", "street": "2108 BRAEWICK CIR", "postcode": "44313"}}},
{"geometry": {"type": "Point", "coordinates": [-81.5620333073, 41.1218648403]}, "type": "Feature", "properties": {"collection_times": [{"days": "Mon-Sat", "time": "9:00am"}, {"days": "Sun", "time": "Closed"}], "id": "4431300012", "name": "USPS COLLECTION BOX - BLUE BOX", "address": {"city": "AKRON", "state": "OH", "street": "594 CASTLE BLVD", "postcode": "44313"}}},
{"geometry": {"type": "Point", "coordinates": [-81.5621823602, 41.1013405023]}, "type": "Feature", "properties": {"collection_times": [{"days": "Mon-Sat", "time": "11:00am"}, {"days": "Sun", "time": "Closed"}], "id": "4431300016", "name": "USPS COLLECTION BOX - BLUE BOX", "address": {"city": "AKRON", "state": "OH", "street": "1432 JEFFERSON AVE", "postcode": "44313"}}},
{"geometry": {"type": "Point", "coordinates": [-81.5805134923, 41.1376691721]}, "type": "Feature", "properties": {"collection_times": [{"days": "Mon-Sat", "time": "12:30pm"}, {"days": "Sun", "time": "Closed"}], "id": "4431300022", "name": "USPS COLLECTION BOX - BLUE BOX", "address": {"city": "AKRON", "state": "OH", "street": "929 HAMPTON RIDGE DR", "postcode": "44313"}}},
{"geometry": {"type": "Point", "coordinates": [-81.5655916479, 41.1078574232]}, "type": "Feature", "properties": {"collection_times": [{"days": "Mon-Fri", "time": "3:45pm"}, {"days": "Sat", "time": "11:15am"}, {"days": "Sun", "time": "Closed"}], "id": "4431300026", "name": "USPS COLLECTION BOX - BLUE BOX", "address": {"city": "AKRON", "state": "OH", "street": "1546 W MARKET ST", "postcode": "44313"}}},
{"geometry": {"type": "Point", "coordinates": [-81.5466351053, 41.0979648457]}, "type": "Feature", "properties": {"collection_times": [{"days": "Mon-Sat", "time": "12:00pm"}, {"days": "Sun", "time": "Closed"}], "id": "4431300035", "name": "USPS COLLECTION BOX - BLUE BOX", "address": {"city": "AKRON", "state": "OH", "street": "900 W MARKET ST", "postcode": "44313"}}},
{"geometry": {"type": "Point", "coordinates": [-81.5826901368, 41.0998334125]}, "type": "Feature", "properties": {"collection_times": [{"days": "Mon-Sat", "time": "9:00am"}, {"days": "Sun", "time": "Closed"}], "id": "4431300037", "name": "USPS COLLECTION BOX - BLUE BOX", "address": {"city": "AKRON", "state": "OH", "street": "945 MULL AVE", "postcode": "44313"}}},
{"geometry": {"type": "Point", "coordinates": [-81.5480406688, 41.1347200295]}, "type": "Feature", "properties": {"collection_times": [{"days": "Mon-Sat", "time": "10:30am"}, {"days": "Sun", "time": "Closed"}], "id": "4431300039", "name": "USPS COLLECTION BOX - BLUE BOX", "address": {"city": "AKRON", "state": "OH", "street": "1460 N PORTAGE PATH", "postcode": "44313"}}},
{"geometry": {"type": "Point", "coordinates": [-81.5746490653, 41.111987995]}, "type": "Feature", "properties": {"collection_times": [{"days": "Mon-Fri", "time": "3:45pm"}, {"days": "Sat", "time": "10:30am"}, {"days": "Sun", "time": "Closed"}], "id": "4431300052", "name": "USPS COLLECTION BOX - BLUE BOX", "address": {"city": "AKRON", "state": "OH", "street": "1835 W MARKET ST", "postcode": "44313"}}},
{"geometry": {"type": "Point", "coordinates": [-81.5525346693, 41.1369906037]}, "type": "Feature", "properties": {"collection_times": [{"days": "Mon-Fri", "time": "3:45pm"}, {"days": "Sat", "time": "10:45am"}, {"days": "Sun", "time": "Closed"}], "id": "4431300055", "name": "USPS COLLECTION BOX - BLUE BOX", "address": {"city": "AKRON", "state": "OH", "street": "1326 WEATHERVANE LN", "postcode": "44313"}}},
{"geometry": {"type": "Point", "coordinates": [-81.5871853808, 41.1181361537]}, "type": "Feature", "properties": {"collection_times": [{"days": "Mon-Fri", "time": "3:30pm"}, {"days": "Sat", "time": "11:00am"}, {"days": "Sun", "time": "Closed"}], "id": "4431300061", "name": "USPS COLLECTION BOX - BLUE BOX", "address": {"city": "AKRON", "state": "OH", "street": "2108 BRAEWICK CIR", "postcode": "44313"}}},
{"geometry": {"type": "Point", "coordinates": [-81.5655916479, 41.1078574232]}, "type": "Feature", "properties": {"collection_times": [{"days": "Mon-Fri", "time": "3:45pm"}, {"days": "Sat", "time": "11:15am"}, {"days": "Sun", "time": "Closed"}], "id": "4431300063", "name": "USPS COLLECTION BOX - BLUE BOX", "address": {"city": "AKRON", "state": "OH", "street": "1546 W MARKET ST", "postcode": "44313"}}},
{"geometry": {"type": "Point", "coordinates": [-81.5473835435, 41.1368458326]}, "type": "Feature", "properties": {"collection_times": [{"days": "Mon-Sat", "time": "11:30am"}, {"days": "Sun", "time": "Closed"}], "id": "4431300064", "name": "USPS COLLECTION BOX - BLUE BOX", "address": {"city": "AKRON", "state": "OH", "street": "1562 AKRON PENINSULA RD", "postcode": "44313"}}},
{"geometry": {"type": "Point", "coordinates": [-81.5764027099, 41.1126649684]}, "type": "Feature", "properties": {"collection_times": [{"days": "Mon-Fri", "time": "3:30pm"}, {"days": "Sat", "time": "10:45am"}, {"days": "Sun", "time": "Closed"}], "id": "4431300068", "name": "USPS COLLECTION BOX - BLUE BOX", "address": {"city": "AKRON", "state": "OH", "street": "1900 W MARKET ST", "postcode": "44313"}}},
{"geometry": {"type": "Point", "coordinates": [-81.5525346693, 41.1369906037]}, "type": "Feature", "properties": {"collection_times": [{"days": "Mon-Fri", "time": "3:45pm"}, {"days": "Sat", "time": "10:45am"}, {"days": "Sun", "time": "Closed"}], "id": "4431300069", "name": "USPS COLLECTION BOX - BLUE BOX", "address": {"city": "AKRON", "state": "OH", "street": "1326 WEATHERVANE LN", "postcode": "44313"}}},
{"geometry": {"type": "Point", "coordinates": [-81.5751629689, 41.0394906757]}, "type": "Feature", "properties": {"collection_times": [{"days": "Mon-Fri", "time": "5:00pm"}, {"days": "Sat", "time": "3:00pm"}, {"days": "Sun", "time": "Closed"}], "id": "4431400001", "name": "USPS COLLECTION BOX - BLUE BOX", "address": {"city": "AKRON", "state": "OH", "street": "2394 EAST AVE", "postcode": "44314"}}},
{"geometry": {"type": "Point", "coordinates": [-81.5751629689, 41.0394906757]}, "type": "Feature", "properties": {"collection_times": [{"days": "Mon-Fri", "time": "5:00pm"}, {"days": "Sat", "time": "3:00pm"}, {"days": "Sun", "time": "Closed"}], "id": "4431400003", "name": "USPS COLLECTION BOX - PO LOBBY", "address": {"city": "AKRON", "state": "OH", "street": "2394 EAST AVE", "postcode": "44314"}}},
{"geometry": {"type": "Point", "coordinates": [-81.5714851495, 41.045048217]}, "type": "Feature", "properties": {"collection_times": [{"days": "Mon-Sat", "time": "1:00pm"}, {"days": "Sun", "time": "Closed"}], "id": "4431400015", "name": "USPS COLLECTION BOX - BLUE BOX", "address": {"city": "AKRON", "state": "OH", "street": "2147 EAST AVE", "postcode": "44314"}}},
{"geometry": {"type": "Point", "coordinates": [-81.5552076341, 41.043836867]}, "type": "Feature", "properties": {"collection_times": [{"days": "Mon-Sat", "time": "9:00am"}, {"days": "Sun", "time": "Closed"}], "id": "4431400029", "name": "USPS COLLECTION BOX - BLUE BOX", "address": {"city": "AKRON", "state": "OH", "street": "873 KENMORE BLVD", "postcode": "44314"}}},
{"geometry": {"type": "Point", "coordinates": [-81.551348743, 41.0316437015]}, "type": "Feature", "properties": {"collection_times": [{"days": "Mon-Sat", "time": "9:15am"}, {"days": "Sun", "time": "Closed"}], "id": "4431400032", "name": "USPS COLLECTION BOX - BLUE BOX", "address": {"city": "AKRON", "state": "OH", "street": "690 W WATERLOO RD", "postcode": "44314"}}},
{"geometry": {"type": "Point", "coordinates": [-81.5437300674, 41.030073555]}, "type": "Feature", "properties": {"collection_times": [{"days": "Mon-Sat", "time": "9:45am"}, {"days": "Sun", "time": "Closed"}], "id": "4431400038", "name": "USPS COLLECTION BOX - BLUE BOX", "address": {"city": "AKRON", "state": "OH", "street": "485 W WATERLOO RD", "postcode": "44314"}}},
{"geometry": {"type": "Point", "coordinates": [-81.5634422115, 41.0266461073]}, "type": "Feature", "properties": {"collection_times": [{"days": "Mon-Sat", "time": "11:00am"}, {"days": "Sun", "time": "Closed"}], "id": "4431400041", "name": "USPS COLLECTION BOX - BLUE BOX", "address": {"city": "AKRON", "state": "OH", "street": "2814 WINGATE AVE", "postcode": "44314"}}},
{"geometry": {"type": "Point", "coordinates": [-81.5584657257, 41.0400839976]}, "type": "Feature", "properties": {"collection_times": [{"days": "Mon-Fri", "time": "5:00pm"}, {"days": "Sat", "time": "3:00pm"}, {"days": "Sun", "time": "Closed"}], "id": "4431400044", "name": "USPS COLLECTION BOX - EXPRESS", "address": {"city": "AKRON", "state": "OH", "street": "2394 EAST AVE", "postcode": "44314"}}},
{"geometry": {"type": "Point", "coordinates": [-81.5526690042, 41.0242872871]}, "type": "Feature", "properties": {"collection_times": [{"days": "Mon-Sat", "time": "12:00pm"}, {"days": "Sun", "time": "Closed"}], "id": "4431400046", "name": "USPS COLLECTION BOX - BLUE BOX", "address": {"city": "AKRON", "state": "OH", "street": "666 CARNEGIE AVE", "postcode": "44314"}}},
{"geometry": {"type": "Point", "coordinates": [-81.5751629689, 41.0394906757]}, "type": "Feature", "properties": {"collection_times": [{"days": "Mon-Fri", "time": "5:00pm"}, {"days": "Sat", "time": "3:00pm"}, {"days": "Sun", "time": "Closed"}], "id": "4431400047", "name": "USPS COLLECTION BOX - PO LOBBY", "address": {"city": "AKRON", "state": "OH", "street": "2394 EAST AVE", "postcode": "44314"}}},
{"geometry": {"type": "Point", "coordinates": [-81.5104546087, 41.0266109465]}, "type": "Feature", "properties": {"collection_times": [{"days": "Mon-Fri", "time": "5:00pm"}, {"days": "Sat", "time": "3:00pm"}, {"days": "Sun", "time": "Closed"}], "id": "4431900001", "name": "USPS COLLECTION BOX - BLUE BOX", "address": {"city": "AKRON", "state": "OH", "street": "2001 BROWN ST", "postcode": "44319"}}},
{"geometry": {"type": "Point", "coordinates": [-81.5105308229, 41.0267028893]}, "type": "Feature", "properties": {"collection_times": [{"days": "Mon-Fri", "time": "5:00pm"}, {"days": "Sat", "time": "3:00pm"}, {"days": "Sun", "time": "Closed"}], "id": "4431900003", "name": "USPS COLLECTION BOX - BLUE BOX", "address": {"city": "AKRON", "state": "OH", "street": "2001 BROWN ST", "postcode": "44319"}}},
{"geometry": {"type": "Point", "coordinates": [-81.5241181796, 41.0222261089]}, "type": "Feature", "properties": {"collection_times": [{"days": "Mon-Fri", "time": "2:00pm"}, {"days": "Sat-Sun", "time": "Closed"}], "id": "4431900004", "name": "USPS COLLECTION BOX - BLUE BOX", "address": {"city": "AKRON", "state": "OH", "street": "66 HANNA PKWY", "postcode": "44319"}}},
{"geometry": {"type": "Point", "coordinates": [-81.5223509709, 40.9778477501]}, "type": "Feature", "properties": {"collection_times": [{"days": "Mon-Sat", "time": "10:00am"}, {"days": "Sun", "time": "Closed"}], "id": "4431900007", "name": "USPS COLLECTION BOX - BLUE BOX", "address": {"city": "AKRON", "state": "OH", "street": "4019 S MAIN ST", "postcode": "44319"}}},
{"geometry": {"type": "Point", "coordinates": [-81.5304102323, 40.9575021175]}, "type": "Feature", "properties": {"collection_times": [{"days": "Mon-Sat", "time": "2:00pm"}, {"days": "Sun", "time": "Closed"}], "id": "4431900008", "name": "USPS COLLECTION BOX - BLUE BOX", "address": {"city": "AKRON", "state": "OH", "street": "4875 S MAIN ST", "postcode": "44319"}}},
{"geometry": {"type": "Point", "coordinates": [-81.5557201708, 41.0060444406]}, "type": "Feature", "properties": {"collection_times": [{"days": "Mon-Sat", "time": "11:30am"}, {"days": "Sun", "time": "Closed"}], "id": "4431900009", "name": "USPS COLLECTION BOX - BLUE BOX", "address": {"city": "AKRON", "state": "OH", "street": "3444 MANCHESTER RD", "postcode": "44319"}}},
{"geometry": {"type": "Point", "coordinates": [-81.5688921034, 40.9414837085]}, "type": "Feature", "properties": {"collection_times": [{"days": "Mon-Sat", "time": "12:00pm"}, {"days": "Sun", "time": "Closed"}], "id": "4431900010", "name": "USPS COLLECTION BOX - BLUE BOX", "address": {"city": "AKRON", "state": "OH", "street": "6020 MANCHESTER RD", "postcode": "44319"}}},
{"geometry": {"type": "Point", "coordinates": [-81.5683802215, 40.9372598179]}, "type": "Feature", "properties": {"collection_times": [{"days": "Mon-Sat", "time": "9:30am"}, {"days": "Sun", "time": "Closed"}], "id": "4431900011", "name": "USPS COLLECTION BOX - BLUE BOX", "address": {"city": "AKRON", "state": "OH", "street": "955 W NIMISILA RD", "postcode": "44319"}}},
{"geometry": {"type": "Point", "coordinates": [-81.5543014875, 41.0117006037]}, "type": "Feature", "properties": {"collection_times": [{"days": "Mon-Sat", "time": "10:00am"}, {"days": "Sun", "time": "Closed"}], "id": "4431900012", "name": "USPS COLLECTION BOX - BLUE BOX", "address": {"city": "AKRON", "state": "OH", "street": "3235 MANCHESTER RD", "postcode": "44319"}}},
{"geometry": {"type": "Point", "coordinates": [-81.5356509565, 40.9957685124]}, "type": "Feature", "properties": {"collection_times": [{"days": "Mon-Sat", "time": "9:30am"}, {"days": "Sun", "time": "Closed"}], "id": "4431900013", "name": "USPS COLLECTION BOX - BLUE BOX", "address": {"city": "AKRON", "state": "OH", "street": "470 PORTAGE LAKES DR", "postcode": "44319"}}},
{"geometry": {"type": "Point", "coordinates": [-81.5409742718, 41.0293787425]}, "type": "Feature", "properties": {"collection_times": [{"days": "Mon-Sat", "time": "9:30am"}, {"days": "Sun", "time": "Closed"}], "id": "4431900016", "name": "USPS COLLECTION BOX - BLUE BOX", "address": {"city": "AKRON", "state": "OH", "street": "400 E WATERLOO RD", "postcode": "44319"}}},
{"geometry": {"type": "Point", "coordinates": [-81.5105308229, 41.0267028893]}, "type": "Feature", "properties": {"collection_times": [{"days": "Mon-Fri", "time": "5:00pm"}, {"days": "Sat", "time": "3:00pm"}, {"days": "Sun", "time": "Closed"}], "id": "4431900020", "name": "USPS COLLECTION BOX - PO LOBBY", "address": {"city": "AKRON", "state": "OH", "street": "2001 BROWN ST", "postcode": "44319"}}},
{"geometry": {"type": "Point", "coordinates": [-81.5105308229, 41.0267028893]}, "type": "Feature", "properties": {"collection_times": [{"days": "Mon-Fri", "time": "5:00pm"}, {"days": "Sat", "time": "3:00pm"}, {"days": "Sun", "time": "Closed"}], "id": "4431900021", "name": "USPS COLLECTION BOX - PO LOBBY", "address": {"city": "AKRON", "state": "OH", "street": "2001 BROWN ST", "postcode": "44319"}}},
{"geometry": {"type": "Point", "coordinates": [-81.5105308229, 41.0267028893]}, "type": "Feature", "properties": {"collection_times": [{"days": "Mon-Fri", "time": "5:00pm"}, {"days": "Sat", "time": "3:00pm"}, {"days": "Sun", "time": "Closed"}], "id": "4431900022", "name": "USPS COLLECTION BOX - BLUE BOX", "address": {"city": "AKRON", "state": "OH", "street": "2001 BROWN ST", "postcode": "44319"}}},
{"geometry": {"type": "Point", "coordinates": [-81.5543014875, 41.0117006037]}, "type": "Feature", "properties": {"collection_times": [{"days": "Mon-Sat", "time": "10:00am"}, {"days": "Sun", "time": "Closed"}], "id": "4431900024", "name": "USPS COLLECTION BOX - BLUE BOX", "address": {"city": "AKRON", "state": "OH", "street": "3235 MANCHESTER RD", "postcode": "44319"}}},
{"geometry": {"type": "Point", "coordinates": [-81.5282409015, 41.0206153825]}, "type": "Feature", "properties": {"collection_times": [{"days": "Mon-Fri", "time": "2:00pm"}, {"days": "Sat-Sun", "time": "Closed"}], "id": "4431900025", "name": "USPS COLLECTION BOX - BLUE BOX", "address": {"city": "AKRON", "state": "OH", "street": "2500 N TURKEYFOOT RD", "postcode": "44319"}}},
{"geometry": {"type": "Point", "coordinates": [-81.586199976, 41.1027269302]}, "type": "Feature", "properties": {"collection_times": [{"days": "Mon-Sat", "time": "12:00pm"}, {"days": "Sun", "time": "Closed"}], "id": "4432000039", "name": "USPS COLLECTION BOX - BLUE BOX", "address": {"city": "AKRON", "state": "OH", "street": "477 WHITE POND DR", "postcode": "44320"}}},
{"geometry": {"type": "Point", "coordinates": [-81.5728506183, 41.0834495432]}, "type": "Feature", "properties": {"collection_times": [{"days": "Mon-Sat", "time": "10:00am"}, {"days": "Sun", "time": "Closed"}], "id": "4432000054", "name": "USPS COLLECTION BOX - BLUE BOX", "address": {"city": "AKRON", "state": "OH", "street": "942 FREDERICK BLVD", "postcode": "44320"}}},
{"geometry": {"type": "Point", "coordinates": [-81.586199976, 41.1027245643]}, "type": "Feature", "properties": {"collection_times": [{"days": "Mon-Fri", "time": "3:30pm"}, {"days": "Sat", "time": "11:00am"}, {"days": "Sun", "time": "Closed"}], "id": "4432000056", "name": "USPS COLLECTION BOX - BLUE BOX", "address": {"city": "AKRON", "state": "OH", "street": "490 WHITE POND DR", "postcode": "44320"}}},
{"geometry": {"type": "Point", "coordinates": [-81.5696045694, 41.0672782661]}, "type": "Feature", "properties": {"collection_times": [{"days": "Mon-Sat", "time": "9:45am"}, {"days": "Sun", "time": "Closed"}], "id": "4432000058", "name": "USPS COLLECTION BOX - BLUE BOX", "address": {"city": "AKRON", "state": "OH", "street": "1525 S HAWKINS AVE", "postcode": "44320"}}},
{"geometry": {"type": "Point", "coordinates": [-81.5891796828, 41.0954906706]}, "type": "Feature", "properties": {"collection_times": [{"days": "Mon-Sat", "time": "9:45am"}, {"days": "Sun", "time": "Closed"}], "id": "4432000060", "name": "USPS COLLECTION BOX - BLUE BOX", "address": {"city": "AKRON", "state": "OH", "street": "787 WHITE POND DR", "postcode": "44320"}}},
{"geometry": {"type": "Point", "coordinates": [-81.5773419793, 41.0628032481]}, "type": "Feature", "properties": {"collection_times": [{"days": "Mon-Fri", "time": "10:30am"}, {"days": "Sat-Sun", "time": "Closed"}], "id": "4432000061", "name": "USPS COLLECTION BOX - BLUE BOX", "address": {"city": "AKRON", "state": "OH", "street": "1557 VERNONODOM BLVD", "postcode": "44320"}}},
{"geometry": {"type": "Point", "coordinates": [-81.5863654108, 41.1015268832]}, "type": "Feature", "properties": {"collection_times": [{"days": "Mon-Sat", "time": "11:30am"}, {"days": "Sun", "time": "Closed"}], "id": "4432000063", "name": "USPS COLLECTION BOX - BLUE BOX", "address": {"city": "AKRON", "state": "OH", "street": "544 WHITE POND DR", "postcode": "44320"}}},
{"geometry": {"type": "Point", "coordinates": [-81.6533719349, 41.1325859974]}, "type": "Feature", "properties": {"collection_times": [{"days": "Mon-Fri", "time": "3:45pm"}, {"days": "Sat", "time": "11:45am"}, {"days": "Sun", "time": "Closed"}], "id": "4432100001", "name": "USPS COLLECTION BOX - BLUE BOX", "address": {"city": "COPLEY", "state": "OH", "street": "120 MONTROSE WEST AVE", "postcode": "44321"}}},
{"geometry": {"type": "Point", "coordinates": [-81.6195051248, 41.0920714911]}, "type": "Feature", "properties": {"collection_times": [{"days": "Mon-Sat", "time": "12:00pm"}, {"days": "Sun", "time": "Closed"}], "id": "4432100003", "name": "USPS COLLECTION BOX - BLUE BOX", "address": {"city": "COPLEY", "state": "OH", "street": "1450 JACOBY RD", "postcode": "44321"}}},
{"geometry": {"type": "Point", "coordinates": [-81.6508211399, 41.1115125694]}, "type": "Feature", "properties": {"collection_times": [{"days": "Mon-Fri", "time": "5:00pm"}, {"days": "Sat", "time": "2:00pm"}, {"days": "Sun", "time": "Closed"}], "id": "4432100005", "name": "USPS COLLECTION BOX - BLUE BOX", "address": {"city": "COPLEY", "state": "OH", "street": "3840 RIDGEWOOD RD", "postcode": "44321"}}},
{"geometry": {"type": "Point", "coordinates": [-81.6543199689, 41.128147724]}, "type": "Feature", "properties": {"collection_times": [{"days": "Mon-Fri", "time": "3:45pm"}, {"days": "Sat", "time": "11:45am"}, {"days": "Sun", "time": "Closed"}], "id": "4432100006", "name": "USPS COLLECTION BOX - BLUE BOX", "address": {"city": "COPLEY", "state": "OH", "street": "189 MONTROSE WEST AVE", "postcode": "44321"}}},
{"geometry": {"type": "Point", "coordinates": [-81.6562237281, 41.1322666593]}, "type": "Feature", "properties": {"collection_times": [{"days": "Mon-Fri", "time": "3:45pm"}, {"days": "Sat", "time": "11:45am"}, {"days": "Sun", "time": "Closed"}], "id": "4432100008", "name": "USPS COLLECTION BOX - BLUE BOX", "address": {"city": "COPLEY", "state": "OH", "street": "98 HUNT CLUB DR", "postcode": "44321"}}},
{"geometry": {"type": "Point", "coordinates": [-81.6543199689, 41.128147724]}, "type": "Feature", "properties": {"collection_times": [{"days": "Mon-Fri", "time": "3:45pm"}, {"days": "Sat", "time": "11:45am"}, {"days": "Sun", "time": "Closed"}], "id": "4432100009", "name": "USPS COLLECTION BOX - BLUE BOX", "address": {"city": "COPLEY", "state": "OH", "street": "189 MONTROSE WEST AVE", "postcode": "44321"}}},
{"geometry": {"type": "Point", "coordinates": [-81.6533719349, 41.1325859974]}, "type": "Feature", "properties": {"collection_times": [{"days": "Mon-Fri", "time": "3:45pm"}, {"days": "Sat", "time": "11:45am"}, {"days": "Sun", "time": "Closed"}], "id": "4432100011", "name": "USPS COLLECTION BOX - BLUE BOX", "address": {"city": "COPLEY", "state": "OH", "street": "120 MONTROSE WEST AVE", "postcode": "44321"}}},
{"geometry": {"type": "Point", "coordinates": [-81.6531075934, 41.1114985969]}, "type": "Feature", "properties": {"collection_times": [{"days": "Mon-Fri", "time": "5:00pm"}, {"days": "Sat", "time": "2:00pm"}, {"days": "Sun", "time": "Closed"}], "id": "4432100012", "name": "USPS COLLECTION BOX - PO LOBBY", "address": {"city": "COPLEY", "state": "OH", "street": "3840 RIDGEWOOD RD", "postcode": "44321"}}},
{"geometry": {"type": "Point", "coordinates": [-81.6446215875, 41.0965932879]}, "type": "Feature", "properties": {"collection_times": [{"days": "Mon-Sat", "time": "3:00pm"}, {"days": "Sun", "time": "Closed"}], "id": "4432100016", "name": "USPS COLLECTION BOX - BLUE BOX", "address": {"city": "COPLEY", "state": "OH", "street": "1540 S CLEVELAND MASSILLON RD", "postcode": "44321"}}},
{"geometry": {"type": "Point", "coordinates": [-81.6531075934, 41.1114985969]}, "type": "Feature", "properties": {"collection_times": [{"days": "Mon-Fri", "time": "5:00pm"}, {"days": "Sat", "time": "2:00pm"}, {"days": "Sun", "time": "Closed"}], "id": "4432100017", "name": "USPS COLLECTION BOX - PO LOBBY", "address": {"city": "COPLEY", "state": "OH", "street": "3840 RIDGEWOOD RD", "postcode": "44321"}}},
{"geometry": {"type": "Point", "coordinates": [-81.6543199689, 41.128147724]}, "type": "Feature", "properties": {"collection_times": [{"days": "Mon-Fri", "time": "3:45pm"}, {"days": "Sat", "time": "11:45am"}, {"days": "Sun", "time": "Closed"}], "id": "4432100018", "name": "USPS COLLECTION BOX - BLUE BOX", "address": {"city": "COPLEY", "state": "OH", "street": "189 MONTROSE WEST AVE", "postcode": "44321"}}},
{"geometry": {"type": "Point", "coordinates": [-81.6144057802, 41.133421497]}, "type": "Feature", "properties": {"collection_times": [{"days": "Mon-Fri", "time": "3:45pm"}, {"days": "Sat", "time": "10:45am"}, {"days": "Sun", "time": "Closed"}], "id": "4433300001", "name": "USPS COLLECTION BOX - BLUE BOX", "address": {"city": "FAIRLAWN", "state": "OH", "street": "115 GHENT RD", "postcode": "44333"}}},
{"geometry": {"type": "Point", "coordinates": [-81.6013619611, 41.1249405336]}, "type": "Feature", "properties": {"collection_times": [{"days": "Mon-Fri", "time": "4:30pm"}, {"days": "Sat", "time": "2:00pm"}, {"days": "Sun", "time": "Closed"}], "id": "4433300004", "name": "USPS COLLECTION BOX - BLUE BOX", "address": {"city": "FAIRLAWN", "state": "OH", "street": "2711 W MARKET ST", "postcode": "44333"}}},
{"geometry": {"type": "Point", "coordinates": [-81.6393316603, 41.1358132119]}, "type": "Feature", "properties": {"collection_times": [{"days": "Mon-Fri", "time": "3:45pm"}, {"days": "Sat", "time": "12:30pm"}, {"days": "Sun", "time": "Closed"}], "id": "4433300008", "name": "USPS COLLECTION BOX - BLUE BOX", "address": {"city": "FAIRLAWN", "state": "OH", "street": "3900 W MARKET ST", "postcode": "44333"}}},
{"geometry": {"type": "Point", "coordinates": [-81.6422365239, 41.1359625809]}, "type": "Feature", "properties": {"collection_times": [{"days": "Mon-Sat", "time": "1:00pm"}, {"days": "Sun", "time": "Closed"}], "id": "4433300010", "name": "USPS COLLECTION BOX - BLUE BOX", "address": {"city": "FAIRLAWN", "state": "OH", "street": "3979 W MARKET ST", "postcode": "44333"}}},
{"geometry": {"type": "Point", "coordinates": [-81.6370920537, 41.1501564869]}, "type": "Feature", "properties": {"collection_times": [{"days": "Mon-Fri", "time": "3:30pm"}, {"days": "Sat", "time": "10:30am"}, {"days": "Sun", "time": "Closed"}], "id": "4433300013", "name": "USPS COLLECTION BOX - BLUE BOX", "address": {"city": "FAIRLAWN", "state": "OH", "street": "525 N CLEVELAND MASSILLON RD", "postcode": "44333"}}},
{"geometry": {"type": "Point", "coordinates": [-81.6097834459, 41.1258466802]}, "type": "Feature", "properties": {"collection_times": [{"days": "Mon-Sat", "time": "10:30am"}, {"days": "Sun", "time": "Closed"}], "id": "4433300015", "name": "USPS COLLECTION BOX - BLUE BOX", "address": {"city": "FAIRLAWN", "state": "OH", "street": "55 S MILLER RD", "postcode": "44333"}}},
{"geometry": {"type": "Point", "coordinates": [-81.6271244414, 41.133057998]}, "type": "Feature", "properties": {"collection_times": [{"days": "Mon-Fri", "time": "3:45pm"}, {"days": "Sat", "time": "12:30pm"}, {"days": "Sun", "time": "Closed"}], "id": "4433300016", "name": "USPS COLLECTION BOX - BLUE BOX", "address": {"city": "FAIRLAWN", "state": "OH", "street": "3487 S SMITH RD", "postcode": "44333"}}},
{"geometry": {"type": "Point", "coordinates": [-81.6271244414, 41.133057998]}, "type": "Feature", "properties": {"collection_times": [{"days": "Mon-Fri", "time": "3:45pm"}, {"days": "Sat", "time": "12:30pm"}, {"days": "Sun", "time": "Closed"}], "id": "4433300017", "name": "USPS COLLECTION BOX - BLUE BOX", "address": {"city": "FAIRLAWN", "state": "OH", "street": "3487 S SMITH RD", "postcode": "44333"}}},
{"geometry": {"type": "Point", "coordinates": [-81.628229134, 41.1482007695]}, "type": "Feature", "properties": {"collection_times": [{"days": "Mon-Fri", "time": "3:45pm"}, {"days": "Sat", "time": "12:30pm"}, {"days": "Sun", "time": "Closed"}], "id": "4433300018", "name": "USPS COLLECTION BOX - EXPRESS", "address": {"city": "FAIRLAWN", "state": "OH", "street": "3487 S SMITH RD", "postcode": "44333"}}},
{"geometry": {"type": "Point", "coordinates": [-81.628229134, 41.1482007695]}, "type": "Feature", "properties": {"collection_times": [{"days": "Mon-Fri", "time": "4:30pm"}, {"days": "Sat", "time": "2:00pm"}, {"days": "Sun", "time": "Closed"}], "id": "4433300021", "name": "USPS COLLECTION BOX - EXPRESS", "address": {"city": "FAIRLAWN", "state": "OH", "street": "2711 W MARKET ST", "postcode": "44333"}}},
{"geometry": {"type": "Point", "coordinates": [-81.6013619611, 41.1249405336]}, "type": "Feature", "properties": {"collection_times": [{"days": "Mon-Fri", "time": "5:00pm"}, {"days": "Sat", "time": "2:00pm"}, {"days": "Sun", "time": "Closed"}], "id": "4433300022", "name": "USPS COLLECTION BOX - PO LOBBY", "address": {"city": "FAIRLAWN", "state": "OH", "street": "2711 W MARKET ST", "postcode": "44333"}}},
{"geometry": {"type": "Point", "coordinates": [-81.61298865, 41.1295342021]}, "type": "Feature", "properties": {"collection_times": [{"days": "Mon-Fri", "time": "4:00pm"}, {"days": "Sat", "time": "10:45am"}, {"days": "Sun", "time": "Closed"}], "id": "4433300029", "name": "USPS COLLECTION BOX - BLUE BOX", "address": {"city": "FAIRLAWN", "state": "OH", "street": "3090 W MARKET ST", "postcode": "44333"}}},
{"geometry": {"type": "Point", "coordinates": [-81.61298865, 41.1295342021]}, "type": "Feature", "properties": {"collection_times": [{"days": "Mon-Fri", "time": "4:00pm"}, {"days": "Sat", "time": "10:45am"}, {"days": "Sun", "time": "Closed"}], "id": "4433300030", "name": "USPS COLLECTION BOX - BLUE BOX", "address": {"city": "FAIRLAWN", "state": "OH", "street": "3090 W MARKET ST", "postcode": "44333"}}},
{"geometry": {"type": "Point", "coordinates": [-81.6179833773, 41.1319667135]}, "type": "Feature", "properties": {"collection_times": [{"days": "Mon-Fri", "time": "4:00pm"}, {"days": "Sat", "time": "11:00am"}, {"days": "Sun", "time": "Closed"}], "id": "4433300031", "name": "USPS COLLECTION BOX - BLUE BOX", "address": {"city": "FAIRLAWN", "state": "OH", "street": "3250 W MARKET ST", "postcode": "44333"}}},
{"geometry": {"type": "Point", "coordinates": [-81.6179833773, 41.1319667135]}, "type": "Feature", "properties": {"collection_times": [{"days": "Mon-Fri", "time": "4:00pm"}, {"days": "Sat", "time": "11:00am"}, {"days": "Sun", "time": "Closed"}], "id": "4433300032", "name": "USPS COLLECTION BOX - BLUE BOX", "address": {"city": "FAIRLAWN", "state": "OH", "street": "3250 W MARKET ST", "postcode": "44333"}}},
{"geometry": {"type": "Point", "coordinates": [-81.6179833773, 41.1319667135]}, "type": "Feature", "properties": {"collection_times": [{"days": "Mon-Fri", "time": "4:00pm"}, {"days": "Sat", "time": "11:00am"}, {"days": "Sun", "time": "Closed"}], "id": "4433300033", "name": "USPS COLLECTION BOX - BLUE BOX", "address": {"city": "FAIRLAWN", "state": "OH", "street": "3250 W MARKET ST", "postcode": "44333"}}},
{"geometry": {"type": "Point", "coordinates": [-81.628229134, 41.1482007695]}, "type": "Feature", "properties": {"collection_times": [{"days": "Mon-Fri", "time": "4:00pm"}, {"days": "Sat", "time": "11:00am"}, {"days": "Sun", "time": "Closed"}], "id": "4433300034", "name": "USPS COLLECTION BOX - EXPRESS", "address": {"city": "FAIRLAWN", "state": "OH", "street": "3250 W MARKET ST", "postcode": "44333"}}},
{"geometry": {"type": "Point", "coordinates": [-81.612692342, 41.1307334837]}, "type": "Feature", "properties": {"collection_times": [{"days": "Mon-Fri", "time": "4:00pm"}, {"days": "Sat", "time": "10:30am"}, {"days": "Sun", "time": "Closed"}], "id": "4433300041", "name": "USPS COLLECTION BOX - BLUE BOX", "address": {"city": "FAIRLAWN", "state": "OH", "street": "41 MERZ BLVD", "postcode": "44333"}}},
{"geometry": {"type": "Point", "coordinates": [-81.612692342, 41.1307334837]}, "type": "Feature", "properties": {"collection_times": [{"days": "Mon-Fri", "time": "4:00pm"}, {"days": "Sat", "time": "10:30am"}, {"days": "Sun", "time": "Closed"}], "id": "4433300042", "name": "USPS COLLECTION BOX - BLUE BOX", "address": {"city": "FAIRLAWN", "state": "OH", "street": "41 MERZ BLVD", "postcode": "44333"}}},
{"geometry": {"type": "Point", "coordinates": [-81.6373232205, 41.1436876783]}, "type": "Feature", "properties": {"collection_times": [{"days": "Mon-Fri", "time": "3:30pm"}, {"days": "Sat", "time": "10:15am"}, {"days": "Sun", "time": "Closed"}], "id": "4433300047", "name": "USPS COLLECTION BOX - BLUE BOX", "address": {"city": "FAIRLAWN", "state": "OH", "street": "300 N CLEVELAND MASSILLON RD", "postcode": "44333"}}},
{"geometry": {"type": "Point", "coordinates": [-81.6480688611, 41.1425327237]}, "type": "Feature", "properties": {"collection_times": [{"days": "Mon-Fri", "time": "3:30pm"}, {"days": "Sat", "time": "10:15am"}, {"days": "Sun", "time": "Closed"}], "id": "4433300048", "name": "USPS COLLECTION BOX - BLUE BOX", "address": {"city": "FAIRLAWN", "state": "OH", "street": "3885 EMBASSY PKWY", "postcode": "44333"}}},
{"geometry": {"type": "Point", "coordinates": [-81.6480688611, 41.1425327237]}, "type": "Feature", "properties": {"collection_times": [{"days": "Mon-Fri", "time": "3:30pm"}, {"days": "Sat", "time": "10:15am"}, {"days": "Sun", "time": "Closed"}], "id": "4433300049", "name": "USPS COLLECTION BOX - BLUE BOX", "address": {"city": "FAIRLAWN", "state": "OH", "street": "3885 EMBASSY PKWY", "postcode": "44333"}}},
{"geometry": {"type": "Point", "coordinates": [-81.6364792809, 41.1583851495]}, "type": "Feature", "properties": {"collection_times": [{"days": "Mon-Sat", "time": "12:00pm"}, {"days": "Sun", "time": "Closed"}], "id": "4433300052", "name": "USPS COLLECTION BOX - BLUE BOX", "address": {"city": "FAIRLAWN", "state": "OH", "street": "843 N CLEVELAND MASSILLON RD", "postcode": "44333"}}},
{"geometry": {"type": "Point", "coordinates": [-81.6447517031, 41.1358578045]}, "type": "Feature", "properties": {"collection_times": [{"days": "Mon-Sat", "time": "10:00am"}, {"days": "Sun", "time": "Closed"}], "id": "4433300058", "name": "USPS COLLECTION BOX - BLUE BOX", "address": {"city": "FAIRLAWN", "state": "OH", "street": "4040 W MARKET ST", "postcode": "44333"}}},
{"geometry": {"type": "Point", "coordinates": [-81.6357328338, 41.1358213902]}, "type": "Feature", "properties": {"collection_times": [{"days": "Mon-Fri", "time": "1:30pm"}, {"days": "Sat", "time": "1:00pm"}, {"days": "Sun", "time": "Closed"}], "id": "4433300059", "name": "USPS COLLECTION BOX - BLUE BOX", "address": {"city": "FAIRLAWN", "state": "OH", "street": "3750 W MARKET ST", "postcode": "44333"}}},
{"geometry": {"type": "Point", "coordinates": [-81.6543147532, 41.138421534]}, "type": "Feature", "properties": {"collection_times": [{"days": "Mon-Fri", "time": "3:30pm"}, {"days": "Sat", "time": "10:30am"}, {"days": "Sun", "time": "Closed"}], "id": "4433300060", "name": "USPS COLLECTION BOX - BLUE BOX", "address": {"city": "FAIRLAWN", "state": "OH", "street": "4040 EMBASSY PKWY", "postcode": "44333"}}},
{"geometry": {"type": "Point", "coordinates": [-81.6310376865, 41.1357642948]}, "type": "Feature", "properties": {"collection_times": [{"days": "Mon-Sat", "time": "9:30am"}, {"days": "Sun", "time": "Closed"}], "id": "4433300062", "name": "USPS COLLECTION BOX - BLUE BOX", "address": {"city": "FAIRLAWN", "state": "OH", "street": "3624 W MARKET ST", "postcode": "44333"}}},
{"geometry": {"type": "Point", "coordinates": [-81.6468597458, 41.1255876122]}, "type": "Feature", "properties": {"collection_times": [{"days": "Mon-Sat", "time": "9:00am"}, {"days": "Sun", "time": "Closed"}], "id": "4433300063", "name": "USPS COLLECTION BOX - BLUE BOX", "address": {"city": "FAIRLAWN", "state": "OH", "street": "3800 ROSEMONT BLVD", "postcode": "44333"}}},
{"geometry": {"type": "Point", "coordinates": [-81.6253639742, 41.1351283266]}, "type": "Feature", "properties": {"collection_times": [{"days": "Mon-Fri", "time": "3:45pm"}, {"days": "Sat", "time": "12:30pm"}, {"days": "Sun", "time": "Closed"}], "id": "4433300064", "name": "USPS COLLECTION BOX - BLUE BOX", "address": {"city": "FAIRLAWN", "state": "OH", "street": "3480 W MARKET ST", "postcode": "44333"}}},
{"geometry": {"type": "Point", "coordinates": [-81.6046482211, 41.1256254669]}, "type": "Feature", "properties": {"collection_times": [{"days": "Mon-Fri", "time": "4:00pm"}, {"days": "Sat", "time": "10:45am"}, {"days": "Sun", "time": "Closed"}], "id": "4433300065", "name": "USPS COLLECTION BOX - BLUE BOX", "address": {"city": "FAIRLAWN", "state": "OH", "street": "2801 W MARKET ST", "postcode": "44333"}}},
{"geometry": {"type": "Point", "coordinates": [-81.6046482211, 41.1256254669]}, "type": "Feature", "properties": {"collection_times": [{"days": "Mon-Fri", "time": "4:00pm"}, {"days": "Sat", "time": "10:45am"}, {"days": "Sun", "time": "Closed"}], "id": "4433300066", "name": "USPS COLLECTION BOX - BLUE BOX", "address": {"city": "FAIRLAWN", "state": "OH", "street": "2801 W MARKET ST", "postcode": "44333"}}},
{"geometry": {"type": "Point", "coordinates": [-81.6415920296, 41.1420804261]}, "type": "Feature", "properties": {"collection_times": [{"days": "Mon-Fri", "time": "3:30pm"}, {"days": "Sat", "time": "12:00pm"}, {"days": "Sun", "time": "Closed"}], "id": "4433300068", "name": "USPS COLLECTION BOX - BLUE BOX", "address": {"city": "FAIRLAWN", "state": "OH", "street": "301 SPRINGSIDE DR", "postcode": "44333"}}},
{"geometry": {"type": "Point", "coordinates": [-81.6098496916, 41.1148877483]}, "type": "Feature", "properties": {"collection_times": [{"days": "Mon-Fri", "time": "4:00pm"}, {"days": "Sat", "time": "12:00pm"}, {"days": "Sun", "time": "Closed"}], "id": "4433300069", "name": "USPS COLLECTION BOX - BLUE BOX", "address": {"city": "FAIRLAWN", "state": "OH", "street": "484 S MILLER RD", "postcode": "44333"}}},
{"geometry": {"type": "Point", "coordinates": [-81.6013619611, 41.1249405336]}, "type": "Feature", "properties": {"collection_times": [{"days": "Mon-Fri", "time": "5:00pm"}, {"days": "Sat", "time": "2:00pm"}, {"days": "Sun", "time": "Closed"}], "id": "4433300076", "name": "USPS COLLECTION BOX - PO LOBBY", "address": {"city": "FAIRLAWN", "state": "OH", "street": "2711 W MARKET ST", "postcode": "44333"}}},
{"geometry": {"type": "Point", "coordinates": [-81.6480688611, 41.1425327237]}, "type": "Feature", "properties": {"collection_times": [{"days": "Mon-Fri", "time": "3:30pm"}, {"days": "Sat", "time": "10:15am"}, {"days": "Sun", "time": "Closed"}], "id": "4433300078", "name": "USPS COLLECTION BOX - BLUE BOX", "address": {"city": "FAIRLAWN", "state": "OH", "street": "3885 EMBASSY PKWY", "postcode": "44333"}}},
{"geometry": {"type": "Point", "coordinates": [-81.6415920296, 41.1420804261]}, "type": "Feature", "properties": {"collection_times": [{"days": "Mon-Fri", "time": "3:30pm"}, {"days": "Sat", "time": "12:00pm"}, {"days": "Sun", "time": "Closed"}], "id": "4433300081", "name": "USPS COLLECTION BOX - BLUE BOX", "address": {"city": "FAIRLAWN", "state": "OH", "street": "301 SPRINGSIDE DR", "postcode": "44333"}}},
{"geometry": {"type": "Point", "coordinates": [-81.6013619611, 41.1249405336]}, "type": "Feature", "properties": {"collection_times": [{"days": "Mon-Fri", "time": "5:00pm"}, {"days": "Sat", "time": "2:00pm"}, {"days": "Sun", "time": "Closed"}], "id": "4433300086", "name": "USPS COLLECTION BOX - APC", "address": {"city": "FAIRLAWN", "state": "OH", "street": "2711 W MARKET ST", "postcode": "44333"}}},
{"geometry": {"type": "Point", "coordinates": [-81.6464208681, 41.1395524428]}, "type": "Feature", "properties": {"collection_times": [{"days": "Mon-Fri", "time": "3:30pm"}, {"days": "Sat", "time": "11:00am"}, {"days": "Sun", "time": "Closed"}], "id": "4433300087", "name": "USPS COLLECTION BOX - BLUE BOX", "address": {"city": "FAIRLAWN", "state": "OH", "street": "130 SPRINGSIDE DR", "postcode": "44333"}}},
{"geometry": {"type": "Point", "coordinates": [-81.6013619611, 41.1249405336]}, "type": "Feature", "properties": {"collection_times": [{"days": "Mon-Fri", "time": "4:30pm"}, {"days": "Sat", "time": "2:00pm"}, {"days": "Sun", "time": "Closed"}], "id": "4433300093", "name": "USPS COLLECTION BOX - BLUE BOX", "address": {"city": "FAIRLAWN", "state": "OH", "street": "2711 W MARKET ST", "postcode": "44333"}}},
{"geometry": {"type": "Point", "coordinates": [-81.628229134, 41.1482007695]}, "type": "Feature", "properties": {"collection_times": [{"days": "Mon-Sat", "time": "9:00am"}, {"days": "Sun", "time": "Closed"}], "id": "4433300094", "name": "USPS COLLECTION BOX - BLUE BOX", "address": {"city": "FAIRLAWN", "state": "OH", "street": "3585 RIDGE PARK DR", "postcode": "44333"}}},
{"geometry": {"type": "Point", "coordinates": [-81.628229134, 41.1482007695]}, "type": "Feature", "properties": {"collection_times": [{"days": "Mon-Sat", "time": "9:00am"}, {"days": "Sun", "time": "Closed"}], "id": "4433300095", "name": "USPS COLLECTION BOX - BLUE BOX", "address": {"city": "FAIRLAWN", "state": "OH", "street": "3585 RIDGE PARK DR", "postcode": "44333"}}},
{"geometry": {"type": "Point", "coordinates": [-81.614415542, 41.1334634665]}, "type": "Feature", "properties": {"collection_times": [{"days": "Mon-Fri", "time": "3:45pm"}, {"days": "Sat", "time": "10:45am"}, {"days": "Sun", "time": "Closed"}], "id": "4433300097", "name": "USPS COLLECTION BOX - BLUE BOX", "address": {"city": "FAIRLAWN", "state": "OH", "street": "115 GHENT RD", "postcode": "44333"}}}
]}
