{"type": "FeatureCollection", "features": [
{"geometry": {"type": "Point", "coordinates": [-80.9428124176, 41.0244803547]}, "type": "Feature", "properties": {"collection_times": [{"days": "Mon-Fri", "time": "4:00pm"}, {"days": "Sat", "time": "11:45am"}, {"days": "Sun", "time": "Closed"}], "id": "4440100000", "name": "USPS COLLECTION BOX - BLUE BOX", "address": {"city": "BERLIN CENTER", "state": "OH", "street": "15401 W AKRON CANFIELD RD", "postcode": "44401"}}},
{"geometry": {"type": "Point", "coordinates": [-80.8291154026, 41.3914985009]}, "type": "Feature", "properties": {"collection_times": [{"days": "Mon-Fri", "time": "4:15pm"}, {"days": "Sat", "time": "12:00pm"}, {"days": "Sun", "time": "Closed"}], "id": "4440200000", "name": "USPS COLLECTION BOX - BLUE BOX", "address": {"city": "BRISTOLVILLE", "state": "OH", "street": "1850 GREENVILLE RD", "postcode": "44402"}}},
{"geometry": {"type": "Point", "coordinates": [-80.8291154026, 41.3914985009]}, "type": "Feature", "properties": {"collection_times": [{"days": "Mon-Fri", "time": "4:15pm"}, {"days": "Sat", "time": "12:00pm"}, {"days": "Sun", "time": "Closed"}], "id": "4440200001", "name": "USPS COLLECTION BOX - PO LOBBY", "address": {"city": "BRISTOLVILLE", "state": "OH", "street": "1850 GREENVILLE RD", "postcode": "44402"}}},
{"geometry": {"type": "Point", "coordinates": [-80.5533516525, 41.2353714364]}, "type": "Feature", "properties": {"collection_times": [{"days": "Mon-Fri", "time": "4:30pm"}, {"days": "Sat", "time": "12:00pm"}, {"days": "Sun", "time": "Closed"}], "id": "4440300000", "name": "USPS COLLECTION BOX - BLUE BOX", "address": {"city": "BROOKFIELD", "state": "OH", "street": "6875 WARREN SHARON RD", "postcode": "44403"}}},
{"geometry": {"type": "Point", "coordinates": [-80.5533516525, 41.2353714364]}, "type": "Feature", "properties": {"collection_times": [{"days": "Mon-Fri", "time": "4:30pm"}, {"days": "Sat", "time": "12:00pm"}, {"days": "Sun", "time": "Closed"}], "id": "4440300001", "name": "USPS COLLECTION BOX - PO LOBBY", "address": {"city": "BROOKFIELD", "state": "OH", "street": "6875 WARREN SHARON RD", "postcode": "44403"}}},
{"geometry": {"type": "Point", "coordinates": [-80.5682265632, 41.2445714387]}, "type": "Feature", "properties": {"collection_times": [{"days": "Mon-Sat", "time": "10:30am"}, {"days": "Sun", "time": "Closed"}], "id": "4440300002", "name": "USPS COLLECTION BOX - BLUE BOX", "address": {"city": "BROOKFIELD", "state": "OH", "street": "1011 STATE ROUTE 7 NE", "postcode": "44403"}}},
{"geometry": {"type": "Point", "coordinates": [-80.6169080053, 41.230488406]}, "type": "Feature", "properties": {"collection_times": [{"days": "Mon-Sat", "time": "10:30am"}, {"days": "Sun", "time": "Closed"}], "id": "4440300003", "name": "USPS COLLECTION BOX - BLUE BOX", "address": {"city": "BROOKFIELD", "state": "OH", "street": "479 WARNER RD SE", "postcode": "44403"}}},
{"geometry": {"type": "Point", "coordinates": [-80.5598891841, 41.2282560927]}, "type": "Feature", "properties": {"collection_times": [{"days": "Mon-Sat", "time": "12:00pm"}, {"days": "Sun", "time": "Closed"}], "id": "4440300005", "name": "USPS COLLECTION BOX - BLUE BOX", "address": {"city": "BROOKFIELD", "state": "OH", "street": "7100 BROOKWOOD DR", "postcode": "44403"}}},
{"geometry": {"type": "Point", "coordinates": [-80.5936799813, 41.0769186529]}, "type": "Feature", "properties": {"collection_times": [{"days": "Mon-Fri", "time": "4:30pm"}, {"days": "Sat", "time": "2:00pm"}, {"days": "Sun", "time": "Closed"}], "id": "4440500000", "name": "USPS COLLECTION BOX - BLUE BOX", "address": {"city": "CAMPBELL", "state": "OH", "street": "220 12TH ST", "postcode": "44405"}}},
{"geometry": {"type": "Point", "coordinates": [-80.5936799813, 41.0769186529]}, "type": "Feature", "properties": {"collection_times": [{"days": "Mon-Fri", "time": "4:30pm"}, {"days": "Sat", "time": "2:00pm"}, {"days": "Sun", "time": "Closed"}], "id": "4440500001", "name": "USPS COLLECTION BOX - PO LOBBY", "address": {"city": "CAMPBELL", "state": "OH", "street": "220 12TH ST", "postcode": "44405"}}},
{"geometry": {"type": "Point", "coordinates": [-80.5936799813, 41.0769186529]}, "type": "Feature", "properties": {"collection_times": [{"days": "Mon-Fri", "time": "4:30pm"}, {"days": "Sat", "time": "2:00pm"}, {"days": "Sun", "time": "Closed"}], "id": "4440500027", "name": "USPS COLLECTION BOX - BLUE BOX", "address": {"city": "CAMPBELL", "state": "OH", "street": "220 12TH ST", "postcode": "44405"}}},
{"geometry": {"type": "Point", "coordinates": [-80.7431650112, 41.0247803165]}, "type": "Feature", "properties": {"collection_times": [{"days": "Mon-Sat", "time": "10:00am"}, {"days": "Sun", "time": "Closed"}], "id": "4440600001", "name": "USPS COLLECTION BOX - BLUE BOX", "address": {"city": "CANFIELD", "state": "OH", "street": "584 E MAIN ST", "postcode": "44406"}}},
{"geometry": {"type": "Point", "coordinates": [-80.761034255, 41.0243860672]}, "type": "Feature", "properties": {"collection_times": [{"days": "Mon-Sat", "time": "2:00pm"}, {"days": "Sun", "time": "Closed"}], "id": "4440600005", "name": "USPS COLLECTION BOX - BLUE BOX", "address": {"city": "CANFIELD", "state": "OH", "street": "20 S BROAD ST", "postcode": "44406"}}},
{"geometry": {"type": "Point", "coordinates": [-80.7162999004, 41.0255193209]}, "type": "Feature", "properties": {"collection_times": [{"days": "Mon-Fri", "time": "12:00pm"}, {"days": "Sat", "time": "11:30am"}, {"days": "Sun", "time": "Closed"}], "id": "4440600010", "name": "USPS COLLECTION BOX - BLUE BOX", "address": {"city": "CANFIELD", "state": "OH", "street": "3770 STARRS CENTRE DR", "postcode": "44406"}}},
{"geometry": {"type": "Point", "coordinates": [-80.7610041953, 41.0261932066]}, "type": "Feature", "properties": {"collection_times": [{"days": "Mon-Fri", "time": "5:00pm"}, {"days": "Sat", "time": "1:30pm"}, {"days": "Sun", "time": "Closed"}], "id": "4440600013", "name": "USPS COLLECTION BOX - BLUE BOX", "address": {"city": "CANFIELD", "state": "OH", "street": "44 N BROAD ST", "postcode": "44406"}}},
{"geometry": {"type": "Point", "coordinates": [-80.7486250363, 41.0246839174]}, "type": "Feature", "properties": {"collection_times": [{"days": "Mon-Sat", "time": "2:30pm"}, {"days": "Sun", "time": "Closed"}], "id": "4440600019", "name": "USPS COLLECTION BOX - BLUE BOX", "address": {"city": "CANFIELD", "state": "OH", "street": "423 E MAIN ST", "postcode": "44406"}}},
{"geometry": {"type": "Point", "coordinates": [-80.7113457446, 41.0218981115]}, "type": "Feature", "properties": {"collection_times": [{"days": "Mon-Sat", "time": "10:00am"}, {"days": "Sun", "time": "Closed"}], "id": "4440600022", "name": "USPS COLLECTION BOX - BLUE BOX", "address": {"city": "CANFIELD", "state": "OH", "street": "6674 TIPPECANOE RD", "postcode": "44406"}}},
{"geometry": {"type": "Point", "coordinates": [-80.7610041953, 41.0261932066]}, "type": "Feature", "properties": {"collection_times": [{"days": "Mon-Fri", "time": "5:00pm"}, {"days": "Sat", "time": "1:30pm"}, {"days": "Sun", "time": "Closed"}], "id": "4440600023", "name": "USPS COLLECTION BOX - PO LOBBY", "address": {"city": "CANFIELD", "state": "OH", "street": "44 N BROAD ST", "postcode": "44406"}}},
{"geometry": {"type": "Point", "coordinates": [-80.7734131452, 41.0126493675]}, "type": "Feature", "properties": {"collection_times": [{"days": "Mon-Sat", "time": "10:00am"}, {"days": "Sun", "time": "Closed"}], "id": "4440600024", "name": "USPS COLLECTION BOX - BLUE BOX", "address": {"city": "CANFIELD", "state": "OH", "street": "3701 BUSINESS SERVICE RD", "postcode": "44406"}}},
{"geometry": {"type": "Point", "coordinates": [-80.7112031692, 41.0216305148]}, "type": "Feature", "properties": {"collection_times": [{"days": "Mon-Fri", "time": "12:00pm"}, {"days": "Sat", "time": "10:00am"}, {"days": "Sun", "time": "Closed"}], "id": "4440600027", "name": "USPS COLLECTION BOX - BLUE BOX", "address": {"city": "CANFIELD", "state": "OH", "street": "6715 TIPPECANOE RD", "postcode": "44406"}}},
{"geometry": {"type": "Point", "coordinates": [-80.6937258134, 40.8867591915]}, "type": "Feature", "properties": {"collection_times": [{"days": "Mon-Fri", "time": "4:45pm"}, {"days": "Sat", "time": "1:00pm"}, {"days": "Sun", "time": "Closed"}], "id": "4440800001", "name": "USPS COLLECTION BOX - BLUE BOX", "address": {"city": "COLUMBIANA", "state": "OH", "street": "149 S MAIN ST", "postcode": "44408"}}},
{"geometry": {"type": "Point", "coordinates": [-80.6937258134, 40.8867591915]}, "type": "Feature", "properties": {"collection_times": [{"days": "Mon-Fri", "time": "4:45pm"}, {"days": "Sat", "time": "1:00pm"}, {"days": "Sun", "time": "Closed"}], "id": "4440800003", "name": "USPS COLLECTION BOX - PO LOBBY", "address": {"city": "COLUMBIANA", "state": "OH", "street": "149 S MAIN ST", "postcode": "44408"}}},
{"geometry": {"type": "Point", "coordinates": [-80.693721365, 40.8871250677]}, "type": "Feature", "properties": {"collection_times": [{"days": "Mon-Fri", "time": "3:00pm"}, {"days": "Sat", "time": "2:30pm"}, {"days": "Sun", "time": "Closed"}], "id": "4440800005", "name": "USPS COLLECTION BOX - BLUE BOX", "address": {"city": "COLUMBIANA", "state": "OH", "street": "123 S MAIN ST", "postcode": "44408"}}},
{"geometry": {"type": "Point", "coordinates": [-80.6941513172, 40.8937081042]}, "type": "Feature", "properties": {"collection_times": [{"days": "Mon-Sat", "time": "2:00pm"}, {"days": "Sun", "time": "Closed"}], "id": "4440800006", "name": "USPS COLLECTION BOX - BLUE BOX", "address": {"city": "COLUMBIANA", "state": "OH", "street": "315 N MAIN ST", "postcode": "44408"}}},
{"geometry": {"type": "Point", "coordinates": [-80.6991865319, 40.8928524027]}, "type": "Feature", "properties": {"collection_times": [{"days": "Mon-Sat", "time": "2:00pm"}, {"days": "Sun", "time": "Closed"}], "id": "4440800008", "name": "USPS COLLECTION BOX - BLUE BOX", "address": {"city": "COLUMBIANA", "state": "OH", "street": "333 W SALEM ST", "postcode": "44408"}}},
{"geometry": {"type": "Point", "coordinates": [-80.6990528418, 40.9030269544]}, "type": "Feature", "properties": {"collection_times": [{"days": "Mon-Sat", "time": "11:30am"}, {"days": "Sun", "time": "Closed"}], "id": "4440800013", "name": "USPS COLLECTION BOX - BLUE BOX", "address": {"city": "COLUMBIANA", "state": "OH", "street": "903 STATE ROUTE 46", "postcode": "44408"}}},
{"geometry": {"type": "Point", "coordinates": [-80.6865802277, 40.8994400375]}, "type": "Feature", "properties": {"collection_times": [{"days": "Mon-Sat", "time": "11:00am"}, {"days": "Sun", "time": "Closed"}], "id": "4440800014", "name": "USPS COLLECTION BOX - BLUE BOX", "address": {"city": "COLUMBIANA", "state": "OH", "street": "112 COUNTY LINE RD W", "postcode": "44408"}}},
{"geometry": {"type": "Point", "coordinates": [-80.7269104134, 41.3250108345]}, "type": "Feature", "properties": {"collection_times": [{"days": "Mon-Fri", "time": "5:00pm"}, {"days": "Sat", "time": "12:00pm"}, {"days": "Sun", "time": "Closed"}], "id": "4441000000", "name": "USPS COLLECTION BOX - PO LOBBY", "address": {"city": "CORTLAND", "state": "OH", "street": "307 S HIGH ST", "postcode": "44410"}}},
{"geometry": {"type": "Point", "coordinates": [-80.7269104134, 41.3250108345]}, "type": "Feature", "properties": {"collection_times": [{"days": "Mon-Fri", "time": "5:00pm"}, {"days": "Sat", "time": "12:00pm"}, {"days": "Sun", "time": "Closed"}], "id": "4441000001", "name": "USPS COLLECTION BOX - PO LOBBY", "address": {"city": "CORTLAND", "state": "OH", "street": "307 S HIGH ST", "postcode": "44410"}}},
{"geometry": {"type": "Point", "coordinates": [-80.7269104134, 41.3250108345]}, "type": "Feature", "properties": {"collection_times": [{"days": "Mon-Fri", "time": "5:00pm"}, {"days": "Sat", "time": "12:00pm"}, {"days": "Sun", "time": "Closed"}], "id": "4441000004", "name": "USPS COLLECTION BOX - BLUE BOX", "address": {"city": "CORTLAND", "state": "OH", "street": "307 S HIGH ST", "postcode": "44410"}}},
{"geometry": {"type": "Point", "coordinates": [-80.7636024919, 41.2867042764]}, "type": "Feature", "properties": {"collection_times": [{"days": "Mon-Sat", "time": "10:30am"}, {"days": "Sun", "time": "Closed"}], "id": "4441000006", "name": "USPS COLLECTION BOX - BLUE BOX", "address": {"city": "CORTLAND", "state": "OH", "street": "3093 IVY HILL CIR", "postcode": "44410"}}},
{"geometry": {"type": "Point", "coordinates": [-81.0504448878, 41.0258865094]}, "type": "Feature", "properties": {"collection_times": [{"days": "Mon-Fri", "time": "4:00pm"}, {"days": "Sat", "time": "11:45am"}, {"days": "Sun", "time": "Closed"}], "id": "4441100000", "name": "USPS COLLECTION BOX - BLUE BOX", "address": {"city": "DEERFIELD", "state": "OH", "street": "1365 STATE ROUTE 14", "postcode": "44411"}}},
{"geometry": {"type": "Point", "coordinates": [-81.0504448878, 41.0258865094]}, "type": "Feature", "properties": {"collection_times": [{"days": "Mon-Fri", "time": "4:30pm"}, {"days": "Sat", "time": "12:15pm"}, {"days": "Sun", "time": "Closed"}], "id": "4441100001", "name": "USPS COLLECTION BOX - PO LOBBY", "address": {"city": "DEERFIELD", "state": "OH", "street": "1365 STATE ROUTE 14", "postcode": "44411"}}},
{"geometry": {"type": "Point", "coordinates": [-81.0266546366, 41.0987103558]}, "type": "Feature", "properties": {"collection_times": [{"days": "Mon-Fri", "time": "4:15pm"}, {"days": "Sat", "time": "11:45am"}, {"days": "Sun", "time": "Closed"}], "id": "4441200000", "name": "USPS COLLECTION BOX - BLUE BOX", "address": {"city": "DIAMOND", "state": "OH", "street": "10096 TALLMADGE RD", "postcode": "44412"}}},
{"geometry": {"type": "Point", "coordinates": [-81.0266546366, 41.0987103558]}, "type": "Feature", "properties": {"collection_times": [{"days": "Mon-Fri", "time": "4:15pm"}, {"days": "Sat", "time": "11:45am"}, {"days": "Sun", "time": "Closed"}], "id": "4441200001", "name": "USPS COLLECTION BOX - PO LOBBY", "address": {"city": "DIAMOND", "state": "OH", "street": "10096 TALLMADGE RD", "postcode": "44412"}}},
{"geometry": {"type": "Point", "coordinates": [-80.5399262156, 40.8361569058]}, "type": "Feature", "properties": {"collection_times": [{"days": "Mon-Fri", "time": "4:30pm"}, {"days": "Sat", "time": "4:15pm"}, {"days": "Sun", "time": "Closed"}], "id": "4441300000", "name": "USPS COLLECTION BOX - BLUE BOX", "address": {"city": "EAST PALESTINE", "state": "OH", "street": "269 N MARKET ST", "postcode": "44413"}}},
{"geometry": {"type": "Point", "coordinates": [-80.5399262156, 40.8361569058]}, "type": "Feature", "properties": {"collection_times": [{"days": "Mon-Fri", "time": "4:30pm"}, {"days": "Sat", "time": "4:15pm"}, {"days": "Sun", "time": "Closed"}], "id": "4441300001", "name": "USPS COLLECTION BOX - BLUE BOX", "address": {"city": "EAST PALESTINE", "state": "OH", "street": "269 N MARKET ST", "postcode": "44413"}}},
{"geometry": {"type": "Point", "coordinates": [-80.5399262156, 40.8361569058]}, "type": "Feature", "properties": {"collection_times": [{"days": "Mon-Fri", "time": "4:30pm"}, {"days": "Sat", "time": "4:15pm"}, {"days": "Sun", "time": "Closed"}], "id": "4441300002", "name": "USPS COLLECTION BOX - PO LOBBY", "address": {"city": "EAST PALESTINE", "state": "OH", "street": "269 N MARKET ST", "postcode": "44413"}}},
{"geometry": {"type": "Point", "coordinates": [-80.5399194914, 40.8350637523]}, "type": "Feature", "properties": {"collection_times": [{"days": "Mon-Sat", "time": "3:00pm"}, {"days": "Sun", "time": "Closed"}], "id": "4441300013", "name": "USPS COLLECTION BOX - BLUE BOX", "address": {"city": "EAST PALESTINE", "state": "OH", "street": "187 N MARKET ST", "postcode": "44413"}}},
{"geometry": {"type": "Point", "coordinates": [-80.7696025998, 40.7721403014]}, "type": "Feature", "properties": {"collection_times": [{"days": "Mon-Fri", "time": "3:45pm"}, {"days": "Sat", "time": "12:00pm"}, {"days": "Sun", "time": "Closed"}], "id": "4441500000", "name": "USPS COLLECTION BOX - BLUE BOX", "address": {"city": "ELKTON", "state": "OH", "street": "42188 STATE ROUTE 154", "postcode": "44415"}}},
{"geometry": {"type": "Point", "coordinates": [-80.8574341085, 41.0268202772]}, "type": "Feature", "properties": {"collection_times": [{"days": "Mon-Fri", "time": "3:45pm"}, {"days": "Sat", "time": "10:45am"}, {"days": "Sun", "time": "Closed"}], "id": "4441600002", "name": "USPS COLLECTION BOX - BLUE BOX", "address": {"city": "ELLSWORTH", "state": "OH", "street": "6036 N SALEM WARREN RD", "postcode": "44416"}}},
{"geometry": {"type": "Point", "coordinates": [-80.8574341085, 41.0268202772]}, "type": "Feature", "properties": {"collection_times": [{"days": "Mon-Fri", "time": "4:15pm"}, {"days": "Sat", "time": "11:15am"}, {"days": "Sun", "time": "Closed"}], "id": "4441600003", "name": "USPS COLLECTION BOX - PO LOBBY", "address": {"city": "ELLSWORTH", "state": "OH", "street": "6036 N SALEM WARREN RD", "postcode": "44416"}}},
{"geometry": {"type": "Point", "coordinates": [-80.5684687149, 41.3153205216]}, "type": "Feature", "properties": {"collection_times": [{"days": "Mon-Fri", "time": "4:15pm"}, {"days": "Sat", "time": "11:30am"}, {"days": "Sun", "time": "Closed"}], "id": "4441800000", "name": "USPS COLLECTION BOX - BLUE BOX", "address": {"city": "FOWLER", "state": "OH", "street": "3455 YOUNGSTOWN KINGSVILLE RD", "postcode": "44418"}}},
{"geometry": {"type": "Point", "coordinates": [-80.5684687149, 41.3153205216]}, "type": "Feature", "properties": {"collection_times": [{"days": "Mon-Fri", "time": "4:15pm"}, {"days": "Sat", "time": "11:30am"}, {"days": "Sun", "time": "Closed"}], "id": "4441800001", "name": "USPS COLLECTION BOX - PO LOBBY", "address": {"city": "FOWLER", "state": "OH", "street": "3455 YOUNGSTOWN KINGSVILLE RD", "postcode": "44418"}}},
{"geometry": {"type": "Point", "coordinates": [-80.5684687149, 41.3153205216]}, "type": "Feature", "properties": {"collection_times": [{"days": "Mon-Fri", "time": "4:15pm"}, {"days": "Sat", "time": "11:30am"}, {"days": "Sun", "time": "Closed"}], "id": "4441800002", "name": "USPS COLLECTION BOX - PO LOBBY", "address": {"city": "FOWLER", "state": "OH", "street": "3455 YOUNGSTOWN KINGSVILLE RD", "postcode": "44418"}}},
{"geometry": {"type": "Point", "coordinates": [-80.7026338425, 41.15421713]}, "type": "Feature", "properties": {"collection_times": [{"days": "Mon-Fri", "time": "5:00pm"}, {"days": "Sat", "time": "3:30pm"}, {"days": "Sun", "time": "Closed"}], "id": "4442000002", "name": "USPS COLLECTION BOX - BLUE BOX", "address": {"city": "GIRARD", "state": "OH", "street": "19 N MARKET ST", "postcode": "44420"}}},
{"geometry": {"type": "Point", "coordinates": [-80.68895626, 41.1621308571]}, "type": "Feature", "properties": {"collection_times": [{"days": "Mon-Fri", "time": "5:00pm"}, {"days": "Sat", "time": "3:30pm"}, {"days": "Sun", "time": "Closed"}], "id": "4442000003", "name": "USPS COLLECTION BOX - EXPRESS", "address": {"city": "GIRARD", "state": "OH", "street": "19 N MARKET ST", "postcode": "44420"}}},
{"geometry": {"type": "Point", "coordinates": [-80.6839471399, 41.1408634794]}, "type": "Feature", "properties": {"collection_times": [{"days": "Mon-Sat", "time": "12:00pm"}, {"days": "Sun", "time": "Closed"}], "id": "4442000017", "name": "USPS COLLECTION BOX - BLUE BOX", "address": {"city": "GIRARD", "state": "OH", "street": "15 S DAVIS ST", "postcode": "44420"}}},
{"geometry": {"type": "Point", "coordinates": [-80.7186690771, 41.1407763468]}, "type": "Feature", "properties": {"collection_times": [{"days": "Mon-Sat", "time": "11:30am"}, {"days": "Sun", "time": "Closed"}], "id": "4442000020", "name": "USPS COLLECTION BOX - BLUE BOX", "address": {"city": "GIRARD", "state": "OH", "street": "1 PETRO PL", "postcode": "44420"}}},
{"geometry": {"type": "Point", "coordinates": [-80.664192295, 41.192501686]}, "type": "Feature", "properties": {"collection_times": [{"days": "Mon-Sat", "time": "11:00am"}, {"days": "Sun", "time": "Closed"}], "id": "4442000023", "name": "USPS COLLECTION BOX - BLUE BOX", "address": {"city": "GIRARD", "state": "OH", "street": "6470 BELMONT AVE", "postcode": "44420"}}},
{"geometry": {"type": "Point", "coordinates": [-80.6870588918, 41.162087811]}, "type": "Feature", "properties": {"collection_times": [{"days": "Mon-Sat", "time": "2:00pm"}, {"days": "Sun", "time": "Closed"}], "id": "4442000026", "name": "USPS COLLECTION BOX - BLUE BOX", "address": {"city": "GIRARD", "state": "OH", "street": "660 CHURCHILL RD", "postcode": "44420"}}},
{"geometry": {"type": "Point", "coordinates": [-80.6919962893, 41.1607798889]}, "type": "Feature", "properties": {"collection_times": [{"days": "Mon-Sat", "time": "11:30am"}, {"days": "Sun", "time": "Closed"}], "id": "4442000027", "name": "USPS COLLECTION BOX - BLUE BOX", "address": {"city": "GIRARD", "state": "OH", "street": "722 N HIGHLAND AVE", "postcode": "44420"}}},
{"geometry": {"type": "Point", "coordinates": [-80.7018600744, 41.1591517069]}, "type": "Feature", "properties": {"collection_times": [{"days": "Mon-Sat", "time": "1:00pm"}, {"days": "Sun", "time": "Closed"}], "id": "4442000032", "name": "USPS COLLECTION BOX - BLUE BOX", "address": {"city": "GIRARD", "state": "OH", "street": "17 CHERRY ST", "postcode": "44420"}}},
{"geometry": {"type": "Point", "coordinates": [-80.7026338425, 41.15421713]}, "type": "Feature", "properties": {"collection_times": [{"days": "Mon-Fri", "time": "5:00pm"}, {"days": "Sat", "time": "3:30pm"}, {"days": "Sun", "time": "Closed"}], "id": "4442000034", "name": "USPS COLLECTION BOX - PO LOBBY", "address": {"city": "GIRARD", "state": "OH", "street": "19 N MARKET ST", "postcode": "44420"}}},
{"geometry": {"type": "Point", "coordinates": [-80.669209224, 41.1550480222]}, "type": "Feature", "properties": {"collection_times": [{"days": "Mon-Sat", "time": "10:00am"}, {"days": "Sun", "time": "Closed"}], "id": "4442000035", "name": "USPS COLLECTION BOX - BLUE BOX", "address": {"city": "GIRARD", "state": "OH", "street": "1601 MOTOR INN DR", "postcode": "44420"}}},
{"geometry": {"type": "Point", "coordinates": [-80.7026332377, 41.1549653504]}, "type": "Feature", "properties": {"collection_times": [{"days": "Mon-Sat", "time": "2:00pm"}, {"days": "Sun", "time": "Closed"}], "id": "4442000037", "name": "USPS COLLECTION BOX - BLUE BOX", "address": {"city": "GIRARD", "state": "OH", "street": "99 N MARKET ST", "postcode": "44420"}}},
{"geometry": {"type": "Point", "coordinates": [-80.7601458548, 41.0260132713]}, "type": "Feature", "properties": {"collection_times": [{"days": "Mon-Fri", "time": "4:30pm"}, {"days": "Sat", "time": "11:15am"}, {"days": "Sun", "time": "Closed"}], "id": "4442200000", "name": "USPS COLLECTION BOX - BLUE BOX", "address": {"city": "GREENFORD", "state": "OH", "street": "12184 LISBON RD", "postcode": "44422"}}},
{"geometry": {"type": "Point", "coordinates": [-80.8974846172, 40.7568640209]}, "type": "Feature", "properties": {"collection_times": [{"days": "Mon-Fri", "time": "4:00pm"}, {"days": "Sat", "time": "11:30am"}, {"days": "Sun", "time": "Closed"}], "id": "4442300000", "name": "USPS COLLECTION BOX - BLUE BOX", "address": {"city": "HANOVERTON", "state": "OH", "street": "29959 MARKET ST", "postcode": "44423"}}},
{"geometry": {"type": "Point", "coordinates": [-80.8974846172, 40.7568640209]}, "type": "Feature", "properties": {"collection_times": [{"days": "Mon-Fri", "time": "4:00pm"}, {"days": "Sat", "time": "11:30am"}, {"days": "Sun", "time": "Closed"}], "id": "4442300001", "name": "USPS COLLECTION BOX - PO LOBBY", "address": {"city": "HANOVERTON", "state": "OH", "street": "29959 MARKET ST", "postcode": "44423"}}},
{"geometry": {"type": "Point", "coordinates": [-80.5699837263, 41.3120883336]}, "type": "Feature", "properties": {"collection_times": [{"days": "Mon-Fri", "time": "4:30pm"}, {"days": "Sat", "time": "11:30am"}, {"days": "Sun", "time": "Closed"}], "id": "4442400000", "name": "USPS COLLECTION BOX - PO LOBBY", "address": {"city": "HARTFORD", "state": "OH", "street": "6893 STATE ROUTE 305", "postcode": "44424"}}},
{"geometry": {"type": "Point", "coordinates": [-80.5699837263, 41.3120883336]}, "type": "Feature", "properties": {"collection_times": [{"days": "Mon-Fri", "time": "4:30pm"}, {"days": "Sat", "time": "11:30am"}, {"days": "Sun", "time": "Closed"}], "id": "4442400001", "name": "USPS COLLECTION BOX - BLUE BOX", "address": {"city": "HARTFORD", "state": "OH", "street": "6893 STATE ROUTE 305", "postcode": "44424"}}},
{"geometry": {"type": "Point", "coordinates": [-80.5688836571, 41.1561895776]}, "type": "Feature", "properties": {"collection_times": [{"days": "Mon-Sat", "time": "2:00pm"}, {"days": "Sun", "time": "Closed"}], "id": "4442500000", "name": "USPS COLLECTION BOX - BLUE BOX", "address": {"city": "HUBBARD", "state": "OH", "street": "121 E LIBERTY ST", "postcode": "44425"}}},
{"geometry": {"type": "Point", "coordinates": [-80.6098357823, 41.1452752818]}, "type": "Feature", "properties": {"collection_times": [{"days": "Mon-Sat", "time": "8:30am"}, {"days": "Sun", "time": "Closed"}], "id": "4442500003", "name": "USPS COLLECTION BOX - BLUE BOX", "address": {"city": "HUBBARD", "state": "OH", "street": "5925 YOUNGSTOWN HUBBARD RD", "postcode": "44425"}}},
{"geometry": {"type": "Point", "coordinates": [-80.6070153153, 41.1645118344]}, "type": "Feature", "properties": {"collection_times": [{"days": "Mon-Sat", "time": "11:30am"}, {"days": "Sun", "time": "Closed"}], "id": "4442500004", "name": "USPS COLLECTION BOX - BLUE BOX", "address": {"city": "HUBBARD", "state": "OH", "street": "2870 LEWIS SEIFERT RD", "postcode": "44425"}}},
{"geometry": {"type": "Point", "coordinates": [-80.5594199854, 41.1564013273]}, "type": "Feature", "properties": {"collection_times": [{"days": "Mon-Sat", "time": "2:00pm"}, {"days": "Sun", "time": "Closed"}], "id": "4442500009", "name": "USPS COLLECTION BOX - BLUE BOX", "address": {"city": "HUBBARD", "state": "OH", "street": "619 W LIBERTY ST", "postcode": "44425"}}},
{"geometry": {"type": "Point", "coordinates": [-80.5836907545, 41.1563954125]}, "type": "Feature", "properties": {"collection_times": [{"days": "Mon-Sat", "time": "2:00pm"}, {"days": "Sun", "time": "Closed"}], "id": "4442500010", "name": "USPS COLLECTION BOX - BLUE BOX", "address": {"city": "HUBBARD", "state": "OH", "street": "880 W LIBERTY ST", "postcode": "44425"}}},
{"geometry": {"type": "Point", "coordinates": [-80.5732251165, 41.1564048762]}, "type": "Feature", "properties": {"collection_times": [{"days": "Mon-Sat", "time": "2:00pm"}, {"days": "Sun", "time": "Closed"}], "id": "4442500012", "name": "USPS COLLECTION BOX - BLUE BOX", "address": {"city": "HUBBARD", "state": "OH", "street": "220 W LIBERTY ST", "postcode": "44425"}}},
{"geometry": {"type": "Point", "coordinates": [-80.5678318493, 41.1776650097]}, "type": "Feature", "properties": {"collection_times": [{"days": "Mon-Sat", "time": "8:30am"}, {"days": "Sun", "time": "Closed"}], "id": "4442500016", "name": "USPS COLLECTION BOX - BLUE BOX", "address": {"city": "HUBBARD", "state": "OH", "street": "6965 TRUCK WORLD BLVD", "postcode": "44425"}}},
{"geometry": {"type": "Point", "coordinates": [-80.5675575601, 41.1564167058]}, "type": "Feature", "properties": {"collection_times": [{"days": "Mon-Fri", "time": "5:00pm"}, {"days": "Sat", "time": "3:00pm"}, {"days": "Sun", "time": "Closed"}], "id": "4442500018", "name": "USPS COLLECTION BOX - BLUE BOX", "address": {"city": "HUBBARD", "state": "OH", "street": "44 E LIBERTY ST", "postcode": "44425"}}},
{"geometry": {"type": "Point", "coordinates": [-80.5675575601, 41.1564167058]}, "type": "Feature", "properties": {"collection_times": [{"days": "Mon-Fri", "time": "5:00pm"}, {"days": "Sat", "time": "3:00pm"}, {"days": "Sun", "time": "Closed"}], "id": "4442500020", "name": "USPS COLLECTION BOX - PO LOBBY", "address": {"city": "HUBBARD", "state": "OH", "street": "44 E LIBERTY ST", "postcode": "44425"}}},
{"geometry": {"type": "Point", "coordinates": [-80.5684813794, 41.1820237436]}, "type": "Feature", "properties": {"collection_times": [{"days": "Mon-Sat", "time": "8:30am"}, {"days": "Sun", "time": "Closed"}], "id": "4442500021", "name": "USPS COLLECTION BOX - BLUE BOX", "address": {"city": "HUBBARD", "state": "OH", "street": "2226 N MAIN ST", "postcode": "44425"}}},
{"geometry": {"type": "Point", "coordinates": [-80.9557433337, 40.7353306878]}, "type": "Feature", "properties": {"collection_times": [{"days": "Mon-Fri", "time": "4:00pm"}, {"days": "Sat", "time": "12:00pm"}, {"days": "Sun", "time": "Closed"}], "id": "4442700001", "name": "USPS COLLECTION BOX - PO LOBBY", "address": {"city": "KENSINGTON", "state": "OH", "street": "11011 STATE ROUTE 644", "postcode": "44427"}}},
{"geometry": {"type": "Point", "coordinates": [-80.9557433337, 40.7353306878]}, "type": "Feature", "properties": {"collection_times": [{"days": "Mon-Fri", "time": "4:00pm"}, {"days": "Sat", "time": "11:45am"}, {"days": "Sun", "time": "Closed"}], "id": "4442700002", "name": "USPS COLLECTION BOX - BLUE BOX", "address": {"city": "KENSINGTON", "state": "OH", "street": "11011 STATE ROUTE 644", "postcode": "44427"}}},
{"geometry": {"type": "Point", "coordinates": [-80.5894210077, 41.4464072664]}, "type": "Feature", "properties": {"collection_times": [{"days": "Mon-Fri", "time": "4:15pm"}, {"days": "Sat", "time": "11:45am"}, {"days": "Sun", "time": "Closed"}], "id": "4442800000", "name": "USPS COLLECTION BOX - BLUE BOX", "address": {"city": "KINSMAN", "state": "OH", "street": "8289 STATE ST", "postcode": "44428"}}},
{"geometry": {"type": "Point", "coordinates": [-80.5894210077, 41.4464072664]}, "type": "Feature", "properties": {"collection_times": [{"days": "Mon-Fri", "time": "4:15pm"}, {"days": "Sat", "time": "11:45am"}, {"days": "Sun", "time": "Closed"}], "id": "4442800002", "name": "USPS COLLECTION BOX - PO LOBBY", "address": {"city": "KINSMAN", "state": "OH", "street": "8289 STATE ST", "postcode": "44428"}}},
{"geometry": {"type": "Point", "coordinates": [-80.9841757383, 41.0948502466]}, "type": "Feature", "properties": {"collection_times": [{"days": "Mon-Fri", "time": "4:15pm"}, {"days": "Sat", "time": "11:30am"}, {"days": "Sun", "time": "Closed"}], "id": "4442900000", "name": "USPS COLLECTION BOX - PO LOBBY", "address": {"city": "LAKE MILTON", "state": "OH", "street": "17839 MAHONING AVE", "postcode": "44429"}}},
{"geometry": {"type": "Point", "coordinates": [-80.9841757383, 41.0948502466]}, "type": "Feature", "properties": {"collection_times": [{"days": "Mon-Fri", "time": "4:15pm"}, {"days": "Sat", "time": "11:30am"}, {"days": "Sun", "time": "Closed"}], "id": "4442900001", "name": "USPS COLLECTION BOX - BLUE BOX", "address": {"city": "LAKE MILTON", "state": "OH", "street": "17839 MAHONING AVE", "postcode": "44429"}}},
{"geometry": {"type": "Point", "coordinates": [-80.8691446675, 41.2391564046]}, "type": "Feature", "properties": {"collection_times": [{"days": "Mon-Fri", "time": "4:15pm"}, {"days": "Sat", "time": "11:15am"}, {"days": "Sun", "time": "Closed"}], "id": "4443000001", "name": "USPS COLLECTION BOX - BLUE BOX", "address": {"city": "LEAVITTSBURG", "state": "OH", "street": "3825 W MARKET ST", "postcode": "44430"}}},
{"geometry": {"type": "Point", "coordinates": [-80.8691446675, 41.2391564046]}, "type": "Feature", "properties": {"collection_times": [{"days": "Mon-Fri", "time": "4:15pm"}, {"days": "Sat", "time": "11:15am"}, {"days": "Sun", "time": "Closed"}], "id": "4443000003", "name": "USPS COLLECTION BOX - PO LOBBY", "address": {"city": "LEAVITTSBURG", "state": "OH", "street": "3825 W MARKET ST", "postcode": "44430"}}},
{"geometry": {"type": "Point", "coordinates": [-80.7580175127, 40.8773612215]}, "type": "Feature", "properties": {"collection_times": [{"days": "Mon-Fri", "time": "4:15pm"}, {"days": "Sat", "time": "12:00pm"}, {"days": "Sun", "time": "Closed"}], "id": "4443100000", "name": "USPS COLLECTION BOX - PO LOBBY", "address": {"city": "LEETONIA", "state": "OH", "street": "235 MAIN ST", "postcode": "44431"}}},
{"geometry": {"type": "Point", "coordinates": [-80.7579480191, 40.8772649865]}, "type": "Feature", "properties": {"collection_times": [{"days": "Mon-Fri", "time": "4:15pm"}, {"days": "Sat", "time": "12:00pm"}, {"days": "Sun", "time": "Closed"}], "id": "4443100002", "name": "USPS COLLECTION BOX - BLUE BOX", "address": {"city": "LEETONIA", "state": "OH", "street": "234 MAIN ST", "postcode": "44431"}}},
{"geometry": {"type": "Point", "coordinates": [-80.7728923527, 40.7858666473]}, "type": "Feature", "properties": {"collection_times": [{"days": "Mon-Fri", "time": "4:30pm"}, {"days": "Sat", "time": "3:30pm"}, {"days": "Sun", "time": "Closed"}], "id": "4443200000", "name": "USPS COLLECTION BOX - PO LOBBY", "address": {"city": "LISBON", "state": "OH", "street": "7983 DICKEY DR", "postcode": "44432"}}},
{"geometry": {"type": "Point", "coordinates": [-80.7728923527, 40.7858666473]}, "type": "Feature", "properties": {"collection_times": [{"days": "Mon-Fri", "time": "4:30pm"}, {"days": "Sat", "time": "3:30pm"}, {"days": "Sun", "time": "Closed"}], "id": "4443200002", "name": "USPS COLLECTION BOX - BLUE BOX", "address": {"city": "LISBON", "state": "OH", "street": "7983 DICKEY DR", "postcode": "44432"}}},
{"geometry": {"type": "Point", "coordinates": [-80.7671667564, 40.7722243277]}, "type": "Feature", "properties": {"collection_times": [{"days": "Mon-Sat", "time": "3:00pm"}, {"days": "Sun", "time": "Closed"}], "id": "4443200003", "name": "USPS COLLECTION BOX - BLUE BOX", "address": {"city": "LISBON", "state": "OH", "street": "118 E LINCOLN WAY", "postcode": "44432"}}},
{"geometry": {"type": "Point", "coordinates": [-80.7682763854, 40.7730815416]}, "type": "Feature", "properties": {"collection_times": [{"days": "Mon-Sat", "time": "3:00pm"}, {"days": "Sun", "time": "Closed"}], "id": "4443200005", "name": "USPS COLLECTION BOX - BLUE BOX", "address": {"city": "LISBON", "state": "OH", "street": "38 N PARK AVE", "postcode": "44432"}}},
{"geometry": {"type": "Point", "coordinates": [-80.7743891594, 40.7854825353]}, "type": "Feature", "properties": {"collection_times": [{"days": "Mon-Sat", "time": "9:30am"}, {"days": "Sun", "time": "Closed"}], "id": "4443200011", "name": "USPS COLLECTION BOX - BLUE BOX", "address": {"city": "LISBON", "state": "OH", "street": "7735 STATE ROUTE 45", "postcode": "44432"}}},
{"geometry": {"type": "Point", "coordinates": [-80.7648322279, 40.7720889619]}, "type": "Feature", "properties": {"collection_times": [{"days": "Mon-Sat", "time": "9:30am"}, {"days": "Sun", "time": "Closed"}], "id": "4443200015", "name": "USPS COLLECTION BOX - BLUE BOX", "address": {"city": "LISBON", "state": "OH", "street": "303 E LINCOLN WAY", "postcode": "44432"}}},
{"geometry": {"type": "Point", "coordinates": [-80.768071161, 40.7721319276]}, "type": "Feature", "properties": {"collection_times": [{"days": "Mon-Sat", "time": "3:00pm"}, {"days": "Sun", "time": "Closed"}], "id": "4443200019", "name": "USPS COLLECTION BOX - BLUE BOX", "address": {"city": "LISBON", "state": "OH", "street": "105 S MARKET ST", "postcode": "44432"}}},
{"geometry": {"type": "Point", "coordinates": [-80.5361179882, 41.0365599446]}, "type": "Feature", "properties": {"collection_times": [{"days": "Mon-Fri", "time": "2:00pm"}, {"days": "Sat", "time": "12:00pm"}, {"days": "Sun", "time": "Closed"}], "id": "4443600002", "name": "USPS COLLECTION BOX - BLUE BOX", "address": {"city": "LOWELLVILLE", "state": "OH", "street": "102 E WATER ST", "postcode": "44436"}}},
{"geometry": {"type": "Point", "coordinates": [-80.5362939381, 41.0376373492]}, "type": "Feature", "properties": {"collection_times": [{"days": "Mon-Fri", "time": "4:30pm"}, {"days": "Sat", "time": "12:00pm"}, {"days": "Sun", "time": "Closed"}], "id": "4443600004", "name": "USPS COLLECTION BOX - BLUE BOX", "address": {"city": "LOWELLVILLE", "state": "OH", "street": "10 E LIBERTY ST", "postcode": "44436"}}},
{"geometry": {"type": "Point", "coordinates": [-80.5362939381, 41.0376373492]}, "type": "Feature", "properties": {"collection_times": [{"days": "Mon-Fri", "time": "4:30pm"}, {"days": "Sat", "time": "12:00pm"}, {"days": "Sun", "time": "Closed"}], "id": "4443600005", "name": "USPS COLLECTION BOX - PO LOBBY", "address": {"city": "LOWELLVILLE", "state": "OH", "street": "10 E LIBERTY ST", "postcode": "44436"}}},
{"geometry": {"type": "Point", "coordinates": [-80.72436, 41.16318]}, "type": "Feature", "properties": {"collection_times": [{"days": "Mon-Fri", "time": "5:00pm"}, {"days": "Sat", "time": "11:45am"}, {"days": "Sun", "time": "Closed"}], "id": "4443700000", "name": "USPS COLLECTION BOX - BLUE BOX", "address": {"city": "MCDONALD", "state": "OH", "street": "500 OHIO AVE", "postcode": "44437"}}},
{"geometry": {"type": "Point", "coordinates": [-80.7243481243, 41.1631879629]}, "type": "Feature", "properties": {"collection_times": [{"days": "Mon-Fri", "time": "5:00pm"}, {"days": "Sat", "time": "11:45am"}, {"days": "Sun", "time": "Closed"}], "id": "4443700001", "name": "USPS COLLECTION BOX - BLUE BOX", "address": {"city": "MCDONALD", "state": "OH", "street": "500 OHIO AVE", "postcode": "44437"}}},
{"geometry": {"type": "Point", "coordinates": [-80.7243481243, 41.1631879629]}, "type": "Feature", "properties": {"collection_times": [{"days": "Mon-Fri", "time": "5:00pm"}, {"days": "Sat", "time": "11:45am"}, {"days": "Sun", "time": "Closed"}], "id": "4443700002", "name": "USPS COLLECTION BOX - PO LOBBY", "address": {"city": "MCDONALD", "state": "OH", "street": "500 OHIO AVE", "postcode": "44437"}}},
{"geometry": {"type": "Point", "coordinates": [-80.5358075027, 41.2080778834]}, "type": "Feature", "properties": {"collection_times": [{"days": "Mon-Fri", "time": "5:00pm"}, {"days": "Sat", "time": "12:00pm"}, {"days": "Sun", "time": "Closed"}], "id": "4443800001", "name": "USPS COLLECTION BOX - PO LOBBY", "address": {"city": "MASURY", "state": "OH", "street": "7835 ELM ST", "postcode": "44438"}}},
{"geometry": {"type": "Point", "coordinates": [-80.5358075027, 41.2080778834]}, "type": "Feature", "properties": {"collection_times": [{"days": "Mon-Fri", "time": "5:00pm"}, {"days": "Sat", "time": "11:45am"}, {"days": "Sun", "time": "Closed"}], "id": "4443800003", "name": "USPS COLLECTION BOX - BLUE BOX", "address": {"city": "MASURY", "state": "OH", "street": "7835 ELM ST", "postcode": "44438"}}},
{"geometry": {"type": "Point", "coordinates": [-80.5241324028, 41.2259956302]}, "type": "Feature", "properties": {"collection_times": [{"days": "Mon-Sat", "time": "12:30pm"}, {"days": "Sun", "time": "Closed"}], "id": "4443800006", "name": "USPS COLLECTION BOX - BLUE BOX", "address": {"city": "MASURY", "state": "OH", "street": "655 BROOKFIELD AVE", "postcode": "44438"}}},
{"geometry": {"type": "Point", "coordinates": [-80.9734951946, 41.4584973876]}, "type": "Feature", "properties": {"collection_times": [{"days": "Mon-Fri", "time": "4:00pm"}, {"days": "Sat", "time": "11:15am"}, {"days": "Sun", "time": "Closed"}], "id": "4443900000", "name": "USPS COLLECTION BOX - BLUE BOX", "address": {"city": "MESOPOTAMIA", "state": "OH", "street": "4370 KINSMAN RD", "postcode": "44439"}}},
{"geometry": {"type": "Point", "coordinates": [-80.9734951946, 41.4584973876]}, "type": "Feature", "properties": {"collection_times": [{"days": "Mon-Fri", "time": "4:00pm"}, {"days": "Sat", "time": "11:15am"}, {"days": "Sun", "time": "Closed"}], "id": "4443900001", "name": "USPS COLLECTION BOX - PO LOBBY", "address": {"city": "MESOPOTAMIA", "state": "OH", "street": "4370 KINSMAN RD", "postcode": "44439"}}},
{"geometry": {"type": "Point", "coordinates": [-80.7688782486, 41.1387776046]}, "type": "Feature", "properties": {"collection_times": [{"days": "Mon-Sat", "time": "1:00pm"}, {"days": "Sun", "time": "Closed"}], "id": "4444000002", "name": "USPS COLLECTION BOX - BLUE BOX", "address": {"city": "MINERAL RIDGE", "state": "OH", "street": "3826 MAIN ST", "postcode": "44440"}}},
{"geometry": {"type": "Point", "coordinates": [-80.5387764331, 40.7896624621]}, "type": "Feature", "properties": {"collection_times": [{"days": "Mon-Fri", "time": "4:15pm"}, {"days": "Sat", "time": "11:15am"}, {"days": "Sun", "time": "Closed"}], "id": "4444100000", "name": "USPS COLLECTION BOX - BLUE BOX", "address": {"city": "NEGLEY", "state": "OH", "street": "7560 COMMERCE ST", "postcode": "44441"}}},
{"geometry": {"type": "Point", "coordinates": [-80.5618323234, 40.966089625]}, "type": "Feature", "properties": {"collection_times": [{"days": "Mon-Fri", "time": "4:25pm"}, {"days": "Sat", "time": "11:45am"}, {"days": "Sun", "time": "Closed"}], "id": "4444200000", "name": "USPS COLLECTION BOX - BLUE BOX", "address": {"city": "NEW MIDDLETOWN", "state": "OH", "street": "10399 MAIN ST", "postcode": "44442"}}},
{"geometry": {"type": "Point", "coordinates": [-80.5618323234, 40.966089625]}, "type": "Feature", "properties": {"collection_times": [{"days": "Mon-Fri", "time": "4:45pm"}, {"days": "Sat", "time": "12:00pm"}, {"days": "Sun", "time": "Closed"}], "id": "4444200001", "name": "USPS COLLECTION BOX - PO LOBBY", "address": {"city": "NEW MIDDLETOWN", "state": "OH", "street": "10399 MAIN ST", "postcode": "44442"}}},
{"geometry": {"type": "Point", "coordinates": [-80.6098989478, 40.9147163871]}, "type": "Feature", "properties": {"collection_times": [{"days": "Mon-Fri", "time": "4:00pm"}, {"days": "Sat", "time": "12:00pm"}, {"days": "Sun", "time": "Closed"}], "id": "4444300002", "name": "USPS COLLECTION BOX - BLUE BOX", "address": {"city": "NEW SPRINGFIELD", "state": "OH", "street": "13813 GRANT ST", "postcode": "44443"}}},
{"geometry": {"type": "Point", "coordinates": [-80.9799739196, 41.1899024533]}, "type": "Feature", "properties": {"collection_times": [{"days": "Mon-Fri", "time": "5:00pm"}, {"days": "Sat", "time": "3:15pm"}, {"days": "Sun", "time": "Closed"}], "id": "4444400001", "name": "USPS COLLECTION BOX - PO LOBBY", "address": {"city": "NEWTON FALLS", "state": "OH", "street": "112 RIDGE RD", "postcode": "44444"}}},
{"geometry": {"type": "Point", "coordinates": [-80.9799739196, 41.1899024533]}, "type": "Feature", "properties": {"collection_times": [{"days": "Mon-Fri", "time": "5:00pm"}, {"days": "Sat", "time": "3:15pm"}, {"days": "Sun", "time": "Closed"}], "id": "4444400002", "name": "USPS COLLECTION BOX - BLUE BOX", "address": {"city": "NEWTON FALLS", "state": "OH", "street": "112 RIDGE RD", "postcode": "44444"}}},
{"geometry": {"type": "Point", "coordinates": [-80.9776964307, 41.1885197428]}, "type": "Feature", "properties": {"collection_times": [{"days": "Mon-Sat", "time": "2:15pm"}, {"days": "Sun", "time": "Closed"}], "id": "4444400006", "name": "USPS COLLECTION BOX - BLUE BOX", "address": {"city": "NEWTON FALLS", "state": "OH", "street": "19 N CANAL ST", "postcode": "44444"}}},
{"geometry": {"type": "Point", "coordinates": [-80.9707561108, 41.1863928859]}, "type": "Feature", "properties": {"collection_times": [{"days": "Mon-Sat", "time": "1:00pm"}, {"days": "Sun", "time": "Closed"}], "id": "4444400007", "name": "USPS COLLECTION BOX - BLUE BOX", "address": {"city": "NEWTON FALLS", "state": "OH", "street": "175 E BROAD ST", "postcode": "44444"}}},
{"geometry": {"type": "Point", "coordinates": [-80.6147887561, 40.844658596]}, "type": "Feature", "properties": {"collection_times": [{"days": "Mon-Fri", "time": "4:30pm"}, {"days": "Sat", "time": "11:45am"}, {"days": "Sun", "time": "Closed"}], "id": "4444500000", "name": "USPS COLLECTION BOX - BLUE BOX", "address": {"city": "NEW WATERFORD", "state": "OH", "street": "3818 W MAIN ST", "postcode": "44445"}}},
{"geometry": {"type": "Point", "coordinates": [-80.6147887561, 40.844658596]}, "type": "Feature", "properties": {"collection_times": [{"days": "Mon-Fri", "time": "4:30pm"}, {"days": "Sat", "time": "11:45am"}, {"days": "Sun", "time": "Closed"}], "id": "4444500001", "name": "USPS COLLECTION BOX - PO LOBBY", "address": {"city": "NEW WATERFORD", "state": "OH", "street": "3818 W MAIN ST", "postcode": "44445"}}},
{"geometry": {"type": "Point", "coordinates": [-80.766171006, 41.1803318462]}, "type": "Feature", "properties": {"collection_times": [{"days": "Mon-Fri", "time": "5:00pm"}, {"days": "Sat", "time": "3:00pm"}, {"days": "Sun", "time": "Closed"}], "id": "4444600000", "name": "USPS COLLECTION BOX - PO LOBBY", "address": {"city": "NILES", "state": "OH", "street": "43 W PARK AVE", "postcode": "44446"}}},
{"geometry": {"type": "Point", "coordinates": [-80.7511680488, 41.1877316295]}, "type": "Feature", "properties": {"collection_times": [{"days": "Mon-Fri", "time": "5:00pm"}, {"days": "Sat", "time": "3:00pm"}, {"days": "Sun", "time": "Closed"}], "id": "4444600001", "name": "USPS COLLECTION BOX - EXPRESS", "address": {"city": "NILES", "state": "OH", "street": "43 W PARK AVE", "postcode": "44446"}}},
{"geometry": {"type": "Point", "coordinates": [-80.766171006, 41.1803318462]}, "type": "Feature", "properties": {"collection_times": [{"days": "Mon-Fri", "time": "5:00pm"}, {"days": "Sat", "time": "3:00pm"}, {"days": "Sun", "time": "Closed"}], "id": "4444600002", "name": "USPS COLLECTION BOX - BLUE BOX", "address": {"city": "NILES", "state": "OH", "street": "43 W PARK AVE", "postcode": "44446"}}},
{"geometry": {"type": "Point", "coordinates": [-80.7661057008, 41.1797103326]}, "type": "Feature", "properties": {"collection_times": [{"days": "Mon-Fri", "time": "5:00pm"}, {"days": "Sat", "time": "3:00pm"}, {"days": "Sun", "time": "Closed"}], "id": "4444600003", "name": "USPS COLLECTION BOX - BLUE BOX", "address": {"city": "NILES", "state": "OH", "street": "1 FRANKLIN ALY", "postcode": "44446"}}},
{"geometry": {"type": "Point", "coordinates": [-80.7661057008, 41.1797103326]}, "type": "Feature", "properties": {"collection_times": [{"days": "Mon-Fri", "time": "5:00pm"}, {"days": "Sat", "time": "3:00pm"}, {"days": "Sun", "time": "Closed"}], "id": "4444600005", "name": "USPS COLLECTION BOX - BLUE BOX", "address": {"city": "NILES", "state": "OH", "street": "1 FRANKLIN ALY", "postcode": "44446"}}},
{"geometry": {"type": "Point", "coordinates": [-80.7527279338, 41.2109434722]}, "type": "Feature", "properties": {"collection_times": [{"days": "Mon-Sat", "time": "2:00pm"}, {"days": "Sun", "time": "Closed"}], "id": "4444600008", "name": "USPS COLLECTION BOX - BLUE BOX", "address": {"city": "NILES", "state": "OH", "street": "5555 YOUNGSTOWN WARREN RD", "postcode": "44446"}}},
{"geometry": {"type": "Point", "coordinates": [-80.7527279338, 41.2109434722]}, "type": "Feature", "properties": {"collection_times": [{"days": "Mon-Sat", "time": "2:00pm"}, {"days": "Sun", "time": "Closed"}], "id": "4444600011", "name": "USPS COLLECTION BOX - BLUE BOX", "address": {"city": "NILES", "state": "OH", "street": "5555 YOUNGSTOWN WARREN RD", "postcode": "44446"}}},
{"geometry": {"type": "Point", "coordinates": [-80.728608635, 41.1970540189]}, "type": "Feature", "properties": {"collection_times": [{"days": "Mon-Sat", "time": "1:45pm"}, {"days": "Sun", "time": "Closed"}], "id": "4444600013", "name": "USPS COLLECTION BOX - BLUE BOX", "address": {"city": "NILES", "state": "OH", "street": "815 YOUNGSTOWN WARREN RD", "postcode": "44446"}}},
{"geometry": {"type": "Point", "coordinates": [-80.7427160556, 41.2070625379]}, "type": "Feature", "properties": {"collection_times": [{"days": "Mon-Sat", "time": "1:00pm"}, {"days": "Sun", "time": "Closed"}], "id": "4444600014", "name": "USPS COLLECTION BOX - BLUE BOX", "address": {"city": "NILES", "state": "OH", "street": "6010 YOUNGSTOWN WARREN RD", "postcode": "44446"}}},
{"geometry": {"type": "Point", "coordinates": [-80.7481586916, 41.189342454]}, "type": "Feature", "properties": {"collection_times": [{"days": "Mon-Sat", "time": "1:00pm"}, {"days": "Sun", "time": "Closed"}], "id": "4444600015", "name": "USPS COLLECTION BOX - BLUE BOX", "address": {"city": "NILES", "state": "OH", "street": "6281 YOUNGSTOWN RD", "postcode": "44446"}}},
{"geometry": {"type": "Point", "coordinates": [-80.7851770573, 41.1741457118]}, "type": "Feature", "properties": {"collection_times": [{"days": "Mon-Sat", "time": "1:30pm"}, {"days": "Sun", "time": "Closed"}], "id": "4444600017", "name": "USPS COLLECTION BOX - BLUE BOX", "address": {"city": "NILES", "state": "OH", "street": "1 VALENCIA DR", "postcode": "44446"}}},
{"geometry": {"type": "Point", "coordinates": [-80.7646468044, 41.191321093]}, "type": "Feature", "properties": {"collection_times": [{"days": "Mon-Sat", "time": "11:00am"}, {"days": "Sun", "time": "Closed"}], "id": "4444600020", "name": "USPS COLLECTION BOX - BLUE BOX", "address": {"city": "NILES", "state": "OH", "street": "903 JOHN ST", "postcode": "44446"}}},
{"geometry": {"type": "Point", "coordinates": [-80.7532466289, 41.1826287105]}, "type": "Feature", "properties": {"collection_times": [{"days": "Mon-Sat", "time": "11:00am"}, {"days": "Sun", "time": "Closed"}], "id": "4444600021", "name": "USPS COLLECTION BOX - BLUE BOX", "address": {"city": "NILES", "state": "OH", "street": "501 ROBBINS AVE", "postcode": "44446"}}},
{"geometry": {"type": "Point", "coordinates": [-80.7653534778, 41.1791591289]}, "type": "Feature", "properties": {"collection_times": [{"days": "Mon-Sat", "time": "2:00pm"}, {"days": "Sun", "time": "Closed"}], "id": "4444600022", "name": "USPS COLLECTION BOX - BLUE BOX", "address": {"city": "NILES", "state": "OH", "street": "34 W STATE ST", "postcode": "44446"}}},
{"geometry": {"type": "Point", "coordinates": [-80.7401500902, 41.1795400046]}, "type": "Feature", "properties": {"collection_times": [{"days": "Mon-Sat", "time": "10:00am"}, {"days": "Sun", "time": "Closed"}], "id": "4444600034", "name": "USPS COLLECTION BOX - BLUE BOX", "address": {"city": "NILES", "state": "OH", "street": "204 RUSSELL AVE", "postcode": "44446"}}},
{"geometry": {"type": "Point", "coordinates": [-80.7372388282, 41.1762229877]}, "type": "Feature", "properties": {"collection_times": [{"days": "Mon-Sat", "time": "11:30am"}, {"days": "Sun", "time": "Closed"}], "id": "4444600037", "name": "USPS COLLECTION BOX - BLUE BOX", "address": {"city": "NILES", "state": "OH", "street": "1500 MCKINLEY AVE", "postcode": "44446"}}},
{"geometry": {"type": "Point", "coordinates": [-80.7338011494, 41.1872469823]}, "type": "Feature", "properties": {"collection_times": [{"days": "Mon-Sat", "time": "11:00am"}, {"days": "Sun", "time": "Closed"}], "id": "4444600039", "name": "USPS COLLECTION BOX - BLUE BOX", "address": {"city": "NILES", "state": "OH", "street": "401 BONNIE BRAE AVE", "postcode": "44446"}}},
{"geometry": {"type": "Point", "coordinates": [-80.7656807106, 41.2018943802]}, "type": "Feature", "properties": {"collection_times": [{"days": "Mon-Sat", "time": "2:00pm"}, {"days": "Sun", "time": "Closed"}], "id": "4444600040", "name": "USPS COLLECTION BOX - BLUE BOX", "address": {"city": "NILES", "state": "OH", "street": "5 CAMROSE DR", "postcode": "44446"}}},
{"geometry": {"type": "Point", "coordinates": [-80.7651566597, 41.1814410197]}, "type": "Feature", "properties": {"collection_times": [{"days": "Mon-Sat", "time": "2:00pm"}, {"days": "Sun", "time": "Closed"}], "id": "4444600042", "name": "USPS COLLECTION BOX - BLUE BOX", "address": {"city": "NILES", "state": "OH", "street": "55 N MAIN ST", "postcode": "44446"}}},
{"geometry": {"type": "Point", "coordinates": [-80.7664484509, 41.1979078085]}, "type": "Feature", "properties": {"collection_times": [{"days": "Mon-Sat", "time": "11:00am"}, {"days": "Sun", "time": "Closed"}], "id": "4444600043", "name": "USPS COLLECTION BOX - BLUE BOX", "address": {"city": "NILES", "state": "OH", "street": "26 CASSANDRA DR", "postcode": "44446"}}},
{"geometry": {"type": "Point", "coordinates": [-80.7179327287, 41.1823240406]}, "type": "Feature", "properties": {"collection_times": [{"days": "Mon-Sat", "time": "11:30am"}, {"days": "Sun", "time": "Closed"}], "id": "4444600044", "name": "USPS COLLECTION BOX - BLUE BOX", "address": {"city": "NILES", "state": "OH", "street": "2 YOUNGSTOWN WARREN RD", "postcode": "44446"}}},
{"geometry": {"type": "Point", "coordinates": [-80.7464753718, 41.1997023572]}, "type": "Feature", "properties": {"collection_times": [{"days": "Mon-Sat", "time": "11:00am"}, {"days": "Sun", "time": "Closed"}], "id": "4444600045", "name": "USPS COLLECTION BOX - BLUE BOX", "address": {"city": "NILES", "state": "OH", "street": "19 ANDREA BLVD", "postcode": "44446"}}},
{"geometry": {"type": "Point", "coordinates": [-80.7481586916, 41.189342454]}, "type": "Feature", "properties": {"collection_times": [{"days": "Mon-Sat", "time": "2:00pm"}, {"days": "Sun", "time": "Closed"}], "id": "4444600046", "name": "USPS COLLECTION BOX - BLUE BOX", "address": {"city": "NILES", "state": "OH", "street": "2 EASTWOOD ARMS BLVD", "postcode": "44446"}}},
{"geometry": {"type": "Point", "coordinates": [-80.7644606541, 41.2071150545]}, "type": "Feature", "properties": {"collection_times": [{"days": "Mon-Sat", "time": "2:30pm"}, {"days": "Sun", "time": "Closed"}], "id": "4444600047", "name": "USPS COLLECTION BOX - BLUE BOX", "address": {"city": "NILES", "state": "OH", "street": "1225 1/2 NORTH RD", "postcode": "44446"}}},
{"geometry": {"type": "Point", "coordinates": [-80.7466847555, 41.1936337778]}, "type": "Feature", "properties": {"collection_times": [{"days": "Mon-Sat", "time": "1:00pm"}, {"days": "Sun", "time": "Closed"}], "id": "4444600048", "name": "USPS COLLECTION BOX - BLUE BOX", "address": {"city": "NILES", "state": "OH", "street": "1003 N BENTLEY AVE", "postcode": "44446"}}},
{"geometry": {"type": "Point", "coordinates": [-80.7468915091, 41.2093915604]}, "type": "Feature", "properties": {"collection_times": [{"days": "Mon-Sat", "time": "10:00am"}, {"days": "Sun", "time": "Closed"}], "id": "4444600050", "name": "USPS COLLECTION BOX - BLUE BOX", "address": {"city": "NILES", "state": "OH", "street": "918 GREAT EAST PLZ", "postcode": "44446"}}},
{"geometry": {"type": "Point", "coordinates": [-80.7592807958, 41.1833984119]}, "type": "Feature", "properties": {"collection_times": [{"days": "Mon-Sat", "time": "10:00am"}, {"days": "Sun", "time": "Closed"}], "id": "4444600052", "name": "USPS COLLECTION BOX - BLUE BOX", "address": {"city": "NILES", "state": "OH", "street": "48 VIENNA AVE", "postcode": "44446"}}},
{"geometry": {"type": "Point", "coordinates": [-80.7241826482, 41.1989407074]}, "type": "Feature", "properties": {"collection_times": [{"days": "Mon-Sat", "time": "10:00am"}, {"days": "Sun", "time": "Closed"}], "id": "4444600054", "name": "USPS COLLECTION BOX - BLUE BOX", "address": {"city": "NILES", "state": "OH", "street": "810 NOB HILL DR", "postcode": "44446"}}},
{"geometry": {"type": "Point", "coordinates": [-81.0125370114, 40.9859036928]}, "type": "Feature", "properties": {"collection_times": [{"days": "Mon-Fri", "time": "3:45pm"}, {"days": "Sat", "time": "11:45am"}, {"days": "Sun", "time": "Closed"}], "id": "4444900000", "name": "USPS COLLECTION BOX - BLUE BOX", "address": {"city": "NORTH BENTON", "state": "OH", "street": "9131 12TH ST", "postcode": "44449"}}},
{"geometry": {"type": "Point", "coordinates": [-80.8684897849, 41.4630959258]}, "type": "Feature", "properties": {"collection_times": [{"days": "Mon-Fri", "time": "4:15pm"}, {"days": "Sat", "time": "11:45am"}, {"days": "Sun", "time": "Closed"}], "id": "4445000001", "name": "USPS COLLECTION BOX - BLUE BOX", "address": {"city": "N BLOOMFIELD", "state": "OH", "street": "8829 STATE ROUTE 45", "postcode": "44450"}}},
{"geometry": {"type": "Point", "coordinates": [-80.8570916055, 41.0980360445]}, "type": "Feature", "properties": {"collection_times": [{"days": "Mon-Fri", "time": "4:45pm"}, {"days": "Sat", "time": "11:45am"}, {"days": "Sun", "time": "Closed"}], "id": "4445100001", "name": "USPS COLLECTION BOX - PO LOBBY", "address": {"city": "NORTH JACKSON", "state": "OH", "street": "263 S SALEM WARREN RD", "postcode": "44451"}}},
{"geometry": {"type": "Point", "coordinates": [-80.8570916055, 41.0980360445]}, "type": "Feature", "properties": {"collection_times": [{"days": "Mon-Fri", "time": "4:30pm"}, {"days": "Sat", "time": "11:30am"}, {"days": "Sun", "time": "Closed"}], "id": "4445100002", "name": "USPS COLLECTION BOX - BLUE BOX", "address": {"city": "NORTH JACKSON", "state": "OH", "street": "263 S SALEM WARREN RD", "postcode": "44451"}}},
{"geometry": {"type": "Point", "coordinates": [-80.657244105, 40.949205017]}, "type": "Feature", "properties": {"collection_times": [{"days": "Mon-Fri", "time": "4:30pm"}, {"days": "Sat", "time": "11:30am"}, {"days": "Sun", "time": "Closed"}], "id": "4445200000", "name": "USPS COLLECTION BOX - BLUE BOX", "address": {"city": "NORTH LIMA", "state": "OH", "street": "11675 SOUTH AVE", "postcode": "44452"}}},
{"geometry": {"type": "Point", "coordinates": [-80.657244105, 40.949205017]}, "type": "Feature", "properties": {"collection_times": [{"days": "Mon-Fri", "time": "4:14pm"}, {"days": "Sat", "time": "11:29am"}, {"days": "Sun", "time": "Closed"}], "id": "4445200001", "name": "USPS COLLECTION BOX - PO LOBBY", "address": {"city": "NORTH LIMA", "state": "OH", "street": "11675 SOUTH AVE", "postcode": "44452"}}},
{"geometry": {"type": "Point", "coordinates": [-80.6613076121, 40.974895611]}, "type": "Feature", "properties": {"collection_times": [{"days": "Mon-Sat", "time": "11:00am"}, {"days": "Sun", "time": "Closed"}], "id": "4445200002", "name": "USPS COLLECTION BOX - BLUE BOX", "address": {"city": "NORTH LIMA", "state": "OH", "street": "9159 MARKET ST", "postcode": "44452"}}},
{"geometry": {"type": "Point", "coordinates": [-80.6596350018, 40.9595308684]}, "type": "Feature", "properties": {"collection_times": [{"days": "Mon-Sat", "time": "11:30am"}, {"days": "Sun", "time": "Closed"}], "id": "4445200003", "name": "USPS COLLECTION BOX - BLUE BOX", "address": {"city": "NORTH LIMA", "state": "OH", "street": "10920 MARKET ST", "postcode": "44452"}}},
{"geometry": {"type": "Point", "coordinates": [-80.5191892414, 41.3387720969]}, "type": "Feature", "properties": {"collection_times": [{"days": "Mon-Fri", "time": "4:30pm"}, {"days": "Sat", "time": "11:30am"}, {"days": "Sun", "time": "Closed"}], "id": "4445300000", "name": "USPS COLLECTION BOX - PO LOBBY", "address": {"city": "ORANGEVILLE", "state": "OH", "street": "7401 STATELINE RD", "postcode": "44453"}}},
{"geometry": {"type": "Point", "coordinates": [-80.5191892414, 41.3387720969]}, "type": "Feature", "properties": {"collection_times": [{"days": "Mon-Fri", "time": "4:30pm"}, {"days": "Sat", "time": "11:30am"}, {"days": "Sun", "time": "Closed"}], "id": "4445300001", "name": "USPS COLLECTION BOX - BLUE BOX", "address": {"city": "ORANGEVILLE", "state": "OH", "street": "7401 STATELINE RD", "postcode": "44453"}}},
{"geometry": {"type": "Point", "coordinates": [-80.525657139, 40.9145100741]}, "type": "Feature", "properties": {"collection_times": [{"days": "Mon-Fri", "time": "4:30pm"}, {"days": "Sat", "time": "11:15am"}, {"days": "Sun", "time": "Closed"}], "id": "4445400001", "name": "USPS COLLECTION BOX - BLUE BOX", "address": {"city": "PETERSBURG", "state": "OH", "street": "6363 E GARFIELD RD", "postcode": "44454"}}},
{"geometry": {"type": "Point", "coordinates": [-80.6262072249, 40.7911418972]}, "type": "Feature", "properties": {"collection_times": [{"days": "Mon-Fri", "time": "4:00pm"}, {"days": "Sat", "time": "12:00pm"}, {"days": "Sun", "time": "Closed"}], "id": "4445500000", "name": "USPS COLLECTION BOX - BLUE BOX", "address": {"city": "ROGERS", "state": "OH", "street": "7529 DEPOT ST", "postcode": "44455"}}},
{"geometry": {"type": "Point", "coordinates": [-80.6262072249, 40.7911418972]}, "type": "Feature", "properties": {"collection_times": [{"days": "Mon-Fri", "time": "4:00pm"}, {"days": "Sat", "time": "12:00pm"}, {"days": "Sun", "time": "Closed"}], "id": "4445500001", "name": "USPS COLLECTION BOX - PO LOBBY", "address": {"city": "ROGERS", "state": "OH", "street": "7529 DEPOT ST", "postcode": "44455"}}},
{"geometry": {"type": "Point", "coordinates": [-80.8713606432, 40.9019417993]}, "type": "Feature", "properties": {"collection_times": [{"days": "Mon-Sat", "time": "2:00pm"}, {"days": "Sun", "time": "Closed"}], "id": "4446000002", "name": "USPS COLLECTION BOX - BLUE BOX", "address": {"city": "SALEM", "state": "OH", "street": "1601 GOSHEN RD", "postcode": "44460"}}},
{"geometry": {"type": "Point", "coordinates": [-80.8388745299, 40.8893689848]}, "type": "Feature", "properties": {"collection_times": [{"days": "Mon-Sat", "time": "10:30am"}, {"days": "Sun", "time": "Closed"}], "id": "4446000010", "name": "USPS COLLECTION BOX - BLUE BOX", "address": {"city": "SALEM", "state": "OH", "street": "1434 FRANKLIN RD", "postcode": "44460"}}},
{"geometry": {"type": "Point", "coordinates": [-80.8305086063, 40.8984902621]}, "type": "Feature", "properties": {"collection_times": [{"days": "Mon-Sat", "time": "12:30pm"}, {"days": "Sun", "time": "Closed"}], "id": "4446000014", "name": "USPS COLLECTION BOX - BLUE BOX", "address": {"city": "SALEM", "state": "OH", "street": "2400 SOUTHEAST BLVD", "postcode": "44460"}}},
{"geometry": {"type": "Point", "coordinates": [-80.8313264444, 40.8986355404]}, "type": "Feature", "properties": {"collection_times": [{"days": "Mon-Sat", "time": "12:30pm"}, {"days": "Sun", "time": "Closed"}], "id": "4446000015", "name": "USPS COLLECTION BOX - BLUE BOX", "address": {"city": "SALEM", "state": "OH", "street": "2295 MONROE AVE", "postcode": "44460"}}},
{"geometry": {"type": "Point", "coordinates": [-80.8266520708, 40.9008991024]}, "type": "Feature", "properties": {"collection_times": [{"days": "Mon-Sat", "time": "9:30am"}, {"days": "Sun", "time": "Closed"}], "id": "4446000016", "name": "USPS COLLECTION BOX - BLUE BOX", "address": {"city": "SALEM", "state": "OH", "street": "2401 E STATE ST", "postcode": "44460"}}},
{"geometry": {"type": "Point", "coordinates": [-80.8272209005, 40.9010059052]}, "type": "Feature", "properties": {"collection_times": [{"days": "Mon-Sat", "time": "11:30am"}, {"days": "Sun", "time": "Closed"}], "id": "4446000017", "name": "USPS COLLECTION BOX - BLUE BOX", "address": {"city": "SALEM", "state": "OH", "street": "2356 E STATE ST", "postcode": "44460"}}},
{"geometry": {"type": "Point", "coordinates": [-80.8329300341, 40.9009683056]}, "type": "Feature", "properties": {"collection_times": [{"days": "Mon-Fri", "time": "1:30pm"}, {"days": "Sat", "time": "9:00am"}, {"days": "Sun", "time": "Closed"}], "id": "4446000018", "name": "USPS COLLECTION BOX - BLUE BOX", "address": {"city": "SALEM", "state": "OH", "street": "2020 E STATE ST", "postcode": "44460"}}},
{"geometry": {"type": "Point", "coordinates": [-80.83223075, 40.9009027622]}, "type": "Feature", "properties": {"collection_times": [{"days": "Mon-Fri", "time": "1:30pm"}, {"days": "Sat", "time": "1:00pm"}, {"days": "Sun", "time": "Closed"}], "id": "4446000019", "name": "USPS COLLECTION BOX - BLUE BOX", "address": {"city": "SALEM", "state": "OH", "street": "1995 E STATE ST", "postcode": "44460"}}},
{"geometry": {"type": "Point", "coordinates": [-80.8449258963, 40.9010076972]}, "type": "Feature", "properties": {"collection_times": [{"days": "Mon-Sat", "time": "3:00pm"}, {"days": "Sun", "time": "Closed"}], "id": "4446000021", "name": "USPS COLLECTION BOX - BLUE BOX", "address": {"city": "SALEM", "state": "OH", "street": "1156 E STATE ST", "postcode": "44460"}}},
{"geometry": {"type": "Point", "coordinates": [-80.8543472815, 40.9021682883]}, "type": "Feature", "properties": {"collection_times": [{"days": "Mon-Sat", "time": "3:00pm"}, {"days": "Sun", "time": "Closed"}], "id": "4446000032", "name": "USPS COLLECTION BOX - BLUE BOX", "address": {"city": "SALEM", "state": "OH", "street": "436 E 2ND ST", "postcode": "44460"}}},
{"geometry": {"type": "Point", "coordinates": [-80.8553810138, 40.9012552301]}, "type": "Feature", "properties": {"collection_times": [{"days": "Mon-Sat", "time": "3:00pm"}, {"days": "Sun", "time": "Closed"}], "id": "4446000033", "name": "USPS COLLECTION BOX - BLUE BOX", "address": {"city": "SALEM", "state": "OH", "street": "123 N BROADWAY AVE", "postcode": "44460"}}},
{"geometry": {"type": "Point", "coordinates": [-80.8552529773, 40.90092599]}, "type": "Feature", "properties": {"collection_times": [{"days": "Mon-Sat", "time": "3:00pm"}, {"days": "Sun", "time": "Closed"}], "id": "4446000037", "name": "USPS COLLECTION BOX - BLUE BOX", "address": {"city": "SALEM", "state": "OH", "street": "315 E STATE ST", "postcode": "44460"}}},
{"geometry": {"type": "Point", "coordinates": [-80.853850737, 40.9009170714]}, "type": "Feature", "properties": {"collection_times": [{"days": "Mon-Sat", "time": "3:00pm"}, {"days": "Sun", "time": "Closed"}], "id": "4446000038", "name": "USPS COLLECTION BOX - BLUE BOX", "address": {"city": "SALEM", "state": "OH", "street": "503 E STATE ST", "postcode": "44460"}}},
{"geometry": {"type": "Point", "coordinates": [-80.8524973795, 40.901027315]}, "type": "Feature", "properties": {"collection_times": [{"days": "Mon-Sat", "time": "3:00pm"}, {"days": "Sun", "time": "Closed"}], "id": "4446000039", "name": "USPS COLLECTION BOX - BLUE BOX", "address": {"city": "SALEM", "state": "OH", "street": "600 E STATE ST", "postcode": "44460"}}},
{"geometry": {"type": "Point", "coordinates": [-80.8522322164, 40.8988780645]}, "type": "Feature", "properties": {"collection_times": [{"days": "Mon-Fri", "time": "5:00pm"}, {"days": "Sat", "time": "4:00pm"}, {"days": "Sun", "time": "Closed"}], "id": "4446000042", "name": "USPS COLLECTION BOX - BLUE BOX", "address": {"city": "SALEM", "state": "OH", "street": "275 PENN AVE", "postcode": "44460"}}},
{"geometry": {"type": "Point", "coordinates": [-80.8667640838, 40.9033819017]}, "type": "Feature", "properties": {"collection_times": [{"days": "Mon-Fri", "time": "5:00pm"}, {"days": "Sat", "time": "4:00pm"}, {"days": "Sun", "time": "Closed"}], "id": "4446000047", "name": "USPS COLLECTION BOX - PO LOBBY", "address": {"city": "SALEM", "state": "OH", "street": "275 PENN AVE", "postcode": "44460"}}},
{"geometry": {"type": "Point", "coordinates": [-80.8419123216, 40.8794548374]}, "type": "Feature", "properties": {"collection_times": [{"days": "Mon-Sat", "time": "9:30am"}, {"days": "Sun", "time": "Closed"}], "id": "4446000048", "name": "USPS COLLECTION BOX - BLUE BOX", "address": {"city": "SALEM", "state": "OH", "street": "1827 S LINCOLN AVE", "postcode": "44460"}}},
{"geometry": {"type": "Point", "coordinates": [-80.8667640838, 40.9033819017]}, "type": "Feature", "properties": {"collection_times": [{"days": "Mon-Fri", "time": "5:00pm"}, {"days": "Sat", "time": "4:00pm"}, {"days": "Sun", "time": "Closed"}], "id": "4446000050", "name": "USPS COLLECTION BOX - BLUE BOX", "address": {"city": "SALEM", "state": "OH", "street": "275 PENN AVE", "postcode": "44460"}}},
{"geometry": {"type": "Point", "coordinates": [-80.8227054658, 40.9008947751]}, "type": "Feature", "properties": {"collection_times": [{"days": "Mon-Sat", "time": "10:00am"}, {"days": "Sun", "time": "Closed"}], "id": "4446000051", "name": "USPS COLLECTION BOX - BLUE BOX", "address": {"city": "SALEM", "state": "OH", "street": "2875 E STATE ST", "postcode": "44460"}}},
{"geometry": {"type": "Point", "coordinates": [-80.9651551274, 41.2960110432]}, "type": "Feature", "properties": {"collection_times": [{"days": "Mon-Sat", "time": "11:00am"}, {"days": "Sun", "time": "Closed"}], "id": "4447000000", "name": "USPS COLLECTION BOX - BLUE BOX", "address": {"city": "SOUTHINGTON", "state": "OH", "street": "2870 OAKWOOD AVE", "postcode": "44470"}}},
{"geometry": {"type": "Point", "coordinates": [-80.9558393968, 41.3063825221]}, "type": "Feature", "properties": {"collection_times": [{"days": "Mon-Fri", "time": "4:00pm"}, {"days": "Sat", "time": "11:45am"}, {"days": "Sun", "time": "Closed"}], "id": "4447000001", "name": "USPS COLLECTION BOX - BLUE BOX", "address": {"city": "SOUTHINGTON", "state": "OH", "street": "3307 STATE ROUTE 534", "postcode": "44470"}}},
{"geometry": {"type": "Point", "coordinates": [-80.9558393968, 41.3063825221]}, "type": "Feature", "properties": {"collection_times": [{"days": "Mon-Fri", "time": "4:00pm"}, {"days": "Sat", "time": "11:45am"}, {"days": "Sun", "time": "Closed"}], "id": "4447000002", "name": "USPS COLLECTION BOX - PO LOBBY", "address": {"city": "SOUTHINGTON", "state": "OH", "street": "3307 STATE ROUTE 534", "postcode": "44470"}}},
{"geometry": {"type": "Point", "coordinates": [-80.5888926159, 41.0552228116]}, "type": "Feature", "properties": {"collection_times": [{"days": "Mon-Fri", "time": "5:00pm"}, {"days": "Sat", "time": "3:45pm"}, {"days": "Sun", "time": "Closed"}], "id": "4447100000", "name": "USPS COLLECTION BOX - PO LOBBY", "address": {"city": "STRUTHERS", "state": "OH", "street": "195 S BRIDGE ST", "postcode": "44471"}}},
{"geometry": {"type": "Point", "coordinates": [-80.5888926159, 41.0552228116]}, "type": "Feature", "properties": {"collection_times": [{"days": "Mon-Fri", "time": "5:00pm"}, {"days": "Sat", "time": "3:45pm"}, {"days": "Sun", "time": "Closed"}], "id": "4447100001", "name": "USPS COLLECTION BOX - BLUE BOX", "address": {"city": "STRUTHERS", "state": "OH", "street": "195 S BRIDGE ST", "postcode": "44471"}}},
{"geometry": {"type": "Point", "coordinates": [-80.6159276851, 41.0587856171]}, "type": "Feature", "properties": {"collection_times": [{"days": "Mon-Sat", "time": "3:00pm"}, {"days": "Sun", "time": "Closed"}], "id": "4447100008", "name": "USPS COLLECTION BOX - BLUE BOX", "address": {"city": "STRUTHERS", "state": "OH", "street": "460 YOUNGSTOWN POLAND RD", "postcode": "44471"}}},
{"geometry": {"type": "Point", "coordinates": [-80.5917752313, 41.0564080488]}, "type": "Feature", "properties": {"collection_times": [{"days": "Mon-Sat", "time": "3:00pm"}, {"days": "Sun", "time": "Closed"}], "id": "4447100011", "name": "USPS COLLECTION BOX - BLUE BOX", "address": {"city": "STRUTHERS", "state": "OH", "street": "6 ELM ST", "postcode": "44471"}}},
{"geometry": {"type": "Point", "coordinates": [-80.6036578406, 41.0555207691]}, "type": "Feature", "properties": {"collection_times": [{"days": "Mon-Sat", "time": "3:00pm"}, {"days": "Sun", "time": "Closed"}], "id": "4447100016", "name": "USPS COLLECTION BOX - BLUE BOX", "address": {"city": "STRUTHERS", "state": "OH", "street": "581 5TH ST", "postcode": "44471"}}},
{"geometry": {"type": "Point", "coordinates": [-80.6034139623, 41.0442591804]}, "type": "Feature", "properties": {"collection_times": [{"days": "Mon-Sat", "time": "3:00pm"}, {"days": "Sun", "time": "Closed"}], "id": "4447100027", "name": "USPS COLLECTION BOX - BLUE BOX", "address": {"city": "STRUTHERS", "state": "OH", "street": "1002 5TH ST", "postcode": "44471"}}},
{"geometry": {"type": "Point", "coordinates": [-80.6034135354, 41.0442096561]}, "type": "Feature", "properties": {"collection_times": [{"days": "Mon-Sat", "time": "3:00pm"}, {"days": "Sun", "time": "Closed"}], "id": "4447100028", "name": "USPS COLLECTION BOX - BLUE BOX", "address": {"city": "STRUTHERS", "state": "OH", "street": "1024 5TH ST", "postcode": "44471"}}},
{"geometry": {"type": "Point", "coordinates": [-80.6157871623, 41.0453577928]}, "type": "Feature", "properties": {"collection_times": [{"days": "Mon-Sat", "time": "1:30pm"}, {"days": "Sun", "time": "Closed"}], "id": "4447100031", "name": "USPS COLLECTION BOX - BLUE BOX", "address": {"city": "STRUTHERS", "state": "OH", "street": "1000 YOUNGSTOWN POLAND RD", "postcode": "44471"}}},
{"geometry": {"type": "Point", "coordinates": [-80.6620344798, 41.2378077894]}, "type": "Feature", "properties": {"collection_times": [{"days": "Mon-Fri", "time": "5:00pm"}, {"days": "Sat", "time": "11:45am"}, {"days": "Sun", "time": "Closed"}], "id": "4447300000", "name": "USPS COLLECTION BOX - BLUE BOX", "address": {"city": "VIENNA", "state": "OH", "street": "4411 WARREN SHARON RD", "postcode": "44473"}}},
{"geometry": {"type": "Point", "coordinates": [-80.6620344798, 41.2378077894]}, "type": "Feature", "properties": {"collection_times": [{"days": "Mon-Fri", "time": "5:00pm"}, {"days": "Sat", "time": "11:45am"}, {"days": "Sun", "time": "Closed"}], "id": "4447300001", "name": "USPS COLLECTION BOX - PO LOBBY", "address": {"city": "VIENNA", "state": "OH", "street": "4411 WARREN SHARON RD", "postcode": "44473"}}},
{"geometry": {"type": "Point", "coordinates": [-80.6681651327, 41.2722751172]}, "type": "Feature", "properties": {"collection_times": [{"days": "Mon-Fri", "time": "10:00am"}, {"days": "Sat-Sun", "time": "Closed"}], "id": "4447300002", "name": "USPS COLLECTION BOX - BLUE BOX", "address": {"city": "VIENNA", "state": "OH", "street": "3976 KING GRAVES RD", "postcode": "44473"}}},
{"geometry": {"type": "Point", "coordinates": [-80.8162508307, 41.2376036102]}, "type": "Feature", "properties": {"collection_times": [{"days": "Mon-Sat", "time": "5:00pm"}, {"days": "Sun", "time": "Closed"}], "id": "4448100000", "name": "USPS COLLECTION BOX - BLUE BOX", "address": {"city": "WARREN", "state": "OH", "street": "201 HIGH ST NE", "postcode": "44481"}}},
{"geometry": {"type": "Point", "coordinates": [-80.8162508307, 41.2376036102]}, "type": "Feature", "properties": {"collection_times": [{"days": "Mon-Sat", "time": "5:00pm"}, {"days": "Sun", "time": "Closed"}], "id": "4448100001", "name": "USPS COLLECTION BOX - BLUE BOX", "address": {"city": "WARREN", "state": "OH", "street": "201 HIGH ST NE", "postcode": "44481"}}},
{"geometry": {"type": "Point", "coordinates": [-80.8487177673, 41.2207710514]}, "type": "Feature", "properties": {"collection_times": [{"days": "Mon-Sat", "time": "5:00pm"}, {"days": "Sun", "time": "Closed"}], "id": "4448100004", "name": "USPS COLLECTION BOX - EXPRESS", "address": {"city": "WARREN", "state": "OH", "street": "201 HIGH ST NE", "postcode": "44481"}}},
{"geometry": {"type": "Point", "coordinates": [-80.8162508307, 41.2376036102]}, "type": "Feature", "properties": {"collection_times": [{"days": "Mon-Sat", "time": "5:00pm"}, {"days": "Sun", "time": "Closed"}], "id": "4448100005", "name": "USPS COLLECTION BOX - BLUE BOX", "address": {"city": "WARREN", "state": "OH", "street": "201 HIGH ST NE", "postcode": "44481"}}},
{"geometry": {"type": "Point", "coordinates": [-80.8162508307, 41.2376036102]}, "type": "Feature", "properties": {"collection_times": [{"days": "Mon-Sat", "time": "5:00pm"}, {"days": "Sun", "time": "Closed"}], "id": "4448100006", "name": "USPS COLLECTION BOX - PO LOBBY", "address": {"city": "WARREN", "state": "OH", "street": "201 HIGH ST NE", "postcode": "44481"}}},
{"geometry": {"type": "Point", "coordinates": [-80.7986781679, 41.23646399]}, "type": "Feature", "properties": {"collection_times": [{"days": "Mon-Sat", "time": "9:30am"}, {"days": "Sun", "time": "Closed"}], "id": "4448100013", "name": "USPS COLLECTION BOX - BLUE BOX", "address": {"city": "WARREN", "state": "OH", "street": "1350 E MARKET ST", "postcode": "44481"}}},
{"geometry": {"type": "Point", "coordinates": [-80.8017372998, 41.2658936432]}, "type": "Feature", "properties": {"collection_times": [{"days": "Mon-Sat", "time": "11:00am"}, {"days": "Sun", "time": "Closed"}], "id": "4448100015", "name": "USPS COLLECTION BOX - BLUE BOX", "address": {"city": "WARREN", "state": "OH", "street": "3181 LARCHMONT AVE NE", "postcode": "44481"}}},
{"geometry": {"type": "Point", "coordinates": [-80.7924458196, 41.2536412495]}, "type": "Feature", "properties": {"collection_times": [{"days": "Mon-Sat", "time": "11:00am"}, {"days": "Sun", "time": "Closed"}], "id": "4448100017", "name": "USPS COLLECTION BOX - BLUE BOX", "address": {"city": "WARREN", "state": "OH", "street": "2073 ELM RD NE", "postcode": "44481"}}},
{"geometry": {"type": "Point", "coordinates": [-80.8180597676, 41.2386335368]}, "type": "Feature", "properties": {"collection_times": [{"days": "Mon-Fri", "time": "10:15am"}, {"days": "Sat", "time": "10:00am"}, {"days": "Sun", "time": "Closed"}], "id": "4448100026", "name": "USPS COLLECTION BOX - BLUE BOX", "address": {"city": "WARREN", "state": "OH", "street": "280 N PARK AVE", "postcode": "44481"}}},
{"geometry": {"type": "Point", "coordinates": [-80.8496781651, 41.1659027232]}, "type": "Feature", "properties": {"collection_times": [{"days": "Mon-Sat", "time": "9:30am"}, {"days": "Sun", "time": "Closed"}], "id": "4448100029", "name": "USPS COLLECTION BOX - BLUE BOX", "address": {"city": "WARREN", "state": "OH", "street": "1455 SALT SPRINGS RD", "postcode": "44481"}}},
{"geometry": {"type": "Point", "coordinates": [-80.8161115767, 41.2341422995]}, "type": "Feature", "properties": {"collection_times": [{"days": "Mon-Fri", "time": "9:30am"}, {"days": "Sat-Sun", "time": "Closed"}], "id": "4448100030", "name": "USPS COLLECTION BOX - BLUE BOX", "address": {"city": "WARREN", "state": "OH", "street": "141 SOUTH ST SE", "postcode": "44481"}}},
{"geometry": {"type": "Point", "coordinates": [-80.9056742401, 41.1676912667]}, "type": "Feature", "properties": {"collection_times": [{"days": "Mon-Sat", "time": "11:00am"}, {"days": "Sun", "time": "Closed"}], "id": "4448100035", "name": "USPS COLLECTION BOX - BLUE BOX", "address": {"city": "WARREN", "state": "OH", "street": "3260 SALT SPRINGS RD", "postcode": "44481"}}},
{"geometry": {"type": "Point", "coordinates": [-80.8193290826, 41.2374553097]}, "type": "Feature", "properties": {"collection_times": [{"days": "Mon-Fri", "time": "3:00pm"}, {"days": "Sat", "time": "10:00am"}, {"days": "Sun", "time": "Closed"}], "id": "4448100037", "name": "USPS COLLECTION BOX - BLUE BOX", "address": {"city": "WARREN", "state": "OH", "street": "160 HIGH ST NW", "postcode": "44481"}}},
{"geometry": {"type": "Point", "coordinates": [-80.7862235324, 41.2386999216]}, "type": "Feature", "properties": {"collection_times": [{"days": "Mon-Sat", "time": "10:30am"}, {"days": "Sun", "time": "Closed"}], "id": "4448100038", "name": "USPS COLLECTION BOX - BLUE BOX", "address": {"city": "WARREN", "state": "OH", "street": "270 GARFIELD DR NE", "postcode": "44481"}}},
{"geometry": {"type": "Point", "coordinates": [-80.7761238723, 41.2545431519]}, "type": "Feature", "properties": {"collection_times": [{"days": "Mon-Sat", "time": "11:00am"}, {"days": "Sun", "time": "Closed"}], "id": "4448100041", "name": "USPS COLLECTION BOX - BLUE BOX", "address": {"city": "WARREN", "state": "OH", "street": "1650 CRANBERRY LN NE", "postcode": "44481"}}},
{"geometry": {"type": "Point", "coordinates": [-80.8334744445, 41.2596995889]}, "type": "Feature", "properties": {"collection_times": [{"days": "Mon-Sat", "time": "9:30am"}, {"days": "Sun", "time": "Closed"}], "id": "4448100042", "name": "USPS COLLECTION BOX - BLUE BOX", "address": {"city": "WARREN", "state": "OH", "street": "2700 MAHONING AVE NW", "postcode": "44481"}}},
{"geometry": {"type": "Point", "coordinates": [-80.8227828916, 41.239509924]}, "type": "Feature", "properties": {"collection_times": [{"days": "Mon-Sat", "time": "9:30am"}, {"days": "Sun", "time": "Closed"}], "id": "4448100043", "name": "USPS COLLECTION BOX - BLUE BOX", "address": {"city": "WARREN", "state": "OH", "street": "391 MAHONING AVE NW", "postcode": "44481"}}},
{"geometry": {"type": "Point", "coordinates": [-80.8457139922, 41.2840319772]}, "type": "Feature", "properties": {"collection_times": [{"days": "Mon-Fri", "time": "3:00pm"}, {"days": "Sat", "time": "11:00am"}, {"days": "Sun", "time": "Closed"}], "id": "4448100045", "name": "USPS COLLECTION BOX - BLUE BOX", "address": {"city": "WARREN", "state": "OH", "street": "4617 MAHONING AVE NW", "postcode": "44481"}}},
{"geometry": {"type": "Point", "coordinates": [-80.8287779071, 41.2914905442]}, "type": "Feature", "properties": {"collection_times": [{"days": "Mon-Sat", "time": "9:30am"}, {"days": "Sun", "time": "Closed"}], "id": "4448100046", "name": "USPS COLLECTION BOX - BLUE BOX", "address": {"city": "WARREN", "state": "OH", "street": "632 CHAMPION AVE E", "postcode": "44481"}}},
{"geometry": {"type": "Point", "coordinates": [-80.839874066, 41.2723050958]}, "type": "Feature", "properties": {"collection_times": [{"days": "Mon-Fri", "time": "1:30pm"}, {"days": "Sat", "time": "11:00am"}, {"days": "Sun", "time": "Closed"}], "id": "4448100048", "name": "USPS COLLECTION BOX - BLUE BOX", "address": {"city": "WARREN", "state": "OH", "street": "3991 MAHONING AVE NW", "postcode": "44481"}}},
{"geometry": {"type": "Point", "coordinates": [-80.7986781679, 41.23646399]}, "type": "Feature", "properties": {"collection_times": [{"days": "Mon-Sat", "time": "9:30am"}, {"days": "Sun", "time": "Closed"}], "id": "4448100049", "name": "USPS COLLECTION BOX - BLUE BOX", "address": {"city": "WARREN", "state": "OH", "street": "1350 E MARKET ST", "postcode": "44481"}}},
{"geometry": {"type": "Point", "coordinates": [-80.804199949, 41.174656068]}, "type": "Feature", "properties": {"collection_times": [{"days": "Mon-Sat", "time": "9:30am"}, {"days": "Sun", "time": "Closed"}], "id": "4448100056", "name": "USPS COLLECTION BOX - BLUE BOX", "address": {"city": "WARREN", "state": "OH", "street": "302 EDGEWATER PINES DR SW", "postcode": "44481"}}},
{"geometry": {"type": "Point", "coordinates": [-80.8045191616, 41.1770601025]}, "type": "Feature", "properties": {"collection_times": [{"days": "Mon-Sat", "time": "9:00am"}, {"days": "Sun", "time": "Closed"}], "id": "4448100058", "name": "USPS COLLECTION BOX - BLUE BOX", "address": {"city": "WARREN", "state": "OH", "street": "206 FOREST GLEN RD SW", "postcode": "44481"}}},
{"geometry": {"type": "Point", "coordinates": [-80.8487177673, 41.2207710514]}, "type": "Feature", "properties": {"collection_times": [{"days": "Mon-Sat", "time": "9:00am"}, {"days": "Sun", "time": "Closed"}], "id": "4448100059", "name": "USPS COLLECTION BOX - BLUE BOX", "address": {"city": "WARREN", "state": "OH", "street": "2300 HALLOCK YOUNG RD SW", "postcode": "44481"}}},
{"geometry": {"type": "Point", "coordinates": [-80.8193290826, 41.2374553097]}, "type": "Feature", "properties": {"collection_times": [{"days": "Mon-Fri", "time": "3:00pm"}, {"days": "Sat", "time": "10:00am"}, {"days": "Sun", "time": "Closed"}], "id": "4448100061", "name": "USPS COLLECTION BOX - BLUE BOX", "address": {"city": "WARREN", "state": "OH", "street": "160 HIGH ST NW", "postcode": "44481"}}},
{"geometry": {"type": "Point", "coordinates": [-80.8200768511, 41.2359559006]}, "type": "Feature", "properties": {"collection_times": [{"days": "Mon-Fri", "time": "12:00pm"}, {"days": "Sat", "time": "10:00am"}, {"days": "Sun", "time": "Closed"}], "id": "4448100064", "name": "USPS COLLECTION BOX - BLUE BOX", "address": {"city": "WARREN", "state": "OH", "street": "108 MAIN AVE SW", "postcode": "44481"}}},
{"geometry": {"type": "Point", "coordinates": [-80.8181082689, 41.2361055535]}, "type": "Feature", "properties": {"collection_times": [{"days": "Mon-Fri", "time": "2:00pm"}, {"days": "Sat", "time": "10:00am"}, {"days": "Sun", "time": "Closed"}], "id": "4448100068", "name": "USPS COLLECTION BOX - BLUE BOX", "address": {"city": "WARREN", "state": "OH", "street": "103 W MARKET ST", "postcode": "44481"}}},
{"geometry": {"type": "Point", "coordinates": [-80.790461335, 41.2147046428]}, "type": "Feature", "properties": {"collection_times": [{"days": "Mon-Sat", "time": "5:00pm"}, {"days": "Sun", "time": "Closed"}], "id": "4448400000", "name": "USPS COLLECTION BOX - BLUE BOX", "address": {"city": "WARREN", "state": "OH", "street": "2807 NILES RD SE", "postcode": "44484"}}},
{"geometry": {"type": "Point", "coordinates": [-80.7470962232, 41.2384472884]}, "type": "Feature", "properties": {"collection_times": [{"days": "Mon-Sat", "time": "10:00am"}, {"days": "Sun", "time": "Closed"}], "id": "4448400003", "name": "USPS COLLECTION BOX - BLUE BOX", "address": {"city": "WARREN", "state": "OH", "street": "8044 E MARKET ST", "postcode": "44484"}}},
{"geometry": {"type": "Point", "coordinates": [-80.7697884048, 41.2369905479]}, "type": "Feature", "properties": {"collection_times": [{"days": "Mon-Sat", "time": "9:45am"}, {"days": "Sun", "time": "Closed"}], "id": "4448400006", "name": "USPS COLLECTION BOX - BLUE BOX", "address": {"city": "WARREN", "state": "OH", "street": "3843 E MARKET ST", "postcode": "44484"}}},
{"geometry": {"type": "Point", "coordinates": [-80.784779583, 41.2280661644]}, "type": "Feature", "properties": {"collection_times": [{"days": "Mon-Sat", "time": "10:00am"}, {"days": "Sun", "time": "Closed"}], "id": "4448400013", "name": "USPS COLLECTION BOX - BLUE BOX", "address": {"city": "WARREN", "state": "OH", "street": "920 PERKINS WOOD BLVD SE", "postcode": "44484"}}},
{"geometry": {"type": "Point", "coordinates": [-80.7827271492, 41.2214924614]}, "type": "Feature", "properties": {"collection_times": [{"days": "Mon-Sat", "time": "10:30am"}, {"days": "Sun", "time": "Closed"}], "id": "4448400014", "name": "USPS COLLECTION BOX - BLUE BOX", "address": {"city": "WARREN", "state": "OH", "street": "2911 YOUNGSTOWN RD SE", "postcode": "44484"}}},
{"geometry": {"type": "Point", "coordinates": [-80.7782762156, 41.2313220428]}, "type": "Feature", "properties": {"collection_times": [{"days": "Mon-Sat", "time": "10:00am"}, {"days": "Sun", "time": "Closed"}], "id": "4448400015", "name": "USPS COLLECTION BOX - BLUE BOX", "address": {"city": "WARREN", "state": "OH", "street": "667 EASTLAND AVE SE", "postcode": "44484"}}},
{"geometry": {"type": "Point", "coordinates": [-80.7627422405, 41.2249384208]}, "type": "Feature", "properties": {"collection_times": [{"days": "Mon-Sat", "time": "12:00pm"}, {"days": "Sun", "time": "Closed"}], "id": "4448400016", "name": "USPS COLLECTION BOX - BLUE BOX", "address": {"city": "WARREN", "state": "OH", "street": "4300 HARVARD DR SE", "postcode": "44484"}}},
{"geometry": {"type": "Point", "coordinates": [-80.7630532952, 41.2127337174]}, "type": "Feature", "properties": {"collection_times": [{"days": "Mon-Sat", "time": "10:00am"}, {"days": "Sun", "time": "Closed"}], "id": "4448400018", "name": "USPS COLLECTION BOX - BLUE BOX", "address": {"city": "WARREN", "state": "OH", "street": "2012 NORTH RD SE", "postcode": "44484"}}},
{"geometry": {"type": "Point", "coordinates": [-80.7428585988, 41.2382826037]}, "type": "Feature", "properties": {"collection_times": [{"days": "Mon-Sat", "time": "10:00am"}, {"days": "Sun", "time": "Closed"}], "id": "4448400019", "name": "USPS COLLECTION BOX - BLUE BOX", "address": {"city": "WARREN", "state": "OH", "street": "8260 E MARKET ST", "postcode": "44484"}}},
{"geometry": {"type": "Point", "coordinates": [-80.7338342443, 41.2379744072]}, "type": "Feature", "properties": {"collection_times": [{"days": "Mon-Sat", "time": "10:00am"}, {"days": "Sun", "time": "Closed"}], "id": "4448400023", "name": "USPS COLLECTION BOX - BLUE BOX", "address": {"city": "WARREN", "state": "OH", "street": "8700 E MARKET ST", "postcode": "44484"}}},
{"geometry": {"type": "Point", "coordinates": [-80.7406212638, 41.2396871446]}, "type": "Feature", "properties": {"collection_times": [{"days": "Mon-Fri", "time": "4:15pm"}, {"days": "Sat", "time": "12:00pm"}, {"days": "Sun", "time": "Closed"}], "id": "4448400026", "name": "USPS COLLECTION BOX - BLUE BOX", "address": {"city": "WARREN", "state": "OH", "street": "205 NILES CORTLAND RD NE", "postcode": "44484"}}},
{"geometry": {"type": "Point", "coordinates": [-80.790461335, 41.2147046428]}, "type": "Feature", "properties": {"collection_times": [{"days": "Mon-Sat", "time": "5:00pm"}, {"days": "Sun", "time": "Closed"}], "id": "4448400030", "name": "USPS COLLECTION BOX - PO LOBBY", "address": {"city": "WARREN", "state": "OH", "street": "2807 NILES RD SE", "postcode": "44484"}}},
{"geometry": {"type": "Point", "coordinates": [-80.7406212638, 41.2396871446]}, "type": "Feature", "properties": {"collection_times": [{"days": "Mon-Fri", "time": "4:15pm"}, {"days": "Sat", "time": "12:00pm"}, {"days": "Sun", "time": "Closed"}], "id": "4448400031", "name": "USPS COLLECTION BOX - BLUE BOX", "address": {"city": "WARREN", "state": "OH", "street": "205 NILES CORTLAND RD NE", "postcode": "44484"}}},
{"geometry": {"type": "Point", "coordinates": [-80.836153125, 41.2344328495]}, "type": "Feature", "properties": {"collection_times": [{"days": "Mon-Sat", "time": "3:00pm"}, {"days": "Sun", "time": "Closed"}], "id": "4448500000", "name": "USPS COLLECTION BOX - BLUE BOX", "address": {"city": "WARREN", "state": "OH", "street": "1312 W MARKET ST", "postcode": "44485"}}},
{"geometry": {"type": "Point", "coordinates": [-80.835721345, 41.2217243213]}, "type": "Feature", "properties": {"collection_times": [{"days": "Mon-Sat", "time": "10:00am"}, {"days": "Sun", "time": "Closed"}], "id": "4448500005", "name": "USPS COLLECTION BOX - BLUE BOX", "address": {"city": "WARREN", "state": "OH", "street": "1244 5TH ST SW", "postcode": "44485"}}},
{"geometry": {"type": "Point", "coordinates": [-80.8553797145, 41.2519171731]}, "type": "Feature", "properties": {"collection_times": [{"days": "Mon-Sat", "time": "11:15am"}, {"days": "Sun", "time": "Closed"}], "id": "4448500007", "name": "USPS COLLECTION BOX - BLUE BOX", "address": {"city": "WARREN", "state": "OH", "street": "2565 PARKMAN RD NW", "postcode": "44485"}}},
{"geometry": {"type": "Point", "coordinates": [-80.8428167328, 41.2445554294]}, "type": "Feature", "properties": {"collection_times": [{"days": "Mon-Sat", "time": "11:00am"}, {"days": "Sun", "time": "Closed"}], "id": "4448500011", "name": "USPS COLLECTION BOX - BLUE BOX", "address": {"city": "WARREN", "state": "OH", "street": "1560 PARKMAN RD NW", "postcode": "44485"}}},
{"geometry": {"type": "Point", "coordinates": [-80.8276597214, 41.2351236232]}, "type": "Feature", "properties": {"collection_times": [{"days": "Mon-Sat", "time": "10:00am"}, {"days": "Sun", "time": "Closed"}], "id": "4448500015", "name": "USPS COLLECTION BOX - BLUE BOX", "address": {"city": "WARREN", "state": "OH", "street": "700 BUCKEYE ST NW", "postcode": "44485"}}},
{"geometry": {"type": "Point", "coordinates": [-80.7634611548, 40.9005698781]}, "type": "Feature", "properties": {"collection_times": [{"days": "Mon-Fri", "time": "4:15pm"}, {"days": "Sat", "time": "11:30am"}, {"days": "Sun", "time": "Closed"}], "id": "4449000000", "name": "USPS COLLECTION BOX - BLUE BOX", "address": {"city": "WASHINGTONVILLE", "state": "OH", "street": "195 E MAIN ST", "postcode": "44490"}}},
{"geometry": {"type": "Point", "coordinates": [-80.7634611548, 40.9005698781]}, "type": "Feature", "properties": {"collection_times": [{"days": "Mon-Fri", "time": "4:15pm"}, {"days": "Sat", "time": "11:30am"}, {"days": "Sun", "time": "Closed"}], "id": "4449000001", "name": "USPS COLLECTION BOX - PO LOBBY", "address": {"city": "WASHINGTONVILLE", "state": "OH", "street": "195 E MAIN ST", "postcode": "44490"}}},
{"geometry": {"type": "Point", "coordinates": [-80.7757084797, 40.900749292]}, "type": "Feature", "properties": {"collection_times": [{"days": "Mon-Sat", "time": "11:30am"}, {"days": "Sun", "time": "Closed"}], "id": "4449000002", "name": "USPS COLLECTION BOX - BLUE BOX", "address": {"city": "WASHINGTONVILLE", "state": "OH", "street": "900 W MAIN ST", "postcode": "44490"}}},
{"geometry": {"type": "Point", "coordinates": [-80.9669961781, 41.3904127816]}, "type": "Feature", "properties": {"collection_times": [{"days": "Mon-Fri", "time": "2:30pm"}, {"days": "Sat", "time": "11:15am"}, {"days": "Sun", "time": "Closed"}], "id": "4449100000", "name": "USPS COLLECTION BOX - PO LOBBY", "address": {"city": "WEST FARMINGTON", "state": "OH", "street": "226 E MAIN ST", "postcode": "44491"}}},
{"geometry": {"type": "Point", "coordinates": [-80.9669961781, 41.3904127816]}, "type": "Feature", "properties": {"collection_times": [{"days": "Mon-Fri", "time": "4:15pm"}, {"days": "Sat", "time": "11:15am"}, {"days": "Sun", "time": "Closed"}], "id": "4449100001", "name": "USPS COLLECTION BOX - BLUE BOX", "address": {"city": "WEST FARMINGTON", "state": "OH", "street": "226 E MAIN ST", "postcode": "44491"}}},
{"geometry": {"type": "Point", "coordinates": [-80.8947751802, 40.8280481916]}, "type": "Feature", "properties": {"collection_times": [{"days": "Mon-Fri", "time": "4:30pm"}, {"days": "Sat", "time": "11:30am"}, {"days": "Sun", "time": "Closed"}], "id": "4449300000", "name": "USPS COLLECTION BOX - PO LOBBY", "address": {"city": "WINONA", "state": "OH", "street": "32036 WINONA RD", "postcode": "44493"}}},
{"geometry": {"type": "Point", "coordinates": [-80.8947751802, 40.8280481916]}, "type": "Feature", "properties": {"collection_times": [{"days": "Mon-Fri", "time": "4:30pm"}, {"days": "Sat", "time": "11:30am"}, {"days": "Sun", "time": "Closed"}], "id": "4449300002", "name": "USPS COLLECTION BOX - BLUE BOX", "address": {"city": "WINONA", "state": "OH", "street": "32036 WINONA RD", "postcode": "44493"}}}
]}
