{"type": "FeatureCollection", "features": [
{"geometry": {"type": "Point", "coordinates": [-80.6476225407, 41.0982097019]}, "type": "Feature", "properties": {"collection_times": [{"days": "Mon-Fri", "time": "7:00pm"}, {"days": "Sat", "time": "5:00pm"}, {"days": "Sun", "time": "Closed"}], "id": "4450100000", "name": "USPS COLLECTION BOX - BLUE BOX", "address": {"city": "YOUNGSTOWN", "state": "OH", "street": "99 S WALNUT ST", "postcode": "44501"}}},
{"geometry": {"type": "Point", "coordinates": [-80.6477265029, 41.0982114812]}, "type": "Feature", "properties": {"collection_times": [{"days": "Mon-Sat", "time": "5:00pm"}, {"days": "Sun", "time": "Closed"}], "id": "4450100001", "name": "USPS COLLECTION BOX - EXPRESS", "address": {"city": "YOUNGSTOWN", "state": "OH", "street": "99 S WALNUT ST", "postcode": "44501"}}},
{"geometry": {"type": "Point", "coordinates": [-80.6476225407, 41.0982097019]}, "type": "Feature", "properties": {"collection_times": [{"days": "Mon-Fri", "time": "7:00pm"}, {"days": "Sat", "time": "5:00pm"}, {"days": "Sun", "time": "Closed"}], "id": "4450100002", "name": "USPS COLLECTION BOX - PO LOBBY", "address": {"city": "YOUNGSTOWN", "state": "OH", "street": "99 S WALNUT ST", "postcode": "44501"}}},
{"geometry": {"type": "Point", "coordinates": [-80.6672908732, 41.1128866468]}, "type": "Feature", "properties": {"collection_times": [{"days": "Mon-Sat", "time": "12:00pm"}, {"days": "Sun", "time": "Closed"}], "id": "4450200001", "name": "USPS COLLECTION BOX - BLUE BOX", "address": {"city": "YOUNGSTOWN", "state": "OH", "street": "1223 TEAMSTER DR", "postcode": "44502"}}},
{"geometry": {"type": "Point", "coordinates": [-80.6594316863, 41.0970327996]}, "type": "Feature", "properties": {"collection_times": [{"days": "Mon-Sat", "time": "9:00am"}, {"days": "Sun", "time": "Closed"}], "id": "4450200023", "name": "USPS COLLECTION BOX - BLUE BOX", "address": {"city": "YOUNGSTOWN", "state": "OH", "street": "345 OAK HILL AVE", "postcode": "44502"}}},
{"geometry": {"type": "Point", "coordinates": [-80.6368267538, 41.0608135175]}, "type": "Feature", "properties": {"collection_times": [{"days": "Mon-Sat", "time": "12:30pm"}, {"days": "Sun", "time": "Closed"}], "id": "4450200035", "name": "USPS COLLECTION BOX - BLUE BOX", "address": {"city": "YOUNGSTOWN", "state": "OH", "street": "920 E MIDLOTHIAN BLVD", "postcode": "44502"}}},
{"geometry": {"type": "Point", "coordinates": [-80.6450005942, 41.0608469693]}, "type": "Feature", "properties": {"collection_times": [{"days": "Mon-Sat", "time": "10:30am"}, {"days": "Sun", "time": "Closed"}], "id": "4450200036", "name": "USPS COLLECTION BOX - BLUE BOX", "address": {"city": "YOUNGSTOWN", "state": "OH", "street": "540 E MIDLOTHIAN BLVD", "postcode": "44502"}}},
{"geometry": {"type": "Point", "coordinates": [-80.648414454, 41.1046226657]}, "type": "Feature", "properties": {"collection_times": [{"days": "Mon-Sat", "time": "9:30am"}, {"days": "Sun", "time": "Closed"}], "id": "4450200048", "name": "USPS COLLECTION BOX - BLUE BOX", "address": {"city": "YOUNGSTOWN", "state": "OH", "street": "133 LINCOLN AVE", "postcode": "44502"}}},
{"geometry": {"type": "Point", "coordinates": [-80.6497062111, 41.0990187785]}, "type": "Feature", "properties": {"collection_times": [{"days": "Mon-Fri", "time": "2:00pm"}, {"days": "Sat-Sun", "time": "Closed"}], "id": "4450300002", "name": "USPS COLLECTION BOX - BLUE BOX", "address": {"city": "YOUNGSTOWN", "state": "OH", "street": "25 E BOARDMAN ST", "postcode": "44503"}}},
{"geometry": {"type": "Point", "coordinates": [-80.6508155715, 41.1004053539]}, "type": "Feature", "properties": {"collection_times": [{"days": "Mon-Fri", "time": "1:30pm"}, {"days": "Sat", "time": "11:30am"}, {"days": "Sun", "time": "Closed"}], "id": "4450300003", "name": "USPS COLLECTION BOX - BLUE BOX", "address": {"city": "YOUNGSTOWN", "state": "OH", "street": "26 S PHELPS ST", "postcode": "44503"}}},
{"geometry": {"type": "Point", "coordinates": [-80.6481567385, 41.0989876311]}, "type": "Feature", "properties": {"collection_times": [{"days": "Mon-Fri", "time": "1:30pm"}, {"days": "Sat-Sun", "time": "Closed"}], "id": "4450300004", "name": "USPS COLLECTION BOX - BLUE BOX", "address": {"city": "YOUNGSTOWN", "state": "OH", "street": "275 W FEDERAL ST", "postcode": "44503"}}},
{"geometry": {"type": "Point", "coordinates": [-80.6481567385, 41.0989876311]}, "type": "Feature", "properties": {"collection_times": [{"days": "Mon-Fri", "time": "2:00pm"}, {"days": "Sat", "time": "12:00pm"}, {"days": "Sun", "time": "Closed"}], "id": "4450300005", "name": "USPS COLLECTION BOX - BLUE BOX", "address": {"city": "YOUNGSTOWN", "state": "OH", "street": "100 E FEDERAL ST", "postcode": "44503"}}},
{"geometry": {"type": "Point", "coordinates": [-80.6505979899, 41.1006898793]}, "type": "Feature", "properties": {"collection_times": [{"days": "Mon-Fri", "time": "1:45pm"}, {"days": "Sat", "time": "12:00pm"}, {"days": "Sun", "time": "Closed"}], "id": "4450300007", "name": "USPS COLLECTION BOX - BLUE BOX", "address": {"city": "YOUNGSTOWN", "state": "OH", "street": "6 FEDERAL PLAZA C W", "postcode": "44503"}}},
{"geometry": {"type": "Point", "coordinates": [-80.6508146993, 41.0983315202]}, "type": "Feature", "properties": {"collection_times": [{"days": "Mon-Fri", "time": "2:00pm"}, {"days": "Sat", "time": "12:00pm"}, {"days": "Sun", "time": "Closed"}], "id": "4450300010", "name": "USPS COLLECTION BOX - BLUE BOX", "address": {"city": "YOUNGSTOWN", "state": "OH", "street": "9 W FRONT ST", "postcode": "44503"}}},
{"geometry": {"type": "Point", "coordinates": [-80.6501256196, 41.1027812968]}, "type": "Feature", "properties": {"collection_times": [{"days": "Mon-Fri", "time": "1:30pm"}, {"days": "Sat", "time": "9:00am"}, {"days": "Sun", "time": "Closed"}], "id": "4450300012", "name": "USPS COLLECTION BOX - BLUE BOX", "address": {"city": "YOUNGSTOWN", "state": "OH", "street": "144 W WOOD ST", "postcode": "44503"}}},
{"geometry": {"type": "Point", "coordinates": [-80.6481567385, 41.0989876311]}, "type": "Feature", "properties": {"collection_times": [{"days": "Mon-Fri", "time": "1:45pm"}, {"days": "Sat", "time": "9:30am"}, {"days": "Sun", "time": "Closed"}], "id": "4450300023", "name": "USPS COLLECTION BOX - BLUE BOX", "address": {"city": "YOUNGSTOWN", "state": "OH", "street": "1 W FEDERAL ST", "postcode": "44503"}}},
{"geometry": {"type": "Point", "coordinates": [-80.6481567385, 41.0989876311]}, "type": "Feature", "properties": {"collection_times": [{"days": "Mon-Fri", "time": "1:45pm"}, {"days": "Sat", "time": "9:30am"}, {"days": "Sun", "time": "Closed"}], "id": "4450300024", "name": "USPS COLLECTION BOX - BLUE BOX", "address": {"city": "YOUNGSTOWN", "state": "OH", "street": "1 W FEDERAL ST", "postcode": "44503"}}},
{"geometry": {"type": "Point", "coordinates": [-80.6503139248, 41.0988582343]}, "type": "Feature", "properties": {"collection_times": [{"days": "Mon-Fri", "time": "1:30pm"}, {"days": "Sat-Sun", "time": "Closed"}], "id": "4450300037", "name": "USPS COLLECTION BOX - BLUE BOX", "address": {"city": "YOUNGSTOWN", "state": "OH", "street": "120 MARKET ST", "postcode": "44503"}}},
{"geometry": {"type": "Point", "coordinates": [-80.6481567385, 41.0989876311]}, "type": "Feature", "properties": {"collection_times": [{"days": "Mon-Fri", "time": "2:00pm"}, {"days": "Sat-Sun", "time": "Closed"}], "id": "4450300042", "name": "USPS COLLECTION BOX - BLUE BOX", "address": {"city": "YOUNGSTOWN", "state": "OH", "street": "250 E FEDERAL ST", "postcode": "44503"}}},
{"geometry": {"type": "Point", "coordinates": [-80.6464001672, 41.0999493617]}, "type": "Feature", "properties": {"collection_times": [{"days": "Mon-Fri", "time": "2:00pm"}, {"days": "Sat", "time": "11:00am"}, {"days": "Sun", "time": "Closed"}], "id": "4450300043", "name": "USPS COLLECTION BOX - BLUE BOX", "address": {"city": "YOUNGSTOWN", "state": "OH", "street": "201 E COMMERCE ST", "postcode": "44503"}}},
{"geometry": {"type": "Point", "coordinates": [-80.6483323911, 41.1009366334]}, "type": "Feature", "properties": {"collection_times": [{"days": "Mon-Fri", "time": "1:30pm"}, {"days": "Sat", "time": "12:00pm"}, {"days": "Sun", "time": "Closed"}], "id": "4450300050", "name": "USPS COLLECTION BOX - BLUE BOX", "address": {"city": "YOUNGSTOWN", "state": "OH", "street": "20 COMMERCE ST", "postcode": "44503"}}},
{"geometry": {"type": "Point", "coordinates": [-80.6508155715, 41.1004053539]}, "type": "Feature", "properties": {"collection_times": [{"days": "Mon-Fri", "time": "1:30pm"}, {"days": "Sat", "time": "11:30am"}, {"days": "Sun", "time": "Closed"}], "id": "4450300062", "name": "USPS COLLECTION BOX - BLUE BOX", "address": {"city": "YOUNGSTOWN", "state": "OH", "street": "26 S PHELPS ST", "postcode": "44503"}}},
{"geometry": {"type": "Point", "coordinates": [-80.6516503102, 41.0998337056]}, "type": "Feature", "properties": {"collection_times": [{"days": "Mon-Fri", "time": "1:30pm"}, {"days": "Sat", "time": "12:00pm"}, {"days": "Sun", "time": "Closed"}], "id": "4450300064", "name": "USPS COLLECTION BOX - BLUE BOX", "address": {"city": "YOUNGSTOWN", "state": "OH", "street": "131 W BOARDMAN ST", "postcode": "44503"}}},
{"geometry": {"type": "Point", "coordinates": [-80.6481567385, 41.0989876311]}, "type": "Feature", "properties": {"collection_times": [{"days": "Mon-Fri", "time": "1:30pm"}, {"days": "Sat", "time": "12:00pm"}, {"days": "Sun", "time": "Closed"}], "id": "4450300067", "name": "USPS COLLECTION BOX - BLUE BOX", "address": {"city": "YOUNGSTOWN", "state": "OH", "street": "242 W FEDERAL ST", "postcode": "44503"}}},
{"geometry": {"type": "Point", "coordinates": [-80.651378417, 41.1180004405]}, "type": "Feature", "properties": {"collection_times": [{"days": "Mon-Sat", "time": "9:00am"}, {"days": "Sun", "time": "Closed"}], "id": "4450400005", "name": "USPS COLLECTION BOX - BLUE BOX", "address": {"city": "YOUNGSTOWN", "state": "OH", "street": "1350 5TH AVE", "postcode": "44504"}}},
{"geometry": {"type": "Point", "coordinates": [-80.6578449251, 41.1336952385]}, "type": "Feature", "properties": {"collection_times": [{"days": "Mon-Sat", "time": "3:15pm"}, {"days": "Sun", "time": "Closed"}], "id": "4450400006", "name": "USPS COLLECTION BOX - BLUE BOX", "address": {"city": "YOUNGSTOWN", "state": "OH", "street": "500 GYPSY LN", "postcode": "44504"}}},
{"geometry": {"type": "Point", "coordinates": [-80.660069683, 41.1336494775]}, "type": "Feature", "properties": {"collection_times": [{"days": "Mon-Sat", "time": "3:10pm"}, {"days": "Sun", "time": "Closed"}], "id": "4450400007", "name": "USPS COLLECTION BOX - BLUE BOX", "address": {"city": "YOUNGSTOWN", "state": "OH", "street": "526 GYPSY LN", "postcode": "44504"}}},
{"geometry": {"type": "Point", "coordinates": [-80.6554226963, 41.1131692892]}, "type": "Feature", "properties": {"collection_times": [{"days": "Mon-Sat", "time": "10:00am"}, {"days": "Sun", "time": "Closed"}], "id": "4450400008", "name": "USPS COLLECTION BOX - BLUE BOX", "address": {"city": "YOUNGSTOWN", "state": "OH", "street": "1001 BELMONT AVE", "postcode": "44504"}}},
{"geometry": {"type": "Point", "coordinates": [-80.6597734184, 41.121882002]}, "type": "Feature", "properties": {"collection_times": [{"days": "Mon-Fri", "time": "5:00pm"}, {"days": "Sat", "time": "12:00pm"}, {"days": "Sun", "time": "Closed"}], "id": "4450400014", "name": "USPS COLLECTION BOX - BLUE BOX", "address": {"city": "YOUNGSTOWN", "state": "OH", "street": "1716 GUADALUPE AVE", "postcode": "44504"}}},
{"geometry": {"type": "Point", "coordinates": [-80.6557536675, 41.1141906815]}, "type": "Feature", "properties": {"collection_times": [{"days": "Mon-Fri", "time": "1:00pm"}, {"days": "Sat", "time": "10:00am"}, {"days": "Sun", "time": "Closed"}], "id": "4450400017", "name": "USPS COLLECTION BOX - BLUE BOX", "address": {"city": "YOUNGSTOWN", "state": "OH", "street": "1044 BELMONT AVE", "postcode": "44504"}}},
{"geometry": {"type": "Point", "coordinates": [-80.6597734184, 41.121882002]}, "type": "Feature", "properties": {"collection_times": [{"days": "Mon-Fri", "time": "5:00pm"}, {"days": "Sat", "time": "12:00pm"}, {"days": "Sun", "time": "Closed"}], "id": "4450400021", "name": "USPS COLLECTION BOX - PO LOBBY", "address": {"city": "YOUNGSTOWN", "state": "OH", "street": "1716 GUADALUPE AVE", "postcode": "44504"}}},
{"geometry": {"type": "Point", "coordinates": [-80.6093667293, 41.0905300443]}, "type": "Feature", "properties": {"collection_times": [{"days": "Mon-Sat", "time": "9:30am"}, {"days": "Sun", "time": "Closed"}], "id": "4450500001", "name": "USPS COLLECTION BOX - BLUE BOX", "address": {"city": "YOUNGSTOWN", "state": "OH", "street": "769 MCCARTNEY RD", "postcode": "44505"}}},
{"geometry": {"type": "Point", "coordinates": [-80.6648559965, 41.1668079558]}, "type": "Feature", "properties": {"collection_times": [{"days": "Mon-Sat", "time": "11:15am"}, {"days": "Sun", "time": "Closed"}], "id": "4450500011", "name": "USPS COLLECTION BOX - BLUE BOX", "address": {"city": "YOUNGSTOWN", "state": "OH", "street": "4800 BELMONT AVE", "postcode": "44505"}}},
{"geometry": {"type": "Point", "coordinates": [-80.6652380308, 41.148771242]}, "type": "Feature", "properties": {"collection_times": [{"days": "Mon-Sat", "time": "9:45am"}, {"days": "Sun", "time": "Closed"}], "id": "4450500012", "name": "USPS COLLECTION BOX - BLUE BOX", "address": {"city": "YOUNGSTOWN", "state": "OH", "street": "3622 BELMONT AVE", "postcode": "44505"}}},
{"geometry": {"type": "Point", "coordinates": [-80.6649375592, 41.1530831274]}, "type": "Feature", "properties": {"collection_times": [{"days": "Mon-Sat", "time": "10:00am"}, {"days": "Sun", "time": "Closed"}], "id": "4450500013", "name": "USPS COLLECTION BOX - BLUE BOX", "address": {"city": "YOUNGSTOWN", "state": "OH", "street": "3999 BELMONT AVE", "postcode": "44505"}}},
{"geometry": {"type": "Point", "coordinates": [-80.6641627211, 41.1370173617]}, "type": "Feature", "properties": {"collection_times": [{"days": "Mon-Sat", "time": "9:45am"}, {"days": "Sun", "time": "Closed"}], "id": "4450500014", "name": "USPS COLLECTION BOX - BLUE BOX", "address": {"city": "YOUNGSTOWN", "state": "OH", "street": "17 COLONIAL DR", "postcode": "44505"}}},
{"geometry": {"type": "Point", "coordinates": [-80.6655089284, 41.1396719216]}, "type": "Feature", "properties": {"collection_times": [{"days": "Mon-Sat", "time": "10:00am"}, {"days": "Sun", "time": "Closed"}], "id": "4450500016", "name": "USPS COLLECTION BOX - BLUE BOX", "address": {"city": "YOUNGSTOWN", "state": "OH", "street": "3180 BELMONT AVE", "postcode": "44505"}}},
{"geometry": {"type": "Point", "coordinates": [-80.6401930294, 41.1624089319]}, "type": "Feature", "properties": {"collection_times": [{"days": "Mon-Sat", "time": "9:30am"}, {"days": "Sun", "time": "Closed"}], "id": "4450500017", "name": "USPS COLLECTION BOX - BLUE BOX", "address": {"city": "YOUNGSTOWN", "state": "OH", "street": "1315 CHURCHILL HUBBARD RD", "postcode": "44505"}}},
{"geometry": {"type": "Point", "coordinates": [-80.5825043191, 41.1177357899]}, "type": "Feature", "properties": {"collection_times": [{"days": "Mon-Sat", "time": "1:00pm"}, {"days": "Sun", "time": "Closed"}], "id": "4450500019", "name": "USPS COLLECTION BOX - BLUE BOX", "address": {"city": "YOUNGSTOWN", "state": "OH", "street": "3211 MCGUFFEY RD", "postcode": "44505"}}},
{"geometry": {"type": "Point", "coordinates": [-80.6276420587, 41.1270617941]}, "type": "Feature", "properties": {"collection_times": [{"days": "Mon-Sat", "time": "2:00pm"}, {"days": "Sun", "time": "Closed"}], "id": "4450500020", "name": "USPS COLLECTION BOX - BLUE BOX", "address": {"city": "YOUNGSTOWN", "state": "OH", "street": "1900 HUBBARD RD", "postcode": "44505"}}},
{"geometry": {"type": "Point", "coordinates": [-80.6110683523, 41.0932107094]}, "type": "Feature", "properties": {"collection_times": [{"days": "Mon-Sat", "time": "10:30am"}, {"days": "Sun", "time": "Closed"}], "id": "4450500023", "name": "USPS COLLECTION BOX - BLUE BOX", "address": {"city": "YOUNGSTOWN", "state": "OH", "street": "1140 KENDIS CIR", "postcode": "44505"}}},
{"geometry": {"type": "Point", "coordinates": [-80.6230972822, 41.1124847193]}, "type": "Feature", "properties": {"collection_times": [{"days": "Mon-Sat", "time": "2:00pm"}, {"days": "Sun", "time": "Closed"}], "id": "4450500025", "name": "USPS COLLECTION BOX - BLUE BOX", "address": {"city": "YOUNGSTOWN", "state": "OH", "street": "933 PLAZAVIEW CT", "postcode": "44505"}}},
{"geometry": {"type": "Point", "coordinates": [-80.6339088738, 41.1607330085]}, "type": "Feature", "properties": {"collection_times": [{"days": "Mon-Sat", "time": "12:00pm"}, {"days": "Sun", "time": "Closed"}], "id": "4450500029", "name": "USPS COLLECTION BOX - BLUE BOX", "address": {"city": "YOUNGSTOWN", "state": "OH", "street": "4429 LOGAN WAY", "postcode": "44505"}}},
{"geometry": {"type": "Point", "coordinates": [-80.5880289203, 41.0904022853]}, "type": "Feature", "properties": {"collection_times": [{"days": "Mon-Sat", "time": "9:30am"}, {"days": "Sun", "time": "Closed"}], "id": "4450500030", "name": "USPS COLLECTION BOX - BLUE BOX", "address": {"city": "YOUNGSTOWN", "state": "OH", "street": "2896 MCCARTNEY RD", "postcode": "44505"}}},
{"geometry": {"type": "Point", "coordinates": [-80.6653019105, 41.1476214059]}, "type": "Feature", "properties": {"collection_times": [{"days": "Mon-Sat", "time": "10:00am"}, {"days": "Sun", "time": "Closed"}], "id": "4450500032", "name": "USPS COLLECTION BOX - BLUE BOX", "address": {"city": "YOUNGSTOWN", "state": "OH", "street": "3551 BELMONT AVE", "postcode": "44505"}}},
{"geometry": {"type": "Point", "coordinates": [-80.6651598259, 41.1315211937]}, "type": "Feature", "properties": {"collection_times": [{"days": "Mon-Sat", "time": "12:30pm"}, {"days": "Sun", "time": "Closed"}], "id": "4450500035", "name": "USPS COLLECTION BOX - BLUE BOX", "address": {"city": "YOUNGSTOWN", "state": "OH", "street": "2445 BELMONT AVE", "postcode": "44505"}}},
{"geometry": {"type": "Point", "coordinates": [-80.664801553, 41.1703364068]}, "type": "Feature", "properties": {"collection_times": [{"days": "Mon-Sat", "time": "11:00am"}, {"days": "Sun", "time": "Closed"}], "id": "4450500039", "name": "USPS COLLECTION BOX - BLUE BOX", "address": {"city": "YOUNGSTOWN", "state": "OH", "street": "5048 BELMONT AVE", "postcode": "44505"}}},
{"geometry": {"type": "Point", "coordinates": [-80.66372272, 41.1412563887]}, "type": "Feature", "properties": {"collection_times": [{"days": "Mon-Sat", "time": "9:30am"}, {"days": "Sun", "time": "Closed"}], "id": "4450500040", "name": "USPS COLLECTION BOX - BLUE BOX", "address": {"city": "YOUNGSTOWN", "state": "OH", "street": "50 TRUMBULL CT", "postcode": "44505"}}},
{"geometry": {"type": "Point", "coordinates": [-80.6597733785, 41.0867735551]}, "type": "Feature", "properties": {"collection_times": [{"days": "Mon-Sat", "time": "9:45am"}, {"days": "Sun", "time": "Closed"}], "id": "4450700009", "name": "USPS COLLECTION BOX - BLUE BOX", "address": {"city": "YOUNGSTOWN", "state": "OH", "street": "1400 OAK HILL AVE", "postcode": "44507"}}},
{"geometry": {"type": "Point", "coordinates": [-80.6616425645, 41.0631991327]}, "type": "Feature", "properties": {"collection_times": [{"days": "Mon-Sat", "time": "10:30am"}, {"days": "Sun", "time": "Closed"}], "id": "4450700014", "name": "USPS COLLECTION BOX - BLUE BOX", "address": {"city": "YOUNGSTOWN", "state": "OH", "street": "3625 MARKET ST", "postcode": "44507"}}},
{"geometry": {"type": "Point", "coordinates": [-80.6571317053, 41.0761994912]}, "type": "Feature", "properties": {"collection_times": [{"days": "Mon-Fri", "time": "10:30am"}, {"days": "Sat", "time": "12:00pm"}, {"days": "Sun", "time": "Closed"}], "id": "4450700019", "name": "USPS COLLECTION BOX - BLUE BOX", "address": {"city": "YOUNGSTOWN", "state": "OH", "street": "2400 MARKET ST", "postcode": "44507"}}},
{"geometry": {"type": "Point", "coordinates": [-80.6640453514, 41.0854931669]}, "type": "Feature", "properties": {"collection_times": [{"days": "Mon-Sat", "time": "9:00am"}, {"days": "Sun", "time": "Closed"}], "id": "4450700029", "name": "USPS COLLECTION BOX - BLUE BOX", "address": {"city": "YOUNGSTOWN", "state": "OH", "street": "1528 HILLMAN ST", "postcode": "44507"}}},
{"geometry": {"type": "Point", "coordinates": [-80.7110764849, 41.1135563849]}, "type": "Feature", "properties": {"collection_times": [{"days": "Mon-Sat", "time": "1:00pm"}, {"days": "Sun", "time": "Closed"}], "id": "4450900000", "name": "USPS COLLECTION BOX - BLUE BOX", "address": {"city": "YOUNGSTOWN", "state": "OH", "street": "527 N MERIDIAN RD", "postcode": "44509"}}},
{"geometry": {"type": "Point", "coordinates": [-80.7074215129, 41.1030425644]}, "type": "Feature", "properties": {"collection_times": [{"days": "Mon-Sat", "time": "9:30am"}, {"days": "Sun", "time": "Closed"}], "id": "4450900009", "name": "USPS COLLECTION BOX - BLUE BOX", "address": {"city": "YOUNGSTOWN", "state": "OH", "street": "3309 MAHONING AVE", "postcode": "44509"}}},
{"geometry": {"type": "Point", "coordinates": [-80.7030276469, 41.1031205184]}, "type": "Feature", "properties": {"collection_times": [{"days": "Mon-Sat", "time": "9:00am"}, {"days": "Sun", "time": "Closed"}], "id": "4450900011", "name": "USPS COLLECTION BOX - BLUE BOX", "address": {"city": "YOUNGSTOWN", "state": "OH", "street": "2950 MAHONING AVE", "postcode": "44509"}}},
{"geometry": {"type": "Point", "coordinates": [-80.6833016236, 41.1020324388]}, "type": "Feature", "properties": {"collection_times": [{"days": "Mon-Sat", "time": "10:00am"}, {"days": "Sun", "time": "Closed"}], "id": "4450900013", "name": "USPS COLLECTION BOX - BLUE BOX", "address": {"city": "YOUNGSTOWN", "state": "OH", "street": "1647 MAHONING AVE", "postcode": "44509"}}},
{"geometry": {"type": "Point", "coordinates": [-80.6989220731, 41.1074760849]}, "type": "Feature", "properties": {"collection_times": [{"days": "Mon-Sat", "time": "9:30am"}, {"days": "Sun", "time": "Closed"}], "id": "4450900014", "name": "USPS COLLECTION BOX - BLUE BOX", "address": {"city": "YOUNGSTOWN", "state": "OH", "street": "402 W HEIGHTS AVE", "postcode": "44509"}}},
{"geometry": {"type": "Point", "coordinates": [-80.7109981124, 41.1001503938]}, "type": "Feature", "properties": {"collection_times": [{"days": "Mon-Sat", "time": "11:30am"}, {"days": "Sun", "time": "Closed"}], "id": "4450900020", "name": "USPS COLLECTION BOX - BLUE BOX", "address": {"city": "YOUNGSTOWN", "state": "OH", "street": "109 S MERIDIAN RD", "postcode": "44509"}}},
{"geometry": {"type": "Point", "coordinates": [-80.6958561288, 41.1073533728]}, "type": "Feature", "properties": {"collection_times": [{"days": "Mon-Fri", "time": "4:00pm"}, {"days": "Sat", "time": "12:00pm"}, {"days": "Sun", "time": "Closed"}], "id": "4450900022", "name": "USPS COLLECTION BOX - EXPRESS", "address": {"city": "YOUNGSTOWN", "state": "OH", "street": "2030 MAHONING AVE", "postcode": "44509"}}},
{"geometry": {"type": "Point", "coordinates": [-80.6904185349, 41.1026102766]}, "type": "Feature", "properties": {"collection_times": [{"days": "Mon-Fri", "time": "4:00pm"}, {"days": "Sat", "time": "12:00pm"}, {"days": "Sun", "time": "Closed"}], "id": "4450900023", "name": "USPS COLLECTION BOX - BLUE BOX", "address": {"city": "YOUNGSTOWN", "state": "OH", "street": "2030 MAHONING AVE", "postcode": "44509"}}},
{"geometry": {"type": "Point", "coordinates": [-80.7112203118, 41.126283395]}, "type": "Feature", "properties": {"collection_times": [{"days": "Mon-Sat", "time": "11:00am"}, {"days": "Sun", "time": "Closed"}], "id": "4450900025", "name": "USPS COLLECTION BOX - BLUE BOX", "address": {"city": "YOUNGSTOWN", "state": "OH", "street": "1040 N MERIDIAN RD", "postcode": "44509"}}},
{"geometry": {"type": "Point", "coordinates": [-80.6904185349, 41.1026102766]}, "type": "Feature", "properties": {"collection_times": [{"days": "Mon-Fri", "time": "4:00pm"}, {"days": "Sat", "time": "12:00pm"}, {"days": "Sun", "time": "Closed"}], "id": "4450900027", "name": "USPS COLLECTION BOX - PO LOBBY", "address": {"city": "YOUNGSTOWN", "state": "OH", "street": "2030 MAHONING AVE", "postcode": "44509"}}},
{"geometry": {"type": "Point", "coordinates": [-80.7053113188, 41.129233334]}, "type": "Feature", "properties": {"collection_times": [{"days": "Mon-Sat", "time": "10:30am"}, {"days": "Sun", "time": "Closed"}], "id": "4450900028", "name": "USPS COLLECTION BOX - BLUE BOX", "address": {"city": "YOUNGSTOWN", "state": "OH", "street": "2870 SALT SPRINGS RD", "postcode": "44509"}}},
{"geometry": {"type": "Point", "coordinates": [-80.7112154742, 41.1198981708]}, "type": "Feature", "properties": {"collection_times": [{"days": "Mon-Sat", "time": "9:00am"}, {"days": "Sun", "time": "Closed"}], "id": "4450900032", "name": "USPS COLLECTION BOX - BLUE BOX", "address": {"city": "YOUNGSTOWN", "state": "OH", "street": "850 N MERIDIAN RD", "postcode": "44509"}}},
{"geometry": {"type": "Point", "coordinates": [-80.657061772, 41.1150681974]}, "type": "Feature", "properties": {"collection_times": [{"days": "Mon-Sat", "time": "9:15am"}, {"days": "Sun", "time": "Closed"}], "id": "4451000008", "name": "USPS COLLECTION BOX - BLUE BOX", "address": {"city": "YOUNGSTOWN", "state": "OH", "street": "540 PARMALEE AVE", "postcode": "44510"}}},
{"geometry": {"type": "Point", "coordinates": [-80.7075861219, 41.0633629749]}, "type": "Feature", "properties": {"collection_times": [{"days": "Mon-Fri", "time": "5:00pm"}, {"days": "Sat", "time": "12:00pm"}, {"days": "Sun", "time": "Closed"}], "id": "4451100001", "name": "USPS COLLECTION BOX - BLUE BOX", "address": {"city": "YOUNGSTOWN", "state": "OH", "street": "3307 CANFIELD RD", "postcode": "44511"}}},
{"geometry": {"type": "Point", "coordinates": [-80.6953477631, 41.0689609042]}, "type": "Feature", "properties": {"collection_times": [{"days": "Mon-Fri", "time": "5:00pm"}, {"days": "Sat", "time": "12:00pm"}, {"days": "Sun", "time": "Closed"}], "id": "4451100002", "name": "USPS COLLECTION BOX - EXPRESS", "address": {"city": "YOUNGSTOWN", "state": "OH", "street": "3375 CANFIELD RD", "postcode": "44511"}}},
{"geometry": {"type": "Point", "coordinates": [-80.7091426845, 41.063070261]}, "type": "Feature", "properties": {"collection_times": [{"days": "Mon-Fri", "time": "5:00pm"}, {"days": "Sat", "time": "12:00pm"}, {"days": "Sun", "time": "Closed"}], "id": "4451100003", "name": "USPS COLLECTION BOX - BLUE BOX", "address": {"city": "YOUNGSTOWN", "state": "OH", "street": "3375 CANFIELD RD", "postcode": "44511"}}},
{"geometry": {"type": "Point", "coordinates": [-80.7308827817, 41.0686705099]}, "type": "Feature", "properties": {"collection_times": [{"days": "Mon-Sat", "time": "10:30am"}, {"days": "Sun", "time": "Closed"}], "id": "4451100004", "name": "USPS COLLECTION BOX - BLUE BOX", "address": {"city": "YOUNGSTOWN", "state": "OH", "street": "4351 KIRK RD", "postcode": "44511"}}},
{"geometry": {"type": "Point", "coordinates": [-80.6998896639, 41.0856722038]}, "type": "Feature", "properties": {"collection_times": [{"days": "Mon-Sat", "time": "10:45am"}, {"days": "Sun", "time": "Closed"}], "id": "4451100005", "name": "USPS COLLECTION BOX - BLUE BOX", "address": {"city": "YOUNGSTOWN", "state": "OH", "street": "1260 S SCHENLEY AVE", "postcode": "44511"}}},
{"geometry": {"type": "Point", "coordinates": [-80.7109952573, 41.0638523323]}, "type": "Feature", "properties": {"collection_times": [{"days": "Mon-Sat", "time": "10:45am"}, {"days": "Sun", "time": "Closed"}], "id": "4451100006", "name": "USPS COLLECTION BOX - BLUE BOX", "address": {"city": "YOUNGSTOWN", "state": "OH", "street": "3623 S MERIDIAN RD", "postcode": "44511"}}},
{"geometry": {"type": "Point", "coordinates": [-80.7099160501, 41.064916994]}, "type": "Feature", "properties": {"collection_times": [{"days": "Mon-Sat", "time": "2:30pm"}, {"days": "Sun", "time": "Closed"}], "id": "4451100008", "name": "USPS COLLECTION BOX - BLUE BOX", "address": {"city": "YOUNGSTOWN", "state": "OH", "street": "3390 FLO LOR DR", "postcode": "44511"}}},
{"geometry": {"type": "Point", "coordinates": [-80.6840521583, 41.0647419058]}, "type": "Feature", "properties": {"collection_times": [{"days": "Mon-Sat", "time": "11:45am"}, {"days": "Sun", "time": "Closed"}], "id": "4451100009", "name": "USPS COLLECTION BOX - BLUE BOX", "address": {"city": "YOUNGSTOWN", "state": "OH", "street": "3503 ARDEN BLVD", "postcode": "44511"}}},
{"geometry": {"type": "Point", "coordinates": [-80.6753934781, 41.0727609223]}, "type": "Feature", "properties": {"collection_times": [{"days": "Mon-Sat", "time": "9:30am"}, {"days": "Sun", "time": "Closed"}], "id": "4451100016", "name": "USPS COLLECTION BOX - BLUE BOX", "address": {"city": "YOUNGSTOWN", "state": "OH", "street": "2642 GLENWOOD AVE", "postcode": "44511"}}},
{"geometry": {"type": "Point", "coordinates": [-80.6638731541, 41.0598395974]}, "type": "Feature", "properties": {"collection_times": [{"days": "Mon-Sat", "time": "9:30am"}, {"days": "Sun", "time": "Closed"}], "id": "4451200002", "name": "USPS COLLECTION BOX - BLUE BOX", "address": {"city": "YOUNGSTOWN", "state": "OH", "street": "4005 HILLMAN WAY", "postcode": "44512"}}},
{"geometry": {"type": "Point", "coordinates": [-80.662845763, 41.0431078151]}, "type": "Feature", "properties": {"collection_times": [{"days": "Mon-Sat", "time": "9:30am"}, {"days": "Sun", "time": "Closed"}], "id": "4451200007", "name": "USPS COLLECTION BOX - BLUE BOX", "address": {"city": "YOUNGSTOWN", "state": "OH", "street": "5500 MARKET ST", "postcode": "44512"}}},
{"geometry": {"type": "Point", "coordinates": [-80.6626736464, 41.0286903161]}, "type": "Feature", "properties": {"collection_times": [{"days": "Mon-Fri", "time": "1:30pm"}, {"days": "Sat", "time": "9:30am"}, {"days": "Sun", "time": "Closed"}], "id": "4451200008", "name": "USPS COLLECTION BOX - BLUE BOX", "address": {"city": "YOUNGSTOWN", "state": "OH", "street": "6911 MARKET ST", "postcode": "44512"}}},
{"geometry": {"type": "Point", "coordinates": [-80.6618974838, 41.0609210163]}, "type": "Feature", "properties": {"collection_times": [{"days": "Mon-Sat", "time": "10:00am"}, {"days": "Sun", "time": "Closed"}], "id": "4451200009", "name": "USPS COLLECTION BOX - BLUE BOX", "address": {"city": "YOUNGSTOWN", "state": "OH", "street": "3900 MARKET ST", "postcode": "44512"}}},
{"geometry": {"type": "Point", "coordinates": [-80.6395783042, 41.0518747111]}, "type": "Feature", "properties": {"collection_times": [{"days": "Mon-Sat", "time": "11:30am"}, {"days": "Sun", "time": "Closed"}], "id": "4451200019", "name": "USPS COLLECTION BOX - BLUE BOX", "address": {"city": "YOUNGSTOWN", "state": "OH", "street": "4634 SIMON RD", "postcode": "44512"}}},
{"geometry": {"type": "Point", "coordinates": [-80.6692893444, 40.9890860231]}, "type": "Feature", "properties": {"collection_times": [{"days": "Mon-Sat", "time": "11:00am"}, {"days": "Sun", "time": "Closed"}], "id": "4451200020", "name": "USPS COLLECTION BOX - BLUE BOX", "address": {"city": "YOUNGSTOWN", "state": "OH", "street": "8600 GLENWOOD AVE", "postcode": "44512"}}},
{"geometry": {"type": "Point", "coordinates": [-80.6865598984, 41.0244877098]}, "type": "Feature", "properties": {"collection_times": [{"days": "Mon-Sat", "time": "10:30am"}, {"days": "Sun", "time": "Closed"}], "id": "4451200022", "name": "USPS COLLECTION BOX - BLUE BOX", "address": {"city": "YOUNGSTOWN", "state": "OH", "street": "833 BOARDMAN CANFIELD RD", "postcode": "44512"}}},
{"geometry": {"type": "Point", "coordinates": [-80.7032801624, 41.0246875965]}, "type": "Feature", "properties": {"collection_times": [{"days": "Mon-Sat", "time": "10:00am"}, {"days": "Sun", "time": "Closed"}], "id": "4451200023", "name": "USPS COLLECTION BOX - BLUE BOX", "address": {"city": "YOUNGSTOWN", "state": "OH", "street": "1280 BOARDMAN CANFIELD RD", "postcode": "44512"}}},
{"geometry": {"type": "Point", "coordinates": [-80.6506059811, 41.0243923399]}, "type": "Feature", "properties": {"collection_times": [{"days": "Mon-Sat", "time": "11:00am"}, {"days": "Sun", "time": "Closed"}], "id": "4451200024", "name": "USPS COLLECTION BOX - BLUE BOX", "address": {"city": "YOUNGSTOWN", "state": "OH", "street": "374 BOARDMAN POLAND RD", "postcode": "44512"}}},
{"geometry": {"type": "Point", "coordinates": [-80.6377607055, 41.0589045287]}, "type": "Feature", "properties": {"collection_times": [{"days": "Mon-Sat", "time": "9:45am"}, {"days": "Sun", "time": "Closed"}], "id": "4451200026", "name": "USPS COLLECTION BOX - BLUE BOX", "address": {"city": "YOUNGSTOWN", "state": "OH", "street": "4001 SIMON RD", "postcode": "44512"}}},
{"geometry": {"type": "Point", "coordinates": [-80.6351335064, 41.056043427]}, "type": "Feature", "properties": {"collection_times": [{"days": "Mon-Sat", "time": "9:45am"}, {"days": "Sun", "time": "Closed"}], "id": "4451200028", "name": "USPS COLLECTION BOX - BLUE BOX", "address": {"city": "YOUNGSTOWN", "state": "OH", "street": "4200 LAKE PARK RD", "postcode": "44512"}}},
{"geometry": {"type": "Point", "coordinates": [-80.6689122642, 41.0243767656]}, "type": "Feature", "properties": {"collection_times": [{"days": "Mon-Sat", "time": "10:00am"}, {"days": "Sun", "time": "Closed"}], "id": "4451200030", "name": "USPS COLLECTION BOX - BLUE BOX", "address": {"city": "YOUNGSTOWN", "state": "OH", "street": "201 BOARDMAN CANFIELD RD", "postcode": "44512"}}},
{"geometry": {"type": "Point", "coordinates": [-80.6417678655, 41.0243400545]}, "type": "Feature", "properties": {"collection_times": [{"days": "Mon-Sat", "time": "11:00am"}, {"days": "Sun", "time": "Closed"}], "id": "4451200032", "name": "USPS COLLECTION BOX - BLUE BOX", "address": {"city": "YOUNGSTOWN", "state": "OH", "street": "724 BOARDMAN POLAND RD", "postcode": "44512"}}},
{"geometry": {"type": "Point", "coordinates": [-80.6388564762, 41.0242133104]}, "type": "Feature", "properties": {"collection_times": [{"days": "Mon-Sat", "time": "10:00am"}, {"days": "Sun", "time": "Closed"}], "id": "4451200033", "name": "USPS COLLECTION BOX - BLUE BOX", "address": {"city": "YOUNGSTOWN", "state": "OH", "street": "813 BOARDMAN POLAND RD", "postcode": "44512"}}},
{"geometry": {"type": "Point", "coordinates": [-80.7052659007, 41.0332362531]}, "type": "Feature", "properties": {"collection_times": [{"days": "Mon-Sat", "time": "12:00pm"}, {"days": "Sun", "time": "Closed"}], "id": "4451200035", "name": "USPS COLLECTION BOX - BLUE BOX", "address": {"city": "YOUNGSTOWN", "state": "OH", "street": "6801 LOCKWOOD BLVD", "postcode": "44512"}}},
{"geometry": {"type": "Point", "coordinates": [-80.6832601025, 41.0215575693]}, "type": "Feature", "properties": {"collection_times": [{"days": "Mon-Sat", "time": "11:00am"}, {"days": "Sun", "time": "Closed"}], "id": "4451200036", "name": "USPS COLLECTION BOX - BLUE BOX", "address": {"city": "YOUNGSTOWN", "state": "OH", "street": "7400 WEST BLVD", "postcode": "44512"}}},
{"geometry": {"type": "Point", "coordinates": [-80.7065839492, 41.0245813543]}, "type": "Feature", "properties": {"collection_times": [{"days": "Mon-Fri", "time": "1:30pm"}, {"days": "Sat", "time": "9:30am"}, {"days": "Sun", "time": "Closed"}], "id": "4451200037", "name": "USPS COLLECTION BOX - BLUE BOX", "address": {"city": "YOUNGSTOWN", "state": "OH", "street": "1393 BOARDMAN CANFIELD RD", "postcode": "44512"}}},
{"geometry": {"type": "Point", "coordinates": [-80.6819661627, 41.0266527417]}, "type": "Feature", "properties": {"collection_times": [{"days": "Mon-Sat", "time": "10:00am"}, {"days": "Sun", "time": "Closed"}], "id": "4451200038", "name": "USPS COLLECTION BOX - BLUE BOX", "address": {"city": "YOUNGSTOWN", "state": "OH", "street": "7057 WEST BLVD", "postcode": "44512"}}},
{"geometry": {"type": "Point", "coordinates": [-80.681962707, 41.0262323038]}, "type": "Feature", "properties": {"collection_times": [{"days": "Mon-Sat", "time": "9:45am"}, {"days": "Sun", "time": "Closed"}], "id": "4451200039", "name": "USPS COLLECTION BOX - BLUE BOX", "address": {"city": "YOUNGSTOWN", "state": "OH", "street": "7087 WEST BLVD", "postcode": "44512"}}},
{"geometry": {"type": "Point", "coordinates": [-80.6345907453, 41.0360392164]}, "type": "Feature", "properties": {"collection_times": [{"days": "Mon-Sat", "time": "10:30am"}, {"days": "Sun", "time": "Closed"}], "id": "4451200040", "name": "USPS COLLECTION BOX - BLUE BOX", "address": {"city": "YOUNGSTOWN", "state": "OH", "street": "6151 SOUTH AVE", "postcode": "44512"}}},
{"geometry": {"type": "Point", "coordinates": [-80.6628587072, 41.0503405577]}, "type": "Feature", "properties": {"collection_times": [{"days": "Mon-Sat", "time": "10:30am"}, {"days": "Sun", "time": "Closed"}], "id": "4451200045", "name": "USPS COLLECTION BOX - BLUE BOX", "address": {"city": "YOUNGSTOWN", "state": "OH", "street": "4822 MARKET ST", "postcode": "44512"}}},
{"geometry": {"type": "Point", "coordinates": [-80.6628587072, 41.0503405577]}, "type": "Feature", "properties": {"collection_times": [{"days": "Mon-Sat", "time": "10:30am"}, {"days": "Sun", "time": "Closed"}], "id": "4451200046", "name": "USPS COLLECTION BOX - BLUE BOX", "address": {"city": "YOUNGSTOWN", "state": "OH", "street": "4822 MARKET ST", "postcode": "44512"}}},
{"geometry": {"type": "Point", "coordinates": [-80.6627191458, 41.0530166126]}, "type": "Feature", "properties": {"collection_times": [{"days": "Mon-Fri", "time": "9:00am"}, {"days": "Sat", "time": "8:30am"}, {"days": "Sun", "time": "Closed"}], "id": "4451200048", "name": "USPS COLLECTION BOX - BLUE BOX", "address": {"city": "YOUNGSTOWN", "state": "OH", "street": "4521 MARKET ST", "postcode": "44512"}}},
{"geometry": {"type": "Point", "coordinates": [-80.6626825605, 41.0326472432]}, "type": "Feature", "properties": {"collection_times": [{"days": "Mon-Fri", "time": "1:30pm"}, {"days": "Sat", "time": "8:30am"}, {"days": "Sun", "time": "Closed"}], "id": "4451200050", "name": "USPS COLLECTION BOX - BLUE BOX", "address": {"city": "YOUNGSTOWN", "state": "OH", "street": "6505 MARKET ST", "postcode": "44512"}}},
{"geometry": {"type": "Point", "coordinates": [-80.6628279148, 41.0330710579]}, "type": "Feature", "properties": {"collection_times": [{"days": "Mon-Sat", "time": "9:30am"}, {"days": "Sun", "time": "Closed"}], "id": "4451200051", "name": "USPS COLLECTION BOX - BLUE BOX", "address": {"city": "YOUNGSTOWN", "state": "OH", "street": "6426 MARKET ST", "postcode": "44512"}}},
{"geometry": {"type": "Point", "coordinates": [-80.6626923027, 41.0409290742]}, "type": "Feature", "properties": {"collection_times": [{"days": "Mon-Sat", "time": "9:00am"}, {"days": "Sun", "time": "Closed"}], "id": "4451200053", "name": "USPS COLLECTION BOX - BLUE BOX", "address": {"city": "YOUNGSTOWN", "state": "OH", "street": "5701 MARKET ST", "postcode": "44512"}}},
{"geometry": {"type": "Point", "coordinates": [-80.6628546872, 41.0483947026]}, "type": "Feature", "properties": {"collection_times": [{"days": "Mon-Sat", "time": "10:30am"}, {"days": "Sun", "time": "Closed"}], "id": "4451200054", "name": "USPS COLLECTION BOX - BLUE BOX", "address": {"city": "YOUNGSTOWN", "state": "OH", "street": "5020 MARKET ST", "postcode": "44512"}}},
{"geometry": {"type": "Point", "coordinates": [-80.6628100522, 41.0101696589]}, "type": "Feature", "properties": {"collection_times": [{"days": "Mon-Sat", "time": "10:45am"}, {"days": "Sun", "time": "Closed"}], "id": "4451200055", "name": "USPS COLLECTION BOX - BLUE BOX", "address": {"city": "YOUNGSTOWN", "state": "OH", "street": "7880 MARKET ST", "postcode": "44512"}}},
{"geometry": {"type": "Point", "coordinates": [-80.6589633036, 41.0133806179]}, "type": "Feature", "properties": {"collection_times": [{"days": "Mon-Fri", "time": "1:30pm"}, {"days": "Sat-Sun", "time": "Closed"}], "id": "4451200059", "name": "USPS COLLECTION BOX - BLUE BOX", "address": {"city": "YOUNGSTOWN", "state": "OH", "street": "100 DEBARTOLO PL", "postcode": "44512"}}},
{"geometry": {"type": "Point", "coordinates": [-80.6550288919, 41.0135576528]}, "type": "Feature", "properties": {"collection_times": [{"days": "Mon-Fri", "time": "1:30pm"}, {"days": "Sat-Sun", "time": "Closed"}], "id": "4451200061", "name": "USPS COLLECTION BOX - BLUE BOX", "address": {"city": "YOUNGSTOWN", "state": "OH", "street": "250 DEBARTOLO PL", "postcode": "44512"}}},
{"geometry": {"type": "Point", "coordinates": [-80.690972361, 41.0245146005]}, "type": "Feature", "properties": {"collection_times": [{"days": "Mon-Sat", "time": "1:45pm"}, {"days": "Sun", "time": "Closed"}], "id": "4451200063", "name": "USPS COLLECTION BOX - BLUE BOX", "address": {"city": "YOUNGSTOWN", "state": "OH", "street": "965 BOARDMAN CANFIELD RD", "postcode": "44512"}}},
{"geometry": {"type": "Point", "coordinates": [-80.6492972114, 41.0242762686]}, "type": "Feature", "properties": {"collection_times": [{"days": "Mon-Fri", "time": "1:30pm"}, {"days": "Sat", "time": "10:15am"}, {"days": "Sun", "time": "Closed"}], "id": "4451200066", "name": "USPS COLLECTION BOX - BLUE BOX", "address": {"city": "YOUNGSTOWN", "state": "OH", "street": "431 BOARDMAN POLAND RD", "postcode": "44512"}}},
{"geometry": {"type": "Point", "coordinates": [-80.6720511641, 41.0244001697]}, "type": "Feature", "properties": {"collection_times": [{"days": "Mon-Sat", "time": "10:00am"}, {"days": "Sun", "time": "Closed"}], "id": "4451200067", "name": "USPS COLLECTION BOX - BLUE BOX", "address": {"city": "YOUNGSTOWN", "state": "OH", "street": "285 BOARDMAN CANFIELD RD", "postcode": "44512"}}},
{"geometry": {"type": "Point", "coordinates": [-80.6778406283, 41.0245524238]}, "type": "Feature", "properties": {"collection_times": [{"days": "Mon-Sat", "time": "1:45pm"}, {"days": "Sun", "time": "Closed"}], "id": "4451200069", "name": "USPS COLLECTION BOX - BLUE BOX", "address": {"city": "YOUNGSTOWN", "state": "OH", "street": "500 BOARDMAN CANFIELD RD", "postcode": "44512"}}},
{"geometry": {"type": "Point", "coordinates": [-80.6749602275, 41.024419646]}, "type": "Feature", "properties": {"collection_times": [{"days": "Mon-Fri", "time": "5:00pm"}, {"days": "Sat", "time": "2:00pm"}, {"days": "Sun", "time": "Closed"}], "id": "4451200070", "name": "USPS COLLECTION BOX - BLUE BOX", "address": {"city": "YOUNGSTOWN", "state": "OH", "street": "407 BOARDMAN CANFIELD RD", "postcode": "44512"}}},
{"geometry": {"type": "Point", "coordinates": [-80.6749602275, 41.024419646]}, "type": "Feature", "properties": {"collection_times": [{"days": "Mon-Fri", "time": "5:45pm"}, {"days": "Sat", "time": "4:15pm"}, {"days": "Sun", "time": "Closed"}], "id": "4451200072", "name": "USPS COLLECTION BOX - PO LOBBY", "address": {"city": "YOUNGSTOWN", "state": "OH", "street": "407 BOARDMAN CANFIELD RD", "postcode": "44512"}}},
{"geometry": {"type": "Point", "coordinates": [-80.6749602275, 41.024419646]}, "type": "Feature", "properties": {"collection_times": [{"days": "Mon-Fri", "time": "5:00pm"}, {"days": "Sat", "time": "2:00pm"}, {"days": "Sun", "time": "Closed"}], "id": "4451200073", "name": "USPS COLLECTION BOX - BLUE BOX", "address": {"city": "YOUNGSTOWN", "state": "OH", "street": "407 BOARDMAN CANFIELD RD", "postcode": "44512"}}},
{"geometry": {"type": "Point", "coordinates": [-80.6643461489, 41.0288434684]}, "type": "Feature", "properties": {"collection_times": [{"days": "Mon-Fri", "time": "5:00pm"}, {"days": "Sat", "time": "2:00pm"}, {"days": "Sun", "time": "Closed"}], "id": "4451200074", "name": "USPS COLLECTION BOX - EXPRESS", "address": {"city": "YOUNGSTOWN", "state": "OH", "street": "407 BOARDMAN CANFIELD RD", "postcode": "44512"}}},
{"geometry": {"type": "Point", "coordinates": [-80.662664895, 40.9981395688]}, "type": "Feature", "properties": {"collection_times": [{"days": "Mon-Sat", "time": "10:00am"}, {"days": "Sun", "time": "Closed"}], "id": "4451200075", "name": "USPS COLLECTION BOX - BLUE BOX", "address": {"city": "YOUNGSTOWN", "state": "OH", "street": "8299 MARKET ST", "postcode": "44512"}}},
{"geometry": {"type": "Point", "coordinates": [-80.6356221035, 41.0106320277]}, "type": "Feature", "properties": {"collection_times": [{"days": "Mon-Sat", "time": "2:15pm"}, {"days": "Sun", "time": "Closed"}], "id": "4451200079", "name": "USPS COLLECTION BOX - BLUE BOX", "address": {"city": "YOUNGSTOWN", "state": "OH", "street": "953 AUBURN HILLS DR", "postcode": "44512"}}},
{"geometry": {"type": "Point", "coordinates": [-80.683861435, 41.0244687146]}, "type": "Feature", "properties": {"collection_times": [{"days": "Mon-Fri", "time": "1:30pm"}, {"days": "Sat", "time": "10:30am"}, {"days": "Sun", "time": "Closed"}], "id": "4451200080", "name": "USPS COLLECTION BOX - BLUE BOX", "address": {"city": "YOUNGSTOWN", "state": "OH", "street": "755 BOARDMAN CANFIELD RD", "postcode": "44512"}}},
{"geometry": {"type": "Point", "coordinates": [-80.6417678655, 41.0243400545]}, "type": "Feature", "properties": {"collection_times": [{"days": "Mon-Sat", "time": "11:00am"}, {"days": "Sun", "time": "Closed"}], "id": "4451200081", "name": "USPS COLLECTION BOX - BLUE BOX", "address": {"city": "YOUNGSTOWN", "state": "OH", "street": "724 BOARDMAN POLAND RD", "postcode": "44512"}}},
{"geometry": {"type": "Point", "coordinates": [-80.710246857, 41.0263124283]}, "type": "Feature", "properties": {"collection_times": [{"days": "Mon-Fri", "time": "3:00pm"}, {"days": "Sat", "time": "8:30am"}, {"days": "Sun", "time": "Closed"}], "id": "4451200083", "name": "USPS COLLECTION BOX - BLUE BOX", "address": {"city": "YOUNGSTOWN", "state": "OH", "street": "7100 LOCKWOOD BLVD", "postcode": "44512"}}},
{"geometry": {"type": "Point", "coordinates": [-80.6559106812, 41.0274839634]}, "type": "Feature", "properties": {"collection_times": [{"days": "Mon-Sat", "time": "9:00am"}, {"days": "Sun", "time": "Closed"}], "id": "4451200084", "name": "USPS COLLECTION BOX - BLUE BOX", "address": {"city": "YOUNGSTOWN", "state": "OH", "street": "6981 SOUTHERN BLVD", "postcode": "44512"}}},
{"geometry": {"type": "Point", "coordinates": [-80.6628587072, 41.0503405577]}, "type": "Feature", "properties": {"collection_times": [{"days": "Mon-Sat", "time": "10:30am"}, {"days": "Sun", "time": "Closed"}], "id": "4451200092", "name": "USPS COLLECTION BOX - BLUE BOX", "address": {"city": "YOUNGSTOWN", "state": "OH", "street": "4822 MARKET ST", "postcode": "44512"}}},
{"geometry": {"type": "Point", "coordinates": [-80.6749602275, 41.024419646]}, "type": "Feature", "properties": {"collection_times": [{"days": "Mon-Fri", "time": "5:45pm"}, {"days": "Sat", "time": "4:15pm"}, {"days": "Sun", "time": "Closed"}], "id": "4451200093", "name": "USPS COLLECTION BOX - APC", "address": {"city": "YOUNGSTOWN", "state": "OH", "street": "407 BOARDMAN CANFIELD RD", "postcode": "44512"}}},
{"geometry": {"type": "Point", "coordinates": [-80.6358526573, 41.0285152888]}, "type": "Feature", "properties": {"collection_times": [{"days": "Mon-Fri", "time": "1:30pm"}, {"days": "Sat", "time": "11:00am"}, {"days": "Sun", "time": "Closed"}], "id": "4451200095", "name": "USPS COLLECTION BOX - BLUE BOX", "address": {"city": "YOUNGSTOWN", "state": "OH", "street": "950 WINDHAM CT", "postcode": "44512"}}},
{"geometry": {"type": "Point", "coordinates": [-80.6176448865, 41.0241889392]}, "type": "Feature", "properties": {"collection_times": [{"days": "Mon-Fri", "time": "5:00pm"}, {"days": "Sat", "time": "4:00pm"}, {"days": "Sun", "time": "Closed"}], "id": "4451400000", "name": "USPS COLLECTION BOX - BLUE BOX", "address": {"city": "POLAND", "state": "OH", "street": "125 W MCKINLEY WAY", "postcode": "44514"}}},
{"geometry": {"type": "Point", "coordinates": [-80.6126188584, 41.0106900354]}, "type": "Feature", "properties": {"collection_times": [{"days": "Mon-Fri", "time": "5:00pm"}, {"days": "Sat", "time": "4:00pm"}, {"days": "Sun", "time": "Closed"}], "id": "4451400001", "name": "USPS COLLECTION BOX - EXPRESS", "address": {"city": "POLAND", "state": "OH", "street": "125 W MCKINLEY WAY", "postcode": "44514"}}},
{"geometry": {"type": "Point", "coordinates": [-80.6315942255, 41.0243075033]}, "type": "Feature", "properties": {"collection_times": [{"days": "Mon-Sat", "time": "9:30am"}, {"days": "Sun", "time": "Closed"}], "id": "4451400003", "name": "USPS COLLECTION BOX - BLUE BOX", "address": {"city": "POLAND", "state": "OH", "street": "1300 BOARDMAN POLAND RD", "postcode": "44514"}}},
{"geometry": {"type": "Point", "coordinates": [-80.6155457618, 41.0249813934]}, "type": "Feature", "properties": {"collection_times": [{"days": "Mon-Sat", "time": "9:00am"}, {"days": "Sun", "time": "Closed"}], "id": "4451400004", "name": "USPS COLLECTION BOX - BLUE BOX", "address": {"city": "POLAND", "state": "OH", "street": "30 N MAIN ST", "postcode": "44514"}}},
{"geometry": {"type": "Point", "coordinates": [-80.612452999, 41.023135295]}, "type": "Feature", "properties": {"collection_times": [{"days": "Mon-Sat", "time": "9:30am"}, {"days": "Sun", "time": "Closed"}], "id": "4451400005", "name": "USPS COLLECTION BOX - BLUE BOX", "address": {"city": "POLAND", "state": "OH", "street": "202 S MAIN ST", "postcode": "44514"}}},
{"geometry": {"type": "Point", "coordinates": [-80.6214165152, 41.055508595]}, "type": "Feature", "properties": {"collection_times": [{"days": "Mon-Sat", "time": "12:00pm"}, {"days": "Sun", "time": "Closed"}], "id": "4451400011", "name": "USPS COLLECTION BOX - BLUE BOX", "address": {"city": "POLAND", "state": "OH", "street": "4427 SHERIDAN RD", "postcode": "44514"}}},
{"geometry": {"type": "Point", "coordinates": [-80.6025642945, 41.0290874626]}, "type": "Feature", "properties": {"collection_times": [{"days": "Mon-Sat", "time": "10:30am"}, {"days": "Sun", "time": "Closed"}], "id": "4451400012", "name": "USPS COLLECTION BOX - BLUE BOX", "address": {"city": "POLAND", "state": "OH", "street": "2602 ALGONQUIN DR", "postcode": "44514"}}},
{"geometry": {"type": "Point", "coordinates": [-80.6384184028, 40.9887431647]}, "type": "Feature", "properties": {"collection_times": [{"days": "Mon-Fri", "time": "1:30pm"}, {"days": "Sat", "time": "11:00am"}, {"days": "Sun", "time": "Closed"}], "id": "4451400013", "name": "USPS COLLECTION BOX - BLUE BOX", "address": {"city": "POLAND", "state": "OH", "street": "835 SOUTHWESTERN RUN", "postcode": "44514"}}},
{"geometry": {"type": "Point", "coordinates": [-80.6384184028, 40.9887431647]}, "type": "Feature", "properties": {"collection_times": [{"days": "Mon-Fri", "time": "1:30pm"}, {"days": "Sat", "time": "11:00am"}, {"days": "Sun", "time": "Closed"}], "id": "4451400014", "name": "USPS COLLECTION BOX - BLUE BOX", "address": {"city": "POLAND", "state": "OH", "street": "835 SOUTHWESTERN RUN", "postcode": "44514"}}},
{"geometry": {"type": "Point", "coordinates": [-80.6336619327, 40.9930811101]}, "type": "Feature", "properties": {"collection_times": [{"days": "Mon-Sat", "time": "9:30am"}, {"days": "Sun", "time": "Closed"}], "id": "4451400015", "name": "USPS COLLECTION BOX - BLUE BOX", "address": {"city": "POLAND", "state": "OH", "street": "8433 SOUTH AVE", "postcode": "44514"}}},
{"geometry": {"type": "Point", "coordinates": [-80.5925126813, 41.0237939469]}, "type": "Feature", "properties": {"collection_times": [{"days": "Mon-Sat", "time": "11:00am"}, {"days": "Sun", "time": "Closed"}], "id": "4451400016", "name": "USPS COLLECTION BOX - BLUE BOX", "address": {"city": "POLAND", "state": "OH", "street": "3130 CENTER RD", "postcode": "44514"}}},
{"geometry": {"type": "Point", "coordinates": [-80.5873219294, 41.0057488022]}, "type": "Feature", "properties": {"collection_times": [{"days": "Mon-Sat", "time": "1:30pm"}, {"days": "Sun", "time": "Closed"}], "id": "4451400017", "name": "USPS COLLECTION BOX - BLUE BOX", "address": {"city": "POLAND", "state": "OH", "street": "3339 DOBBINS RD", "postcode": "44514"}}},
{"geometry": {"type": "Point", "coordinates": [-80.6156988009, 41.0252874148]}, "type": "Feature", "properties": {"collection_times": [{"days": "Mon-Sat", "time": "3:00pm"}, {"days": "Sun", "time": "Closed"}], "id": "4451400021", "name": "USPS COLLECTION BOX - BLUE BOX", "address": {"city": "POLAND", "state": "OH", "street": "25 SHERIDAN RD", "postcode": "44514"}}},
{"geometry": {"type": "Point", "coordinates": [-80.6176448865, 41.0241889392]}, "type": "Feature", "properties": {"collection_times": [{"days": "Mon-Fri", "time": "5:00pm"}, {"days": "Sat", "time": "4:00pm"}, {"days": "Sun", "time": "Closed"}], "id": "4451400022", "name": "USPS COLLECTION BOX - PO LOBBY", "address": {"city": "POLAND", "state": "OH", "street": "125 W MCKINLEY WAY", "postcode": "44514"}}},
{"geometry": {"type": "Point", "coordinates": [-80.6176448865, 41.0241889392]}, "type": "Feature", "properties": {"collection_times": [{"days": "Mon-Fri", "time": "5:00pm"}, {"days": "Sat", "time": "4:00pm"}, {"days": "Sun", "time": "Closed"}], "id": "4451400023", "name": "USPS COLLECTION BOX - APC", "address": {"city": "POLAND", "state": "OH", "street": "125 W MCKINLEY WAY", "postcode": "44514"}}},
{"geometry": {"type": "Point", "coordinates": [-80.6176448865, 41.0241889392]}, "type": "Feature", "properties": {"collection_times": [{"days": "Mon-Fri", "time": "5:00pm"}, {"days": "Sat", "time": "4:00pm"}, {"days": "Sun", "time": "Closed"}], "id": "4451400024", "name": "USPS COLLECTION BOX - PO LOBBY", "address": {"city": "POLAND", "state": "OH", "street": "125 W MCKINLEY WAY", "postcode": "44514"}}},
{"geometry": {"type": "Point", "coordinates": [-80.6321038473, 41.0241998562]}, "type": "Feature", "properties": {"collection_times": [{"days": "Mon-Fri", "time": "1:30pm"}, {"days": "Sat", "time": "10:30am"}, {"days": "Sun", "time": "Closed"}], "id": "4451400025", "name": "USPS COLLECTION BOX - BLUE BOX", "address": {"city": "POLAND", "state": "OH", "street": "1275 BOARDMAN POLAND RD", "postcode": "44514"}}},
{"geometry": {"type": "Point", "coordinates": [-80.6035749087, 41.0198368477]}, "type": "Feature", "properties": {"collection_times": [{"days": "Mon-Sat", "time": "11:00am"}, {"days": "Sun", "time": "Closed"}], "id": "4451400026", "name": "USPS COLLECTION BOX - BLUE BOX", "address": {"city": "POLAND", "state": "OH", "street": "110 NESBITT ST", "postcode": "44514"}}},
{"geometry": {"type": "Point", "coordinates": [-80.6325016451, 41.0212159789]}, "type": "Feature", "properties": {"collection_times": [{"days": "Mon-Sat", "time": "10:00am"}, {"days": "Sun", "time": "Closed"}], "id": "4451400027", "name": "USPS COLLECTION BOX - BLUE BOX", "address": {"city": "POLAND", "state": "OH", "street": "1040 S COMMONS PL", "postcode": "44514"}}},
{"geometry": {"type": "Point", "coordinates": [-80.7749729682, 41.0996613386]}, "type": "Feature", "properties": {"collection_times": [{"days": "Mon-Fri", "time": "5:00pm"}, {"days": "Sat", "time": "2:30pm"}, {"days": "Sun", "time": "Closed"}], "id": "4451500001", "name": "USPS COLLECTION BOX - BLUE BOX", "address": {"city": "YOUNGSTOWN", "state": "OH", "street": "6000 MAHONING AVE", "postcode": "44515"}}},
{"geometry": {"type": "Point", "coordinates": [-80.7485567005, 41.0958217282]}, "type": "Feature", "properties": {"collection_times": [{"days": "Mon-Fri", "time": "5:00pm"}, {"days": "Sat", "time": "2:30pm"}, {"days": "Sun", "time": "Closed"}], "id": "4451500002", "name": "USPS COLLECTION BOX - EXPRESS", "address": {"city": "YOUNGSTOWN", "state": "OH", "street": "6000 MAHONING AVE", "postcode": "44515"}}},
{"geometry": {"type": "Point", "coordinates": [-80.7322654027, 41.0829946653]}, "type": "Feature", "properties": {"collection_times": [{"days": "Mon-Fri", "time": "11:30am"}, {"days": "Sat", "time": "11:00am"}, {"days": "Sun", "time": "Closed"}], "id": "4451500005", "name": "USPS COLLECTION BOX - BLUE BOX", "address": {"city": "YOUNGSTOWN", "state": "OH", "street": "1731 S RACCOON RD", "postcode": "44515"}}},
{"geometry": {"type": "Point", "coordinates": [-80.7560170972, 41.0995504847]}, "type": "Feature", "properties": {"collection_times": [{"days": "Mon-Sat", "time": "10:00am"}, {"days": "Sun", "time": "Closed"}], "id": "4451500007", "name": "USPS COLLECTION BOX - BLUE BOX", "address": {"city": "YOUNGSTOWN", "state": "OH", "street": "5211 MAHONING AVE", "postcode": "44515"}}},
{"geometry": {"type": "Point", "coordinates": [-80.7847693882, 41.1013186639]}, "type": "Feature", "properties": {"collection_times": [{"days": "Mon-Fri", "time": "10:10am"}, {"days": "Sat", "time": "9:30am"}, {"days": "Sun", "time": "Closed"}], "id": "4451500009", "name": "USPS COLLECTION BOX - BLUE BOX", "address": {"city": "YOUNGSTOWN", "state": "OH", "street": "44 VICTORIA RD", "postcode": "44515"}}},
{"geometry": {"type": "Point", "coordinates": [-80.7814878499, 41.1115149221]}, "type": "Feature", "properties": {"collection_times": [{"days": "Mon-Sat", "time": "9:30am"}, {"days": "Sun", "time": "Closed"}], "id": "4451500011", "name": "USPS COLLECTION BOX - BLUE BOX", "address": {"city": "YOUNGSTOWN", "state": "OH", "street": "380 VICTORIA RD", "postcode": "44515"}}},
{"geometry": {"type": "Point", "coordinates": [-80.7621459639, 41.0995594033]}, "type": "Feature", "properties": {"collection_times": [{"days": "Mon-Fri", "time": "3:00pm"}, {"days": "Sat", "time": "9:00am"}, {"days": "Sun", "time": "Closed"}], "id": "4451500015", "name": "USPS COLLECTION BOX - BLUE BOX", "address": {"city": "YOUNGSTOWN", "state": "OH", "street": "5437 MAHONING AVE", "postcode": "44515"}}},
{"geometry": {"type": "Point", "coordinates": [-80.7232733657, 41.103331579]}, "type": "Feature", "properties": {"collection_times": [{"days": "Mon-Sat", "time": "9:00am"}, {"days": "Sun", "time": "Closed"}], "id": "4451500017", "name": "USPS COLLECTION BOX - BLUE BOX", "address": {"city": "YOUNGSTOWN", "state": "OH", "street": "33 N WICKLIFFE CIR", "postcode": "44515"}}},
{"geometry": {"type": "Point", "coordinates": [-80.7486442683, 41.098302477]}, "type": "Feature", "properties": {"collection_times": [{"days": "Mon-Sat", "time": "10:45am"}, {"days": "Sun", "time": "Closed"}], "id": "4451500018", "name": "USPS COLLECTION BOX - BLUE BOX", "address": {"city": "YOUNGSTOWN", "state": "OH", "street": "100 WESTCHESTER DR", "postcode": "44515"}}},
{"geometry": {"type": "Point", "coordinates": [-80.726929102, 41.1025203543]}, "type": "Feature", "properties": {"collection_times": [{"days": "Mon-Sat", "time": "9:30am"}, {"days": "Sun", "time": "Closed"}], "id": "4451500020", "name": "USPS COLLECTION BOX - BLUE BOX", "address": {"city": "YOUNGSTOWN", "state": "OH", "street": "4195 MAHONING AVE", "postcode": "44515"}}},
{"geometry": {"type": "Point", "coordinates": [-80.7641107213, 41.1015122135]}, "type": "Feature", "properties": {"collection_times": [{"days": "Mon-Sat", "time": "9:00am"}, {"days": "Sun", "time": "Closed"}], "id": "4451500022", "name": "USPS COLLECTION BOX - BLUE BOX", "address": {"city": "YOUNGSTOWN", "state": "OH", "street": "60 N CANFIELD NILES RD", "postcode": "44515"}}},
{"geometry": {"type": "Point", "coordinates": [-80.7638697209, 41.1005729015]}, "type": "Feature", "properties": {"collection_times": [{"days": "Mon-Sat", "time": "9:00am"}, {"days": "Sun", "time": "Closed"}], "id": "4451500023", "name": "USPS COLLECTION BOX - BLUE BOX", "address": {"city": "YOUNGSTOWN", "state": "OH", "street": "25 N CANFIELD NILES RD", "postcode": "44515"}}},
{"geometry": {"type": "Point", "coordinates": [-80.7641199486, 41.0995600903]}, "type": "Feature", "properties": {"collection_times": [{"days": "Mon-Fri", "time": "11:30am"}, {"days": "Sat", "time": "10:30am"}, {"days": "Sun", "time": "Closed"}], "id": "4451500025", "name": "USPS COLLECTION BOX - BLUE BOX", "address": {"city": "YOUNGSTOWN", "state": "OH", "street": "5509 MAHONING AVE", "postcode": "44515"}}},
{"geometry": {"type": "Point", "coordinates": [-80.7325258595, 41.1019268676]}, "type": "Feature", "properties": {"collection_times": [{"days": "Mon-Sat", "time": "9:00am"}, {"days": "Sun", "time": "Closed"}], "id": "4451500026", "name": "USPS COLLECTION BOX - BLUE BOX", "address": {"city": "YOUNGSTOWN", "state": "OH", "street": "4409 MAHONING AVE", "postcode": "44515"}}},
{"geometry": {"type": "Point", "coordinates": [-80.7323230473, 41.0950458682]}, "type": "Feature", "properties": {"collection_times": [{"days": "Mon-Sat", "time": "11:00am"}, {"days": "Sun", "time": "Closed"}], "id": "4451500029", "name": "USPS COLLECTION BOX - BLUE BOX", "address": {"city": "YOUNGSTOWN", "state": "OH", "street": "478 S RACCOON RD", "postcode": "44515"}}},
{"geometry": {"type": "Point", "coordinates": [-80.7353787081, 41.0689820758]}, "type": "Feature", "properties": {"collection_times": [{"days": "Mon-Fri", "time": "3:00pm"}, {"days": "Sat", "time": "11:00am"}, {"days": "Sun", "time": "Closed"}], "id": "4451500030", "name": "USPS COLLECTION BOX - BLUE BOX", "address": {"city": "YOUNGSTOWN", "state": "OH", "street": "4500 KIRK RD", "postcode": "44515"}}},
{"geometry": {"type": "Point", "coordinates": [-80.721898862, 41.0887452751]}, "type": "Feature", "properties": {"collection_times": [{"days": "Mon-Fri", "time": "10:15am"}, {"days": "Sat", "time": "9:00am"}, {"days": "Sun", "time": "Closed"}], "id": "4451500031", "name": "USPS COLLECTION BOX - BLUE BOX", "address": {"city": "YOUNGSTOWN", "state": "OH", "street": "1050 COMPASS WEST DR", "postcode": "44515"}}},
{"geometry": {"type": "Point", "coordinates": [-80.7486442683, 41.098302477]}, "type": "Feature", "properties": {"collection_times": [{"days": "Mon-Sat", "time": "10:45am"}, {"days": "Sun", "time": "Closed"}], "id": "4451500037", "name": "USPS COLLECTION BOX - BLUE BOX", "address": {"city": "YOUNGSTOWN", "state": "OH", "street": "100 WESTCHESTER DR", "postcode": "44515"}}},
{"geometry": {"type": "Point", "coordinates": [-80.7749729682, 41.0996613386]}, "type": "Feature", "properties": {"collection_times": [{"days": "Mon-Fri", "time": "5:00pm"}, {"days": "Sat", "time": "4:00pm"}, {"days": "Sun", "time": "Closed"}], "id": "4451500039", "name": "USPS COLLECTION BOX - PO LOBBY", "address": {"city": "YOUNGSTOWN", "state": "OH", "street": "6000 MAHONING AVE", "postcode": "44515"}}},
{"geometry": {"type": "Point", "coordinates": [-80.7664823232, 41.1217236639]}, "type": "Feature", "properties": {"collection_times": [{"days": "Mon-Fri", "time": "10:15am"}, {"days": "Sat", "time": "9:00am"}, {"days": "Sun", "time": "Closed"}], "id": "4451500040", "name": "USPS COLLECTION BOX - BLUE BOX", "address": {"city": "YOUNGSTOWN", "state": "OH", "street": "5400 76 DR", "postcode": "44515"}}},
{"geometry": {"type": "Point", "coordinates": [-80.7749729682, 41.0996613386]}, "type": "Feature", "properties": {"collection_times": [{"days": "Mon-Fri", "time": "5:00pm"}, {"days": "Sat", "time": "4:00pm"}, {"days": "Sun", "time": "Closed"}], "id": "4451500042", "name": "USPS COLLECTION BOX - APC", "address": {"city": "YOUNGSTOWN", "state": "OH", "street": "6000 MAHONING AVE", "postcode": "44515"}}}
]}
