{"type": "FeatureCollection", "features": [
{"geometry": {"type": "Point", "coordinates": [-81.131696495, 40.9018664127]}, "type": "Feature", "properties": {"collection_times": [{"days": "Mon-Sat", "time": "12:00pm"}, {"days": "Sun", "time": "Closed"}], "id": "4460100001", "name": "USPS COLLECTION BOX - BLUE BOX", "address": {"city": "ALLIANCE", "state": "OH", "street": "1800 W STATE ST", "postcode": "44601"}}},
{"geometry": {"type": "Point", "coordinates": [-81.1189690395, 40.9017836056]}, "type": "Feature", "properties": {"collection_times": [{"days": "Mon-Sat", "time": "12:00pm"}, {"days": "Sun", "time": "Closed"}], "id": "4460100032", "name": "USPS COLLECTION BOX - BLUE BOX", "address": {"city": "ALLIANCE", "state": "OH", "street": "960 W STATE ST", "postcode": "44601"}}},
{"geometry": {"type": "Point", "coordinates": [-81.1140889782, 40.9146219638]}, "type": "Feature", "properties": {"collection_times": [{"days": "Mon-Sat", "time": "12:00pm"}, {"days": "Sun", "time": "Closed"}], "id": "4460100033", "name": "USPS COLLECTION BOX - BLUE BOX", "address": {"city": "ALLIANCE", "state": "OH", "street": "2 W STATE ST", "postcode": "44601"}}},
{"geometry": {"type": "Point", "coordinates": [-81.0999636208, 40.9203856353]}, "type": "Feature", "properties": {"collection_times": [{"days": "Mon-Fri", "time": "5:00pm"}, {"days": "Sat", "time": "4:00pm"}, {"days": "Sun", "time": "Closed"}], "id": "4460100044", "name": "USPS COLLECTION BOX - BLUE BOX", "address": {"city": "ALLIANCE", "state": "OH", "street": "133 S LINDEN AVE", "postcode": "44601"}}},
{"geometry": {"type": "Point", "coordinates": [-81.1013595124, 40.921057556]}, "type": "Feature", "properties": {"collection_times": [{"days": "Mon-Fri", "time": "5:00pm"}, {"days": "Sat", "time": "4:00pm"}, {"days": "Sun", "time": "Closed"}], "id": "4460100046", "name": "USPS COLLECTION BOX - PO LOBBY", "address": {"city": "ALLIANCE", "state": "OH", "street": "36 S ARCH AVE", "postcode": "44601"}}},
{"geometry": {"type": "Point", "coordinates": [-81.1013595124, 40.921057556]}, "type": "Feature", "properties": {"collection_times": [{"days": "Mon-Fri", "time": "5:00pm"}, {"days": "Sat", "time": "4:00pm"}, {"days": "Sun", "time": "Closed"}], "id": "4460100047", "name": "USPS COLLECTION BOX - BLUE BOX", "address": {"city": "ALLIANCE", "state": "OH", "street": "36 S ARCH AVE", "postcode": "44601"}}},
{"geometry": {"type": "Point", "coordinates": [-81.1140889782, 40.9146219638]}, "type": "Feature", "properties": {"collection_times": [{"days": "Mon-Sat", "time": "12:00pm"}, {"days": "Sun", "time": "Closed"}], "id": "4460100055", "name": "USPS COLLECTION BOX - BLUE BOX", "address": {"city": "ALLIANCE", "state": "OH", "street": "2 W STATE ST", "postcode": "44601"}}},
{"geometry": {"type": "Point", "coordinates": [-81.8011905531, 40.7313751378]}, "type": "Feature", "properties": {"collection_times": [{"days": "Mon-Fri", "time": "4:30pm"}, {"days": "Sat", "time": "12:00pm"}, {"days": "Sun", "time": "Closed"}], "id": "4460600001", "name": "USPS COLLECTION BOX - BLUE BOX", "address": {"city": "APPLECREEK", "state": "OH", "street": "33 MAPLE ST", "postcode": "44606"}}},
{"geometry": {"type": "Point", "coordinates": [-81.8011905531, 40.7313751378]}, "type": "Feature", "properties": {"collection_times": [{"days": "Mon-Fri", "time": "4:30pm"}, {"days": "Sat", "time": "12:00pm"}, {"days": "Sun", "time": "Closed"}], "id": "4460600002", "name": "USPS COLLECTION BOX - PO LOBBY", "address": {"city": "APPLECREEK", "state": "OH", "street": "33 MAPLE ST", "postcode": "44606"}}},
{"geometry": {"type": "Point", "coordinates": [-80.9938266281, 40.7099852194]}, "type": "Feature", "properties": {"collection_times": [{"days": "Mon-Fri", "time": "3:30pm"}, {"days": "Sat", "time": "10:45am"}, {"days": "Sun", "time": "Closed"}], "id": "4460700001", "name": "USPS COLLECTION BOX - BLUE BOX", "address": {"city": "AUGUSTA", "state": "OH", "street": "8081 KENSINGTON RD NE", "postcode": "44607"}}},
{"geometry": {"type": "Point", "coordinates": [-80.9938266281, 40.7099852194]}, "type": "Feature", "properties": {"collection_times": [{"days": "Mon-Fri", "time": "3:30pm"}, {"days": "Sat", "time": "10:45am"}, {"days": "Sun", "time": "Closed"}], "id": "4460700002", "name": "USPS COLLECTION BOX - PO LOBBY", "address": {"city": "AUGUSTA", "state": "OH", "street": "8081 KENSINGTON RD NE", "postcode": "44607"}}},
{"geometry": {"type": "Point", "coordinates": [-81.5780906308, 40.6541156981]}, "type": "Feature", "properties": {"collection_times": [{"days": "Mon-Fri", "time": "4:30pm"}, {"days": "Sat", "time": "12:00pm"}, {"days": "Sun", "time": "Closed"}], "id": "4460800001", "name": "USPS COLLECTION BOX - BLUE BOX", "address": {"city": "BEACH CITY", "state": "OH", "street": "130 E MAIN ST", "postcode": "44608"}}},
{"geometry": {"type": "Point", "coordinates": [-81.5780906308, 40.6541156981]}, "type": "Feature", "properties": {"collection_times": [{"days": "Mon-Fri", "time": "4:30pm"}, {"days": "Sat", "time": "12:00pm"}, {"days": "Sun", "time": "Closed"}], "id": "4460800002", "name": "USPS COLLECTION BOX - PO LOBBY", "address": {"city": "BEACH CITY", "state": "OH", "street": "130 E MAIN ST", "postcode": "44608"}}},
{"geometry": {"type": "Point", "coordinates": [-81.5780906308, 40.6541156981]}, "type": "Feature", "properties": {"collection_times": [{"days": "Mon-Fri", "time": "4:30pm"}, {"days": "Sat", "time": "12:00pm"}, {"days": "Sun", "time": "Closed"}], "id": "4460800003", "name": "USPS COLLECTION BOX - PO LOBBY", "address": {"city": "BEACH CITY", "state": "OH", "street": "130 E MAIN ST", "postcode": "44608"}}},
{"geometry": {"type": "Point", "coordinates": [-80.9938133802, 40.9209255926]}, "type": "Feature", "properties": {"collection_times": [{"days": "Mon-Fri", "time": "4:00pm"}, {"days": "Sat", "time": "11:30am"}, {"days": "Sun", "time": "Closed"}], "id": "4460900003", "name": "USPS COLLECTION BOX - PO LOBBY", "address": {"city": "BELOIT", "state": "OH", "street": "13666 S MAIN ST", "postcode": "44609"}}},
{"geometry": {"type": "Point", "coordinates": [-80.9938133802, 40.9209255926]}, "type": "Feature", "properties": {"collection_times": [{"days": "Mon-Fri", "time": "4:30pm"}, {"days": "Sat", "time": "11:30am"}, {"days": "Sun", "time": "Closed"}], "id": "4460900004", "name": "USPS COLLECTION BOX - BLUE BOX", "address": {"city": "BELOIT", "state": "OH", "street": "13666 S MAIN ST", "postcode": "44609"}}},
{"geometry": {"type": "Point", "coordinates": [-81.7972933398, 40.5618442285]}, "type": "Feature", "properties": {"collection_times": [{"days": "Mon-Fri", "time": "4:00pm"}, {"days": "Sat", "time": "12:00pm"}, {"days": "Sun", "time": "Closed"}], "id": "4461000002", "name": "USPS COLLECTION BOX - BLUE BOX", "address": {"city": "BERLIN", "state": "OH", "street": "5520 OAK ST", "postcode": "44610"}}},
{"geometry": {"type": "Point", "coordinates": [-82.0632969391, 40.668428445]}, "type": "Feature", "properties": {"collection_times": [{"days": "Mon-Fri", "time": "4:00pm"}, {"days": "Sat", "time": "11:45am"}, {"days": "Sun", "time": "Closed"}], "id": "4461100001", "name": "USPS COLLECTION BOX - BLUE BOX", "address": {"city": "BIG PRAIRIE", "state": "OH", "street": "13214 STATE ROUTE 226", "postcode": "44611"}}},
{"geometry": {"type": "Point", "coordinates": [-82.0632969391, 40.668428445]}, "type": "Feature", "properties": {"collection_times": [{"days": "Mon-Fri", "time": "4:00pm"}, {"days": "Sat", "time": "11:45am"}, {"days": "Sun", "time": "Closed"}], "id": "4461100002", "name": "USPS COLLECTION BOX - PO LOBBY", "address": {"city": "BIG PRAIRIE", "state": "OH", "street": "13214 STATE ROUTE 226", "postcode": "44611"}}},
{"geometry": {"type": "Point", "coordinates": [-81.4496615485, 40.6532632716]}, "type": "Feature", "properties": {"collection_times": [{"days": "Mon-Fri", "time": "4:45pm"}, {"days": "Sat", "time": "12:15pm"}, {"days": "Sun", "time": "Closed"}], "id": "4461200001", "name": "USPS COLLECTION BOX - PO LOBBY", "address": {"city": "BOLIVAR", "state": "OH", "street": "164 CENTRAL AVE", "postcode": "44612"}}},
{"geometry": {"type": "Point", "coordinates": [-81.4389982645, 40.6249203171]}, "type": "Feature", "properties": {"collection_times": [{"days": "Mon-Sat", "time": "10:45am"}, {"days": "Sun", "time": "Closed"}], "id": "4461200002", "name": "USPS COLLECTION BOX - BLUE BOX", "address": {"city": "BOLIVAR", "state": "OH", "street": "780 GARBERDALE SQ NE", "postcode": "44612"}}},
{"geometry": {"type": "Point", "coordinates": [-81.4399144497, 40.6379261327]}, "type": "Feature", "properties": {"collection_times": [{"days": "Mon-Sat", "time": "11:00am"}, {"days": "Sun", "time": "Closed"}], "id": "4461200003", "name": "USPS COLLECTION BOX - BLUE BOX", "address": {"city": "BOLIVAR", "state": "OH", "street": "11031 STATE ROUTE 212 NE", "postcode": "44612"}}},
{"geometry": {"type": "Point", "coordinates": [-81.4496615485, 40.6532632716]}, "type": "Feature", "properties": {"collection_times": [{"days": "Mon-Fri", "time": "4:45pm"}, {"days": "Sat", "time": "12:15pm"}, {"days": "Sun", "time": "Closed"}], "id": "4461200004", "name": "USPS COLLECTION BOX - BLUE BOX", "address": {"city": "BOLIVAR", "state": "OH", "street": "164 CENTRAL AVE", "postcode": "44612"}}},
{"geometry": {"type": "Point", "coordinates": [-81.5985216766, 40.7105866799]}, "type": "Feature", "properties": {"collection_times": [{"days": "Mon-Fri", "time": "4:00pm"}, {"days": "Sat", "time": "12:00pm"}, {"days": "Sun", "time": "Closed"}], "id": "4461300002", "name": "USPS COLLECTION BOX - BLUE BOX", "address": {"city": "BREWSTER", "state": "OH", "street": "120 MAIN ST SW", "postcode": "44613"}}},
{"geometry": {"type": "Point", "coordinates": [-81.5970571734, 40.8888727914]}, "type": "Feature", "properties": {"collection_times": [{"days": "Mon-Fri", "time": "5:00pm"}, {"days": "Sat", "time": "12:45pm"}, {"days": "Sun", "time": "Closed"}], "id": "4461400001", "name": "USPS COLLECTION BOX - BLUE BOX", "address": {"city": "CANAL FULTON", "state": "OH", "street": "210 S CANAL ST", "postcode": "44614"}}},
{"geometry": {"type": "Point", "coordinates": [-81.5886167612, 40.8957658933]}, "type": "Feature", "properties": {"collection_times": [{"days": "Mon-Sat", "time": "11:00am"}, {"days": "Sun", "time": "Closed"}], "id": "4461400002", "name": "USPS COLLECTION BOX - BLUE BOX", "address": {"city": "CANAL FULTON", "state": "OH", "street": "963 CHERRY ST E", "postcode": "44614"}}},
{"geometry": {"type": "Point", "coordinates": [-81.5734192874, 40.8823960911]}, "type": "Feature", "properties": {"collection_times": [{"days": "Mon-Sat", "time": "10:30am"}, {"days": "Sun", "time": "Closed"}], "id": "4461400003", "name": "USPS COLLECTION BOX - BLUE BOX", "address": {"city": "CANAL FULTON", "state": "OH", "street": "2150 LOCUST ST S", "postcode": "44614"}}},
{"geometry": {"type": "Point", "coordinates": [-81.5970571734, 40.8888727914]}, "type": "Feature", "properties": {"collection_times": [{"days": "Mon-Fri", "time": "5:00pm"}, {"days": "Sat", "time": "12:45pm"}, {"days": "Sun", "time": "Closed"}], "id": "4461400004", "name": "USPS COLLECTION BOX - PO LOBBY", "address": {"city": "CANAL FULTON", "state": "OH", "street": "210 S CANAL ST", "postcode": "44614"}}},
{"geometry": {"type": "Point", "coordinates": [-81.5845108932, 40.8874554753]}, "type": "Feature", "properties": {"collection_times": [{"days": "Mon-Fri", "time": "5:00pm"}, {"days": "Sat", "time": "12:45pm"}, {"days": "Sun", "time": "Closed"}], "id": "4461400005", "name": "USPS COLLECTION BOX - BLUE BOX", "address": {"city": "CANAL FULTON", "state": "OH", "street": "110 NORTON ST", "postcode": "44614"}}},
{"geometry": {"type": "Point", "coordinates": [-81.086958417, 40.5719997668]}, "type": "Feature", "properties": {"collection_times": [{"days": "Mon-Fri", "time": "3:15pm"}, {"days": "Sat", "time": "1:15pm"}, {"days": "Sun", "time": "Closed"}], "id": "4461500002", "name": "USPS COLLECTION BOX - BLUE BOX", "address": {"city": "CARROLLTON", "state": "OH", "street": "119 S LISBON ST", "postcode": "44615"}}},
{"geometry": {"type": "Point", "coordinates": [-81.0864447621, 40.5721524063]}, "type": "Feature", "properties": {"collection_times": [{"days": "Mon-Fri", "time": "3:15pm"}, {"days": "Sat", "time": "1:15pm"}, {"days": "Sun", "time": "Closed"}], "id": "4461500006", "name": "USPS COLLECTION BOX - BLUE BOX", "address": {"city": "CARROLLTON", "state": "OH", "street": "80 S LISBON ST", "postcode": "44615"}}},
{"geometry": {"type": "Point", "coordinates": [-81.0861508588, 40.5728884487]}, "type": "Feature", "properties": {"collection_times": [{"days": "Mon-Fri", "time": "3:15pm"}, {"days": "Sat", "time": "1:15pm"}, {"days": "Sun", "time": "Closed"}], "id": "4461500007", "name": "USPS COLLECTION BOX - BLUE BOX", "address": {"city": "CARROLLTON", "state": "OH", "street": "8 W MAIN ST", "postcode": "44615"}}},
{"geometry": {"type": "Point", "coordinates": [-81.0916739641, 40.589510126]}, "type": "Feature", "properties": {"collection_times": [{"days": "Mon-Sat", "time": "9:15am"}, {"days": "Sun", "time": "Closed"}], "id": "4461500008", "name": "USPS COLLECTION BOX - BLUE BOX", "address": {"city": "CARROLLTON", "state": "OH", "street": "592 12TH ST NW", "postcode": "44615"}}},
{"geometry": {"type": "Point", "coordinates": [-81.0877213509, 40.5709256977]}, "type": "Feature", "properties": {"collection_times": [{"days": "Mon-Fri", "time": "4:45pm"}, {"days": "Sat", "time": "3:00pm"}, {"days": "Sun", "time": "Closed"}], "id": "4461500016", "name": "USPS COLLECTION BOX - BLUE BOX", "address": {"city": "CARROLLTON", "state": "OH", "street": "246 S LISBON ST", "postcode": "44615"}}},
{"geometry": {"type": "Point", "coordinates": [-81.0877213509, 40.5709256977]}, "type": "Feature", "properties": {"collection_times": [{"days": "Mon-Fri", "time": "4:45pm"}, {"days": "Sat", "time": "3:00pm"}, {"days": "Sun", "time": "Closed"}], "id": "4461500017", "name": "USPS COLLECTION BOX - BLUE BOX", "address": {"city": "CARROLLTON", "state": "OH", "street": "246 S LISBON ST", "postcode": "44615"}}},
{"geometry": {"type": "Point", "coordinates": [-81.7849969324, 40.5065981173]}, "type": "Feature", "properties": {"collection_times": [{"days": "Mon-Fri", "time": "4:00pm"}, {"days": "Sat", "time": "11:30am"}, {"days": "Sun", "time": "Closed"}], "id": "4461700001", "name": "USPS COLLECTION BOX - BLUE BOX", "address": {"city": "CHARM", "state": "OH", "street": "4440 STATE ROUTE 557", "postcode": "44617"}}},
{"geometry": {"type": "Point", "coordinates": [-81.7809926733, 40.5031061345]}, "type": "Feature", "properties": {"collection_times": [{"days": "Mon-Fri", "time": "4:00pm"}, {"days": "Sat", "time": "11:45am"}, {"days": "Sun", "time": "Closed"}], "id": "4461700002", "name": "USPS COLLECTION BOX - PO LOBBY", "address": {"city": "CHARM", "state": "OH", "street": "4440 STATE ROUTE 557", "postcode": "44617"}}},
{"geometry": {"type": "Point", "coordinates": [-81.6952551291, 40.7987185548]}, "type": "Feature", "properties": {"collection_times": [{"days": "Mon-Fri", "time": "5:00pm"}, {"days": "Sat", "time": "12:30pm"}, {"days": "Sun", "time": "Closed"}], "id": "4461800001", "name": "USPS COLLECTION BOX - PO LOBBY", "address": {"city": "DALTON", "state": "OH", "street": "20 W MAIN ST", "postcode": "44618"}}},
{"geometry": {"type": "Point", "coordinates": [-81.6952551291, 40.7987185548]}, "type": "Feature", "properties": {"collection_times": [{"days": "Mon-Fri", "time": "5:00pm"}, {"days": "Sat", "time": "12:30pm"}, {"days": "Sun", "time": "Closed"}], "id": "4461800002", "name": "USPS COLLECTION BOX - BLUE BOX", "address": {"city": "DALTON", "state": "OH", "street": "20 W MAIN ST", "postcode": "44618"}}},
{"geometry": {"type": "Point", "coordinates": [-81.6952551291, 40.7987185548]}, "type": "Feature", "properties": {"collection_times": [{"days": "Mon-Fri", "time": "5:00pm"}, {"days": "Sat", "time": "12:30pm"}, {"days": "Sun", "time": "Closed"}], "id": "4461800003", "name": "USPS COLLECTION BOX - PO LOBBY", "address": {"city": "DALTON", "state": "OH", "street": "20 W MAIN ST", "postcode": "44618"}}},
{"geometry": {"type": "Point", "coordinates": [-80.9567029365, 40.9020057347]}, "type": "Feature", "properties": {"collection_times": [{"days": "Mon-Fri", "time": "4:30pm"}, {"days": "Sat", "time": "11:30am"}, {"days": "Sun", "time": "Closed"}], "id": "4461900001", "name": "USPS COLLECTION BOX - BLUE BOX", "address": {"city": "DAMASCUS", "state": "OH", "street": "16098 W SALEM ALLIANCE RD", "postcode": "44619"}}},
{"geometry": {"type": "Point", "coordinates": [-81.1966190995, 40.5544579412]}, "type": "Feature", "properties": {"collection_times": [{"days": "Mon-Fri", "time": "4:15pm"}, {"days": "Sat", "time": "11:15am"}, {"days": "Sun", "time": "Closed"}], "id": "4462000001", "name": "USPS COLLECTION BOX - BLUE BOX", "address": {"city": "DELLROY", "state": "OH", "street": "3 E MAIN ST", "postcode": "44620"}}},
{"geometry": {"type": "Point", "coordinates": [-81.1983210534, 40.5545326092]}, "type": "Feature", "properties": {"collection_times": [{"days": "Mon-Fri", "time": "2:30pm"}, {"days": "Sat", "time": "11:15am"}, {"days": "Sun", "time": "Closed"}], "id": "4462000002", "name": "USPS COLLECTION BOX - PO LOBBY", "address": {"city": "DELLROY", "state": "OH", "street": "3 E MAIN ST", "postcode": "44620"}}},
{"geometry": {"type": "Point", "coordinates": [-81.1983210534, 40.5545326092]}, "type": "Feature", "properties": {"collection_times": [{"days": "Mon-Fri", "time": "2:30pm"}, {"days": "Sat", "time": "11:15am"}, {"days": "Sun", "time": "Closed"}], "id": "4462000003", "name": "USPS COLLECTION BOX - PO LOBBY", "address": {"city": "DELLROY", "state": "OH", "street": "3 E MAIN ST", "postcode": "44620"}}},
{"geometry": {"type": "Point", "coordinates": [-81.3340866306, 40.3933065772]}, "type": "Feature", "properties": {"collection_times": [{"days": "Mon-Fri", "time": "4:45pm"}, {"days": "Sat", "time": "3:00pm"}, {"days": "Sun", "time": "Closed"}], "id": "4462100002", "name": "USPS COLLECTION BOX - PO LOBBY", "address": {"city": "DENNISON", "state": "OH", "street": "115 N 3RD ST", "postcode": "44621"}}},
{"geometry": {"type": "Point", "coordinates": [-81.3340866306, 40.3933065772]}, "type": "Feature", "properties": {"collection_times": [{"days": "Mon-Fri", "time": "4:45pm"}, {"days": "Sat", "time": "3:00pm"}, {"days": "Sun", "time": "Closed"}], "id": "4462100003", "name": "USPS COLLECTION BOX - BLUE BOX", "address": {"city": "DENNISON", "state": "OH", "street": "115 N 3RD ST", "postcode": "44621"}}},
{"geometry": {"type": "Point", "coordinates": [-81.3139099746, 40.392981909]}, "type": "Feature", "properties": {"collection_times": [{"days": "Mon-Sat", "time": "10:00am"}, {"days": "Sun", "time": "Closed"}], "id": "4462100004", "name": "USPS COLLECTION BOX - BLUE BOX", "address": {"city": "DENNISON", "state": "OH", "street": "638 DENNISON WOODS AVE", "postcode": "44621"}}},
{"geometry": {"type": "Point", "coordinates": [-81.4946892766, 40.5493122009]}, "type": "Feature", "properties": {"collection_times": [{"days": "Mon-Sat", "time": "3:30pm"}, {"days": "Sun", "time": "Closed"}], "id": "4462200009", "name": "USPS COLLECTION BOX - BLUE BOX", "address": {"city": "DOVER", "state": "OH", "street": "3000 N WOOSTER AVE", "postcode": "44622"}}},
{"geometry": {"type": "Point", "coordinates": [-81.483113843, 40.5257547256]}, "type": "Feature", "properties": {"collection_times": [{"days": "Mon-Sat", "time": "10:15am"}, {"days": "Sun", "time": "Closed"}], "id": "4462200016", "name": "USPS COLLECTION BOX - BLUE BOX", "address": {"city": "DOVER", "state": "OH", "street": "801 N WALNUT ST", "postcode": "44622"}}},
{"geometry": {"type": "Point", "coordinates": [-81.4522398896, 40.5112649531]}, "type": "Feature", "properties": {"collection_times": [{"days": "Mon-Sat", "time": "12:20pm"}, {"days": "Sun", "time": "Closed"}], "id": "4462200018", "name": "USPS COLLECTION BOX - BLUE BOX", "address": {"city": "DOVER", "state": "OH", "street": "902 BOULEVARD ST", "postcode": "44622"}}},
{"geometry": {"type": "Point", "coordinates": [-81.4891867485, 40.5142959727]}, "type": "Feature", "properties": {"collection_times": [{"days": "Mon-Sat", "time": "2:30pm"}, {"days": "Sun", "time": "Closed"}], "id": "4462200020", "name": "USPS COLLECTION BOX - BLUE BOX", "address": {"city": "DOVER", "state": "OH", "street": "1 CHARLES DR", "postcode": "44622"}}},
{"geometry": {"type": "Point", "coordinates": [-81.4788579339, 40.5205789705]}, "type": "Feature", "properties": {"collection_times": [{"days": "Mon-Sat", "time": "5:00pm"}, {"days": "Sun", "time": "Closed"}], "id": "4462200021", "name": "USPS COLLECTION BOX - BLUE BOX", "address": {"city": "DOVER", "state": "OH", "street": "230 W 3RD ST", "postcode": "44622"}}},
{"geometry": {"type": "Point", "coordinates": [-81.4788579339, 40.5205789705]}, "type": "Feature", "properties": {"collection_times": [{"days": "Mon-Sat", "time": "5:00pm"}, {"days": "Sun", "time": "Closed"}], "id": "4462200022", "name": "USPS COLLECTION BOX - BLUE BOX", "address": {"city": "DOVER", "state": "OH", "street": "230 W 3RD ST", "postcode": "44622"}}},
{"geometry": {"type": "Point", "coordinates": [-81.4667757175, 40.5097332436]}, "type": "Feature", "properties": {"collection_times": [{"days": "Mon-Sat", "time": "12:00pm"}, {"days": "Sun", "time": "Closed"}], "id": "4462200030", "name": "USPS COLLECTION BOX - BLUE BOX", "address": {"city": "DOVER", "state": "OH", "street": "515 UNION AVE", "postcode": "44622"}}},
{"geometry": {"type": "Point", "coordinates": [-81.4788579339, 40.5205789705]}, "type": "Feature", "properties": {"collection_times": [{"days": "Mon-Sat", "time": "5:00pm"}, {"days": "Sun", "time": "Closed"}], "id": "4462200043", "name": "USPS COLLECTION BOX - PO LOBBY", "address": {"city": "DOVER", "state": "OH", "street": "230 W 3RD ST", "postcode": "44622"}}},
{"geometry": {"type": "Point", "coordinates": [-81.4788579339, 40.5205789705]}, "type": "Feature", "properties": {"collection_times": [{"days": "Mon-Sat", "time": "5:00pm"}, {"days": "Sun", "time": "Closed"}], "id": "4462200046", "name": "USPS COLLECTION BOX - PO LOBBY", "address": {"city": "DOVER", "state": "OH", "street": "230 W 3RD ST", "postcode": "44622"}}},
{"geometry": {"type": "Point", "coordinates": [-81.4788579339, 40.5205789705]}, "type": "Feature", "properties": {"collection_times": [{"days": "Mon-Sat", "time": "5:00pm"}, {"days": "Sun", "time": "Closed"}], "id": "4462200047", "name": "USPS COLLECTION BOX - BLUE BOX", "address": {"city": "DOVER", "state": "OH", "street": "230 W 3RD ST", "postcode": "44622"}}},
{"geometry": {"type": "Point", "coordinates": [-81.4952669801, 40.5508861321]}, "type": "Feature", "properties": {"collection_times": [{"days": "Mon-Sat", "time": "3:30pm"}, {"days": "Sun", "time": "Closed"}], "id": "4462200049", "name": "USPS COLLECTION BOX - BLUE BOX", "address": {"city": "DOVER", "state": "OH", "street": "3015 N WOOSTER AVE", "postcode": "44622"}}},
{"geometry": {"type": "Point", "coordinates": [-81.4697151441, 40.5174541706]}, "type": "Feature", "properties": {"collection_times": [{"days": "Mon-Sat", "time": "10:00am"}, {"days": "Sun", "time": "Closed"}], "id": "4462200050", "name": "USPS COLLECTION BOX - BLUE BOX", "address": {"city": "DOVER", "state": "OH", "street": "300 OXFORD ST", "postcode": "44622"}}},
{"geometry": {"type": "Point", "coordinates": [-81.4569352677, 40.5141287385]}, "type": "Feature", "properties": {"collection_times": [{"days": "Mon-Sat", "time": "12:00pm"}, {"days": "Sun", "time": "Closed"}], "id": "4462200051", "name": "USPS COLLECTION BOX - BLUE BOX", "address": {"city": "DOVER", "state": "OH", "street": "659 BOULEVARD ST", "postcode": "44622"}}},
{"geometry": {"type": "Point", "coordinates": [-81.6137629262, 40.5836847623]}, "type": "Feature", "properties": {"collection_times": [{"days": "Mon-Fri", "time": "4:00pm"}, {"days": "Sat", "time": "11:30am"}, {"days": "Sun", "time": "Closed"}], "id": "4462400001", "name": "USPS COLLECTION BOX - BLUE BOX", "address": {"city": "DUNDEE", "state": "OH", "street": "6759 STATE ROUTE 93 NW", "postcode": "44624"}}},
{"geometry": {"type": "Point", "coordinates": [-81.015722346, 40.7340575799]}, "type": "Feature", "properties": {"collection_times": [{"days": "Mon-Fri", "time": "4:00pm"}, {"days": "Sat", "time": "12:00pm"}, {"days": "Sun", "time": "Closed"}], "id": "4462500001", "name": "USPS COLLECTION BOX - BLUE BOX", "address": {"city": "EAST ROCHESTER", "state": "OH", "street": "24781 U S ROUTE 30", "postcode": "44625"}}},
{"geometry": {"type": "Point", "coordinates": [-81.015722346, 40.7340575799]}, "type": "Feature", "properties": {"collection_times": [{"days": "Mon-Fri", "time": "4:00pm"}, {"days": "Sat", "time": "12:00pm"}, {"days": "Sun", "time": "Closed"}], "id": "4462500002", "name": "USPS COLLECTION BOX - PO LOBBY", "address": {"city": "EAST ROCHESTER", "state": "OH", "street": "24781 U S ROUTE 30", "postcode": "44625"}}},
{"geometry": {"type": "Point", "coordinates": [-81.354072581, 40.66701832]}, "type": "Feature", "properties": {"collection_times": [{"days": "Mon-Fri", "time": "4:45pm"}, {"days": "Sat", "time": "11:45am"}, {"days": "Sun", "time": "Closed"}], "id": "4462600001", "name": "USPS COLLECTION BOX - PO LOBBY", "address": {"city": "EAST SPARTA", "state": "OH", "street": "2039 WALNUT ST SE", "postcode": "44626"}}},
{"geometry": {"type": "Point", "coordinates": [-81.354072581, 40.66701832]}, "type": "Feature", "properties": {"collection_times": [{"days": "Mon-Fri", "time": "4:45pm"}, {"days": "Sat", "time": "11:45am"}, {"days": "Sun", "time": "Closed"}], "id": "4462600003", "name": "USPS COLLECTION BOX - BLUE BOX", "address": {"city": "EAST SPARTA", "state": "OH", "street": "2039 WALNUT ST SE", "postcode": "44626"}}},
{"geometry": {"type": "Point", "coordinates": [-81.8713471139, 40.6753415674]}, "type": "Feature", "properties": {"collection_times": [{"days": "Mon-Fri", "time": "4:15pm"}, {"days": "Sat", "time": "11:15am"}, {"days": "Sun", "time": "Closed"}], "id": "4462700001", "name": "USPS COLLECTION BOX - BLUE BOX", "address": {"city": "FREDERICKSBURG", "state": "OH", "street": "147 WATER ST", "postcode": "44627"}}},
{"geometry": {"type": "Point", "coordinates": [-81.8713471139, 40.6753415674]}, "type": "Feature", "properties": {"collection_times": [{"days": "Mon-Fri", "time": "4:30pm"}, {"days": "Sat", "time": "11:30am"}, {"days": "Sun", "time": "Closed"}], "id": "4462700002", "name": "USPS COLLECTION BOX - PO LOBBY", "address": {"city": "FREDERICKSBURG", "state": "OH", "street": "147 WATER ST", "postcode": "44627"}}},
{"geometry": {"type": "Point", "coordinates": [-82.0991883027, 40.5201527417]}, "type": "Feature", "properties": {"collection_times": [{"days": "Mon-Fri", "time": "3:30pm"}, {"days": "Sat", "time": "10:45am"}, {"days": "Sun", "time": "Closed"}], "id": "4462800001", "name": "USPS COLLECTION BOX - BLUE BOX", "address": {"city": "GLENMONT", "state": "OH", "street": "125 MAIN ST", "postcode": "44628"}}},
{"geometry": {"type": "Point", "coordinates": [-82.0991883027, 40.5201527417]}, "type": "Feature", "properties": {"collection_times": [{"days": "Mon-Fri", "time": "3:30pm"}, {"days": "Sat", "time": "10:45am"}, {"days": "Sun", "time": "Closed"}], "id": "4462800002", "name": "USPS COLLECTION BOX - PO LOBBY", "address": {"city": "GLENMONT", "state": "OH", "street": "125 MAIN ST", "postcode": "44628"}}},
{"geometry": {"type": "Point", "coordinates": [-81.4358198648, 40.3591148473]}, "type": "Feature", "properties": {"collection_times": [{"days": "Mon-Fri", "time": "4:30pm"}, {"days": "Sat", "time": "11:45am"}, {"days": "Sun", "time": "Closed"}], "id": "4462900001", "name": "USPS COLLECTION BOX - PO LOBBY", "address": {"city": "GNADENHUTTEN", "state": "OH", "street": "139 N WALNUT ST", "postcode": "44629"}}},
{"geometry": {"type": "Point", "coordinates": [-81.4358198648, 40.3591148473]}, "type": "Feature", "properties": {"collection_times": [{"days": "Mon-Fri", "time": "4:00pm"}, {"days": "Sat", "time": "12:00pm"}, {"days": "Sun", "time": "Closed"}], "id": "4462900002", "name": "USPS COLLECTION BOX - BLUE BOX", "address": {"city": "GNADENHUTTEN", "state": "OH", "street": "139 N WALNUT ST", "postcode": "44629"}}},
{"geometry": {"type": "Point", "coordinates": [-81.4029664501, 40.9263184652]}, "type": "Feature", "properties": {"collection_times": [{"days": "Mon-Fri", "time": "4:30pm"}, {"days": "Sat", "time": "11:30am"}, {"days": "Sun", "time": "Closed"}], "id": "4463000001", "name": "USPS COLLECTION BOX - PO LOBBY", "address": {"city": "GREENTOWN", "state": "OH", "street": "9635 CLEVELAND AVE NW", "postcode": "44630"}}},
{"geometry": {"type": "Point", "coordinates": [-81.4029664501, 40.9263184652]}, "type": "Feature", "properties": {"collection_times": [{"days": "Mon-Fri", "time": "4:30pm"}, {"days": "Sat", "time": "11:30am"}, {"days": "Sun", "time": "Closed"}], "id": "4463000002", "name": "USPS COLLECTION BOX - BLUE BOX", "address": {"city": "GREENTOWN", "state": "OH", "street": "9635 CLEVELAND AVE NW", "postcode": "44630"}}},
{"geometry": {"type": "Point", "coordinates": [-81.3312309155, 40.9639137934]}, "type": "Feature", "properties": {"collection_times": [{"days": "Mon-Sat", "time": "11:30am"}, {"days": "Sun", "time": "Closed"}], "id": "4463200001", "name": "USPS COLLECTION BOX - BLUE BOX", "address": {"city": "HARTVILLE", "state": "OH", "street": "106 S PROSPECT AVE", "postcode": "44632"}}},
{"geometry": {"type": "Point", "coordinates": [-81.3448160163, 40.9675312819]}, "type": "Feature", "properties": {"collection_times": [{"days": "Mon-Sat", "time": "12:00pm"}, {"days": "Sun", "time": "Closed"}], "id": "4463200002", "name": "USPS COLLECTION BOX - BLUE BOX", "address": {"city": "HARTVILLE", "state": "OH", "street": "840 W MAPLE ST", "postcode": "44632"}}},
{"geometry": {"type": "Point", "coordinates": [-81.3448160163, 40.9675312819]}, "type": "Feature", "properties": {"collection_times": [{"days": "Mon-Sat", "time": "12:00pm"}, {"days": "Sun", "time": "Closed"}], "id": "4463200005", "name": "USPS COLLECTION BOX - BLUE BOX", "address": {"city": "HARTVILLE", "state": "OH", "street": "840 W MAPLE ST", "postcode": "44632"}}},
{"geometry": {"type": "Point", "coordinates": [-81.346150394, 40.9678317535]}, "type": "Feature", "properties": {"collection_times": [{"days": "Mon-Fri", "time": "5:00pm"}, {"days": "Sat", "time": "12:00pm"}, {"days": "Sun", "time": "Closed"}], "id": "4463200006", "name": "USPS COLLECTION BOX - BLUE BOX", "address": {"city": "HARTVILLE", "state": "OH", "street": "861 W MAPLE ST", "postcode": "44632"}}},
{"geometry": {"type": "Point", "coordinates": [-81.346150394, 40.9678317535]}, "type": "Feature", "properties": {"collection_times": [{"days": "Mon-Fri", "time": "5:00pm"}, {"days": "Sat", "time": "12:00pm"}, {"days": "Sun", "time": "Closed"}], "id": "4463200008", "name": "USPS COLLECTION BOX - PO LOBBY", "address": {"city": "HARTVILLE", "state": "OH", "street": "861 W MAPLE ST", "postcode": "44632"}}},
{"geometry": {"type": "Point", "coordinates": [-81.346150394, 40.9678317535]}, "type": "Feature", "properties": {"collection_times": [{"days": "Mon-Fri", "time": "5:00pm"}, {"days": "Sat", "time": "12:00pm"}, {"days": "Sun", "time": "Closed"}], "id": "4463200010", "name": "USPS COLLECTION BOX - PO LOBBY", "address": {"city": "HARTVILLE", "state": "OH", "street": "861 W MAPLE ST", "postcode": "44632"}}},
{"geometry": {"type": "Point", "coordinates": [-81.9227053497, 40.6298763543]}, "type": "Feature", "properties": {"collection_times": [{"days": "Mon-Fri", "time": "4:15pm"}, {"days": "Sat", "time": "12:15pm"}, {"days": "Sun", "time": "Closed"}], "id": "4463300001", "name": "USPS COLLECTION BOX - PO LOBBY", "address": {"city": "HOLMESVILLE", "state": "OH", "street": "201 S MILLERSBURG ST", "postcode": "44633"}}},
{"geometry": {"type": "Point", "coordinates": [-81.9227053497, 40.6298763543]}, "type": "Feature", "properties": {"collection_times": [{"days": "Mon-Fri", "time": "4:15pm"}, {"days": "Sat", "time": "12:15pm"}, {"days": "Sun", "time": "Closed"}], "id": "4463300002", "name": "USPS COLLECTION BOX - BLUE BOX", "address": {"city": "HOLMESVILLE", "state": "OH", "street": "201 S MILLERSBURG ST", "postcode": "44633"}}},
{"geometry": {"type": "Point", "coordinates": [-81.0668778294, 40.8365938681]}, "type": "Feature", "properties": {"collection_times": [{"days": "Mon-Fri", "time": "4:00pm"}, {"days": "Sat", "time": "11:45am"}, {"days": "Sun", "time": "Closed"}], "id": "4463400001", "name": "USPS COLLECTION BOX - PO LOBBY", "address": {"city": "HOMEWORTH", "state": "OH", "street": "4434 MIDDLE ST", "postcode": "44634"}}},
{"geometry": {"type": "Point", "coordinates": [-81.0668778294, 40.8365938681]}, "type": "Feature", "properties": {"collection_times": [{"days": "Mon-Fri", "time": "4:30pm"}, {"days": "Sat", "time": "11:45am"}, {"days": "Sun", "time": "Closed"}], "id": "4463400002", "name": "USPS COLLECTION BOX - BLUE BOX", "address": {"city": "HOMEWORTH", "state": "OH", "street": "4434 MIDDLE ST", "postcode": "44634"}}},
{"geometry": {"type": "Point", "coordinates": [-81.7451533714, 40.7418434818]}, "type": "Feature", "properties": {"collection_times": [{"days": "Mon-Fri", "time": "4:30pm"}, {"days": "Sat", "time": "12:00pm"}, {"days": "Sun", "time": "Closed"}], "id": "4463600001", "name": "USPS COLLECTION BOX - BLUE BOX", "address": {"city": "KIDRON", "state": "OH", "street": "4698 KIDRON RD", "postcode": "44636"}}},
{"geometry": {"type": "Point", "coordinates": [-81.7451533714, 40.7418434818]}, "type": "Feature", "properties": {"collection_times": [{"days": "Mon-Fri", "time": "4:30pm"}, {"days": "Sat", "time": "12:00pm"}, {"days": "Sun", "time": "Closed"}], "id": "4463600002", "name": "USPS COLLECTION BOX - PO LOBBY", "address": {"city": "KIDRON", "state": "OH", "street": "4698 KIDRON RD", "postcode": "44636"}}},
{"geometry": {"type": "Point", "coordinates": [-81.9831574917, 40.4950876502]}, "type": "Feature", "properties": {"collection_times": [{"days": "Mon-Fri", "time": "4:00pm"}, {"days": "Sat", "time": "12:00pm"}, {"days": "Sun", "time": "Closed"}], "id": "4463700001", "name": "USPS COLLECTION BOX - BLUE BOX", "address": {"city": "KILLBUCK", "state": "OH", "street": "182 W FRONT ST", "postcode": "44637"}}},
{"geometry": {"type": "Point", "coordinates": [-81.9831574917, 40.4950876502]}, "type": "Feature", "properties": {"collection_times": [{"days": "Mon-Fri", "time": "4:00pm"}, {"days": "Sat", "time": "12:00pm"}, {"days": "Sun", "time": "Closed"}], "id": "4463700002", "name": "USPS COLLECTION BOX - PO LOBBY", "address": {"city": "KILLBUCK", "state": "OH", "street": "182 W FRONT ST", "postcode": "44637"}}},
{"geometry": {"type": "Point", "coordinates": [-82.1211303136, 40.6603152807]}, "type": "Feature", "properties": {"collection_times": [{"days": "Mon-Fri", "time": "4:00pm"}, {"days": "Sat", "time": "11:45am"}, {"days": "Sun", "time": "Closed"}], "id": "4463800001", "name": "USPS COLLECTION BOX - BLUE BOX", "address": {"city": "LAKEVILLE", "state": "OH", "street": "13989 STATE ROUTE 226", "postcode": "44638"}}},
{"geometry": {"type": "Point", "coordinates": [-82.1211303136, 40.6603152807]}, "type": "Feature", "properties": {"collection_times": [{"days": "Mon-Fri", "time": "4:00pm"}, {"days": "Sat", "time": "11:45am"}, {"days": "Sun", "time": "Closed"}], "id": "4463800002", "name": "USPS COLLECTION BOX - PO LOBBY", "address": {"city": "LAKEVILLE", "state": "OH", "street": "13989 STATE ROUTE 226", "postcode": "44638"}}},
{"geometry": {"type": "Point", "coordinates": [-81.2096434786, 40.4521863707]}, "type": "Feature", "properties": {"collection_times": [{"days": "Mon-Fri", "time": "3:30pm"}, {"days": "Sat", "time": "11:00am"}, {"days": "Sun", "time": "Closed"}], "id": "4463900001", "name": "USPS COLLECTION BOX - PO LOBBY", "address": {"city": "LEESVILLE", "state": "OH", "street": "95 S WATER ST", "postcode": "44639"}}},
{"geometry": {"type": "Point", "coordinates": [-81.2096434786, 40.4521863707]}, "type": "Feature", "properties": {"collection_times": [{"days": "Mon-Fri", "time": "3:30pm"}, {"days": "Sat", "time": "11:00am"}, {"days": "Sun", "time": "Closed"}], "id": "4463900002", "name": "USPS COLLECTION BOX - BLUE BOX", "address": {"city": "LEESVILLE", "state": "OH", "street": "95 S WATER ST", "postcode": "44639"}}},
{"geometry": {"type": "Point", "coordinates": [-81.1475689108, 40.982080128]}, "type": "Feature", "properties": {"collection_times": [{"days": "Mon-Fri", "time": "4:00pm"}, {"days": "Sat", "time": "11:30am"}, {"days": "Sun", "time": "Closed"}], "id": "4464000001", "name": "USPS COLLECTION BOX - BLUE BOX", "address": {"city": "LIMAVILLE", "state": "OH", "street": "25 E MAIN ST", "postcode": "44640"}}},
{"geometry": {"type": "Point", "coordinates": [-81.1475689108, 40.982080128]}, "type": "Feature", "properties": {"collection_times": [{"days": "Mon-Fri", "time": "4:00pm"}, {"days": "Sat", "time": "11:30am"}, {"days": "Sun", "time": "Closed"}], "id": "4464000002", "name": "USPS COLLECTION BOX - PO LOBBY", "address": {"city": "LIMAVILLE", "state": "OH", "street": "25 E MAIN ST", "postcode": "44640"}}},
{"geometry": {"type": "Point", "coordinates": [-81.2593223889, 40.8436979545]}, "type": "Feature", "properties": {"collection_times": [{"days": "Mon-Fri", "time": "5:00pm"}, {"days": "Sat", "time": "3:00pm"}, {"days": "Sun", "time": "Closed"}], "id": "4464100001", "name": "USPS COLLECTION BOX - BLUE BOX", "address": {"city": "LOUISVILLE", "state": "OH", "street": "1000 N CHAPEL ST", "postcode": "44641"}}},
{"geometry": {"type": "Point", "coordinates": [-81.2592382319, 40.8464618625]}, "type": "Feature", "properties": {"collection_times": [{"days": "Mon-Fri", "time": "5:00pm"}, {"days": "Sat", "time": "3:00pm"}, {"days": "Sun", "time": "Closed"}], "id": "4464100002", "name": "USPS COLLECTION BOX - EXPRESS", "address": {"city": "LOUISVILLE", "state": "OH", "street": "1000 N CHAPEL ST", "postcode": "44641"}}},
{"geometry": {"type": "Point", "coordinates": [-81.2602770368, 40.837629375]}, "type": "Feature", "properties": {"collection_times": [{"days": "Mon-Sat", "time": "9:00am"}, {"days": "Sun", "time": "Closed"}], "id": "4464100003", "name": "USPS COLLECTION BOX - BLUE BOX", "address": {"city": "LOUISVILLE", "state": "OH", "street": "108 W MAIN ST", "postcode": "44641"}}},
{"geometry": {"type": "Point", "coordinates": [-81.2664792906, 40.8368427073]}, "type": "Feature", "properties": {"collection_times": [{"days": "Mon-Sat", "time": "8:45am"}, {"days": "Sun", "time": "Closed"}], "id": "4464100004", "name": "USPS COLLECTION BOX - BLUE BOX", "address": {"city": "LOUISVILLE", "state": "OH", "street": "700 W MAIN ST", "postcode": "44641"}}},
{"geometry": {"type": "Point", "coordinates": [-81.2593223889, 40.8436979545]}, "type": "Feature", "properties": {"collection_times": [{"days": "Mon-Fri", "time": "5:00pm"}, {"days": "Sat", "time": "3:00pm"}, {"days": "Sun", "time": "Closed"}], "id": "4464100017", "name": "USPS COLLECTION BOX - PO LOBBY", "address": {"city": "LOUISVILLE", "state": "OH", "street": "1000 N CHAPEL ST", "postcode": "44641"}}},
{"geometry": {"type": "Point", "coordinates": [-81.2978726556, 40.6522691689]}, "type": "Feature", "properties": {"collection_times": [{"days": "Mon-Fri", "time": "4:00pm"}, {"days": "Sat", "time": "11:30am"}, {"days": "Sun", "time": "Closed"}], "id": "4464300001", "name": "USPS COLLECTION BOX - PO LOBBY", "address": {"city": "MAGNOLIA", "state": "OH", "street": "155 CANAL ST", "postcode": "44643"}}},
{"geometry": {"type": "Point", "coordinates": [-81.3529100326, 40.6448665566]}, "type": "Feature", "properties": {"collection_times": [{"days": "Mon-Sat", "time": "10:00am"}, {"days": "Sun", "time": "Closed"}], "id": "4464300004", "name": "USPS COLLECTION BOX - BLUE BOX", "address": {"city": "MAGNOLIA", "state": "OH", "street": "11503 1ST ST NE", "postcode": "44643"}}},
{"geometry": {"type": "Point", "coordinates": [-81.3553830731, 40.6407258508]}, "type": "Feature", "properties": {"collection_times": [{"days": "Mon-Sat", "time": "10:00am"}, {"days": "Sun", "time": "Closed"}], "id": "4464300005", "name": "USPS COLLECTION BOX - BLUE BOX", "address": {"city": "MAGNOLIA", "state": "OH", "street": "11141 STATE ROUTE 800 NE", "postcode": "44643"}}},
{"geometry": {"type": "Point", "coordinates": [-81.2978726556, 40.6522691689]}, "type": "Feature", "properties": {"collection_times": [{"days": "Mon-Fri", "time": "4:00pm"}, {"days": "Sat", "time": "11:30am"}, {"days": "Sun", "time": "Closed"}], "id": "4464300006", "name": "USPS COLLECTION BOX - BLUE BOX", "address": {"city": "MAGNOLIA", "state": "OH", "street": "155 CANAL ST", "postcode": "44643"}}},
{"geometry": {"type": "Point", "coordinates": [-81.1800606122, 40.6897152246]}, "type": "Feature", "properties": {"collection_times": [{"days": "Mon-Fri", "time": "4:30pm"}, {"days": "Sat", "time": "12:00pm"}, {"days": "Sun", "time": "Closed"}], "id": "4464400001", "name": "USPS COLLECTION BOX - PO LOBBY", "address": {"city": "MALVERN", "state": "OH", "street": "116 E PORTER ST", "postcode": "44644"}}},
{"geometry": {"type": "Point", "coordinates": [-81.1800606122, 40.6897152246]}, "type": "Feature", "properties": {"collection_times": [{"days": "Mon-Fri", "time": "4:30pm"}, {"days": "Sat", "time": "12:00pm"}, {"days": "Sun", "time": "Closed"}], "id": "4464400002", "name": "USPS COLLECTION BOX - BLUE BOX", "address": {"city": "MALVERN", "state": "OH", "street": "116 E PORTER ST", "postcode": "44644"}}},
{"geometry": {"type": "Point", "coordinates": [-81.1800606122, 40.6897152246]}, "type": "Feature", "properties": {"collection_times": [{"days": "Mon-Fri", "time": "4:30pm"}, {"days": "Sat", "time": "12:00pm"}, {"days": "Sun", "time": "Closed"}], "id": "4464400003", "name": "USPS COLLECTION BOX - BLUE BOX", "address": {"city": "MALVERN", "state": "OH", "street": "116 E PORTER ST", "postcode": "44644"}}},
{"geometry": {"type": "Point", "coordinates": [-81.734058287, 40.9024721926]}, "type": "Feature", "properties": {"collection_times": [{"days": "Mon-Fri", "time": "4:15pm"}, {"days": "Sat", "time": "11:45am"}, {"days": "Sun", "time": "Closed"}], "id": "4464500001", "name": "USPS COLLECTION BOX - BLUE BOX", "address": {"city": "MARSHALLVILLE", "state": "OH", "street": "3 N MAIN ST", "postcode": "44645"}}},
{"geometry": {"type": "Point", "coordinates": [-81.734058287, 40.9024721926]}, "type": "Feature", "properties": {"collection_times": [{"days": "Mon-Fri", "time": "4:15pm"}, {"days": "Sat", "time": "11:45am"}, {"days": "Sun", "time": "Closed"}], "id": "4464500003", "name": "USPS COLLECTION BOX - PO LOBBY", "address": {"city": "MARSHALLVILLE", "state": "OH", "street": "3 N MAIN ST", "postcode": "44645"}}},
{"geometry": {"type": "Point", "coordinates": [-81.5177149327, 40.8090550012]}, "type": "Feature", "properties": {"collection_times": [{"days": "Mon-Sat", "time": "9:00am"}, {"days": "Sun", "time": "Closed"}], "id": "4464600001", "name": "USPS COLLECTION BOX - BLUE BOX", "address": {"city": "MASSILLON", "state": "OH", "street": "1014 AMHERST RD NE", "postcode": "44646"}}},
{"geometry": {"type": "Point", "coordinates": [-81.4900632669, 40.7980889716]}, "type": "Feature", "properties": {"collection_times": [{"days": "Mon-Sat", "time": "9:00am"}, {"days": "Sun", "time": "Closed"}], "id": "4464600012", "name": "USPS COLLECTION BOX - BLUE BOX", "address": {"city": "MASSILLON", "state": "OH", "street": "2356 LINCOLN WAY E", "postcode": "44646"}}},
{"geometry": {"type": "Point", "coordinates": [-81.4861453068, 40.7973200483]}, "type": "Feature", "properties": {"collection_times": [{"days": "Mon-Fri", "time": "12:00pm"}, {"days": "Sat", "time": "9:00am"}, {"days": "Sun", "time": "Closed"}], "id": "4464600014", "name": "USPS COLLECTION BOX - BLUE BOX", "address": {"city": "MASSILLON", "state": "OH", "street": "2551 LINCOLN WAY E", "postcode": "44646"}}},
{"geometry": {"type": "Point", "coordinates": [-81.4996641618, 40.8224401819]}, "type": "Feature", "properties": {"collection_times": [{"days": "Mon-Sat", "time": "10:00am"}, {"days": "Sun", "time": "Closed"}], "id": "4464600015", "name": "USPS COLLECTION BOX - BLUE BOX", "address": {"city": "MASSILLON", "state": "OH", "street": "2815 AARONWOOD AVE NW", "postcode": "44646"}}},
{"geometry": {"type": "Point", "coordinates": [-81.5241738886, 40.7932577672]}, "type": "Feature", "properties": {"collection_times": [{"days": "Mon-Sat", "time": "9:00am"}, {"days": "Sun", "time": "Closed"}], "id": "4464600016", "name": "USPS COLLECTION BOX - BLUE BOX", "address": {"city": "MASSILLON", "state": "OH", "street": "223 2ND ST SW", "postcode": "44646"}}},
{"geometry": {"type": "Point", "coordinates": [-81.4754856635, 40.7953255794]}, "type": "Feature", "properties": {"collection_times": [{"days": "Mon-Fri", "time": "12:00pm"}, {"days": "Sat", "time": "10:00am"}, {"days": "Sun", "time": "Closed"}], "id": "4464600017", "name": "USPS COLLECTION BOX - BLUE BOX", "address": {"city": "MASSILLON", "state": "OH", "street": "3140 LINCOLN WAY E", "postcode": "44646"}}},
{"geometry": {"type": "Point", "coordinates": [-81.4728985323, 40.7950747921]}, "type": "Feature", "properties": {"collection_times": [{"days": "Mon-Sat", "time": "9:00am"}, {"days": "Sun", "time": "Closed"}], "id": "4464600018", "name": "USPS COLLECTION BOX - BLUE BOX", "address": {"city": "MASSILLON", "state": "OH", "street": "3256 LINCOLN WAY E", "postcode": "44646"}}},
{"geometry": {"type": "Point", "coordinates": [-81.5177598851, 40.7944419091]}, "type": "Feature", "properties": {"collection_times": [{"days": "Mon-Sat", "time": "11:00am"}, {"days": "Sun", "time": "Closed"}], "id": "4464600019", "name": "USPS COLLECTION BOX - BLUE BOX", "address": {"city": "MASSILLON", "state": "OH", "street": "322 3RD ST SE", "postcode": "44646"}}},
{"geometry": {"type": "Point", "coordinates": [-81.5187334603, 40.8128487506]}, "type": "Feature", "properties": {"collection_times": [{"days": "Mon-Sat", "time": "9:00am"}, {"days": "Sun", "time": "Closed"}], "id": "4464600022", "name": "USPS COLLECTION BOX - BLUE BOX", "address": {"city": "MASSILLON", "state": "OH", "street": "420 LAKE AVE NE", "postcode": "44646"}}},
{"geometry": {"type": "Point", "coordinates": [-81.51859742, 40.8055120391]}, "type": "Feature", "properties": {"collection_times": [{"days": "Mon-Fri", "time": "3:00pm"}, {"days": "Sat", "time": "9:30am"}, {"days": "Sun", "time": "Closed"}], "id": "4464600027", "name": "USPS COLLECTION BOX - BLUE BOX", "address": {"city": "MASSILLON", "state": "OH", "street": "830 AMHERST RD NE", "postcode": "44646"}}},
{"geometry": {"type": "Point", "coordinates": [-81.516464545, 40.8141500055]}, "type": "Feature", "properties": {"collection_times": [{"days": "Mon-Fri", "time": "3:15pm"}, {"days": "Sat", "time": "3:45pm"}, {"days": "Sun", "time": "Closed"}], "id": "4464600029", "name": "USPS COLLECTION BOX - BLUE BOX", "address": {"city": "MASSILLON", "state": "OH", "street": "1505 AMHERST RD NE", "postcode": "44646"}}},
{"geometry": {"type": "Point", "coordinates": [-81.516464545, 40.8141500055]}, "type": "Feature", "properties": {"collection_times": [{"days": "Mon-Fri", "time": "12:00pm"}, {"days": "Sat", "time": "3:45pm"}, {"days": "Sun", "time": "Closed"}], "id": "4464600030", "name": "USPS COLLECTION BOX - BLUE BOX", "address": {"city": "MASSILLON", "state": "OH", "street": "1505 AMHERST RD NE", "postcode": "44646"}}},
{"geometry": {"type": "Point", "coordinates": [-81.4759411027, 40.7983563203]}, "type": "Feature", "properties": {"collection_times": [{"days": "Mon-Sat", "time": "1:00pm"}, {"days": "Sun", "time": "Closed"}], "id": "4464600031", "name": "USPS COLLECTION BOX - BLUE BOX", "address": {"city": "MASSILLON", "state": "OH", "street": "400 AUSTIN AVE NW", "postcode": "44646"}}},
{"geometry": {"type": "Point", "coordinates": [-81.5399368168, 40.7943176984]}, "type": "Feature", "properties": {"collection_times": [{"days": "Mon-Fri", "time": "12:00pm"}, {"days": "Sat", "time": "9:00am"}, {"days": "Sun", "time": "Closed"}], "id": "4464600036", "name": "USPS COLLECTION BOX - BLUE BOX", "address": {"city": "MASSILLON", "state": "OH", "street": "1240 LINCOLN WAY E", "postcode": "44646"}}},
{"geometry": {"type": "Point", "coordinates": [-81.4906535395, 40.8264667736]}, "type": "Feature", "properties": {"collection_times": [{"days": "Mon-Sat", "time": "10:30am"}, {"days": "Sun", "time": "Closed"}], "id": "4464600037", "name": "USPS COLLECTION BOX - BLUE BOX", "address": {"city": "MASSILLON", "state": "OH", "street": "7453 QUAIL HOLLOW ST NW", "postcode": "44646"}}},
{"geometry": {"type": "Point", "coordinates": [-81.463853628, 40.7943934078]}, "type": "Feature", "properties": {"collection_times": [{"days": "Mon-Fri", "time": "12:00pm"}, {"days": "Sat", "time": "9:15am"}, {"days": "Sun", "time": "Closed"}], "id": "4464600040", "name": "USPS COLLECTION BOX - BLUE BOX", "address": {"city": "MASSILLON", "state": "OH", "street": "3637 LINCOLN WAY E", "postcode": "44646"}}},
{"geometry": {"type": "Point", "coordinates": [-81.5160132594, 40.806205454]}, "type": "Feature", "properties": {"collection_times": [{"days": "Mon-Fri", "time": "3:00pm"}, {"days": "Sat", "time": "9:30am"}, {"days": "Sun", "time": "Closed"}], "id": "4464600044", "name": "USPS COLLECTION BOX - BLUE BOX", "address": {"city": "MASSILLON", "state": "OH", "street": "875 8TH ST NE", "postcode": "44646"}}},
{"geometry": {"type": "Point", "coordinates": [-81.5028018229, 40.8240896766]}, "type": "Feature", "properties": {"collection_times": [{"days": "Mon-Fri", "time": "12:00pm"}, {"days": "Sat", "time": "3:30pm"}, {"days": "Sun", "time": "Closed"}], "id": "4464600047", "name": "USPS COLLECTION BOX - BLUE BOX", "address": {"city": "MASSILLON", "state": "OH", "street": "2100 WALES AVE NW", "postcode": "44646"}}},
{"geometry": {"type": "Point", "coordinates": [-81.4787331712, 40.7930288596]}, "type": "Feature", "properties": {"collection_times": [{"days": "Mon-Sat", "time": "10:15am"}, {"days": "Sun", "time": "Closed"}], "id": "4464600051", "name": "USPS COLLECTION BOX - BLUE BOX", "address": {"city": "MASSILLON", "state": "OH", "street": "225 CRESCENTVIEW DR SW", "postcode": "44646"}}},
{"geometry": {"type": "Point", "coordinates": [-81.5204025112, 40.7953309677]}, "type": "Feature", "properties": {"collection_times": [{"days": "Mon-Fri", "time": "3:30pm"}, {"days": "Sat", "time": "9:30am"}, {"days": "Sun", "time": "Closed"}], "id": "4464600056", "name": "USPS COLLECTION BOX - BLUE BOX", "address": {"city": "MASSILLON", "state": "OH", "street": "1 JAMES DUNCAN PLZ", "postcode": "44646"}}},
{"geometry": {"type": "Point", "coordinates": [-81.5020300797, 40.8379144681]}, "type": "Feature", "properties": {"collection_times": [{"days": "Mon-Sat", "time": "12:30pm"}, {"days": "Sun", "time": "Closed"}], "id": "4464600057", "name": "USPS COLLECTION BOX - BLUE BOX", "address": {"city": "MASSILLON", "state": "OH", "street": "3917 WALES AVE NW", "postcode": "44646"}}},
{"geometry": {"type": "Point", "coordinates": [-81.5217571034, 40.7935558728]}, "type": "Feature", "properties": {"collection_times": [{"days": "Mon-Fri", "time": "5:00pm"}, {"days": "Sat", "time": "4:30pm"}, {"days": "Sun", "time": "Closed"}], "id": "4464600058", "name": "USPS COLLECTION BOX - PO LOBBY", "address": {"city": "MASSILLON", "state": "OH", "street": "333 ERIE ST S", "postcode": "44646"}}},
{"geometry": {"type": "Point", "coordinates": [-81.4982656745, 40.8134007157]}, "type": "Feature", "properties": {"collection_times": [{"days": "Mon-Sat", "time": "5:00pm"}, {"days": "Sun", "time": "Closed"}], "id": "4464600062", "name": "USPS COLLECTION BOX - EXPRESS", "address": {"city": "MASSILLON", "state": "OH", "street": "333 ERIE ST S", "postcode": "44646"}}},
{"geometry": {"type": "Point", "coordinates": [-81.5217571034, 40.7935558728]}, "type": "Feature", "properties": {"collection_times": [{"days": "Mon-Sat", "time": "5:00pm"}, {"days": "Sun", "time": "Closed"}], "id": "4464600064", "name": "USPS COLLECTION BOX - BLUE BOX", "address": {"city": "MASSILLON", "state": "OH", "street": "333 ERIE ST S", "postcode": "44646"}}},
{"geometry": {"type": "Point", "coordinates": [-81.5212454722, 40.7969553835]}, "type": "Feature", "properties": {"collection_times": [{"days": "Mon-Fri", "time": "3:30pm"}, {"days": "Sat", "time": "3:45pm"}, {"days": "Sun", "time": "Closed"}], "id": "4464600067", "name": "USPS COLLECTION BOX - BLUE BOX", "address": {"city": "MASSILLON", "state": "OH", "street": "137 LINCOLN WAY E", "postcode": "44646"}}},
{"geometry": {"type": "Point", "coordinates": [-81.5024003459, 40.8318222294]}, "type": "Feature", "properties": {"collection_times": [{"days": "Mon-Fri", "time": "12:00pm"}, {"days": "Sat", "time": "12:15pm"}, {"days": "Sun", "time": "Closed"}], "id": "4464600068", "name": "USPS COLLECTION BOX - BLUE BOX", "address": {"city": "MASSILLON", "state": "OH", "street": "3470 WALES AVE NW", "postcode": "44646"}}},
{"geometry": {"type": "Point", "coordinates": [-81.521566647, 40.7671877175]}, "type": "Feature", "properties": {"collection_times": [{"days": "Mon-Fri", "time": "12:00pm"}, {"days": "Sat", "time": "10:00am"}, {"days": "Sun", "time": "Closed"}], "id": "4464600072", "name": "USPS COLLECTION BOX - BLUE BOX", "address": {"city": "MASSILLON", "state": "OH", "street": "1 MASSILLON MARKET PLACE DR SW", "postcode": "44646"}}},
{"geometry": {"type": "Point", "coordinates": [-81.5217571034, 40.7935558728]}, "type": "Feature", "properties": {"collection_times": [{"days": "Mon-Fri", "time": "5:00pm"}, {"days": "Sat", "time": "4:45pm"}, {"days": "Sun", "time": "Closed"}], "id": "4464600074", "name": "USPS COLLECTION BOX - APC", "address": {"city": "MASSILLON", "state": "OH", "street": "333 ERIE ST S", "postcode": "44646"}}},
{"geometry": {"type": "Point", "coordinates": [-81.5204025112, 40.7953309677]}, "type": "Feature", "properties": {"collection_times": [{"days": "Mon-Fri", "time": "3:30pm"}, {"days": "Sat", "time": "9:30am"}, {"days": "Sun", "time": "Closed"}], "id": "4464600075", "name": "USPS COLLECTION BOX - BLUE BOX", "address": {"city": "MASSILLON", "state": "OH", "street": "1 JAMES DUNCAN PLZ", "postcode": "44646"}}},
{"geometry": {"type": "Point", "coordinates": [-81.5234664791, 40.7963843277]}, "type": "Feature", "properties": {"collection_times": [{"days": "Mon-Fri", "time": "3:30pm"}, {"days": "Sat", "time": "4:30pm"}, {"days": "Sun", "time": "Closed"}], "id": "4464700000", "name": "USPS COLLECTION BOX - BLUE BOX", "address": {"city": "MASSILLON", "state": "OH", "street": "11 LINCOLN WAY W", "postcode": "44647"}}},
{"geometry": {"type": "Point", "coordinates": [-81.546034409, 40.837223226]}, "type": "Feature", "properties": {"collection_times": [{"days": "Mon-Sat", "time": "10:00am"}, {"days": "Sun", "time": "Closed"}], "id": "4464700006", "name": "USPS COLLECTION BOX - BLUE BOX", "address": {"city": "MASSILLON", "state": "OH", "street": "10530 FORTY CORNERS RD NW", "postcode": "44647"}}},
{"geometry": {"type": "Point", "coordinates": [-81.5312089456, 40.7922072996]}, "type": "Feature", "properties": {"collection_times": [{"days": "Mon-Fri", "time": "12:00pm"}, {"days": "Sat", "time": "9:30am"}, {"days": "Sun", "time": "Closed"}], "id": "4464700007", "name": "USPS COLLECTION BOX - BLUE BOX", "address": {"city": "MASSILLON", "state": "OH", "street": "641 TREMONT AVE SW", "postcode": "44647"}}},
{"geometry": {"type": "Point", "coordinates": [-81.5711456402, 40.7960270741]}, "type": "Feature", "properties": {"collection_times": [{"days": "Mon-Fri", "time": "12:00pm"}, {"days": "Sat", "time": "11:30am"}, {"days": "Sun", "time": "Closed"}], "id": "4464700011", "name": "USPS COLLECTION BOX - BLUE BOX", "address": {"city": "MASSILLON", "state": "OH", "street": "3206 LINCOLN WAY NW", "postcode": "44647"}}},
{"geometry": {"type": "Point", "coordinates": [-81.526092648, 40.7965345635]}, "type": "Feature", "properties": {"collection_times": [{"days": "Mon-Fri", "time": "3:30pm"}, {"days": "Sat", "time": "4:30pm"}, {"days": "Sun", "time": "Closed"}], "id": "4464700015", "name": "USPS COLLECTION BOX - BLUE BOX", "address": {"city": "MASSILLON", "state": "OH", "street": "254 FEDERAL AVE NW", "postcode": "44647"}}},
{"geometry": {"type": "Point", "coordinates": [-81.5499434667, 40.7951812585]}, "type": "Feature", "properties": {"collection_times": [{"days": "Mon-Fri", "time": "12:00pm"}, {"days": "Sat", "time": "3:00pm"}, {"days": "Sun", "time": "Closed"}], "id": "4464700016", "name": "USPS COLLECTION BOX - BLUE BOX", "address": {"city": "MASSILLON", "state": "OH", "street": "2208 LINCOLN WAY NW", "postcode": "44647"}}},
{"geometry": {"type": "Point", "coordinates": [-81.5255898905, 40.7957798357]}, "type": "Feature", "properties": {"collection_times": [{"days": "Mon-Fri", "time": "3:30pm"}, {"days": "Sat", "time": "4:30pm"}, {"days": "Sun", "time": "Closed"}], "id": "4464700017", "name": "USPS COLLECTION BOX - BLUE BOX", "address": {"city": "MASSILLON", "state": "OH", "street": "235 LINCOLN WAY W", "postcode": "44647"}}},
{"geometry": {"type": "Point", "coordinates": [-81.1013360092, 40.9216253549]}, "type": "Feature", "properties": {"collection_times": [{"days": "Mon-Fri", "time": "3:30pm"}, {"days": "Sat", "time": "11:30am"}, {"days": "Sun", "time": "Closed"}], "id": "4465000001", "name": "USPS COLLECTION BOX - PO LOBBY", "address": {"city": "MAXIMO", "state": "OH", "street": "6995 OAKHILL AVE NE", "postcode": "44650"}}},
{"geometry": {"type": "Point", "coordinates": [-81.1013360092, 40.9216253549]}, "type": "Feature", "properties": {"collection_times": [{"days": "Mon-Fri", "time": "3:30pm"}, {"days": "Sat", "time": "11:30am"}, {"days": "Sun", "time": "Closed"}], "id": "4465000002", "name": "USPS COLLECTION BOX - BLUE BOX", "address": {"city": "MAXIMO", "state": "OH", "street": "6995 OAKHILL AVE NE", "postcode": "44650"}}},
{"geometry": {"type": "Point", "coordinates": [-80.9588446642, 40.6157140676]}, "type": "Feature", "properties": {"collection_times": [{"days": "Mon-Fri", "time": "4:00pm"}, {"days": "Sat", "time": "11:00am"}, {"days": "Sun", "time": "Closed"}], "id": "4465100001", "name": "USPS COLLECTION BOX - BLUE BOX", "address": {"city": "MECHANICSTOWN", "state": "OH", "street": "7077 SALINEVILLE RD NE", "postcode": "44651"}}},
{"geometry": {"type": "Point", "coordinates": [-80.9588446642, 40.6157140676]}, "type": "Feature", "properties": {"collection_times": [{"days": "Mon-Fri", "time": "4:00pm"}, {"days": "Sat", "time": "11:00am"}, {"days": "Sun", "time": "Closed"}], "id": "4465100002", "name": "USPS COLLECTION BOX - PO LOBBY", "address": {"city": "MECHANICSTOWN", "state": "OH", "street": "7077 SALINEVILLE RD NE", "postcode": "44651"}}},
{"geometry": {"type": "Point", "coordinates": [-81.3275391911, 40.8950865116]}, "type": "Feature", "properties": {"collection_times": [{"days": "Mon-Fri", "time": "4:00pm"}, {"days": "Sat", "time": "12:00pm"}, {"days": "Sun", "time": "Closed"}], "id": "4465200001", "name": "USPS COLLECTION BOX - PO LOBBY", "address": {"city": "MIDDLEBRANCH", "state": "OH", "street": "7940 MIDDLEBRANCH AVE", "postcode": "44652"}}},
{"geometry": {"type": "Point", "coordinates": [-81.3275391911, 40.8950865116]}, "type": "Feature", "properties": {"collection_times": [{"days": "Mon-Fri", "time": "4:00pm"}, {"days": "Sat", "time": "12:00pm"}, {"days": "Sun", "time": "Closed"}], "id": "4465200002", "name": "USPS COLLECTION BOX - BLUE BOX", "address": {"city": "MIDDLEBRANCH", "state": "OH", "street": "7940 MIDDLEBRANCH AVE", "postcode": "44652"}}},
{"geometry": {"type": "Point", "coordinates": [-81.3275391911, 40.8950865116]}, "type": "Feature", "properties": {"collection_times": [{"days": "Mon-Fri", "time": "4:00pm"}, {"days": "Sat", "time": "12:00pm"}, {"days": "Sun", "time": "Closed"}], "id": "4465200003", "name": "USPS COLLECTION BOX - BLUE BOX", "address": {"city": "MIDDLEBRANCH", "state": "OH", "street": "7940 MIDDLEBRANCH AVE", "postcode": "44652"}}},
{"geometry": {"type": "Point", "coordinates": [-81.3774300568, 40.439547317]}, "type": "Feature", "properties": {"collection_times": [{"days": "Mon-Fri", "time": "5:00pm"}, {"days": "Sat", "time": "12:00pm"}, {"days": "Sun", "time": "Closed"}], "id": "4465300001", "name": "USPS COLLECTION BOX - BLUE BOX", "address": {"city": "MIDVALE", "state": "OH", "street": "3096 BARNHILL RD", "postcode": "44653"}}},
{"geometry": {"type": "Point", "coordinates": [-81.3774300568, 40.439547317]}, "type": "Feature", "properties": {"collection_times": [{"days": "Mon-Fri", "time": "4:00pm"}, {"days": "Sat", "time": "12:00pm"}, {"days": "Sun", "time": "Closed"}], "id": "4465300002", "name": "USPS COLLECTION BOX - PO LOBBY", "address": {"city": "MIDVALE", "state": "OH", "street": "3096 BARNHILL RD", "postcode": "44653"}}},
{"geometry": {"type": "Point", "coordinates": [-81.9168383079, 40.5555121127]}, "type": "Feature", "properties": {"collection_times": [{"days": "Mon-Sat", "time": "1:30pm"}, {"days": "Sun", "time": "Closed"}], "id": "4465400002", "name": "USPS COLLECTION BOX - BLUE BOX", "address": {"city": "MILLERSBURG", "state": "OH", "street": "75 E CLINTON ST", "postcode": "44654"}}},
{"geometry": {"type": "Point", "coordinates": [-81.9186446738, 40.553459384]}, "type": "Feature", "properties": {"collection_times": [{"days": "Mon-Sat", "time": "5:00pm"}, {"days": "Sun", "time": "Closed"}], "id": "4465400009", "name": "USPS COLLECTION BOX - BLUE BOX", "address": {"city": "MILLERSBURG", "state": "OH", "street": "57 S WASHINGTON ST", "postcode": "44654"}}},
{"geometry": {"type": "Point", "coordinates": [-81.9186446738, 40.553459384]}, "type": "Feature", "properties": {"collection_times": [{"days": "Mon-Sat", "time": "5:00pm"}, {"days": "Sun", "time": "Closed"}], "id": "4465400010", "name": "USPS COLLECTION BOX - BLUE BOX", "address": {"city": "MILLERSBURG", "state": "OH", "street": "57 S WASHINGTON ST", "postcode": "44654"}}},
{"geometry": {"type": "Point", "coordinates": [-81.9184993774, 40.5534687634]}, "type": "Feature", "properties": {"collection_times": [{"days": "Mon-Sat", "time": "5:00pm"}, {"days": "Sun", "time": "Closed"}], "id": "4465400011", "name": "USPS COLLECTION BOX - PO LOBBY", "address": {"city": "MILLERSBURG", "state": "OH", "street": "56 S WASHINGTON ST", "postcode": "44654"}}},
{"geometry": {"type": "Point", "coordinates": [-81.9173270998, 40.554233318]}, "type": "Feature", "properties": {"collection_times": [{"days": "Mon-Fri", "time": "4:00pm"}, {"days": "Sat-Sun", "time": "Closed"}], "id": "4465400014", "name": "USPS COLLECTION BOX - BLUE BOX", "address": {"city": "MILLERSBURG", "state": "OH", "street": "1 E JACKSON ST", "postcode": "44654"}}},
{"geometry": {"type": "Point", "coordinates": [-81.9184993774, 40.5534687634]}, "type": "Feature", "properties": {"collection_times": [{"days": "Mon-Sat", "time": "5:00pm"}, {"days": "Sun", "time": "Closed"}], "id": "4465400017", "name": "USPS COLLECTION BOX - PO LOBBY", "address": {"city": "MILLERSBURG", "state": "OH", "street": "56 S WASHINGTON ST", "postcode": "44654"}}},
{"geometry": {"type": "Point", "coordinates": [-81.9175707535, 40.5330851885]}, "type": "Feature", "properties": {"collection_times": [{"days": "Mon-Sat", "time": "3:00pm"}, {"days": "Sun", "time": "Closed"}], "id": "4465400018", "name": "USPS COLLECTION BOX - BLUE BOX", "address": {"city": "MILLERSBURG", "state": "OH", "street": "1642 S WASHINGTON ST", "postcode": "44654"}}},
{"geometry": {"type": "Point", "coordinates": [-81.913198803, 40.5434067745]}, "type": "Feature", "properties": {"collection_times": [{"days": "Mon-Sat", "time": "3:00pm"}, {"days": "Sun", "time": "Closed"}], "id": "4465400019", "name": "USPS COLLECTION BOX - BLUE BOX", "address": {"city": "MILLERSBURG", "state": "OH", "street": "2105 GLEN DR", "postcode": "44654"}}},
{"geometry": {"type": "Point", "coordinates": [-81.3900765899, 40.583560672]}, "type": "Feature", "properties": {"collection_times": [{"days": "Mon-Sat", "time": "10:00am"}, {"days": "Sun", "time": "Closed"}], "id": "4465600001", "name": "USPS COLLECTION BOX - BLUE BOX", "address": {"city": "ZOARVILLE", "state": "OH", "street": "3422 NEW ZOARVILLE RD NE", "postcode": "44656"}}},
{"geometry": {"type": "Point", "coordinates": [-81.3620683722, 40.6026406601]}, "type": "Feature", "properties": {"collection_times": [{"days": "Mon-Fri", "time": "4:00pm"}, {"days": "Sat", "time": "12:00pm"}, {"days": "Sun", "time": "Closed"}], "id": "4465600002", "name": "USPS COLLECTION BOX - PO LOBBY", "address": {"city": "ZOARVILLE", "state": "OH", "street": "8618 N HIGH ST", "postcode": "44656"}}},
{"geometry": {"type": "Point", "coordinates": [-81.3620683722, 40.6026406601]}, "type": "Feature", "properties": {"collection_times": [{"days": "Mon-Fri", "time": "4:00pm"}, {"days": "Sat", "time": "12:00pm"}, {"days": "Sun", "time": "Closed"}], "id": "4465600003", "name": "USPS COLLECTION BOX - BLUE BOX", "address": {"city": "ZOARVILLE", "state": "OH", "street": "8618 N HIGH ST", "postcode": "44656"}}},
{"geometry": {"type": "Point", "coordinates": [-81.1042577618, 40.7288811403]}, "type": "Feature", "properties": {"collection_times": [{"days": "Mon-Fri", "time": "5:00pm"}, {"days": "Sat", "time": "4:00pm"}, {"days": "Sun", "time": "Closed"}], "id": "4465700002", "name": "USPS COLLECTION BOX - BLUE BOX", "address": {"city": "MINERVA", "state": "OH", "street": "112 W HIGH ST", "postcode": "44657"}}},
{"geometry": {"type": "Point", "coordinates": [-81.1042577618, 40.7288811403]}, "type": "Feature", "properties": {"collection_times": [{"days": "Mon-Fri", "time": "5:00pm"}, {"days": "Sat", "time": "4:00pm"}, {"days": "Sun", "time": "Closed"}], "id": "4465700003", "name": "USPS COLLECTION BOX - BLUE BOX", "address": {"city": "MINERVA", "state": "OH", "street": "112 W HIGH ST", "postcode": "44657"}}},
{"geometry": {"type": "Point", "coordinates": [-81.1036639164, 40.7292466746]}, "type": "Feature", "properties": {"collection_times": [{"days": "Mon-Sat", "time": "8:30am"}, {"days": "Sun", "time": "Closed"}], "id": "4465700011", "name": "USPS COLLECTION BOX - BLUE BOX", "address": {"city": "MINERVA", "state": "OH", "street": "209 N MARKET ST", "postcode": "44657"}}},
{"geometry": {"type": "Point", "coordinates": [-81.10939613, 40.7208763454]}, "type": "Feature", "properties": {"collection_times": [{"days": "Mon-Sat", "time": "9:30am"}, {"days": "Sun", "time": "Closed"}], "id": "4465700017", "name": "USPS COLLECTION BOX - BLUE BOX", "address": {"city": "MINERVA", "state": "OH", "street": "1200 VALLEY ST", "postcode": "44657"}}},
{"geometry": {"type": "Point", "coordinates": [-81.1042577618, 40.7288811403]}, "type": "Feature", "properties": {"collection_times": [{"days": "Mon-Fri", "time": "5:00pm"}, {"days": "Sat", "time": "4:00pm"}, {"days": "Sun", "time": "Closed"}], "id": "4465700018", "name": "USPS COLLECTION BOX - PO LOBBY", "address": {"city": "MINERVA", "state": "OH", "street": "112 W HIGH ST", "postcode": "44657"}}},
{"geometry": {"type": "Point", "coordinates": [-81.1022631454, 40.729078525]}, "type": "Feature", "properties": {"collection_times": [{"days": "Mon-Sat", "time": "9:00am"}, {"days": "Sun", "time": "Closed"}], "id": "4465700019", "name": "USPS COLLECTION BOX - BLUE BOX", "address": {"city": "MINERVA", "state": "OH", "street": "202 E HIGH ST", "postcode": "44657"}}},
{"geometry": {"type": "Point", "coordinates": [-81.1042577618, 40.7288811403]}, "type": "Feature", "properties": {"collection_times": [{"days": "Mon-Fri", "time": "5:00pm"}, {"days": "Sat", "time": "4:00pm"}, {"days": "Sun", "time": "Closed"}], "id": "4465700020", "name": "USPS COLLECTION BOX - PO LOBBY", "address": {"city": "MINERVA", "state": "OH", "street": "112 W HIGH ST", "postcode": "44657"}}},
{"geometry": {"type": "Point", "coordinates": [-81.7000632761, 40.6936750877]}, "type": "Feature", "properties": {"collection_times": [{"days": "Mon-Fri", "time": "4:00pm"}, {"days": "Sat", "time": "11:15am"}, {"days": "Sun", "time": "Closed"}], "id": "4465900001", "name": "USPS COLLECTION BOX - BLUE BOX", "address": {"city": "MOUNT EATON", "state": "OH", "street": "15924 MAIN ST", "postcode": "44659"}}},
{"geometry": {"type": "Point", "coordinates": [-81.7839123865, 40.6241840125]}, "type": "Feature", "properties": {"collection_times": [{"days": "Mon-Fri", "time": "3:30pm"}, {"days": "Sat", "time": "11:45am"}, {"days": "Sun", "time": "Closed"}], "id": "4466000001", "name": "USPS COLLECTION BOX - BLUE BOX", "address": {"city": "MOUNT HOPE", "state": "OH", "street": "7834 COUNTY ROAD 77", "postcode": "44660"}}},
{"geometry": {"type": "Point", "coordinates": [-81.7839123865, 40.6241840125]}, "type": "Feature", "properties": {"collection_times": [{"days": "Mon-Fri", "time": "3:30pm"}, {"days": "Sat", "time": "11:45am"}, {"days": "Sun", "time": "Closed"}], "id": "4466000002", "name": "USPS COLLECTION BOX - PO LOBBY", "address": {"city": "MOUNT HOPE", "state": "OH", "street": "7834 COUNTY ROAD 77", "postcode": "44660"}}},
{"geometry": {"type": "Point", "coordinates": [-82.1138928767, 40.5967977893]}, "type": "Feature", "properties": {"collection_times": [{"days": "Mon-Fri", "time": "4:00pm"}, {"days": "Sat", "time": "11:00am"}, {"days": "Sun", "time": "Closed"}], "id": "4466100001", "name": "USPS COLLECTION BOX - BLUE BOX", "address": {"city": "NASHVILLE", "state": "OH", "street": "111 W MILLERSBURG ST", "postcode": "44661"}}},
{"geometry": {"type": "Point", "coordinates": [-82.1157110447, 40.597444191]}, "type": "Feature", "properties": {"collection_times": [{"days": "Mon-Fri", "time": "4:00pm"}, {"days": "Sat", "time": "11:00am"}, {"days": "Sun", "time": "Closed"}], "id": "4466100002", "name": "USPS COLLECTION BOX - PO LOBBY", "address": {"city": "NASHVILLE", "state": "OH", "street": "111 W MILLERSBURG ST", "postcode": "44661"}}},
{"geometry": {"type": "Point", "coordinates": [-81.5182614597, 40.7250649147]}, "type": "Feature", "properties": {"collection_times": [{"days": "Mon-Sat", "time": "9:30am"}, {"days": "Sun", "time": "Closed"}], "id": "4466200005", "name": "USPS COLLECTION BOX - BLUE BOX", "address": {"city": "NAVARRE", "state": "OH", "street": "402 MARKET ST NE", "postcode": "44662"}}},
{"geometry": {"type": "Point", "coordinates": [-81.5272200079, 40.7206548437]}, "type": "Feature", "properties": {"collection_times": [{"days": "Mon-Sat", "time": "10:30am"}, {"days": "Sun", "time": "Closed"}], "id": "4466200007", "name": "USPS COLLECTION BOX - BLUE BOX", "address": {"city": "NAVARRE", "state": "OH", "street": "232 CENTER ST NW", "postcode": "44662"}}},
{"geometry": {"type": "Point", "coordinates": [-81.524276806, 40.7196611581]}, "type": "Feature", "properties": {"collection_times": [{"days": "Mon-Fri", "time": "5:00pm"}, {"days": "Sat", "time": "12:00pm"}, {"days": "Sun", "time": "Closed"}], "id": "4466200011", "name": "USPS COLLECTION BOX - BLUE BOX", "address": {"city": "NAVARRE", "state": "OH", "street": "33 CANAL ST W", "postcode": "44662"}}},
{"geometry": {"type": "Point", "coordinates": [-81.524276806, 40.7196611581]}, "type": "Feature", "properties": {"collection_times": [{"days": "Mon-Fri", "time": "5:00pm"}, {"days": "Sat", "time": "12:00pm"}, {"days": "Sun", "time": "Closed"}], "id": "4466200012", "name": "USPS COLLECTION BOX - PO LOBBY", "address": {"city": "NAVARRE", "state": "OH", "street": "33 CANAL ST W", "postcode": "44662"}}},
{"geometry": {"type": "Point", "coordinates": [-81.524276806, 40.7196611581]}, "type": "Feature", "properties": {"collection_times": [{"days": "Mon-Fri", "time": "5:00pm"}, {"days": "Sat", "time": "12:00pm"}, {"days": "Sun", "time": "Closed"}], "id": "4466200013", "name": "USPS COLLECTION BOX - PO LOBBY", "address": {"city": "NAVARRE", "state": "OH", "street": "33 CANAL ST W", "postcode": "44662"}}},
{"geometry": {"type": "Point", "coordinates": [-81.524276806, 40.7196611581]}, "type": "Feature", "properties": {"collection_times": [{"days": "Mon-Fri", "time": "5:00pm"}, {"days": "Sat", "time": "12:00pm"}, {"days": "Sun", "time": "Closed"}], "id": "4466200014", "name": "USPS COLLECTION BOX - PO LOBBY", "address": {"city": "NAVARRE", "state": "OH", "street": "33 CANAL ST W", "postcode": "44662"}}},
{"geometry": {"type": "Point", "coordinates": [-81.4911866296, 40.703161189]}, "type": "Feature", "properties": {"collection_times": [{"days": "Mon-Fri", "time": "11:00am"}, {"days": "Sat", "time": "10:00am"}, {"days": "Sun", "time": "Closed"}], "id": "4466200015", "name": "USPS COLLECTION BOX - BLUE BOX", "address": {"city": "NAVARRE", "state": "OH", "street": "5150 ERIE AVE SW", "postcode": "44662"}}},
{"geometry": {"type": "Point", "coordinates": [-81.446297333, 40.4915324442]}, "type": "Feature", "properties": {"collection_times": [{"days": "Mon-Fri", "time": "5:00pm"}, {"days": "Sat", "time": "4:00pm"}, {"days": "Sun", "time": "Closed"}], "id": "4466300002", "name": "USPS COLLECTION BOX - BLUE BOX", "address": {"city": "NEW PHILA", "state": "OH", "street": "200 1ST DR NW", "postcode": "44663"}}},
{"geometry": {"type": "Point", "coordinates": [-81.4471044252, 40.492672072]}, "type": "Feature", "properties": {"collection_times": [{"days": "Mon-Sat", "time": "2:30pm"}, {"days": "Sun", "time": "Closed"}], "id": "4466300003", "name": "USPS COLLECTION BOX - BLUE BOX", "address": {"city": "NEW PHILA", "state": "OH", "street": "238 2ND ST NW", "postcode": "44663"}}},
{"geometry": {"type": "Point", "coordinates": [-81.445316487, 40.4904197833]}, "type": "Feature", "properties": {"collection_times": [{"days": "Mon-Sat", "time": "2:00pm"}, {"days": "Sun", "time": "Closed"}], "id": "4466300004", "name": "USPS COLLECTION BOX - BLUE BOX", "address": {"city": "NEW PHILA", "state": "OH", "street": "100 ASHWOOD LN NE", "postcode": "44663"}}},
{"geometry": {"type": "Point", "coordinates": [-81.4487533588, 40.4902133016]}, "type": "Feature", "properties": {"collection_times": [{"days": "Mon-Sat", "time": "2:00pm"}, {"days": "Sun", "time": "Closed"}], "id": "4466300005", "name": "USPS COLLECTION BOX - BLUE BOX", "address": {"city": "NEW PHILA", "state": "OH", "street": "245 W HIGH AVE", "postcode": "44663"}}},
{"geometry": {"type": "Point", "coordinates": [-81.472483509, 40.4957042766]}, "type": "Feature", "properties": {"collection_times": [{"days": "Mon-Sat", "time": "9:30am"}, {"days": "Sun", "time": "Closed"}], "id": "4466300007", "name": "USPS COLLECTION BOX - BLUE BOX", "address": {"city": "NEW PHILA", "state": "OH", "street": "231 BLUEBELL DR NW", "postcode": "44663"}}},
{"geometry": {"type": "Point", "coordinates": [-81.4450750033, 40.4916662378]}, "type": "Feature", "properties": {"collection_times": [{"days": "Mon-Fri", "time": "5:00pm"}, {"days": "Sat", "time": "4:30pm"}, {"days": "Sun", "time": "Closed"}], "id": "4466300009", "name": "USPS COLLECTION BOX - BLUE BOX", "address": {"city": "NEW PHILA", "state": "OH", "street": "210 N BROADWAY ST", "postcode": "44663"}}},
{"geometry": {"type": "Point", "coordinates": [-81.44887, 40.47827]}, "type": "Feature", "properties": {"collection_times": [{"days": "Mon-Sat", "time": "2:00pm"}, {"days": "Sun", "time": "Closed"}], "id": "4466300010", "name": "USPS COLLECTION BOX - BLUE BOX", "address": {"city": "NEW PHILA", "state": "OH", "street": "701 S BROADWAY ST", "postcode": "44663"}}},
{"geometry": {"type": "Point", "coordinates": [-81.4472558869, 40.4831936328]}, "type": "Feature", "properties": {"collection_times": [{"days": "Mon-Sat", "time": "11:00am"}, {"days": "Sun", "time": "Closed"}], "id": "4466300011", "name": "USPS COLLECTION BOX - BLUE BOX", "address": {"city": "NEW PHILA", "state": "OH", "street": "417 S BROADWAY ST", "postcode": "44663"}}},
{"geometry": {"type": "Point", "coordinates": [-81.4429956592, 40.4831903288]}, "type": "Feature", "properties": {"collection_times": [{"days": "Mon-Sat", "time": "10:30am"}, {"days": "Sun", "time": "Closed"}], "id": "4466300032", "name": "USPS COLLECTION BOX - BLUE BOX", "address": {"city": "NEW PHILA", "state": "OH", "street": "400 MILL AVE SE", "postcode": "44663"}}},
{"geometry": {"type": "Point", "coordinates": [-81.4567973677, 40.5054949328]}, "type": "Feature", "properties": {"collection_times": [{"days": "Mon-Sat", "time": "3:00pm"}, {"days": "Sun", "time": "Closed"}], "id": "4466300039", "name": "USPS COLLECTION BOX - BLUE BOX", "address": {"city": "NEW PHILA", "state": "OH", "street": "1260 MONROE ST NW", "postcode": "44663"}}},
{"geometry": {"type": "Point", "coordinates": [-81.4319997427, 40.4796701021]}, "type": "Feature", "properties": {"collection_times": [{"days": "Mon-Sat", "time": "2:00pm"}, {"days": "Sun", "time": "Closed"}], "id": "4466300053", "name": "USPS COLLECTION BOX - BLUE BOX", "address": {"city": "NEW PHILA", "state": "OH", "street": "100 ALI CIR SE", "postcode": "44663"}}},
{"geometry": {"type": "Point", "coordinates": [-81.4450750033, 40.4916662378]}, "type": "Feature", "properties": {"collection_times": [{"days": "Mon-Fri", "time": "5:00pm"}, {"days": "Sat", "time": "4:30pm"}, {"days": "Sun", "time": "Closed"}], "id": "4466300058", "name": "USPS COLLECTION BOX - PO LOBBY", "address": {"city": "NEW PHILA", "state": "OH", "street": "210 N BROADWAY ST", "postcode": "44663"}}},
{"geometry": {"type": "Point", "coordinates": [-81.4555313409, 40.4913228181]}, "type": "Feature", "properties": {"collection_times": [{"days": "Mon-Sat", "time": "2:00pm"}, {"days": "Sun", "time": "Closed"}], "id": "4466300064", "name": "USPS COLLECTION BOX - BLUE BOX", "address": {"city": "NEW PHILA", "state": "OH", "street": "555 W HIGH AVE", "postcode": "44663"}}},
{"geometry": {"type": "Point", "coordinates": [-81.446297333, 40.4915324442]}, "type": "Feature", "properties": {"collection_times": [{"days": "Mon-Fri", "time": "5:00pm"}, {"days": "Sat", "time": "4:00pm"}, {"days": "Sun", "time": "Closed"}], "id": "4466300066", "name": "USPS COLLECTION BOX - BLUE BOX", "address": {"city": "NEW PHILA", "state": "OH", "street": "200 1ST DR NW", "postcode": "44663"}}},
{"geometry": {"type": "Point", "coordinates": [-81.4576766584, 40.5047051425]}, "type": "Feature", "properties": {"collection_times": [{"days": "Mon-Sat", "time": "3:00pm"}, {"days": "Sun", "time": "Closed"}], "id": "4466300067", "name": "USPS COLLECTION BOX - BLUE BOX", "address": {"city": "NEW PHILA", "state": "OH", "street": "629 WABASH AVE NW", "postcode": "44663"}}},
{"geometry": {"type": "Point", "coordinates": [-80.9856230155, 40.8429991123]}, "type": "Feature", "properties": {"collection_times": [{"days": "Mon-Fri", "time": "4:00pm"}, {"days": "Sat", "time": "10:45am"}, {"days": "Sun", "time": "Closed"}], "id": "4466500001", "name": "USPS COLLECTION BOX - PO LOBBY", "address": {"city": "N GEORGETOWN", "state": "OH", "street": "27416 MAIN ST", "postcode": "44665"}}},
{"geometry": {"type": "Point", "coordinates": [-80.9856230155, 40.8429991123]}, "type": "Feature", "properties": {"collection_times": [{"days": "Mon-Fri", "time": "4:00pm"}, {"days": "Sat", "time": "10:45am"}, {"days": "Sun", "time": "Closed"}], "id": "4466500002", "name": "USPS COLLECTION BOX - BLUE BOX", "address": {"city": "N GEORGETOWN", "state": "OH", "street": "27416 MAIN ST", "postcode": "44665"}}},
{"geometry": {"type": "Point", "coordinates": [-81.6286504585, 40.8410445775]}, "type": "Feature", "properties": {"collection_times": [{"days": "Mon-Fri", "time": "4:30pm"}, {"days": "Sat", "time": "11:30am"}, {"days": "Sun", "time": "Closed"}], "id": "4466600001", "name": "USPS COLLECTION BOX - PO LOBBY", "address": {"city": "NORTH LAWRENCE", "state": "OH", "street": "3930 ALABAMA AVE NW", "postcode": "44666"}}},
{"geometry": {"type": "Point", "coordinates": [-81.6286504585, 40.8410445775]}, "type": "Feature", "properties": {"collection_times": [{"days": "Mon-Fri", "time": "4:00pm"}, {"days": "Sat", "time": "11:15am"}, {"days": "Sun", "time": "Closed"}], "id": "4466600002", "name": "USPS COLLECTION BOX - BLUE BOX", "address": {"city": "NORTH LAWRENCE", "state": "OH", "street": "3930 ALABAMA AVE NW", "postcode": "44666"}}},
{"geometry": {"type": "Point", "coordinates": [-81.7791519685, 40.8440603952]}, "type": "Feature", "properties": {"collection_times": [{"days": "Mon-Sat", "time": "10:30am"}, {"days": "Sun", "time": "Closed"}], "id": "4466700008", "name": "USPS COLLECTION BOX - BLUE BOX", "address": {"city": "ORRVILLE", "state": "OH", "street": "1114 W HIGH ST", "postcode": "44667"}}},
{"geometry": {"type": "Point", "coordinates": [-81.764085762, 40.8414270974]}, "type": "Feature", "properties": {"collection_times": [{"days": "Mon-Sat", "time": "9:00am"}, {"days": "Sun", "time": "Closed"}], "id": "4466700010", "name": "USPS COLLECTION BOX - BLUE BOX", "address": {"city": "ORRVILLE", "state": "OH", "street": "114 E WATER ST", "postcode": "44667"}}},
{"geometry": {"type": "Point", "coordinates": [-81.7642386803, 40.8396747068]}, "type": "Feature", "properties": {"collection_times": [{"days": "Mon-Sat", "time": "9:00am"}, {"days": "Sun", "time": "Closed"}], "id": "4466700011", "name": "USPS COLLECTION BOX - BLUE BOX", "address": {"city": "ORRVILLE", "state": "OH", "street": "222 S MAIN ST", "postcode": "44667"}}},
{"geometry": {"type": "Point", "coordinates": [-81.7601491959, 40.8319440193]}, "type": "Feature", "properties": {"collection_times": [{"days": "Mon-Sat", "time": "9:00am"}, {"days": "Sun", "time": "Closed"}], "id": "4466700015", "name": "USPS COLLECTION BOX - BLUE BOX", "address": {"city": "ORRVILLE", "state": "OH", "street": "425 ORRVILLA DR", "postcode": "44667"}}},
{"geometry": {"type": "Point", "coordinates": [-81.7656980101, 40.8413215581]}, "type": "Feature", "properties": {"collection_times": [{"days": "Mon-Fri", "time": "5:00pm"}, {"days": "Sat", "time": "4:00pm"}, {"days": "Sun", "time": "Closed"}], "id": "4466700019", "name": "USPS COLLECTION BOX - BLUE BOX", "address": {"city": "ORRVILLE", "state": "OH", "street": "145 N VINE ST", "postcode": "44667"}}},
{"geometry": {"type": "Point", "coordinates": [-81.7665199638, 40.8406347821]}, "type": "Feature", "properties": {"collection_times": [{"days": "Mon-Sat", "time": "3:00pm"}, {"days": "Sun", "time": "Closed"}], "id": "4466700022", "name": "USPS COLLECTION BOX - BLUE BOX", "address": {"city": "ORRVILLE", "state": "OH", "street": "100 LIBERTY ST", "postcode": "44667"}}},
{"geometry": {"type": "Point", "coordinates": [-81.7636221558, 40.8369621968]}, "type": "Feature", "properties": {"collection_times": [{"days": "Mon-Sat", "time": "9:00am"}, {"days": "Sun", "time": "Closed"}], "id": "4466700023", "name": "USPS COLLECTION BOX - BLUE BOX", "address": {"city": "ORRVILLE", "state": "OH", "street": "401 HOSTETLER RD", "postcode": "44667"}}},
{"geometry": {"type": "Point", "coordinates": [-81.7856482052, 40.8591316607]}, "type": "Feature", "properties": {"collection_times": [{"days": "Mon-Sat", "time": "12:00pm"}, {"days": "Sun", "time": "Closed"}], "id": "4466700024", "name": "USPS COLLECTION BOX - BLUE BOX", "address": {"city": "ORRVILLE", "state": "OH", "street": "1901 SMUCKER RD", "postcode": "44667"}}},
{"geometry": {"type": "Point", "coordinates": [-81.1669995394, 40.7977636579]}, "type": "Feature", "properties": {"collection_times": [{"days": "Mon-Fri", "time": "4:30pm"}, {"days": "Sat", "time": "11:00am"}, {"days": "Sun", "time": "Closed"}], "id": "4466900001", "name": "USPS COLLECTION BOX - BLUE BOX", "address": {"city": "PARIS", "state": "OH", "street": "12550 LISBON ST SE", "postcode": "44669"}}},
{"geometry": {"type": "Point", "coordinates": [-81.1909832812, 40.763035911]}, "type": "Feature", "properties": {"collection_times": [{"days": "Mon-Fri", "time": "3:45pm"}, {"days": "Sat", "time": "10:30am"}, {"days": "Sun", "time": "Closed"}], "id": "4467000001", "name": "USPS COLLECTION BOX - BLUE BOX", "address": {"city": "ROBERTSVILLE", "state": "OH", "street": "11315 LINCOLN ST SE", "postcode": "44670"}}},
{"geometry": {"type": "Point", "coordinates": [-81.3691582465, 40.6415360599]}, "type": "Feature", "properties": {"collection_times": [{"days": "Mon-Fri", "time": "4:00pm"}, {"days": "Sat", "time": "10:30am"}, {"days": "Sun", "time": "Closed"}], "id": "4467100001", "name": "USPS COLLECTION BOX - BLUE BOX", "address": {"city": "SANDYVILLE", "state": "OH", "street": "11248 SANDYVILLE RD NE", "postcode": "44671"}}},
{"geometry": {"type": "Point", "coordinates": [-81.0209242497, 40.9233054143]}, "type": "Feature", "properties": {"collection_times": [{"days": "Mon-Fri", "time": "4:00pm"}, {"days": "Sat", "time": "12:30pm"}, {"days": "Sun", "time": "Closed"}], "id": "4467200009", "name": "USPS COLLECTION BOX - BLUE BOX", "address": {"city": "SEBRING", "state": "OH", "street": "196 W OHIO AVE", "postcode": "44672"}}},
{"geometry": {"type": "Point", "coordinates": [-81.0209242497, 40.9233054143]}, "type": "Feature", "properties": {"collection_times": [{"days": "Mon-Fri", "time": "4:00pm"}, {"days": "Sat", "time": "12:30pm"}, {"days": "Sun", "time": "Closed"}], "id": "4467200010", "name": "USPS COLLECTION BOX - BLUE BOX", "address": {"city": "SEBRING", "state": "OH", "street": "196 W OHIO AVE", "postcode": "44672"}}},
{"geometry": {"type": "Point", "coordinates": [-81.0209242497, 40.9233054143]}, "type": "Feature", "properties": {"collection_times": [{"days": "Mon-Fri", "time": "4:00pm"}, {"days": "Sat", "time": "12:30pm"}, {"days": "Sun", "time": "Closed"}], "id": "4467200011", "name": "USPS COLLECTION BOX - BLUE BOX", "address": {"city": "SEBRING", "state": "OH", "street": "196 W OHIO AVE", "postcode": "44672"}}},
{"geometry": {"type": "Point", "coordinates": [-81.0209242497, 40.9233054143]}, "type": "Feature", "properties": {"collection_times": [{"days": "Mon-Fri", "time": "4:00pm"}, {"days": "Sat", "time": "12:30pm"}, {"days": "Sun", "time": "Closed"}], "id": "4467200012", "name": "USPS COLLECTION BOX - PO LOBBY", "address": {"city": "SEBRING", "state": "OH", "street": "196 W OHIO AVE", "postcode": "44672"}}},
{"geometry": {"type": "Point", "coordinates": [-81.0209242497, 40.9233054143]}, "type": "Feature", "properties": {"collection_times": [{"days": "Mon-Fri", "time": "4:00pm"}, {"days": "Sat", "time": "12:30pm"}, {"days": "Sun", "time": "Closed"}], "id": "4467200014", "name": "USPS COLLECTION BOX - PO LOBBY", "address": {"city": "SEBRING", "state": "OH", "street": "196 W OHIO AVE", "postcode": "44672"}}},
{"geometry": {"type": "Point", "coordinates": [-81.2427455359, 40.4947574118]}, "type": "Feature", "properties": {"collection_times": [{"days": "Mon-Fri", "time": "4:00pm"}, {"days": "Sat", "time": "11:00am"}, {"days": "Sun", "time": "Closed"}], "id": "4467500002", "name": "USPS COLLECTION BOX - PO LOBBY", "address": {"city": "SHERRODSVILLE", "state": "OH", "street": "27 S SHERROD AVE", "postcode": "44675"}}},
{"geometry": {"type": "Point", "coordinates": [-81.2427455359, 40.4947574118]}, "type": "Feature", "properties": {"collection_times": [{"days": "Mon-Fri", "time": "4:00pm"}, {"days": "Sat", "time": "11:00am"}, {"days": "Sun", "time": "Closed"}], "id": "4467500003", "name": "USPS COLLECTION BOX - BLUE BOX", "address": {"city": "SHERRODSVILLE", "state": "OH", "street": "27 S SHERROD AVE", "postcode": "44675"}}},
{"geometry": {"type": "Point", "coordinates": [-82.0201951133, 40.6820959573]}, "type": "Feature", "properties": {"collection_times": [{"days": "Mon-Fri", "time": "4:15pm"}, {"days": "Sat", "time": "11:45am"}, {"days": "Sun", "time": "Closed"}], "id": "4467600001", "name": "USPS COLLECTION BOX - BLUE BOX", "address": {"city": "SHREVE", "state": "OH", "street": "229 JONES ST", "postcode": "44676"}}},
{"geometry": {"type": "Point", "coordinates": [-82.0201951133, 40.6820959573]}, "type": "Feature", "properties": {"collection_times": [{"days": "Mon-Fri", "time": "4:15pm"}, {"days": "Sat", "time": "11:45am"}, {"days": "Sun", "time": "Closed"}], "id": "4467600002", "name": "USPS COLLECTION BOX - PO LOBBY", "address": {"city": "SHREVE", "state": "OH", "street": "229 JONES ST", "postcode": "44676"}}},
{"geometry": {"type": "Point", "coordinates": [-81.858954722, 40.8638224534]}, "type": "Feature", "properties": {"collection_times": [{"days": "Mon-Fri", "time": "4:00pm"}, {"days": "Sat", "time": "12:00pm"}, {"days": "Sun", "time": "Closed"}], "id": "4467700001", "name": "USPS COLLECTION BOX - PO LOBBY", "address": {"city": "SMITHVILLE", "state": "OH", "street": "152 E MAIN ST", "postcode": "44677"}}},
{"geometry": {"type": "Point", "coordinates": [-81.858954722, 40.8638224534]}, "type": "Feature", "properties": {"collection_times": [{"days": "Mon-Fri", "time": "4:00pm"}, {"days": "Sat", "time": "12:00pm"}, {"days": "Sun", "time": "Closed"}], "id": "4467700002", "name": "USPS COLLECTION BOX - BLUE BOX", "address": {"city": "SMITHVILLE", "state": "OH", "street": "152 E MAIN ST", "postcode": "44677"}}},
{"geometry": {"type": "Point", "coordinates": [-81.360788402, 40.5677660605]}, "type": "Feature", "properties": {"collection_times": [{"days": "Mon-Fri", "time": "4:00pm"}, {"days": "Sat", "time": "11:00am"}, {"days": "Sun", "time": "Closed"}], "id": "4467800001", "name": "USPS COLLECTION BOX - BLUE BOX", "address": {"city": "SOMERDALE", "state": "OH", "street": "6088 STATE ROUTE 212 NE", "postcode": "44678"}}},
{"geometry": {"type": "Point", "coordinates": [-81.360788402, 40.5677660605]}, "type": "Feature", "properties": {"collection_times": [{"days": "Mon-Fri", "time": "4:00pm"}, {"days": "Sat", "time": "11:00am"}, {"days": "Sun", "time": "Closed"}], "id": "4467800002", "name": "USPS COLLECTION BOX - PO LOBBY", "address": {"city": "SOMERDALE", "state": "OH", "street": "6088 STATE ROUTE 212 NE", "postcode": "44678"}}},
{"geometry": {"type": "Point", "coordinates": [-81.5274304053, 40.5972030398]}, "type": "Feature", "properties": {"collection_times": [{"days": "Mon-Fri", "time": "4:30pm"}, {"days": "Sat", "time": "12:00pm"}, {"days": "Sun", "time": "Closed"}], "id": "4468000006", "name": "USPS COLLECTION BOX - BLUE BOX", "address": {"city": "STRASBURG", "state": "OH", "street": "120 N WOOSTER AVE", "postcode": "44680"}}},
{"geometry": {"type": "Point", "coordinates": [-81.5274304053, 40.5972030398]}, "type": "Feature", "properties": {"collection_times": [{"days": "Mon-Fri", "time": "4:30pm"}, {"days": "Sat", "time": "12:00pm"}, {"days": "Sun", "time": "Closed"}], "id": "4468000007", "name": "USPS COLLECTION BOX - PO LOBBY", "address": {"city": "STRASBURG", "state": "OH", "street": "120 N WOOSTER AVE", "postcode": "44680"}}},
{"geometry": {"type": "Point", "coordinates": [-81.5274304053, 40.5972030398]}, "type": "Feature", "properties": {"collection_times": [{"days": "Mon-Fri", "time": "4:30pm"}, {"days": "Sat", "time": "12:00pm"}, {"days": "Sun", "time": "Closed"}], "id": "4468000008", "name": "USPS COLLECTION BOX - PO LOBBY", "address": {"city": "STRASBURG", "state": "OH", "street": "120 N WOOSTER AVE", "postcode": "44680"}}},
{"geometry": {"type": "Point", "coordinates": [-81.5274304053, 40.5972030398]}, "type": "Feature", "properties": {"collection_times": [{"days": "Mon-Fri", "time": "4:30pm"}, {"days": "Sat", "time": "12:00pm"}, {"days": "Sun", "time": "Closed"}], "id": "4468000009", "name": "USPS COLLECTION BOX - BLUE BOX", "address": {"city": "STRASBURG", "state": "OH", "street": "120 N WOOSTER AVE", "postcode": "44680"}}},
{"geometry": {"type": "Point", "coordinates": [-81.6384279232, 40.503868134]}, "type": "Feature", "properties": {"collection_times": [{"days": "Mon-Fri", "time": "4:30pm"}, {"days": "Sat", "time": "1:00pm"}, {"days": "Sun", "time": "Closed"}], "id": "4468100001", "name": "USPS COLLECTION BOX - BLUE BOX", "address": {"city": "SUGAR CREEK", "state": "OH", "street": "210 FACTORY ST NE", "postcode": "44681"}}},
{"geometry": {"type": "Point", "coordinates": [-81.6384279232, 40.503868134]}, "type": "Feature", "properties": {"collection_times": [{"days": "Mon-Fri", "time": "4:30pm"}, {"days": "Sat", "time": "1:00pm"}, {"days": "Sun", "time": "Closed"}], "id": "4468100003", "name": "USPS COLLECTION BOX - BLUE BOX", "address": {"city": "SUGAR CREEK", "state": "OH", "street": "210 FACTORY ST NE", "postcode": "44681"}}},
{"geometry": {"type": "Point", "coordinates": [-81.6384279232, 40.503868134]}, "type": "Feature", "properties": {"collection_times": [{"days": "Mon-Fri", "time": "4:30pm"}, {"days": "Sat", "time": "1:00pm"}, {"days": "Sun", "time": "Closed"}], "id": "4468100004", "name": "USPS COLLECTION BOX - PO LOBBY", "address": {"city": "SUGAR CREEK", "state": "OH", "street": "210 FACTORY ST NE", "postcode": "44681"}}},
{"geometry": {"type": "Point", "coordinates": [-81.6384279232, 40.503868134]}, "type": "Feature", "properties": {"collection_times": [{"days": "Mon-Fri", "time": "4:30pm"}, {"days": "Sat", "time": "1:00pm"}, {"days": "Sun", "time": "Closed"}], "id": "4468100005", "name": "USPS COLLECTION BOX - PO LOBBY", "address": {"city": "SUGAR CREEK", "state": "OH", "street": "210 FACTORY ST NE", "postcode": "44681"}}},
{"geometry": {"type": "Point", "coordinates": [-81.6384279232, 40.503868134]}, "type": "Feature", "properties": {"collection_times": [{"days": "Mon-Fri", "time": "4:30pm"}, {"days": "Sat", "time": "1:00pm"}, {"days": "Sun", "time": "Closed"}], "id": "4468100006", "name": "USPS COLLECTION BOX - PO LOBBY", "address": {"city": "SUGAR CREEK", "state": "OH", "street": "210 FACTORY ST NE", "postcode": "44681"}}},
{"geometry": {"type": "Point", "coordinates": [-81.6384279232, 40.503868134]}, "type": "Feature", "properties": {"collection_times": [{"days": "Mon-Fri", "time": "4:30pm"}, {"days": "Sat", "time": "1:00pm"}, {"days": "Sun", "time": "Closed"}], "id": "4468100007", "name": "USPS COLLECTION BOX - PO LOBBY", "address": {"city": "SUGAR CREEK", "state": "OH", "street": "210 FACTORY ST NE", "postcode": "44681"}}},
{"geometry": {"type": "Point", "coordinates": [-81.4073735507, 40.3970487061]}, "type": "Feature", "properties": {"collection_times": [{"days": "Mon-Fri", "time": "4:30pm"}, {"days": "Sat", "time": "11:45am"}, {"days": "Sun", "time": "Closed"}], "id": "4468200001", "name": "USPS COLLECTION BOX - PO LOBBY", "address": {"city": "TUSCARAWAS", "state": "OH", "street": "105 N MAIN ST", "postcode": "44682"}}},
{"geometry": {"type": "Point", "coordinates": [-81.4073735507, 40.3970487061]}, "type": "Feature", "properties": {"collection_times": [{"days": "Mon-Fri", "time": "4:30pm"}, {"days": "Sat", "time": "11:45am"}, {"days": "Sun", "time": "Closed"}], "id": "4468200002", "name": "USPS COLLECTION BOX - BLUE BOX", "address": {"city": "TUSCARAWAS", "state": "OH", "street": "105 N MAIN ST", "postcode": "44682"}}},
{"geometry": {"type": "Point", "coordinates": [-81.3434462817, 40.3914983633]}, "type": "Feature", "properties": {"collection_times": [{"days": "Mon-Fri", "time": "4:00pm"}, {"days": "Sat", "time": "3:30pm"}, {"days": "Sun", "time": "Closed"}], "id": "4468300004", "name": "USPS COLLECTION BOX - BLUE BOX", "address": {"city": "UHRICHSVILLE", "state": "OH", "street": "305 E 3RD ST", "postcode": "44683"}}},
{"geometry": {"type": "Point", "coordinates": [-81.3434462817, 40.3914983633]}, "type": "Feature", "properties": {"collection_times": [{"days": "Mon-Fri", "time": "4:00pm"}, {"days": "Sat", "time": "3:30pm"}, {"days": "Sun", "time": "Closed"}], "id": "4468300005", "name": "USPS COLLECTION BOX - BLUE BOX", "address": {"city": "UHRICHSVILLE", "state": "OH", "street": "305 E 3RD ST", "postcode": "44683"}}},
{"geometry": {"type": "Point", "coordinates": [-81.3434462817, 40.3914983633]}, "type": "Feature", "properties": {"collection_times": [{"days": "Mon-Sat", "time": "4:00pm"}, {"days": "Sun", "time": "Closed"}], "id": "4468300013", "name": "USPS COLLECTION BOX - PO LOBBY", "address": {"city": "UHRICHSVILLE", "state": "OH", "street": "305 E 3RD ST", "postcode": "44683"}}},
{"geometry": {"type": "Point", "coordinates": [-81.4435374908, 40.9648506969]}, "type": "Feature", "properties": {"collection_times": [{"days": "Mon-Sat", "time": "10:00am"}, {"days": "Sun", "time": "Closed"}], "id": "4468500001", "name": "USPS COLLECTION BOX - BLUE BOX", "address": {"city": "UNIONTOWN", "state": "OH", "street": "3639 GLEN EAGLES BLVD", "postcode": "44685"}}},
{"geometry": {"type": "Point", "coordinates": [-81.4057869043, 40.9494580348]}, "type": "Feature", "properties": {"collection_times": [{"days": "Mon-Fri", "time": "5:00pm"}, {"days": "Sat", "time": "3:30pm"}, {"days": "Sun", "time": "Closed"}], "id": "4468500002", "name": "USPS COLLECTION BOX - BLUE BOX", "address": {"city": "UNIONTOWN", "state": "OH", "street": "11230 CLEVELAND AVE NW", "postcode": "44685"}}},
{"geometry": {"type": "Point", "coordinates": [-81.4057869043, 40.9494580348]}, "type": "Feature", "properties": {"collection_times": [{"days": "Mon-Fri", "time": "5:00pm"}, {"days": "Sat", "time": "3:30pm"}, {"days": "Sun", "time": "Closed"}], "id": "4468500003", "name": "USPS COLLECTION BOX - PO LOBBY", "address": {"city": "UNIONTOWN", "state": "OH", "street": "11230 CLEVELAND AVE NW", "postcode": "44685"}}},
{"geometry": {"type": "Point", "coordinates": [-81.4066670257, 40.9806692242]}, "type": "Feature", "properties": {"collection_times": [{"days": "Mon-Sat", "time": "11:00am"}, {"days": "Sun", "time": "Closed"}], "id": "4468500007", "name": "USPS COLLECTION BOX - BLUE BOX", "address": {"city": "UNIONTOWN", "state": "OH", "street": "13353 CLEVELAND AVE NW", "postcode": "44685"}}},
{"geometry": {"type": "Point", "coordinates": [-81.4365122514, 40.961333358]}, "type": "Feature", "properties": {"collection_times": [{"days": "Mon-Sat", "time": "10:00am"}, {"days": "Sun", "time": "Closed"}], "id": "4468500009", "name": "USPS COLLECTION BOX - BLUE BOX", "address": {"city": "UNIONTOWN", "state": "OH", "street": "3941 MAYFAIR RD", "postcode": "44685"}}},
{"geometry": {"type": "Point", "coordinates": [-81.4649667924, 40.9664476915]}, "type": "Feature", "properties": {"collection_times": [{"days": "Mon-Sat", "time": "11:00am"}, {"days": "Sun", "time": "Closed"}], "id": "4468500018", "name": "USPS COLLECTION BOX - BLUE BOX", "address": {"city": "UNIONTOWN", "state": "OH", "street": "3500 MASSILLON RD", "postcode": "44685"}}},
{"geometry": {"type": "Point", "coordinates": [-81.4653098505, 40.9607316338]}, "type": "Feature", "properties": {"collection_times": [{"days": "Mon-Sat", "time": "11:00am"}, {"days": "Sun", "time": "Closed"}], "id": "4468500020", "name": "USPS COLLECTION BOX - BLUE BOX", "address": {"city": "UNIONTOWN", "state": "OH", "street": "3700 MASSILLON RD", "postcode": "44685"}}},
{"geometry": {"type": "Point", "coordinates": [-81.4653098505, 40.9607316338]}, "type": "Feature", "properties": {"collection_times": [{"days": "Mon-Sat", "time": "11:00am"}, {"days": "Sun", "time": "Closed"}], "id": "4468500021", "name": "USPS COLLECTION BOX - BLUE BOX", "address": {"city": "UNIONTOWN", "state": "OH", "street": "3700 MASSILLON RD", "postcode": "44685"}}},
{"geometry": {"type": "Point", "coordinates": [-81.4654567792, 40.958793268]}, "type": "Feature", "properties": {"collection_times": [{"days": "Mon-Sat", "time": "10:45am"}, {"days": "Sun", "time": "Closed"}], "id": "4468500022", "name": "USPS COLLECTION BOX - BLUE BOX", "address": {"city": "UNIONTOWN", "state": "OH", "street": "3770 MASSILLON RD", "postcode": "44685"}}},
{"geometry": {"type": "Point", "coordinates": [-81.4057869043, 40.9494580348]}, "type": "Feature", "properties": {"collection_times": [{"days": "Mon-Fri", "time": "5:00pm"}, {"days": "Sat", "time": "3:30pm"}, {"days": "Sun", "time": "Closed"}], "id": "4468500024", "name": "USPS COLLECTION BOX - PO LOBBY", "address": {"city": "UNIONTOWN", "state": "OH", "street": "11230 CLEVELAND AVE NW", "postcode": "44685"}}},
{"geometry": {"type": "Point", "coordinates": [-81.4356388737, 40.9619855703]}, "type": "Feature", "properties": {"collection_times": [{"days": "Mon-Sat", "time": "11:00am"}, {"days": "Sun", "time": "Closed"}], "id": "4468500025", "name": "USPS COLLECTION BOX - BLUE BOX", "address": {"city": "UNIONTOWN", "state": "OH", "street": "2499 ROYAL COUNTY DOWN", "postcode": "44685"}}},
{"geometry": {"type": "Point", "coordinates": [-81.4687693076, 40.9505888193]}, "type": "Feature", "properties": {"collection_times": [{"days": "Mon-Sat", "time": "10:00am"}, {"days": "Sun", "time": "Closed"}], "id": "4468500026", "name": "USPS COLLECTION BOX - BLUE BOX", "address": {"city": "UNIONTOWN", "state": "OH", "street": "1750 TOWN PARK BLVD", "postcode": "44685"}}},
{"geometry": {"type": "Point", "coordinates": [-81.7205169593, 40.5445944777]}, "type": "Feature", "properties": {"collection_times": [{"days": "Mon-Fri", "time": "4:00pm"}, {"days": "Sat", "time": "11:45am"}, {"days": "Sun", "time": "Closed"}], "id": "4468700001", "name": "USPS COLLECTION BOX - BLUE BOX", "address": {"city": "WALNUT CREEK", "state": "OH", "street": "4878 OLDE PUMP ST", "postcode": "44687"}}},
{"geometry": {"type": "Point", "coordinates": [-81.7205169593, 40.5445944777]}, "type": "Feature", "properties": {"collection_times": [{"days": "Mon-Fri", "time": "4:00pm"}, {"days": "Sat", "time": "11:45am"}, {"days": "Sun", "time": "Closed"}], "id": "4468700002", "name": "USPS COLLECTION BOX - PO LOBBY", "address": {"city": "WALNUT CREEK", "state": "OH", "street": "4878 OLDE PUMP ST", "postcode": "44687"}}},
{"geometry": {"type": "Point", "coordinates": [-81.2557675972, 40.6679256308]}, "type": "Feature", "properties": {"collection_times": [{"days": "Mon-Fri", "time": "4:45pm"}, {"days": "Sat", "time": "11:45am"}, {"days": "Sun", "time": "Closed"}], "id": "4468800002", "name": "USPS COLLECTION BOX - BLUE BOX", "address": {"city": "WAYNESBURG", "state": "OH", "street": "157 E LISBON ST", "postcode": "44688"}}},
{"geometry": {"type": "Point", "coordinates": [-81.2557675972, 40.6679256308]}, "type": "Feature", "properties": {"collection_times": [{"days": "Mon-Fri", "time": "5:00pm"}, {"days": "Sat", "time": "12:00pm"}, {"days": "Sun", "time": "Closed"}], "id": "4468800003", "name": "USPS COLLECTION BOX - PO LOBBY", "address": {"city": "WAYNESBURG", "state": "OH", "street": "157 E LISBON ST", "postcode": "44688"}}},
{"geometry": {"type": "Point", "coordinates": [-81.2610223009, 40.6766629657]}, "type": "Feature", "properties": {"collection_times": [{"days": "Mon-Sat", "time": "12:00pm"}, {"days": "Sun", "time": "Closed"}], "id": "4468800004", "name": "USPS COLLECTION BOX - BLUE BOX", "address": {"city": "WAYNESBURG", "state": "OH", "street": "8648 WAYNESBURG DR SE", "postcode": "44688"}}},
{"geometry": {"type": "Point", "coordinates": [-81.6335195176, 40.6565692247]}, "type": "Feature", "properties": {"collection_times": [{"days": "Mon-Fri", "time": "4:15pm"}, {"days": "Sat", "time": "11:30am"}, {"days": "Sun", "time": "Closed"}], "id": "4468900001", "name": "USPS COLLECTION BOX - BLUE BOX", "address": {"city": "WILMOT", "state": "OH", "street": "305 W MAIN ST", "postcode": "44689"}}},
{"geometry": {"type": "Point", "coordinates": [-81.6947197658, 40.6163995314]}, "type": "Feature", "properties": {"collection_times": [{"days": "Mon-Fri", "time": "3:45pm"}, {"days": "Sat", "time": "11:30am"}, {"days": "Sun", "time": "Closed"}], "id": "4469000001", "name": "USPS COLLECTION BOX - BLUE BOX", "address": {"city": "WINESBURG", "state": "OH", "street": "2162 S MAIN ST", "postcode": "44690"}}},
{"geometry": {"type": "Point", "coordinates": [-81.6947197658, 40.6163995314]}, "type": "Feature", "properties": {"collection_times": [{"days": "Mon-Fri", "time": "3:45pm"}, {"days": "Sat", "time": "11:30am"}, {"days": "Sun", "time": "Closed"}], "id": "4469000002", "name": "USPS COLLECTION BOX - PO LOBBY", "address": {"city": "WINESBURG", "state": "OH", "street": "2162 S MAIN ST", "postcode": "44690"}}},
{"geometry": {"type": "Point", "coordinates": [-81.9451098105, 40.847655501]}, "type": "Feature", "properties": {"collection_times": [{"days": "Mon-Fri", "time": "3:00pm"}, {"days": "Sat", "time": "10:30am"}, {"days": "Sun", "time": "Closed"}], "id": "4469100002", "name": "USPS COLLECTION BOX - BLUE BOX", "address": {"city": "WOOSTER", "state": "OH", "street": "3883 BURBANK RD", "postcode": "44691"}}},
{"geometry": {"type": "Point", "coordinates": [-81.9413399755, 40.8031542487]}, "type": "Feature", "properties": {"collection_times": [{"days": "Mon-Fri", "time": "3:45pm"}, {"days": "Sat-Sun", "time": "Closed"}], "id": "4469100003", "name": "USPS COLLECTION BOX - BLUE BOX", "address": {"city": "WOOSTER", "state": "OH", "street": "538 N MARKET ST", "postcode": "44691"}}},
{"geometry": {"type": "Point", "coordinates": [-81.9343095374, 40.8053127641]}, "type": "Feature", "properties": {"collection_times": [{"days": "Mon-Sat", "time": "11:30am"}, {"days": "Sun", "time": "Closed"}], "id": "4469100005", "name": "USPS COLLECTION BOX - BLUE BOX", "address": {"city": "WOOSTER", "state": "OH", "street": "625 BEALL AVE", "postcode": "44691"}}},
{"geometry": {"type": "Point", "coordinates": [-81.923122608, 40.8245045876]}, "type": "Feature", "properties": {"collection_times": [{"days": "Mon-Sat", "time": "9:00am"}, {"days": "Sun", "time": "Closed"}], "id": "4469100011", "name": "USPS COLLECTION BOX - BLUE BOX", "address": {"city": "WOOSTER", "state": "OH", "street": "2370 CARDINAL CT", "postcode": "44691"}}},
{"geometry": {"type": "Point", "coordinates": [-81.9466586401, 40.7974354131]}, "type": "Feature", "properties": {"collection_times": [{"days": "Mon-Fri", "time": "12:00pm"}, {"days": "Sat", "time": "9:00am"}, {"days": "Sun", "time": "Closed"}], "id": "4469100018", "name": "USPS COLLECTION BOX - BLUE BOX", "address": {"city": "WOOSTER", "state": "OH", "street": "428 W LIBERTY ST", "postcode": "44691"}}},
{"geometry": {"type": "Point", "coordinates": [-81.9446528536, 40.8278155132]}, "type": "Feature", "properties": {"collection_times": [{"days": "Mon-Sat", "time": "10:00am"}, {"days": "Sun", "time": "Closed"}], "id": "4469100036", "name": "USPS COLLECTION BOX - BLUE BOX", "address": {"city": "WOOSTER", "state": "OH", "street": "2255 CHRISTMAS RUN BLVD", "postcode": "44691"}}},
{"geometry": {"type": "Point", "coordinates": [-81.9407138612, 40.7993788637]}, "type": "Feature", "properties": {"collection_times": [{"days": "Mon-Fri", "time": "12:00pm"}, {"days": "Sat", "time": "9:30am"}, {"days": "Sun", "time": "Closed"}], "id": "4469100040", "name": "USPS COLLECTION BOX - BLUE BOX", "address": {"city": "WOOSTER", "state": "OH", "street": "127 W NORTH ST", "postcode": "44691"}}},
{"geometry": {"type": "Point", "coordinates": [-81.9407138612, 40.7993788637]}, "type": "Feature", "properties": {"collection_times": [{"days": "Mon-Fri", "time": "12:00pm"}, {"days": "Sat", "time": "9:30am"}, {"days": "Sun", "time": "Closed"}], "id": "4469100041", "name": "USPS COLLECTION BOX - BLUE BOX", "address": {"city": "WOOSTER", "state": "OH", "street": "127 W NORTH ST", "postcode": "44691"}}},
{"geometry": {"type": "Point", "coordinates": [-81.90726, 40.82281]}, "type": "Feature", "properties": {"collection_times": [{"days": "Mon-Fri", "time": "11:30am"}, {"days": "Sat", "time": "10:00am"}, {"days": "Sun", "time": "Closed"}], "id": "4469100042", "name": "USPS COLLECTION BOX - BLUE BOX", "address": {"city": "WOOSTER", "state": "OH", "street": "2200 BENDEN DR", "postcode": "44691"}}},
{"geometry": {"type": "Point", "coordinates": [-81.9395241501, 40.7983001728]}, "type": "Feature", "properties": {"collection_times": [{"days": "Mon-Sat", "time": "9:30am"}, {"days": "Sun", "time": "Closed"}], "id": "4469100045", "name": "USPS COLLECTION BOX - BLUE BOX", "address": {"city": "WOOSTER", "state": "OH", "street": "124 E LIBERTY ST", "postcode": "44691"}}},
{"geometry": {"type": "Point", "coordinates": [-81.9120087847, 40.8283482574]}, "type": "Feature", "properties": {"collection_times": [{"days": "Mon-Fri", "time": "11:30am"}, {"days": "Sat", "time": "11:00am"}, {"days": "Sun", "time": "Closed"}], "id": "4469100046", "name": "USPS COLLECTION BOX - BLUE BOX", "address": {"city": "WOOSTER", "state": "OH", "street": "2001 PORTAGE RD", "postcode": "44691"}}},
{"geometry": {"type": "Point", "coordinates": [-81.94482796, 40.8140612028]}, "type": "Feature", "properties": {"collection_times": [{"days": "Mon-Fri", "time": "3:30pm"}, {"days": "Sat", "time": "10:00am"}, {"days": "Sun", "time": "Closed"}], "id": "4469100048", "name": "USPS COLLECTION BOX - BLUE BOX", "address": {"city": "WOOSTER", "state": "OH", "street": "1925 CLEVELAND RD", "postcode": "44691"}}},
{"geometry": {"type": "Point", "coordinates": [-81.9791381927, 40.8034245666]}, "type": "Feature", "properties": {"collection_times": [{"days": "Mon-Sat", "time": "9:00am"}, {"days": "Sun", "time": "Closed"}], "id": "4469100050", "name": "USPS COLLECTION BOX - BLUE BOX", "address": {"city": "WOOSTER", "state": "OH", "street": "1901 RUBY CT", "postcode": "44691"}}},
{"geometry": {"type": "Point", "coordinates": [-81.9448279597, 40.8140611565]}, "type": "Feature", "properties": {"collection_times": [{"days": "Mon-Sat", "time": "5:00pm"}, {"days": "Sun", "time": "Closed"}], "id": "4469100051", "name": "USPS COLLECTION BOX - BLUE BOX", "address": {"city": "WOOSTER", "state": "OH", "street": "153 E SOUTH ST", "postcode": "44691"}}},
{"geometry": {"type": "Point", "coordinates": [-81.9448279597, 40.8140611565]}, "type": "Feature", "properties": {"collection_times": [{"days": "Mon-Sat", "time": "5:00pm"}, {"days": "Sun", "time": "Closed"}], "id": "4469100052", "name": "USPS COLLECTION BOX - BLUE BOX", "address": {"city": "WOOSTER", "state": "OH", "street": "153 E SOUTH ST", "postcode": "44691"}}},
{"geometry": {"type": "Point", "coordinates": [-81.9448279597, 40.8140611565]}, "type": "Feature", "properties": {"collection_times": [{"days": "Mon-Sat", "time": "5:00pm"}, {"days": "Sun", "time": "Closed"}], "id": "4469100057", "name": "USPS COLLECTION BOX - PO LOBBY", "address": {"city": "WOOSTER", "state": "OH", "street": "153 E SOUTH ST", "postcode": "44691"}}},
{"geometry": {"type": "Point", "coordinates": [-81.9448279597, 40.8140611565]}, "type": "Feature", "properties": {"collection_times": [{"days": "Mon-Sat", "time": "5:00pm"}, {"days": "Sun", "time": "Closed"}], "id": "4469100058", "name": "USPS COLLECTION BOX - PO LOBBY", "address": {"city": "WOOSTER", "state": "OH", "street": "153 E SOUTH ST", "postcode": "44691"}}},
{"geometry": {"type": "Point", "coordinates": [-81.9302049067, 40.8322018292]}, "type": "Feature", "properties": {"collection_times": [{"days": "Mon-Fri", "time": "3:30pm"}, {"days": "Sat", "time": "10:00am"}, {"days": "Sun", "time": "Closed"}], "id": "4469100061", "name": "USPS COLLECTION BOX - BLUE BOX", "address": {"city": "WOOSTER", "state": "OH", "street": "2800 CLEVELAND RD", "postcode": "44691"}}},
{"geometry": {"type": "Point", "coordinates": [-81.9039548283, 40.8250610076]}, "type": "Feature", "properties": {"collection_times": [{"days": "Mon-Fri", "time": "11:30am"}, {"days": "Sat", "time": "10:00am"}, {"days": "Sun", "time": "Closed"}], "id": "4469100062", "name": "USPS COLLECTION BOX - BLUE BOX", "address": {"city": "WOOSTER", "state": "OH", "street": "1985 EAGLE PASS", "postcode": "44691"}}},
{"geometry": {"type": "Point", "coordinates": [-81.9407537761, 40.8009535498]}, "type": "Feature", "properties": {"collection_times": [{"days": "Mon-Fri", "time": "3:45pm"}, {"days": "Sat-Sun", "time": "Closed"}], "id": "4469100064", "name": "USPS COLLECTION BOX - BLUE BOX", "address": {"city": "WOOSTER", "state": "OH", "street": "336 N MARKET ST", "postcode": "44691"}}},
{"geometry": {"type": "Point", "coordinates": [-81.9392622179, 40.843317895]}, "type": "Feature", "properties": {"collection_times": [{"days": "Mon-Sat", "time": "11:00am"}, {"days": "Sun", "time": "Closed"}], "id": "4469100065", "name": "USPS COLLECTION BOX - BLUE BOX", "address": {"city": "WOOSTER", "state": "OH", "street": "128 E MILLTOWN RD", "postcode": "44691"}}},
{"geometry": {"type": "Point", "coordinates": [-81.923722939, 40.862071636]}, "type": "Feature", "properties": {"collection_times": [{"days": "Mon-Sat", "time": "12:00pm"}, {"days": "Sun", "time": "Closed"}], "id": "4469100070", "name": "USPS COLLECTION BOX - BLUE BOX", "address": {"city": "WOOSTER", "state": "OH", "street": "5252 CLEVELAND RD", "postcode": "44691"}}},
{"geometry": {"type": "Point", "coordinates": [-81.9448279597, 40.8140611565]}, "type": "Feature", "properties": {"collection_times": [{"days": "Mon-Sat", "time": "5:00pm"}, {"days": "Sun", "time": "Closed"}], "id": "4469100071", "name": "USPS COLLECTION BOX - EXPRESS", "address": {"city": "WOOSTER", "state": "OH", "street": "153 E SOUTH ST", "postcode": "44691"}}},
{"geometry": {"type": "Point", "coordinates": [-81.9400743324, 40.7982180805]}, "type": "Feature", "properties": {"collection_times": [{"days": "Mon-Fri", "time": "12:00pm"}, {"days": "Sat-Sun", "time": "Closed"}], "id": "4469100072", "name": "USPS COLLECTION BOX - BLUE BOX", "address": {"city": "WOOSTER", "state": "OH", "street": "107 W LIBERTY ST", "postcode": "44691"}}},
{"geometry": {"type": "Point", "coordinates": [-81.9448279597, 40.8140611565]}, "type": "Feature", "properties": {"collection_times": [{"days": "Mon-Sat", "time": "5:00pm"}, {"days": "Sun", "time": "Closed"}], "id": "4469100074", "name": "USPS COLLECTION BOX - APC", "address": {"city": "WOOSTER", "state": "OH", "street": "153 E SOUTH ST", "postcode": "44691"}}},
{"geometry": {"type": "Point", "coordinates": [-81.9433441265, 40.7988959044]}, "type": "Feature", "properties": {"collection_times": [{"days": "Mon-Fri", "time": "12:00pm"}, {"days": "Sat-Sun", "time": "Closed"}], "id": "4469100080", "name": "USPS COLLECTION BOX - BLUE BOX", "address": {"city": "WOOSTER", "state": "OH", "street": "215 N GRANT ST", "postcode": "44691"}}},
{"geometry": {"type": "Point", "coordinates": [-81.9400743324, 40.7982180805]}, "type": "Feature", "properties": {"collection_times": [{"days": "Mon-Fri", "time": "12:00pm"}, {"days": "Sat-Sun", "time": "Closed"}], "id": "4469100082", "name": "USPS COLLECTION BOX - BLUE BOX", "address": {"city": "WOOSTER", "state": "OH", "street": "107 W LIBERTY ST", "postcode": "44691"}}},
{"geometry": {"type": "Point", "coordinates": [-81.9448279597, 40.8140611565]}, "type": "Feature", "properties": {"collection_times": [{"days": "Mon-Sat", "time": "5:00pm"}, {"days": "Sun", "time": "Closed"}], "id": "4469100083", "name": "USPS COLLECTION BOX - BLUE BOX", "address": {"city": "WOOSTER", "state": "OH", "street": "153 E SOUTH ST", "postcode": "44691"}}},
{"geometry": {"type": "Point", "coordinates": [-81.9423189532, 40.8430827353]}, "type": "Feature", "properties": {"collection_times": [{"days": "Mon-Fri", "time": "4:30pm"}, {"days": "Sat", "time": "10:30am"}, {"days": "Sun", "time": "Closed"}], "id": "4469100086", "name": "USPS COLLECTION BOX - BLUE BOX", "address": {"city": "WOOSTER", "state": "OH", "street": "3540 BURBANK RD", "postcode": "44691"}}},
{"geometry": {"type": "Point", "coordinates": [-81.9386871913, 40.8240691391]}, "type": "Feature", "properties": {"collection_times": [{"days": "Mon-Fri", "time": "11:00am"}, {"days": "Sat-Sun", "time": "Closed"}], "id": "4469100087", "name": "USPS COLLECTION BOX - BLUE BOX", "address": {"city": "WOOSTER", "state": "OH", "street": "1912 BURBANK RD", "postcode": "44691"}}},
{"geometry": {"type": "Point", "coordinates": [-81.1882766857, 40.3078263385]}, "type": "Feature", "properties": {"collection_times": [{"days": "Mon-Fri", "time": "10:00am"}, {"days": "Sat", "time": "8:00am"}, {"days": "Sun", "time": "Closed"}], "id": "4469300001", "name": "USPS COLLECTION BOX - BLUE BOX", "address": {"city": "DEERSVILLE", "state": "OH", "street": "205 MAIN ST", "postcode": "44693"}}},
{"geometry": {"type": "Point", "coordinates": [-81.1898070207, 40.4264195032]}, "type": "Feature", "properties": {"collection_times": [{"days": "Mon-Fri", "time": "3:45pm"}, {"days": "Sat", "time": "11:00am"}, {"days": "Sun", "time": "Closed"}], "id": "4469500002", "name": "USPS COLLECTION BOX - BLUE BOX", "address": {"city": "BOWERSTON", "state": "OH", "street": "212 MAIN ST", "postcode": "44695"}}},
{"geometry": {"type": "Point", "coordinates": [-81.4229278553, 40.6144118532]}, "type": "Feature", "properties": {"collection_times": [{"days": "Mon-Fri", "time": "4:30pm"}, {"days": "Sat", "time": "11:30am"}, {"days": "Sun", "time": "Closed"}], "id": "4469700001", "name": "USPS COLLECTION BOX - BLUE BOX", "address": {"city": "ZOAR", "state": "OH", "street": "171 W 1ST ST", "postcode": "44697"}}}
]}
