{"type": "FeatureCollection", "features": [
{"geometry": {"type": "Point", "coordinates": [-81.3746644369, 40.7982344755]}, "type": "Feature", "properties": {"collection_times": [{"days": "Mon-Fri", "time": "11:00am"}, {"days": "Sat-Sun", "time": "Closed"}], "id": "4470200061", "name": "USPS COLLECTION BOX - BLUE BOX", "address": {"city": "CANTON", "state": "OH", "street": "110 CENTRAL PLZ S", "postcode": "44702"}}},
{"geometry": {"type": "Point", "coordinates": [-81.3749587634, 40.7991838577]}, "type": "Feature", "properties": {"collection_times": [{"days": "Mon-Fri", "time": "11:00am"}, {"days": "Sat-Sun", "time": "Closed"}], "id": "4470200065", "name": "USPS COLLECTION BOX - EXPRESS", "address": {"city": "CANTON", "state": "OH", "street": "110 CENTRAL PLZ S", "postcode": "44702"}}},
{"geometry": {"type": "Point", "coordinates": [-81.3761845391, 40.7987632582]}, "type": "Feature", "properties": {"collection_times": [{"days": "Mon-Fri", "time": "11:00am"}, {"days": "Sat-Sun", "time": "Closed"}], "id": "4470200066", "name": "USPS COLLECTION BOX - BLUE BOX", "address": {"city": "CANTON", "state": "OH", "street": "237 TUSCARAWAS ST E", "postcode": "44702"}}},
{"geometry": {"type": "Point", "coordinates": [-81.375063094, 40.7971355067]}, "type": "Feature", "properties": {"collection_times": [{"days": "Mon-Fri", "time": "11:00am"}, {"days": "Sat-Sun", "time": "Closed"}], "id": "4470200067", "name": "USPS COLLECTION BOX - BLUE BOX", "address": {"city": "CANTON", "state": "OH", "street": "220 MARKET AVE S", "postcode": "44702"}}},
{"geometry": {"type": "Point", "coordinates": [-81.3723278298, 40.7968165857]}, "type": "Feature", "properties": {"collection_times": [{"days": "Mon-Fri", "time": "11:00am"}, {"days": "Sat-Sun", "time": "Closed"}], "id": "4470200069", "name": "USPS COLLECTION BOX - BLUE BOX", "address": {"city": "CANTON", "state": "OH", "street": "250 REX AVE SE", "postcode": "44702"}}},
{"geometry": {"type": "Point", "coordinates": [-81.3730887355, 40.7996268182]}, "type": "Feature", "properties": {"collection_times": [{"days": "Mon-Fri", "time": "11:30am"}, {"days": "Sat-Sun", "time": "Closed"}], "id": "4470200070", "name": "USPS COLLECTION BOX - BLUE BOX", "address": {"city": "CANTON", "state": "OH", "street": "201 3RD ST NE", "postcode": "44702"}}},
{"geometry": {"type": "Point", "coordinates": [-81.3770398185, 40.798943068]}, "type": "Feature", "properties": {"collection_times": [{"days": "Mon-Fri", "time": "11:15am"}, {"days": "Sat-Sun", "time": "Closed"}], "id": "4470200077", "name": "USPS COLLECTION BOX - BLUE BOX", "address": {"city": "CANTON", "state": "OH", "street": "315 TUSCARAWAS ST W", "postcode": "44702"}}},
{"geometry": {"type": "Point", "coordinates": [-81.3770398185, 40.798943068]}, "type": "Feature", "properties": {"collection_times": [{"days": "Mon-Fri", "time": "11:15am"}, {"days": "Sat-Sun", "time": "Closed"}], "id": "4470200078", "name": "USPS COLLECTION BOX - BLUE BOX", "address": {"city": "CANTON", "state": "OH", "street": "315 TUSCARAWAS ST W", "postcode": "44702"}}},
{"geometry": {"type": "Point", "coordinates": [-81.3770019638, 40.7974939432]}, "type": "Feature", "properties": {"collection_times": [{"days": "Mon-Fri", "time": "11:15am"}, {"days": "Sat", "time": "12:00pm"}, {"days": "Sun", "time": "Closed"}], "id": "4470200079", "name": "USPS COLLECTION BOX - BLUE BOX", "address": {"city": "CANTON", "state": "OH", "street": "201 CLEVELAND AVE", "postcode": "44702"}}},
{"geometry": {"type": "Point", "coordinates": [-81.3749587634, 40.7991838577]}, "type": "Feature", "properties": {"collection_times": [{"days": "Mon-Sat", "time": "5:00pm"}, {"days": "Sun", "time": "Closed"}], "id": "4470200081", "name": "USPS COLLECTION BOX - EXPRESS", "address": {"city": "CANTON", "state": "OH", "street": "220 4TH ST SW", "postcode": "44702"}}},
{"geometry": {"type": "Point", "coordinates": [-81.3764258628, 40.7965180021]}, "type": "Feature", "properties": {"collection_times": [{"days": "Mon-Sat", "time": "5:00pm"}, {"days": "Sun", "time": "Closed"}], "id": "4470200082", "name": "USPS COLLECTION BOX - BLUE BOX", "address": {"city": "CANTON", "state": "OH", "street": "220 4TH ST SW", "postcode": "44702"}}},
{"geometry": {"type": "Point", "coordinates": [-81.3746644369, 40.7982344755]}, "type": "Feature", "properties": {"collection_times": [{"days": "Mon-Fri", "time": "11:00am"}, {"days": "Sat-Sun", "time": "Closed"}], "id": "4470200084", "name": "USPS COLLECTION BOX - BLUE BOX", "address": {"city": "CANTON", "state": "OH", "street": "110 CENTRAL PLZ S", "postcode": "44702"}}},
{"geometry": {"type": "Point", "coordinates": [-81.3764258628, 40.7965180021]}, "type": "Feature", "properties": {"collection_times": [{"days": "Mon-Fri", "time": "5:00pm"}, {"days": "Sat", "time": "4:00pm"}, {"days": "Sun", "time": "Closed"}], "id": "4470200085", "name": "USPS COLLECTION BOX - PO LOBBY", "address": {"city": "CANTON", "state": "OH", "street": "220 4TH ST SW", "postcode": "44702"}}},
{"geometry": {"type": "Point", "coordinates": [-81.3764258628, 40.7965180021]}, "type": "Feature", "properties": {"collection_times": [{"days": "Mon-Fri", "time": "5:00pm"}, {"days": "Sat", "time": "4:00pm"}, {"days": "Sun", "time": "Closed"}], "id": "4470200086", "name": "USPS COLLECTION BOX - PO LOBBY", "address": {"city": "CANTON", "state": "OH", "street": "220 4TH ST SW", "postcode": "44702"}}},
{"geometry": {"type": "Point", "coordinates": [-81.3764258628, 40.7965180021]}, "type": "Feature", "properties": {"collection_times": [{"days": "Mon-Sat", "time": "5:00pm"}, {"days": "Sun", "time": "Closed"}], "id": "4470200087", "name": "USPS COLLECTION BOX - BLUE BOX", "address": {"city": "CANTON", "state": "OH", "street": "220 4TH ST SW", "postcode": "44702"}}},
{"geometry": {"type": "Point", "coordinates": [-81.3742054488, 40.7999284728]}, "type": "Feature", "properties": {"collection_times": [{"days": "Mon-Fri", "time": "11:45am"}, {"days": "Sat", "time": "12:00pm"}, {"days": "Sun", "time": "Closed"}], "id": "4470200088", "name": "USPS COLLECTION BOX - BLUE BOX", "address": {"city": "CANTON", "state": "OH", "street": "300 MARKET AVE N", "postcode": "44702"}}},
{"geometry": {"type": "Point", "coordinates": [-81.3723138974, 40.8072308785]}, "type": "Feature", "properties": {"collection_times": [{"days": "Mon-Sat", "time": "12:00pm"}, {"days": "Sun", "time": "Closed"}], "id": "4470200090", "name": "USPS COLLECTION BOX - BLUE BOX", "address": {"city": "CANTON", "state": "OH", "street": "800 MARKET AVE N", "postcode": "44702"}}},
{"geometry": {"type": "Point", "coordinates": [-81.3723138974, 40.8072308785]}, "type": "Feature", "properties": {"collection_times": [{"days": "Mon-Sat", "time": "12:00pm"}, {"days": "Sun", "time": "Closed"}], "id": "4470200091", "name": "USPS COLLECTION BOX - BLUE BOX", "address": {"city": "CANTON", "state": "OH", "street": "800 MARKET AVE N", "postcode": "44702"}}},
{"geometry": {"type": "Point", "coordinates": [-81.380051632, 40.7995392793]}, "type": "Feature", "properties": {"collection_times": [{"days": "Mon-Fri", "time": "11:15am"}, {"days": "Sat-Sun", "time": "Closed"}], "id": "4470200094", "name": "USPS COLLECTION BOX - BLUE BOX", "address": {"city": "CANTON", "state": "OH", "street": "700 TUSCARAWAS ST W", "postcode": "44702"}}},
{"geometry": {"type": "Point", "coordinates": [-81.3763820933, 40.7992695646]}, "type": "Feature", "properties": {"collection_times": [{"days": "Mon-Fri", "time": "11:30am"}, {"days": "Sat-Sun", "time": "Closed"}], "id": "4470200095", "name": "USPS COLLECTION BOX - BLUE BOX", "address": {"city": "CANTON", "state": "OH", "street": "116 CLEVELAND AVE NW", "postcode": "44702"}}},
{"geometry": {"type": "Point", "coordinates": [-81.3748508546, 40.8067043186]}, "type": "Feature", "properties": {"collection_times": [{"days": "Mon-Fri", "time": "2:00pm"}, {"days": "Sat-Sun", "time": "Closed"}], "id": "4470200097", "name": "USPS COLLECTION BOX - BLUE BOX", "address": {"city": "CANTON", "state": "OH", "street": "965 CLEVELAND AVE NW", "postcode": "44702"}}},
{"geometry": {"type": "Point", "coordinates": [-81.3734948405, 40.7990229749]}, "type": "Feature", "properties": {"collection_times": [{"days": "Mon-Fri", "time": "11:30am"}, {"days": "Sat-Sun", "time": "Closed"}], "id": "4470200098", "name": "USPS COLLECTION BOX - BLUE BOX", "address": {"city": "CANTON", "state": "OH", "street": "201 2ND ST NE", "postcode": "44702"}}},
{"geometry": {"type": "Point", "coordinates": [-81.3755469242, 40.7993772139]}, "type": "Feature", "properties": {"collection_times": [{"days": "Mon-Fri", "time": "11:30am"}, {"days": "Sat-Sun", "time": "Closed"}], "id": "4470200100", "name": "USPS COLLECTION BOX - BLUE BOX", "address": {"city": "CANTON", "state": "OH", "street": "217 2ND ST NW", "postcode": "44702"}}},
{"geometry": {"type": "Point", "coordinates": [-81.3759496547, 40.801622477]}, "type": "Feature", "properties": {"collection_times": [{"days": "Mon-Fri", "time": "11:30am"}, {"days": "Sat-Sun", "time": "Closed"}], "id": "4470200103", "name": "USPS COLLECTION BOX - BLUE BOX", "address": {"city": "CANTON", "state": "OH", "street": "340 5TH ST NW", "postcode": "44702"}}},
{"geometry": {"type": "Point", "coordinates": [-81.3746644369, 40.7982344755]}, "type": "Feature", "properties": {"collection_times": [{"days": "Mon-Fri", "time": "11:00am"}, {"days": "Sat-Sun", "time": "Closed"}], "id": "4470200106", "name": "USPS COLLECTION BOX - BLUE BOX", "address": {"city": "CANTON", "state": "OH", "street": "110 CENTRAL PLZ S", "postcode": "44702"}}},
{"geometry": {"type": "Point", "coordinates": [-81.3999241596, 40.8742348572]}, "type": "Feature", "properties": {"collection_times": [{"days": "Mon-Fri", "time": "11:00am"}, {"days": "Sat-Sun", "time": "Closed"}], "id": "4470200108", "name": "USPS COLLECTION BOX - BLUE BOX", "address": {"city": "CANTON", "state": "OH", "street": "401 MCKINLEY AVE SW", "postcode": "44702"}}},
{"geometry": {"type": "Point", "coordinates": [-81.3723674844, 40.8139166047]}, "type": "Feature", "properties": {"collection_times": [{"days": "Mon-Fri", "time": "2:00pm"}, {"days": "Sat-Sun", "time": "Closed"}], "id": "4470300027", "name": "USPS COLLECTION BOX - BLUE BOX", "address": {"city": "CANTON", "state": "OH", "street": "205 15TH ST NW", "postcode": "44703"}}},
{"geometry": {"type": "Point", "coordinates": [-81.3496555014, 40.8099209272]}, "type": "Feature", "properties": {"collection_times": [{"days": "Mon-Sat", "time": "12:15pm"}, {"days": "Sun", "time": "Closed"}], "id": "4470500056", "name": "USPS COLLECTION BOX - BLUE BOX", "address": {"city": "CANTON", "state": "OH", "street": "1241 HARRISBURG RD NE", "postcode": "44705"}}},
{"geometry": {"type": "Point", "coordinates": [-81.3481141058, 40.831171602]}, "type": "Feature", "properties": {"collection_times": [{"days": "Mon-Sat", "time": "12:30pm"}, {"days": "Sun", "time": "Closed"}], "id": "4470500057", "name": "USPS COLLECTION BOX - BLUE BOX", "address": {"city": "CANTON", "state": "OH", "street": "2009 30TH ST NE", "postcode": "44705"}}},
{"geometry": {"type": "Point", "coordinates": [-81.3493881527, 40.8284969318]}, "type": "Feature", "properties": {"collection_times": [{"days": "Mon-Fri", "time": "5:00pm"}, {"days": "Sat", "time": "4:15pm"}, {"days": "Sun", "time": "Closed"}], "id": "4470500059", "name": "USPS COLLECTION BOX - BLUE BOX", "address": {"city": "CANTON", "state": "OH", "street": "1930 SPANGLER RD NE", "postcode": "44705"}}},
{"geometry": {"type": "Point", "coordinates": [-81.3491017141, 40.8284729375]}, "type": "Feature", "properties": {"collection_times": [{"days": "Mon-Fri", "time": "5:00pm"}, {"days": "Sat", "time": "4:15pm"}, {"days": "Sun", "time": "Closed"}], "id": "4470500060", "name": "USPS COLLECTION BOX - EXPRESS", "address": {"city": "CANTON", "state": "OH", "street": "1930 SPANGLER RD NE", "postcode": "44705"}}},
{"geometry": {"type": "Point", "coordinates": [-81.3493881527, 40.8284969318]}, "type": "Feature", "properties": {"collection_times": [{"days": "Mon-Fri", "time": "5:00pm"}, {"days": "Sat", "time": "4:15pm"}, {"days": "Sun", "time": "Closed"}], "id": "4470500061", "name": "USPS COLLECTION BOX - PO LOBBY", "address": {"city": "CANTON", "state": "OH", "street": "1930 SPANGLER RD NE", "postcode": "44705"}}},
{"geometry": {"type": "Point", "coordinates": [-81.3248180949, 40.8196294714]}, "type": "Feature", "properties": {"collection_times": [{"days": "Mon-Sat", "time": "3:00pm"}, {"days": "Sun", "time": "Closed"}], "id": "4470500062", "name": "USPS COLLECTION BOX - BLUE BOX", "address": {"city": "CANTON", "state": "OH", "street": "3501 MAHONING RD NE", "postcode": "44705"}}},
{"geometry": {"type": "Point", "coordinates": [-81.3485245926, 40.8061259948]}, "type": "Feature", "properties": {"collection_times": [{"days": "Mon-Sat", "time": "12:30pm"}, {"days": "Sun", "time": "Closed"}], "id": "4470500063", "name": "USPS COLLECTION BOX - BLUE BOX", "address": {"city": "CANTON", "state": "OH", "street": "1038 BELDEN AVE NE", "postcode": "44705"}}},
{"geometry": {"type": "Point", "coordinates": [-81.3995503446, 40.7836509574]}, "type": "Feature", "properties": {"collection_times": [{"days": "Mon-Fri", "time": "12:30pm"}, {"days": "Sat", "time": "10:00am"}, {"days": "Sun", "time": "Closed"}], "id": "4470600052", "name": "USPS COLLECTION BOX - BLUE BOX", "address": {"city": "CANTON", "state": "OH", "street": "2226 15TH ST SW", "postcode": "44706"}}},
{"geometry": {"type": "Point", "coordinates": [-81.4087194595, 40.7807243169]}, "type": "Feature", "properties": {"collection_times": [{"days": "Mon-Fri", "time": "12:30pm"}, {"days": "Sat", "time": "10:00am"}, {"days": "Sun", "time": "Closed"}], "id": "4470600053", "name": "USPS COLLECTION BOX - BLUE BOX", "address": {"city": "CANTON", "state": "OH", "street": "3004 17TH ST SW", "postcode": "44706"}}},
{"geometry": {"type": "Point", "coordinates": [-81.4702901078, 40.7557473214]}, "type": "Feature", "properties": {"collection_times": [{"days": "Mon-Fri", "time": "1:00pm"}, {"days": "Sat", "time": "10:30am"}, {"days": "Sun", "time": "Closed"}], "id": "4470600055", "name": "USPS COLLECTION BOX - BLUE BOX", "address": {"city": "CANTON", "state": "OH", "street": "6195 NAVARRE RD SW", "postcode": "44706"}}},
{"geometry": {"type": "Point", "coordinates": [-81.3950551005, 40.7782460179]}, "type": "Feature", "properties": {"collection_times": [{"days": "Mon-Fri", "time": "12:30pm"}, {"days": "Sat", "time": "10:00am"}, {"days": "Sun", "time": "Closed"}], "id": "4470600057", "name": "USPS COLLECTION BOX - BLUE BOX", "address": {"city": "CANTON", "state": "OH", "street": "1835 DUEBER AVE SW", "postcode": "44706"}}},
{"geometry": {"type": "Point", "coordinates": [-81.3982137765, 40.788491994]}, "type": "Feature", "properties": {"collection_times": [{"days": "Mon-Fri", "time": "12:30pm"}, {"days": "Sat", "time": "10:00am"}, {"days": "Sun", "time": "Closed"}], "id": "4470600058", "name": "USPS COLLECTION BOX - BLUE BOX", "address": {"city": "CANTON", "state": "OH", "street": "1260 HARRISON AVE SW", "postcode": "44706"}}},
{"geometry": {"type": "Point", "coordinates": [-81.4066102437, 40.7281725479]}, "type": "Feature", "properties": {"collection_times": [{"days": "Mon-Fri", "time": "1:00pm"}, {"days": "Sat", "time": "10:45am"}, {"days": "Sun", "time": "Closed"}], "id": "4470600059", "name": "USPS COLLECTION BOX - BLUE BOX", "address": {"city": "CANTON", "state": "OH", "street": "5600 JOLEDA DR SW", "postcode": "44706"}}},
{"geometry": {"type": "Point", "coordinates": [-81.438130797, 40.7802552464]}, "type": "Feature", "properties": {"collection_times": [{"days": "Mon-Fri", "time": "12:30pm"}, {"days": "Sat", "time": "10:15am"}, {"days": "Sun", "time": "Closed"}], "id": "4470600060", "name": "USPS COLLECTION BOX - BLUE BOX", "address": {"city": "CANTON", "state": "OH", "street": "1818 HOPPLE AVE SW", "postcode": "44706"}}},
{"geometry": {"type": "Point", "coordinates": [-81.4121259404, 40.7624815962]}, "type": "Feature", "properties": {"collection_times": [{"days": "Mon-Fri", "time": "3:30pm"}, {"days": "Sat", "time": "12:15pm"}, {"days": "Sun", "time": "Closed"}], "id": "4470600062", "name": "USPS COLLECTION BOX - EXPRESS", "address": {"city": "CANTON", "state": "OH", "street": "220 DUEBER AVE SW", "postcode": "44706"}}},
{"geometry": {"type": "Point", "coordinates": [-81.3939347194, 40.7979187264]}, "type": "Feature", "properties": {"collection_times": [{"days": "Mon-Fri", "time": "3:30pm"}, {"days": "Sat", "time": "12:15pm"}, {"days": "Sun", "time": "Closed"}], "id": "4470600063", "name": "USPS COLLECTION BOX - BLUE BOX", "address": {"city": "CANTON", "state": "OH", "street": "220 DUEBER AVE SW", "postcode": "44706"}}},
{"geometry": {"type": "Point", "coordinates": [-81.3673158958, 40.7439745137]}, "type": "Feature", "properties": {"collection_times": [{"days": "Mon-Fri", "time": "1:30pm"}, {"days": "Sat-Sun", "time": "Closed"}], "id": "4470700032", "name": "USPS COLLECTION BOX - BLUE BOX", "address": {"city": "CANTON", "state": "OH", "street": "4711 CENTRAL AVE SE", "postcode": "44707"}}},
{"geometry": {"type": "Point", "coordinates": [-81.3813233129, 40.7644290572]}, "type": "Feature", "properties": {"collection_times": [{"days": "Mon-Fri", "time": "1:30pm"}, {"days": "Sat", "time": "11:00am"}, {"days": "Sun", "time": "Closed"}], "id": "4470700033", "name": "USPS COLLECTION BOX - BLUE BOX", "address": {"city": "CANTON", "state": "OH", "street": "3003 CLEVELAND AVE SW", "postcode": "44707"}}},
{"geometry": {"type": "Point", "coordinates": [-81.3375189319, 40.7911254969]}, "type": "Feature", "properties": {"collection_times": [{"days": "Mon-Fri", "time": "11:30am"}, {"days": "Sat", "time": "11:45am"}, {"days": "Sun", "time": "Closed"}], "id": "4470700034", "name": "USPS COLLECTION BOX - BLUE BOX", "address": {"city": "CANTON", "state": "OH", "street": "2741 LINCOLN ST E", "postcode": "44707"}}},
{"geometry": {"type": "Point", "coordinates": [-81.3721447343, 40.7428897404]}, "type": "Feature", "properties": {"collection_times": [{"days": "Mon-Fri", "time": "1:30pm"}, {"days": "Sat", "time": "11:00am"}, {"days": "Sun", "time": "Closed"}], "id": "4470700035", "name": "USPS COLLECTION BOX - BLUE BOX", "address": {"city": "CANTON", "state": "OH", "street": "4724 CLEVELAND AVE SW", "postcode": "44707"}}},
{"geometry": {"type": "Point", "coordinates": [-81.3469228662, 40.7792503501]}, "type": "Feature", "properties": {"collection_times": [{"days": "Mon-Fri", "time": "1:30pm"}, {"days": "Sat-Sun", "time": "Closed"}], "id": "4470700036", "name": "USPS COLLECTION BOX - BLUE BOX", "address": {"city": "CANTON", "state": "OH", "street": "1660 WAYNESBURG DR SE", "postcode": "44707"}}},
{"geometry": {"type": "Point", "coordinates": [-81.3486878409, 40.7931619475]}, "type": "Feature", "properties": {"collection_times": [{"days": "Mon-Fri", "time": "1:30pm"}, {"days": "Sat-Sun", "time": "Closed"}], "id": "4470700038", "name": "USPS COLLECTION BOX - BLUE BOX", "address": {"city": "CANTON", "state": "OH", "street": "2103 TUSCARAWAS ST E", "postcode": "44707"}}},
{"geometry": {"type": "Point", "coordinates": [-81.4034637408, 40.8026720348]}, "type": "Feature", "properties": {"collection_times": [{"days": "Mon-Fri", "time": "11:30am"}, {"days": "Sat-Sun", "time": "Closed"}], "id": "4470800013", "name": "USPS COLLECTION BOX - BLUE BOX", "address": {"city": "CANTON", "state": "OH", "street": "400 CLARENDON AVE NW", "postcode": "44708"}}},
{"geometry": {"type": "Point", "coordinates": [-81.4273368677, 40.8238798429]}, "type": "Feature", "properties": {"collection_times": [{"days": "Mon-Sat", "time": "12:00pm"}, {"days": "Sun", "time": "Closed"}], "id": "4470800057", "name": "USPS COLLECTION BOX - BLUE BOX", "address": {"city": "CANTON", "state": "OH", "street": "4515 22ND ST NW", "postcode": "44708"}}},
{"geometry": {"type": "Point", "coordinates": [-81.4290175183, 40.827029373]}, "type": "Feature", "properties": {"collection_times": [{"days": "Mon-Sat", "time": "12:00pm"}, {"days": "Sun", "time": "Closed"}], "id": "4470800058", "name": "USPS COLLECTION BOX - BLUE BOX", "address": {"city": "CANTON", "state": "OH", "street": "2500 CHARING CROSS RD NW", "postcode": "44708"}}},
{"geometry": {"type": "Point", "coordinates": [-81.4349761122, 40.8161420132]}, "type": "Feature", "properties": {"collection_times": [{"days": "Mon-Sat", "time": "11:45am"}, {"days": "Sun", "time": "Closed"}], "id": "4470800059", "name": "USPS COLLECTION BOX - BLUE BOX", "address": {"city": "CANTON", "state": "OH", "street": "4730 HILLS & DALE RD NW", "postcode": "44708"}}},
{"geometry": {"type": "Point", "coordinates": [-81.4426514545, 40.7969012808]}, "type": "Feature", "properties": {"collection_times": [{"days": "Mon-Sat", "time": "11:45am"}, {"days": "Sun", "time": "Closed"}], "id": "4470800060", "name": "USPS COLLECTION BOX - BLUE BOX", "address": {"city": "CANTON", "state": "OH", "street": "150 SARATOGA AVE NW", "postcode": "44708"}}},
{"geometry": {"type": "Point", "coordinates": [-81.4070739636, 40.7986378645]}, "type": "Feature", "properties": {"collection_times": [{"days": "Mon-Sat", "time": "11:30am"}, {"days": "Sun", "time": "Closed"}], "id": "4470800061", "name": "USPS COLLECTION BOX - BLUE BOX", "address": {"city": "CANTON", "state": "OH", "street": "2915 TUSCARAWAS ST W", "postcode": "44708"}}},
{"geometry": {"type": "Point", "coordinates": [-81.4466810534, 40.7924994391]}, "type": "Feature", "properties": {"collection_times": [{"days": "Mon-Sat", "time": "11:45am"}, {"days": "Sun", "time": "Closed"}], "id": "4470800062", "name": "USPS COLLECTION BOX - BLUE BOX", "address": {"city": "CANTON", "state": "OH", "street": "5127 TUSCARAWAS ST W", "postcode": "44708"}}},
{"geometry": {"type": "Point", "coordinates": [-81.4243747385, 40.8313798028]}, "type": "Feature", "properties": {"collection_times": [{"days": "Mon-Sat", "time": "12:00pm"}, {"days": "Sun", "time": "Closed"}], "id": "4470800063", "name": "USPS COLLECTION BOX - BLUE BOX", "address": {"city": "CANTON", "state": "OH", "street": "2905 WHIPPLE AVE NW", "postcode": "44708"}}},
{"geometry": {"type": "Point", "coordinates": [-81.4266270924, 40.7963062524]}, "type": "Feature", "properties": {"collection_times": [{"days": "Mon-Sat", "time": "11:45am"}, {"days": "Sun", "time": "Closed"}], "id": "4470800064", "name": "USPS COLLECTION BOX - BLUE BOX", "address": {"city": "CANTON", "state": "OH", "street": "4401 TUSCARAWAS ST W", "postcode": "44708"}}},
{"geometry": {"type": "Point", "coordinates": [-81.4218760672, 40.7968911898]}, "type": "Feature", "properties": {"collection_times": [{"days": "Mon-Fri", "time": "5:00pm"}, {"days": "Sat", "time": "4:00pm"}, {"days": "Sun", "time": "Closed"}], "id": "4470800065", "name": "USPS COLLECTION BOX - BLUE BOX", "address": {"city": "CANTON", "state": "OH", "street": "4025 TUSCARAWAS ST W", "postcode": "44708"}}},
{"geometry": {"type": "Point", "coordinates": [-81.4276463001, 40.8139308064]}, "type": "Feature", "properties": {"collection_times": [{"days": "Mon-Fri", "time": "5:00pm"}, {"days": "Sat", "time": "4:00pm"}, {"days": "Sun", "time": "Closed"}], "id": "4470800066", "name": "USPS COLLECTION BOX - EXPRESS", "address": {"city": "CANTON", "state": "OH", "street": "4025 TUSCARAWAS ST W", "postcode": "44708"}}},
{"geometry": {"type": "Point", "coordinates": [-81.4180009556, 40.7973295119]}, "type": "Feature", "properties": {"collection_times": [{"days": "Mon-Sat", "time": "11:15am"}, {"days": "Sun", "time": "Closed"}], "id": "4470800067", "name": "USPS COLLECTION BOX - BLUE BOX", "address": {"city": "CANTON", "state": "OH", "street": "3720 TUSCARAWAS ST W", "postcode": "44708"}}},
{"geometry": {"type": "Point", "coordinates": [-81.3970708626, 40.812289211]}, "type": "Feature", "properties": {"collection_times": [{"days": "Mon-Fri", "time": "12:00pm"}, {"days": "Sat", "time": "11:30am"}, {"days": "Sun", "time": "Closed"}], "id": "4470800069", "name": "USPS COLLECTION BOX - BLUE BOX", "address": {"city": "CANTON", "state": "OH", "street": "1320 MERCY DR NW", "postcode": "44708"}}},
{"geometry": {"type": "Point", "coordinates": [-81.4215711257, 40.7969000978]}, "type": "Feature", "properties": {"collection_times": [{"days": "Mon-Fri", "time": "5:00pm"}, {"days": "Sat", "time": "4:00pm"}, {"days": "Sun", "time": "Closed"}], "id": "4470800071", "name": "USPS COLLECTION BOX - PO LOBBY", "address": {"city": "CANTON", "state": "OH", "street": "4025 TUSCARAWAS ST W", "postcode": "44708"}}},
{"geometry": {"type": "Point", "coordinates": [-81.4041165662, 40.7989856545]}, "type": "Feature", "properties": {"collection_times": [{"days": "Mon-Fri", "time": "11:45am"}, {"days": "Sat", "time": "11:15am"}, {"days": "Sun", "time": "Closed"}], "id": "4470800072", "name": "USPS COLLECTION BOX - BLUE BOX", "address": {"city": "CANTON", "state": "OH", "street": "2600 TUSCARAWAS ST W", "postcode": "44708"}}},
{"geometry": {"type": "Point", "coordinates": [-81.398045705, 40.8136188403]}, "type": "Feature", "properties": {"collection_times": [{"days": "Mon-Sat", "time": "11:30am"}, {"days": "Sun", "time": "Closed"}], "id": "4470800074", "name": "USPS COLLECTION BOX - BLUE BOX", "address": {"city": "CANTON", "state": "OH", "street": "1455 HARRISON AVE NW", "postcode": "44708"}}},
{"geometry": {"type": "Point", "coordinates": [-81.4215711257, 40.7969000978]}, "type": "Feature", "properties": {"collection_times": [{"days": "Mon-Fri", "time": "5:00pm"}, {"days": "Sat", "time": "4:00pm"}, {"days": "Sun", "time": "Closed"}], "id": "4470800075", "name": "USPS COLLECTION BOX - APC", "address": {"city": "CANTON", "state": "OH", "street": "4025 TUSCARAWAS ST W", "postcode": "44708"}}},
{"geometry": {"type": "Point", "coordinates": [-81.4241548051, 40.7977214241]}, "type": "Feature", "properties": {"collection_times": [{"days": "Mon-Sat", "time": "11:45am"}, {"days": "Sun", "time": "Closed"}], "id": "4470800076", "name": "USPS COLLECTION BOX - BLUE BOX", "address": {"city": "CANTON", "state": "OH", "street": "4251 AURORA ST NW", "postcode": "44708"}}},
{"geometry": {"type": "Point", "coordinates": [-81.3764637174, 40.8196625942]}, "type": "Feature", "properties": {"collection_times": [{"days": "Mon-Fri", "time": "2:00pm"}, {"days": "Sat", "time": "12:30pm"}, {"days": "Sun", "time": "Closed"}], "id": "4470900054", "name": "USPS COLLECTION BOX - BLUE BOX", "address": {"city": "CANTON", "state": "OH", "street": "500 19TH ST NW", "postcode": "44709"}}},
{"geometry": {"type": "Point", "coordinates": [-81.3689162778, 40.8238003019]}, "type": "Feature", "properties": {"collection_times": [{"days": "Mon-Fri", "time": "2:00pm"}, {"days": "Sat", "time": "12:30pm"}, {"days": "Sun", "time": "Closed"}], "id": "4470900055", "name": "USPS COLLECTION BOX - BLUE BOX", "address": {"city": "CANTON", "state": "OH", "street": "163 25TH ST NW", "postcode": "44709"}}},
{"geometry": {"type": "Point", "coordinates": [-81.3833863933, 40.8314957328]}, "type": "Feature", "properties": {"collection_times": [{"days": "Mon-Sat", "time": "12:45pm"}, {"days": "Sun", "time": "Closed"}], "id": "4470900056", "name": "USPS COLLECTION BOX - BLUE BOX", "address": {"city": "CANTON", "state": "OH", "street": "1122 30TH ST NW", "postcode": "44709"}}},
{"geometry": {"type": "Point", "coordinates": [-81.3838737724, 40.8315134771]}, "type": "Feature", "properties": {"collection_times": [{"days": "Mon-Fri", "time": "12:45pm"}, {"days": "Sat-Sun", "time": "Closed"}], "id": "4470900057", "name": "USPS COLLECTION BOX - BLUE BOX", "address": {"city": "CANTON", "state": "OH", "street": "1201 30TH ST NW", "postcode": "44709"}}},
{"geometry": {"type": "Point", "coordinates": [-81.3809802548, 40.835582856]}, "type": "Feature", "properties": {"collection_times": [{"days": "Mon-Fri", "time": "12:30pm"}, {"days": "Sat-Sun", "time": "Closed"}], "id": "4470900058", "name": "USPS COLLECTION BOX - BLUE BOX", "address": {"city": "CANTON", "state": "OH", "street": "904 34TH ST NW", "postcode": "44709"}}},
{"geometry": {"type": "Point", "coordinates": [-81.4207809091, 40.8595531535]}, "type": "Feature", "properties": {"collection_times": [{"days": "Mon-Fri", "time": "12:00pm"}, {"days": "Sat", "time": "1:00pm"}, {"days": "Sun", "time": "Closed"}], "id": "4470900059", "name": "USPS COLLECTION BOX - BLUE BOX", "address": {"city": "CANTON", "state": "OH", "street": "3975 EVERHARD RD NW", "postcode": "44709"}}},
{"geometry": {"type": "Point", "coordinates": [-81.4041260299, 40.8429716177]}, "type": "Feature", "properties": {"collection_times": [{"days": "Mon-Fri", "time": "12:00pm"}, {"days": "Sat", "time": "1:15pm"}, {"days": "Sun", "time": "Closed"}], "id": "4470900060", "name": "USPS COLLECTION BOX - BLUE BOX", "address": {"city": "CANTON", "state": "OH", "street": "4015 GUILFORD AVE NW", "postcode": "44709"}}},
{"geometry": {"type": "Point", "coordinates": [-81.3926293957, 40.8489595632]}, "type": "Feature", "properties": {"collection_times": [{"days": "Mon-Fri", "time": "12:15pm"}, {"days": "Sat", "time": "1:00pm"}, {"days": "Sun", "time": "Closed"}], "id": "4470900061", "name": "USPS COLLECTION BOX - BLUE BOX", "address": {"city": "CANTON", "state": "OH", "street": "4626 CLEVELAND AVE NW", "postcode": "44709"}}},
{"geometry": {"type": "Point", "coordinates": [-81.3828694402, 40.8320730167]}, "type": "Feature", "properties": {"collection_times": [{"days": "Mon-Sat", "time": "12:30pm"}, {"days": "Sun", "time": "Closed"}], "id": "4470900062", "name": "USPS COLLECTION BOX - BLUE BOX", "address": {"city": "CANTON", "state": "OH", "street": "3014 CROMER AVE NW", "postcode": "44709"}}},
{"geometry": {"type": "Point", "coordinates": [-81.3917108755, 40.8210608517]}, "type": "Feature", "properties": {"collection_times": [{"days": "Mon-Fri", "time": "11:45am"}, {"days": "Sat-Sun", "time": "Closed"}], "id": "4470900063", "name": "USPS COLLECTION BOX - BLUE BOX", "address": {"city": "CANTON", "state": "OH", "street": "2223 FULTON RD NW", "postcode": "44709"}}},
{"geometry": {"type": "Point", "coordinates": [-81.378493675, 40.8240265299]}, "type": "Feature", "properties": {"collection_times": [{"days": "Mon-Fri", "time": "3:30pm"}, {"days": "Sat-Sun", "time": "Closed"}], "id": "4470900064", "name": "USPS COLLECTION BOX - BLUE BOX", "address": {"city": "CANTON", "state": "OH", "street": "515 25TH ST NW", "postcode": "44709"}}},
{"geometry": {"type": "Point", "coordinates": [-81.3851959797, 40.8267273871]}, "type": "Feature", "properties": {"collection_times": [{"days": "Mon-Fri", "time": "1:00pm"}, {"days": "Sat-Sun", "time": "Closed"}], "id": "4470900065", "name": "USPS COLLECTION BOX - BLUE BOX", "address": {"city": "CANTON", "state": "OH", "street": "2633 CLEVELAND AVE NW", "postcode": "44709"}}},
{"geometry": {"type": "Point", "coordinates": [-81.4172427161, 40.8571837927]}, "type": "Feature", "properties": {"collection_times": [{"days": "Mon-Fri", "time": "12:15pm"}, {"days": "Sat", "time": "1:15pm"}, {"days": "Sun", "time": "Closed"}], "id": "4470900066", "name": "USPS COLLECTION BOX - BLUE BOX", "address": {"city": "CANTON", "state": "OH", "street": "5300 BROADMOOR CIR NW", "postcode": "44709"}}},
{"geometry": {"type": "Point", "coordinates": [-81.4101224489, 40.7917542263]}, "type": "Feature", "properties": {"collection_times": [{"days": "Mon-Fri", "time": "12:30pm"}, {"days": "Sat", "time": "10:00am"}, {"days": "Sun", "time": "Closed"}], "id": "4471000026", "name": "USPS COLLECTION BOX - BLUE BOX", "address": {"city": "CANTON", "state": "OH", "street": "3050 11TH ST SW", "postcode": "44710"}}},
{"geometry": {"type": "Point", "coordinates": [-81.4384803412, 40.788246753]}, "type": "Feature", "properties": {"collection_times": [{"days": "Mon-Fri", "time": "1:00pm"}, {"days": "Sat", "time": "10:30am"}, {"days": "Sun", "time": "Closed"}], "id": "4471000027", "name": "USPS COLLECTION BOX - BLUE BOX", "address": {"city": "CANTON", "state": "OH", "street": "4853 14TH ST SW", "postcode": "44710"}}},
{"geometry": {"type": "Point", "coordinates": [-81.4174094674, 40.7913542042]}, "type": "Feature", "properties": {"collection_times": [{"days": "Mon-Fri", "time": "12:30pm"}, {"days": "Sat", "time": "10:00am"}, {"days": "Sun", "time": "Closed"}], "id": "4471000030", "name": "USPS COLLECTION BOX - BLUE BOX", "address": {"city": "CANTON", "state": "OH", "street": "2600 6TH ST SW", "postcode": "44710"}}},
{"geometry": {"type": "Point", "coordinates": [-81.3852996351, 40.8271277406]}, "type": "Feature", "properties": {"collection_times": [{"days": "Mon-Fri", "time": "6:30pm"}, {"days": "Sat", "time": "5:00pm"}, {"days": "Sun", "time": "Closed"}], "id": "4471100011", "name": "USPS COLLECTION BOX - EXPRESS", "address": {"city": "CANTON", "state": "OH", "street": "2650 CLEVELAND AVE NW", "postcode": "44711"}}},
{"geometry": {"type": "Point", "coordinates": [-81.3852996351, 40.8271277406]}, "type": "Feature", "properties": {"collection_times": [{"days": "Mon-Fri", "time": "6:30pm"}, {"days": "Sat", "time": "5:00pm"}, {"days": "Sun", "time": "Closed"}], "id": "4471100012", "name": "USPS COLLECTION BOX - BLUE BOX", "address": {"city": "CANTON", "state": "OH", "street": "2650 CLEVELAND AVE NW", "postcode": "44711"}}},
{"geometry": {"type": "Point", "coordinates": [-81.3852996351, 40.8271277406]}, "type": "Feature", "properties": {"collection_times": [{"days": "Mon-Fri", "time": "6:30pm"}, {"days": "Sat", "time": "5:00pm"}, {"days": "Sun", "time": "Closed"}], "id": "4471100013", "name": "USPS COLLECTION BOX - BLUE BOX", "address": {"city": "CANTON", "state": "OH", "street": "2650 CLEVELAND AVE NW", "postcode": "44711"}}},
{"geometry": {"type": "Point", "coordinates": [-81.3854660352, 40.8273683889]}, "type": "Feature", "properties": {"collection_times": [{"days": "Mon-Fri", "time": "6:30pm"}, {"days": "Sat", "time": "5:00pm"}, {"days": "Sun", "time": "Closed"}], "id": "4471100014", "name": "USPS COLLECTION BOX - PO LOBBY", "address": {"city": "CANTON", "state": "OH", "street": "2650 CLEVELAND AVE NW", "postcode": "44711"}}},
{"geometry": {"type": "Point", "coordinates": [-81.3854660352, 40.8273683889]}, "type": "Feature", "properties": {"collection_times": [{"days": "Mon-Fri", "time": "6:30pm"}, {"days": "Sat", "time": "5:00pm"}, {"days": "Sun", "time": "Closed"}], "id": "4471100015", "name": "USPS COLLECTION BOX - APC", "address": {"city": "CANTON", "state": "OH", "street": "2650 CLEVELAND AVE NW", "postcode": "44711"}}},
{"geometry": {"type": "Point", "coordinates": [-81.3717318816, 40.8104473439]}, "type": "Feature", "properties": {"collection_times": [{"days": "Mon-Sat", "time": "9:45am"}, {"days": "Sun", "time": "Closed"}], "id": "4471400015", "name": "USPS COLLECTION BOX - BLUE BOX", "address": {"city": "CANTON", "state": "OH", "street": "1314 MARKET AVE N", "postcode": "44714"}}},
{"geometry": {"type": "Point", "coordinates": [-81.367712187, 40.8118385036]}, "type": "Feature", "properties": {"collection_times": [{"days": "Mon-Sat", "time": "10:15am"}, {"days": "Sun", "time": "Closed"}], "id": "4471400016", "name": "USPS COLLECTION BOX - BLUE BOX", "address": {"city": "CANTON", "state": "OH", "street": "1365 CHERRY AVE NE", "postcode": "44714"}}},
{"geometry": {"type": "Point", "coordinates": [-81.3624977039, 40.8250982907]}, "type": "Feature", "properties": {"collection_times": [{"days": "Mon-Sat", "time": "2:30pm"}, {"days": "Sun", "time": "Closed"}], "id": "4471400017", "name": "USPS COLLECTION BOX - BLUE BOX", "address": {"city": "CANTON", "state": "OH", "street": "1012 COLONIAL BLVD NE", "postcode": "44714"}}},
{"geometry": {"type": "Point", "coordinates": [-81.3637627903, 40.8309955768]}, "type": "Feature", "properties": {"collection_times": [{"days": "Mon-Sat", "time": "12:15pm"}, {"days": "Sun", "time": "Closed"}], "id": "4471400019", "name": "USPS COLLECTION BOX - BLUE BOX", "address": {"city": "CANTON", "state": "OH", "street": "807 30TH ST NE", "postcode": "44714"}}},
{"geometry": {"type": "Point", "coordinates": [-81.4255496683, 40.855171252]}, "type": "Feature", "properties": {"collection_times": [{"days": "Mon-Sat", "time": "11:30am"}, {"days": "Sun", "time": "Closed"}], "id": "4471800050", "name": "USPS COLLECTION BOX - BLUE BOX", "address": {"city": "CANTON", "state": "OH", "street": "4150 BELDEN VILLAGE ST NW", "postcode": "44718"}}},
{"geometry": {"type": "Point", "coordinates": [-81.4347448749, 40.8461359761]}, "type": "Feature", "properties": {"collection_times": [{"days": "Mon-Fri", "time": "5:00pm"}, {"days": "Sat", "time": "2:00pm"}, {"days": "Sun", "time": "Closed"}], "id": "4471800053", "name": "USPS COLLECTION BOX - BLUE BOX", "address": {"city": "CANTON", "state": "OH", "street": "4420 DRESSLER RD NW", "postcode": "44718"}}},
{"geometry": {"type": "Point", "coordinates": [-81.4219934421, 40.8357508362]}, "type": "Feature", "properties": {"collection_times": [{"days": "Mon-Sat", "time": "11:45am"}, {"days": "Sun", "time": "Closed"}], "id": "4471800055", "name": "USPS COLLECTION BOX - BLUE BOX", "address": {"city": "CANTON", "state": "OH", "street": "3978 FULTON DR NW", "postcode": "44718"}}},
{"geometry": {"type": "Point", "coordinates": [-81.4278266127, 40.8512558793]}, "type": "Feature", "properties": {"collection_times": [{"days": "Mon-Sat", "time": "12:00pm"}, {"days": "Sun", "time": "Closed"}], "id": "4471800057", "name": "USPS COLLECTION BOX - BLUE BOX", "address": {"city": "CANTON", "state": "OH", "street": "4825 HIGBEE AVE NW", "postcode": "44718"}}},
{"geometry": {"type": "Point", "coordinates": [-81.4347448749, 40.8461359761]}, "type": "Feature", "properties": {"collection_times": [{"days": "Mon-Fri", "time": "5:00pm"}, {"days": "Sat", "time": "2:00pm"}, {"days": "Sun", "time": "Closed"}], "id": "4471800067", "name": "USPS COLLECTION BOX - BLUE BOX", "address": {"city": "CANTON", "state": "OH", "street": "4420 DRESSLER RD NW", "postcode": "44718"}}},
{"geometry": {"type": "Point", "coordinates": [-81.4347448749, 40.8461359761]}, "type": "Feature", "properties": {"collection_times": [{"days": "Mon-Fri", "time": "5:00pm"}, {"days": "Sat", "time": "3:00pm"}, {"days": "Sun", "time": "Closed"}], "id": "4471800069", "name": "USPS COLLECTION BOX - APC", "address": {"city": "CANTON", "state": "OH", "street": "4420 DRESSLER RD NW", "postcode": "44718"}}},
{"geometry": {"type": "Point", "coordinates": [-81.3860385873, 40.8899197101]}, "type": "Feature", "properties": {"collection_times": [{"days": "Mon-Sat", "time": "9:30am"}, {"days": "Sun", "time": "Closed"}], "id": "4472000104", "name": "USPS COLLECTION BOX - BLUE BOX", "address": {"city": "CANTON", "state": "OH", "street": "2215 APPLEGROVE ST NW", "postcode": "44720"}}},
{"geometry": {"type": "Point", "coordinates": [-81.4087786075, 40.870060195]}, "type": "Feature", "properties": {"collection_times": [{"days": "Mon-Sat", "time": "9:00am"}, {"days": "Sun", "time": "Closed"}], "id": "4472000105", "name": "USPS COLLECTION BOX - BLUE BOX", "address": {"city": "CANTON", "state": "OH", "street": "605 GLENWOOD ST SW", "postcode": "44720"}}},
{"geometry": {"type": "Point", "coordinates": [-81.4064327999, 40.8927706412]}, "type": "Feature", "properties": {"collection_times": [{"days": "Mon-Sat", "time": "9:15am"}, {"days": "Sun", "time": "Closed"}], "id": "4472000106", "name": "USPS COLLECTION BOX - BLUE BOX", "address": {"city": "CANTON", "state": "OH", "street": "1474 N MAIN ST", "postcode": "44720"}}},
{"geometry": {"type": "Point", "coordinates": [-81.3964592728, 40.8633054993]}, "type": "Feature", "properties": {"collection_times": [{"days": "Mon-Sat", "time": "9:30am"}, {"days": "Sun", "time": "Closed"}], "id": "4472000107", "name": "USPS COLLECTION BOX - BLUE BOX", "address": {"city": "CANTON", "state": "OH", "street": "1312 S MAIN ST", "postcode": "44720"}}},
{"geometry": {"type": "Point", "coordinates": [-81.4236041931, 40.9081351508]}, "type": "Feature", "properties": {"collection_times": [{"days": "Mon-Fri", "time": "1:30pm"}, {"days": "Sat", "time": "11:45am"}, {"days": "Sun", "time": "Closed"}], "id": "4472000109", "name": "USPS COLLECTION BOX - BLUE BOX", "address": {"city": "CANTON", "state": "OH", "street": "5950 MAYFAIR RD", "postcode": "44720"}}},
{"geometry": {"type": "Point", "coordinates": [-81.4054828838, 40.8891614334]}, "type": "Feature", "properties": {"collection_times": [{"days": "Mon-Fri", "time": "5:00pm"}, {"days": "Sat", "time": "12:45pm"}, {"days": "Sun", "time": "Closed"}], "id": "4472000110", "name": "USPS COLLECTION BOX - BLUE BOX", "address": {"city": "CANTON", "state": "OH", "street": "1212 N MAIN ST", "postcode": "44720"}}},
{"geometry": {"type": "Point", "coordinates": [-81.4298530215, 40.8906354003]}, "type": "Feature", "properties": {"collection_times": [{"days": "Mon-Fri", "time": "1:45pm"}, {"days": "Sat", "time": "9:00am"}, {"days": "Sun", "time": "Closed"}], "id": "4472000111", "name": "USPS COLLECTION BOX - BLUE BOX", "address": {"city": "CANTON", "state": "OH", "street": "7555 FREEDOM AVE NW", "postcode": "44720"}}},
{"geometry": {"type": "Point", "coordinates": [-81.3791395706, 40.8749410837]}, "type": "Feature", "properties": {"collection_times": [{"days": "Mon-Sat", "time": "3:00pm"}, {"days": "Sun", "time": "Closed"}], "id": "4472000112", "name": "USPS COLLECTION BOX - BLUE BOX", "address": {"city": "CANTON", "state": "OH", "street": "105 WALSH AVE SE", "postcode": "44720"}}},
{"geometry": {"type": "Point", "coordinates": [-81.4171096618, 40.8908721638]}, "type": "Feature", "properties": {"collection_times": [{"days": "Mon-Fri", "time": "1:45pm"}, {"days": "Sat", "time": "9:00am"}, {"days": "Sun", "time": "Closed"}], "id": "4472000113", "name": "USPS COLLECTION BOX - EXPRESS", "address": {"city": "CANTON", "state": "OH", "street": "7555 FREEDOM AVE NW", "postcode": "44720"}}},
{"geometry": {"type": "Point", "coordinates": [-81.4054828838, 40.8891614334]}, "type": "Feature", "properties": {"collection_times": [{"days": "Mon-Fri", "time": "5:00pm"}, {"days": "Sat", "time": "12:45pm"}, {"days": "Sun", "time": "Closed"}], "id": "4472000114", "name": "USPS COLLECTION BOX - BLUE BOX", "address": {"city": "CANTON", "state": "OH", "street": "1212 N MAIN ST", "postcode": "44720"}}},
{"geometry": {"type": "Point", "coordinates": [-81.4171096618, 40.8908721638]}, "type": "Feature", "properties": {"collection_times": [{"days": "Mon-Fri", "time": "5:00pm"}, {"days": "Sat", "time": "12:45pm"}, {"days": "Sun", "time": "Closed"}], "id": "4472000115", "name": "USPS COLLECTION BOX - EXPRESS", "address": {"city": "CANTON", "state": "OH", "street": "1212 N MAIN ST", "postcode": "44720"}}},
{"geometry": {"type": "Point", "coordinates": [-81.4054828838, 40.8891614334]}, "type": "Feature", "properties": {"collection_times": [{"days": "Mon-Fri", "time": "5:00pm"}, {"days": "Sat", "time": "3:30pm"}, {"days": "Sun", "time": "Closed"}], "id": "4472000116", "name": "USPS COLLECTION BOX - PO LOBBY", "address": {"city": "CANTON", "state": "OH", "street": "1212 N MAIN ST", "postcode": "44720"}}},
{"geometry": {"type": "Point", "coordinates": [-81.439554423, 40.8794952364]}, "type": "Feature", "properties": {"collection_times": [{"days": "Mon-Sat", "time": "9:00am"}, {"days": "Sun", "time": "Closed"}], "id": "4472000119", "name": "USPS COLLECTION BOX - BLUE BOX", "address": {"city": "CANTON", "state": "OH", "street": "4925 PORTAGE ST NW", "postcode": "44720"}}},
{"geometry": {"type": "Point", "coordinates": [-81.4226589082, 40.8632201237]}, "type": "Feature", "properties": {"collection_times": [{"days": "Mon-Sat", "time": "10:30am"}, {"days": "Sun", "time": "Closed"}], "id": "4472000120", "name": "USPS COLLECTION BOX - BLUE BOX", "address": {"city": "CANTON", "state": "OH", "street": "5555 WHIPPLE AVE NW", "postcode": "44720"}}},
{"geometry": {"type": "Point", "coordinates": [-81.4295629213, 40.899968329]}, "type": "Feature", "properties": {"collection_times": [{"days": "Mon-Sat", "time": "9:00am"}, {"days": "Sun", "time": "Closed"}], "id": "4472000121", "name": "USPS COLLECTION BOX - BLUE BOX", "address": {"city": "CANTON", "state": "OH", "street": "6943 STRIP AVE", "postcode": "44720"}}},
{"geometry": {"type": "Point", "coordinates": [-81.4301523379, 40.9186431145]}, "type": "Feature", "properties": {"collection_times": [{"days": "Mon-Sat", "time": "9:00am"}, {"days": "Sun", "time": "Closed"}], "id": "4472000122", "name": "USPS COLLECTION BOX - BLUE BOX", "address": {"city": "CANTON", "state": "OH", "street": "5430 LAUBY RD", "postcode": "44720"}}},
{"geometry": {"type": "Point", "coordinates": [-81.4057880872, 40.9044772031]}, "type": "Feature", "properties": {"collection_times": [{"days": "Mon-Sat", "time": "9:00am"}, {"days": "Sun", "time": "Closed"}], "id": "4472000123", "name": "USPS COLLECTION BOX - BLUE BOX", "address": {"city": "CANTON", "state": "OH", "street": "8100 CLEVELAND AVE NW", "postcode": "44720"}}},
{"geometry": {"type": "Point", "coordinates": [-81.3892609675, 40.8754627686]}, "type": "Feature", "properties": {"collection_times": [{"days": "Mon-Sat", "time": "12:00pm"}, {"days": "Sun", "time": "Closed"}], "id": "4472000124", "name": "USPS COLLECTION BOX - BLUE BOX", "address": {"city": "CANTON", "state": "OH", "street": "907 E MAPLE ST", "postcode": "44720"}}},
{"geometry": {"type": "Point", "coordinates": [-81.423234366, 40.8856326668]}, "type": "Feature", "properties": {"collection_times": [{"days": "Mon-Fri", "time": "2:00pm"}, {"days": "Sat", "time": "9:00am"}, {"days": "Sun", "time": "Closed"}], "id": "4472000125", "name": "USPS COLLECTION BOX - BLUE BOX", "address": {"city": "CANTON", "state": "OH", "street": "7237 WHIPPLE AVE NW", "postcode": "44720"}}},
{"geometry": {"type": "Point", "coordinates": [-81.4062330531, 40.8953019672]}, "type": "Feature", "properties": {"collection_times": [{"days": "Mon-Sat", "time": "9:30am"}, {"days": "Sun", "time": "Closed"}], "id": "4472000126", "name": "USPS COLLECTION BOX - BLUE BOX", "address": {"city": "CANTON", "state": "OH", "street": "100 WILBUR DR NE", "postcode": "44720"}}},
{"geometry": {"type": "Point", "coordinates": [-81.4042466917, 40.8768456476]}, "type": "Feature", "properties": {"collection_times": [{"days": "Mon-Fri", "time": "1:00pm"}, {"days": "Sat", "time": "9:00am"}, {"days": "Sun", "time": "Closed"}], "id": "4472000127", "name": "USPS COLLECTION BOX - BLUE BOX", "address": {"city": "CANTON", "state": "OH", "street": "239 PORTAGE ST NW", "postcode": "44720"}}},
{"geometry": {"type": "Point", "coordinates": [-81.4062376116, 40.8978727432]}, "type": "Feature", "properties": {"collection_times": [{"days": "Mon-Sat", "time": "11:15am"}, {"days": "Sun", "time": "Closed"}], "id": "4472000128", "name": "USPS COLLECTION BOX - BLUE BOX", "address": {"city": "CANTON", "state": "OH", "street": "1695 N MAIN ST", "postcode": "44720"}}},
{"geometry": {"type": "Point", "coordinates": [-81.3246578391, 40.8943377579]}, "type": "Feature", "properties": {"collection_times": [{"days": "Mon-Sat", "time": "3:00pm"}, {"days": "Sun", "time": "Closed"}], "id": "4472100007", "name": "USPS COLLECTION BOX - BLUE BOX", "address": {"city": "CANTON", "state": "OH", "street": "700 NE WEST CMNS", "postcode": "44721"}}},
{"geometry": {"type": "Point", "coordinates": [-81.3343988796, 40.8727656222]}, "type": "Feature", "properties": {"collection_times": [{"days": "Mon-Sat", "time": "12:15pm"}, {"days": "Sun", "time": "Closed"}], "id": "4472100008", "name": "USPS COLLECTION BOX - BLUE BOX", "address": {"city": "CANTON", "state": "OH", "street": "6336 MIDDLEBRANCH AVE NE", "postcode": "44721"}}},
{"geometry": {"type": "Point", "coordinates": [-81.2848175205, 40.7872116639]}, "type": "Feature", "properties": {"collection_times": [{"days": "Mon-Fri", "time": "1:00pm"}, {"days": "Sat", "time": "11:30am"}, {"days": "Sun", "time": "Closed"}], "id": "4473000005", "name": "USPS COLLECTION BOX - BLUE BOX", "address": {"city": "EAST CANTON", "state": "OH", "street": "117 NASSAU ST W", "postcode": "44730"}}},
{"geometry": {"type": "Point", "coordinates": [-81.2904945406, 40.7882408382]}, "type": "Feature", "properties": {"collection_times": [{"days": "Mon-Fri", "time": "11:15am"}, {"days": "Sat", "time": "11:30am"}, {"days": "Sun", "time": "Closed"}], "id": "4473000006", "name": "USPS COLLECTION BOX - BLUE BOX", "address": {"city": "EAST CANTON", "state": "OH", "street": "406 NOBLE ST W", "postcode": "44730"}}},
{"geometry": {"type": "Point", "coordinates": [-81.2825947406, 40.7888405984]}, "type": "Feature", "properties": {"collection_times": [{"days": "Mon-Fri", "time": "11:15am"}, {"days": "Sat", "time": "11:30am"}, {"days": "Sun", "time": "Closed"}], "id": "4473000007", "name": "USPS COLLECTION BOX - BLUE BOX", "address": {"city": "EAST CANTON", "state": "OH", "street": "224 WOOD ST N", "postcode": "44730"}}},
{"geometry": {"type": "Point", "coordinates": [-81.2848175205, 40.7872116639]}, "type": "Feature", "properties": {"collection_times": [{"days": "Mon-Fri", "time": "1:00pm"}, {"days": "Sat", "time": "12:00pm"}, {"days": "Sun", "time": "Closed"}], "id": "4473000008", "name": "USPS COLLECTION BOX - PO LOBBY", "address": {"city": "EAST CANTON", "state": "OH", "street": "117 NASSAU ST W", "postcode": "44730"}}}
]}
