{"type": "FeatureCollection", "features": [
{"geometry": {"type": "Point", "coordinates": [-83.4202575118, 41.0500973881]}, "type": "Feature", "properties": {"collection_times": [{"days": "Mon-Fri", "time": "4:00pm"}, {"days": "Sat", "time": "11:00am"}, {"days": "Sun", "time": "Closed"}], "id": "4480200003", "name": "USPS COLLECTION BOX - BLUE BOX", "address": {"city": "ALVADA", "state": "OH", "street": "12125 W COUNTY ROAD 10", "postcode": "44802"}}},
{"geometry": {"type": "Point", "coordinates": [-83.4012565907, 41.0813394056]}, "type": "Feature", "properties": {"collection_times": [{"days": "Mon-Sat", "time": "9:30am"}, {"days": "Sun", "time": "Closed"}], "id": "4480200004", "name": "USPS COLLECTION BOX - BLUE BOX", "address": {"city": "ALVADA", "state": "OH", "street": "2860 S US HIGHWAY 23", "postcode": "44802"}}},
{"geometry": {"type": "Point", "coordinates": [-83.513144524, 41.1121068758]}, "type": "Feature", "properties": {"collection_times": [{"days": "Mon-Fri", "time": "3:30pm"}, {"days": "Sat", "time": "10:30am"}, {"days": "Sun", "time": "Closed"}], "id": "4480400001", "name": "USPS COLLECTION BOX - BLUE BOX", "address": {"city": "ARCADIA", "state": "OH", "street": "106 N MAIN ST", "postcode": "44804"}}},
{"geometry": {"type": "Point", "coordinates": [-83.513144524, 41.1121068758]}, "type": "Feature", "properties": {"collection_times": [{"days": "Mon-Fri", "time": "3:30pm"}, {"days": "Sat", "time": "10:30am"}, {"days": "Sun", "time": "Closed"}], "id": "4480400002", "name": "USPS COLLECTION BOX - PO LOBBY", "address": {"city": "ARCADIA", "state": "OH", "street": "106 N MAIN ST", "postcode": "44804"}}},
{"geometry": {"type": "Point", "coordinates": [-83.513144524, 41.1121068758]}, "type": "Feature", "properties": {"collection_times": [{"days": "Mon-Fri", "time": "3:30pm"}, {"days": "Sat", "time": "10:45am"}, {"days": "Sun", "time": "Closed"}], "id": "4480400003", "name": "USPS COLLECTION BOX - PO LOBBY", "address": {"city": "ARCADIA", "state": "OH", "street": "106 N MAIN ST", "postcode": "44804"}}},
{"geometry": {"type": "Point", "coordinates": [-82.2971686611, 40.8718707027]}, "type": "Feature", "properties": {"collection_times": [{"days": "Mon-Fri", "time": "3:00pm"}, {"days": "Sat", "time": "1:00pm"}, {"days": "Sun", "time": "Closed"}], "id": "4480500001", "name": "USPS COLLECTION BOX - BLUE BOX", "address": {"city": "ASHLAND", "state": "OH", "street": "1020 CLEVELAND AVE", "postcode": "44805"}}},
{"geometry": {"type": "Point", "coordinates": [-82.313869411, 40.8686860738]}, "type": "Feature", "properties": {"collection_times": [{"days": "Mon-Fri", "time": "4:15pm"}, {"days": "Sat", "time": "2:00pm"}, {"days": "Sun", "time": "Closed"}], "id": "4480500003", "name": "USPS COLLECTION BOX - BLUE BOX", "address": {"city": "ASHLAND", "state": "OH", "street": "112 E MAIN ST", "postcode": "44805"}}},
{"geometry": {"type": "Point", "coordinates": [-82.3147288834, 40.868112952]}, "type": "Feature", "properties": {"collection_times": [{"days": "Mon-Fri", "time": "2:45pm"}, {"days": "Sat", "time": "2:00pm"}, {"days": "Sun", "time": "Closed"}], "id": "4480500005", "name": "USPS COLLECTION BOX - BLUE BOX", "address": {"city": "ASHLAND", "state": "OH", "street": "161 CENTER ST", "postcode": "44805"}}},
{"geometry": {"type": "Point", "coordinates": [-82.3183583847, 40.867517852]}, "type": "Feature", "properties": {"collection_times": [{"days": "Mon-Fri", "time": "3:15pm"}, {"days": "Sat", "time": "2:30pm"}, {"days": "Sun", "time": "Closed"}], "id": "4480500008", "name": "USPS COLLECTION BOX - BLUE BOX", "address": {"city": "ASHLAND", "state": "OH", "street": "206 CLAREMONT AVE", "postcode": "44805"}}},
{"geometry": {"type": "Point", "coordinates": [-82.3153907968, 40.8687143584]}, "type": "Feature", "properties": {"collection_times": [{"days": "Mon-Fri", "time": "3:15pm"}, {"days": "Sat", "time": "2:00pm"}, {"days": "Sun", "time": "Closed"}], "id": "4480500011", "name": "USPS COLLECTION BOX - BLUE BOX", "address": {"city": "ASHLAND", "state": "OH", "street": "30 W MAIN ST", "postcode": "44805"}}},
{"geometry": {"type": "Point", "coordinates": [-82.3162662008, 40.8693045441]}, "type": "Feature", "properties": {"collection_times": [{"days": "Mon-Fri", "time": "3:15pm"}, {"days": "Sat", "time": "2:00pm"}, {"days": "Sun", "time": "Closed"}], "id": "4480500014", "name": "USPS COLLECTION BOX - BLUE BOX", "address": {"city": "ASHLAND", "state": "OH", "street": "54 W 2ND ST", "postcode": "44805"}}},
{"geometry": {"type": "Point", "coordinates": [-82.3016751147, 40.866553066]}, "type": "Feature", "properties": {"collection_times": [{"days": "Mon-Fri", "time": "4:00pm"}, {"days": "Sat", "time": "2:45pm"}, {"days": "Sun", "time": "Closed"}], "id": "4480500015", "name": "USPS COLLECTION BOX - BLUE BOX", "address": {"city": "ASHLAND", "state": "OH", "street": "663 E MAIN ST", "postcode": "44805"}}},
{"geometry": {"type": "Point", "coordinates": [-82.3105760707, 40.8591798739]}, "type": "Feature", "properties": {"collection_times": [{"days": "Mon-Fri", "time": "4:00pm"}, {"days": "Sat", "time": "10:00am"}, {"days": "Sun", "time": "Closed"}], "id": "4480500024", "name": "USPS COLLECTION BOX - BLUE BOX", "address": {"city": "ASHLAND", "state": "OH", "street": "1025 CENTER ST", "postcode": "44805"}}},
{"geometry": {"type": "Point", "coordinates": [-82.3203887086, 40.8650526737]}, "type": "Feature", "properties": {"collection_times": [{"days": "Mon-Sat", "time": "5:00pm"}, {"days": "Sun", "time": "Closed"}], "id": "4480500037", "name": "USPS COLLECTION BOX - PO LOBBY", "address": {"city": "ASHLAND", "state": "OH", "street": "530 CLAREMONT AVE", "postcode": "44805"}}},
{"geometry": {"type": "Point", "coordinates": [-82.3162662008, 40.8693045441]}, "type": "Feature", "properties": {"collection_times": [{"days": "Mon-Fri", "time": "3:15pm"}, {"days": "Sat", "time": "2:00pm"}, {"days": "Sun", "time": "Closed"}], "id": "4480500039", "name": "USPS COLLECTION BOX - BLUE BOX", "address": {"city": "ASHLAND", "state": "OH", "street": "54 W 2ND ST", "postcode": "44805"}}},
{"geometry": {"type": "Point", "coordinates": [-82.3129624914, 40.8746696322]}, "type": "Feature", "properties": {"collection_times": [{"days": "Mon-Sat", "time": "1:30pm"}, {"days": "Sun", "time": "Closed"}], "id": "4480500040", "name": "USPS COLLECTION BOX - BLUE BOX", "address": {"city": "ASHLAND", "state": "OH", "street": "898 UNION ST", "postcode": "44805"}}},
{"geometry": {"type": "Point", "coordinates": [-82.3378861379, 40.853219238]}, "type": "Feature", "properties": {"collection_times": [{"days": "Mon-Sat", "time": "10:30am"}, {"days": "Sun", "time": "Closed"}], "id": "4480500051", "name": "USPS COLLECTION BOX - BLUE BOX", "address": {"city": "ASHLAND", "state": "OH", "street": "1625 CLAREMONT AVE", "postcode": "44805"}}},
{"geometry": {"type": "Point", "coordinates": [-82.3315326764, 40.8579902717]}, "type": "Feature", "properties": {"collection_times": [{"days": "Mon-Sat", "time": "2:30pm"}, {"days": "Sun", "time": "Closed"}], "id": "4480500054", "name": "USPS COLLECTION BOX - BLUE BOX", "address": {"city": "ASHLAND", "state": "OH", "street": "945 SMITH RD", "postcode": "44805"}}},
{"geometry": {"type": "Point", "coordinates": [-82.3179209188, 40.8700837002]}, "type": "Feature", "properties": {"collection_times": [{"days": "Mon-Fri", "time": "3:15pm"}, {"days": "Sat", "time": "2:30pm"}, {"days": "Sun", "time": "Closed"}], "id": "4480500055", "name": "USPS COLLECTION BOX - BLUE BOX", "address": {"city": "ASHLAND", "state": "OH", "street": "110 COTTAGE ST", "postcode": "44805"}}},
{"geometry": {"type": "Point", "coordinates": [-82.3203887086, 40.8650526737]}, "type": "Feature", "properties": {"collection_times": [{"days": "Mon-Sat", "time": "5:00pm"}, {"days": "Sun", "time": "Closed"}], "id": "4480500059", "name": "USPS COLLECTION BOX - PO LOBBY", "address": {"city": "ASHLAND", "state": "OH", "street": "530 CLAREMONT AVE", "postcode": "44805"}}},
{"geometry": {"type": "Point", "coordinates": [-82.3203887086, 40.8650526737]}, "type": "Feature", "properties": {"collection_times": [{"days": "Mon-Sat", "time": "5:00pm"}, {"days": "Sun", "time": "Closed"}], "id": "4480500060", "name": "USPS COLLECTION BOX - BLUE BOX", "address": {"city": "ASHLAND", "state": "OH", "street": "530 CLAREMONT AVE", "postcode": "44805"}}},
{"geometry": {"type": "Point", "coordinates": [-82.3203887086, 40.8650526737]}, "type": "Feature", "properties": {"collection_times": [{"days": "Mon-Sat", "time": "5:00pm"}, {"days": "Sun", "time": "Closed"}], "id": "4480500061", "name": "USPS COLLECTION BOX - BLUE BOX", "address": {"city": "ASHLAND", "state": "OH", "street": "530 CLAREMONT AVE", "postcode": "44805"}}},
{"geometry": {"type": "Point", "coordinates": [-82.3203887086, 40.8650526737]}, "type": "Feature", "properties": {"collection_times": [{"days": "Mon-Sat", "time": "5:00pm"}, {"days": "Sun", "time": "Closed"}], "id": "4480500063", "name": "USPS COLLECTION BOX - BLUE BOX", "address": {"city": "ASHLAND", "state": "OH", "street": "530 CLAREMONT AVE", "postcode": "44805"}}},
{"geometry": {"type": "Point", "coordinates": [-82.3070944998, 40.8834621999]}, "type": "Feature", "properties": {"collection_times": [{"days": "Mon-Sat", "time": "9:30am"}, {"days": "Sun", "time": "Closed"}], "id": "4480500064", "name": "USPS COLLECTION BOX - BLUE BOX", "address": {"city": "ASHLAND", "state": "OH", "street": "1520 ORANGE RD", "postcode": "44805"}}},
{"geometry": {"type": "Point", "coordinates": [-82.2934494147, 40.8646417847]}, "type": "Feature", "properties": {"collection_times": [{"days": "Mon-Fri", "time": "3:00pm"}, {"days": "Sat", "time": "10:00am"}, {"days": "Sun", "time": "Closed"}], "id": "4480500065", "name": "USPS COLLECTION BOX - BLUE BOX", "address": {"city": "ASHLAND", "state": "OH", "street": "1209 E MAIN ST", "postcode": "44805"}}},
{"geometry": {"type": "Point", "coordinates": [-82.2833590977, 40.8603693952]}, "type": "Feature", "properties": {"collection_times": [{"days": "Mon-Fri", "time": "3:15pm"}, {"days": "Sat", "time": "2:45pm"}, {"days": "Sun", "time": "Closed"}], "id": "4480500066", "name": "USPS COLLECTION BOX - BLUE BOX", "address": {"city": "ASHLAND", "state": "OH", "street": "1055 SUGARBUSH DR", "postcode": "44805"}}},
{"geometry": {"type": "Point", "coordinates": [-82.8874333653, 41.0646633113]}, "type": "Feature", "properties": {"collection_times": [{"days": "Mon-Fri", "time": "4:00pm"}, {"days": "Sat", "time": "12:00pm"}, {"days": "Sun", "time": "Closed"}], "id": "4480700001", "name": "USPS COLLECTION BOX - BLUE BOX", "address": {"city": "ATTICA", "state": "OH", "street": "7 S MAIN ST", "postcode": "44807"}}},
{"geometry": {"type": "Point", "coordinates": [-83.2846179768, 41.1327483246]}, "type": "Feature", "properties": {"collection_times": [{"days": "Mon-Fri", "time": "4:15pm"}, {"days": "Sat", "time": "11:15am"}, {"days": "Sun", "time": "Closed"}], "id": "4480900002", "name": "USPS COLLECTION BOX - BLUE BOX", "address": {"city": "BASCOM", "state": "OH", "street": "5755 W TIFFIN ST", "postcode": "44809"}}},
{"geometry": {"type": "Point", "coordinates": [-82.8403700091, 41.2747996976]}, "type": "Feature", "properties": {"collection_times": [{"days": "Mon-Sat", "time": "2:30pm"}, {"days": "Sun", "time": "Closed"}], "id": "4481100004", "name": "USPS COLLECTION BOX - BLUE BOX", "address": {"city": "BELLEVUE", "state": "OH", "street": "120 NORTH ST", "postcode": "44811"}}},
{"geometry": {"type": "Point", "coordinates": [-82.8409874531, 41.2768894757]}, "type": "Feature", "properties": {"collection_times": [{"days": "Mon-Sat", "time": "9:00am"}, {"days": "Sun", "time": "Closed"}], "id": "4481100007", "name": "USPS COLLECTION BOX - BLUE BOX", "address": {"city": "BELLEVUE", "state": "OH", "street": "259 NORTHWEST ST", "postcode": "44811"}}},
{"geometry": {"type": "Point", "coordinates": [-82.8441031081, 41.2746449196]}, "type": "Feature", "properties": {"collection_times": [{"days": "Mon-Sat", "time": "2:00pm"}, {"days": "Sun", "time": "Closed"}], "id": "4481100008", "name": "USPS COLLECTION BOX - BLUE BOX", "address": {"city": "BELLEVUE", "state": "OH", "street": "228 W MAIN ST", "postcode": "44811"}}},
{"geometry": {"type": "Point", "coordinates": [-82.8389412241, 41.2736027173]}, "type": "Feature", "properties": {"collection_times": [{"days": "Mon-Fri", "time": "5:00pm"}, {"days": "Sat", "time": "3:30pm"}, {"days": "Sun", "time": "Closed"}], "id": "4481100012", "name": "USPS COLLECTION BOX - BLUE BOX", "address": {"city": "BELLEVUE", "state": "OH", "street": "114 N SANDUSKY ST", "postcode": "44811"}}},
{"geometry": {"type": "Point", "coordinates": [-82.8579263901, 41.2642368153]}, "type": "Feature", "properties": {"collection_times": [{"days": "Mon-Sat", "time": "1:00pm"}, {"days": "Sun", "time": "Closed"}], "id": "4481100022", "name": "USPS COLLECTION BOX - BLUE BOX", "address": {"city": "BELLEVUE", "state": "OH", "street": "855 KILBOURNE ST", "postcode": "44811"}}},
{"geometry": {"type": "Point", "coordinates": [-82.8389412241, 41.2736027173]}, "type": "Feature", "properties": {"collection_times": [{"days": "Mon-Fri", "time": "5:00pm"}, {"days": "Sat", "time": "3:30pm"}, {"days": "Sun", "time": "Closed"}], "id": "4481100038", "name": "USPS COLLECTION BOX - BLUE BOX", "address": {"city": "BELLEVUE", "state": "OH", "street": "114 N SANDUSKY ST", "postcode": "44811"}}},
{"geometry": {"type": "Point", "coordinates": [-82.5124922145, 40.6204970786]}, "type": "Feature", "properties": {"collection_times": [{"days": "Mon-Fri", "time": "5:00pm"}, {"days": "Sat", "time": "12:00pm"}, {"days": "Sun", "time": "Closed"}], "id": "4481300001", "name": "USPS COLLECTION BOX - PO LOBBY", "address": {"city": "BELLVILLE", "state": "OH", "street": "105 BELL ST", "postcode": "44813"}}},
{"geometry": {"type": "Point", "coordinates": [-82.5124922145, 40.6204970786]}, "type": "Feature", "properties": {"collection_times": [{"days": "Mon-Fri", "time": "5:00pm"}, {"days": "Sat", "time": "12:00pm"}, {"days": "Sun", "time": "Closed"}], "id": "4481300002", "name": "USPS COLLECTION BOX - BLUE BOX", "address": {"city": "BELLVILLE", "state": "OH", "street": "105 BELL ST", "postcode": "44813"}}},
{"geometry": {"type": "Point", "coordinates": [-82.4932278476, 41.3251764487]}, "type": "Feature", "properties": {"collection_times": [{"days": "Mon-Fri", "time": "4:30pm"}, {"days": "Sat", "time": "12:00pm"}, {"days": "Sun", "time": "Closed"}], "id": "4481400001", "name": "USPS COLLECTION BOX - BLUE BOX", "address": {"city": "BERLIN HEIGHTS", "state": "OH", "street": "2 E MAIN ST", "postcode": "44814"}}},
{"geometry": {"type": "Point", "coordinates": [-82.4932278476, 41.3251764487]}, "type": "Feature", "properties": {"collection_times": [{"days": "Mon-Fri", "time": "4:30pm"}, {"days": "Sat", "time": "12:00pm"}, {"days": "Sun", "time": "Closed"}], "id": "4481400002", "name": "USPS COLLECTION BOX - PO LOBBY", "address": {"city": "BERLIN HEIGHTS", "state": "OH", "street": "2 E MAIN ST", "postcode": "44814"}}},
{"geometry": {"type": "Point", "coordinates": [-83.2340685384, 41.246747759]}, "type": "Feature", "properties": {"collection_times": [{"days": "Mon-Fri", "time": "3:45pm"}, {"days": "Sat", "time": "11:15am"}, {"days": "Sun", "time": "Closed"}], "id": "4481500001", "name": "USPS COLLECTION BOX - BLUE BOX", "address": {"city": "BETTSVILLE", "state": "OH", "street": "203 STATE ST", "postcode": "44815"}}},
{"geometry": {"type": "Point", "coordinates": [-83.2340685384, 41.246747759]}, "type": "Feature", "properties": {"collection_times": [{"days": "Mon-Fri", "time": "4:00pm"}, {"days": "Sat", "time": "11:15am"}, {"days": "Sun", "time": "Closed"}], "id": "4481500002", "name": "USPS COLLECTION BOX - PO LOBBY", "address": {"city": "BETTSVILLE", "state": "OH", "street": "203 STATE ST", "postcode": "44815"}}},
{"geometry": {"type": "Point", "coordinates": [-83.5543515029, 41.1701733356]}, "type": "Feature", "properties": {"collection_times": [{"days": "Mon-Fri", "time": "4:00pm"}, {"days": "Sat", "time": "11:15am"}, {"days": "Sun", "time": "Closed"}], "id": "4481700001", "name": "USPS COLLECTION BOX - BLUE BOX", "address": {"city": "BLOOMDALE", "state": "OH", "street": "109 S MAIN ST", "postcode": "44817"}}},
{"geometry": {"type": "Point", "coordinates": [-83.5543515029, 41.1701733356]}, "type": "Feature", "properties": {"collection_times": [{"days": "Mon-Fri", "time": "4:00pm"}, {"days": "Sat", "time": "11:15am"}, {"days": "Sun", "time": "Closed"}], "id": "4481700002", "name": "USPS COLLECTION BOX - PO LOBBY", "address": {"city": "BLOOMDALE", "state": "OH", "street": "109 S MAIN ST", "postcode": "44817"}}},
{"geometry": {"type": "Point", "coordinates": [-83.015420718, 41.0514024175]}, "type": "Feature", "properties": {"collection_times": [{"days": "Mon-Fri", "time": "3:30pm"}, {"days": "Sat", "time": "12:00pm"}, {"days": "Sun", "time": "Closed"}], "id": "4481800001", "name": "USPS COLLECTION BOX - PO LOBBY", "address": {"city": "BLOOMVILLE", "state": "OH", "street": "10 S MARION ST", "postcode": "44818"}}},
{"geometry": {"type": "Point", "coordinates": [-83.015420718, 41.0514024175]}, "type": "Feature", "properties": {"collection_times": [{"days": "Mon-Fri", "time": "4:30pm"}, {"days": "Sat", "time": "12:00pm"}, {"days": "Sun", "time": "Closed"}], "id": "4481800002", "name": "USPS COLLECTION BOX - BLUE BOX", "address": {"city": "BLOOMVILLE", "state": "OH", "street": "10 S MARION ST", "postcode": "44818"}}},
{"geometry": {"type": "Point", "coordinates": [-82.9855612738, 40.7896705346]}, "type": "Feature", "properties": {"collection_times": [{"days": "Mon-Sat", "time": "12:00pm"}, {"days": "Sun", "time": "Closed"}], "id": "4482000004", "name": "USPS COLLECTION BOX - BLUE BOX", "address": {"city": "BUCYRUS", "state": "OH", "street": "1649 MARION RD", "postcode": "44820"}}},
{"geometry": {"type": "Point", "coordinates": [-82.9756680875, 40.8151791798]}, "type": "Feature", "properties": {"collection_times": [{"days": "Mon-Sat", "time": "9:00am"}, {"days": "Sun", "time": "Closed"}], "id": "4482000026", "name": "USPS COLLECTION BOX - BLUE BOX", "address": {"city": "BUCYRUS", "state": "OH", "street": "629 N SANDUSKY AVE", "postcode": "44820"}}},
{"geometry": {"type": "Point", "coordinates": [-82.9771160293, 40.8061390073]}, "type": "Feature", "properties": {"collection_times": [{"days": "Mon-Fri", "time": "5:00pm"}, {"days": "Sat", "time": "4:30pm"}, {"days": "Sun", "time": "Closed"}], "id": "4482000029", "name": "USPS COLLECTION BOX - BLUE BOX", "address": {"city": "BUCYRUS", "state": "OH", "street": "301 S POPLAR ST", "postcode": "44820"}}},
{"geometry": {"type": "Point", "coordinates": [-82.9771160293, 40.8061390073]}, "type": "Feature", "properties": {"collection_times": [{"days": "Mon-Fri", "time": "5:00pm"}, {"days": "Sat", "time": "4:30pm"}, {"days": "Sun", "time": "Closed"}], "id": "4482000031", "name": "USPS COLLECTION BOX - BLUE BOX", "address": {"city": "BUCYRUS", "state": "OH", "street": "301 S POPLAR ST", "postcode": "44820"}}},
{"geometry": {"type": "Point", "coordinates": [-82.9771160293, 40.8061390073]}, "type": "Feature", "properties": {"collection_times": [{"days": "Mon-Fri", "time": "5:00pm"}, {"days": "Sat", "time": "4:30pm"}, {"days": "Sun", "time": "Closed"}], "id": "4482000032", "name": "USPS COLLECTION BOX - BLUE BOX", "address": {"city": "BUCYRUS", "state": "OH", "street": "301 S POPLAR ST", "postcode": "44820"}}},
{"geometry": {"type": "Point", "coordinates": [-82.9461236874, 40.8125068755]}, "type": "Feature", "properties": {"collection_times": [{"days": "Mon-Sat", "time": "10:00am"}, {"days": "Sun", "time": "Closed"}], "id": "4482000037", "name": "USPS COLLECTION BOX - BLUE BOX", "address": {"city": "BUCYRUS", "state": "OH", "street": "1875 E MANSFIELD ST", "postcode": "44820"}}},
{"geometry": {"type": "Point", "coordinates": [-82.9771160293, 40.8061390073]}, "type": "Feature", "properties": {"collection_times": [{"days": "Mon-Fri", "time": "5:00pm"}, {"days": "Sat", "time": "4:30pm"}, {"days": "Sun", "time": "Closed"}], "id": "4482000038", "name": "USPS COLLECTION BOX - PO LOBBY", "address": {"city": "BUCYRUS", "state": "OH", "street": "301 S POPLAR ST", "postcode": "44820"}}},
{"geometry": {"type": "Point", "coordinates": [-82.4241464147, 40.5898321993]}, "type": "Feature", "properties": {"collection_times": [{"days": "Mon-Fri", "time": "4:30pm"}, {"days": "Sat", "time": "11:00am"}, {"days": "Sun", "time": "Closed"}], "id": "4482200001", "name": "USPS COLLECTION BOX - BLUE BOX", "address": {"city": "BUTLER", "state": "OH", "street": "14 W ELM ST", "postcode": "44822"}}},
{"geometry": {"type": "Point", "coordinates": [-82.4241464147, 40.5898321993]}, "type": "Feature", "properties": {"collection_times": [{"days": "Mon-Fri", "time": "4:30pm"}, {"days": "Sat", "time": "11:00am"}, {"days": "Sun", "time": "Closed"}], "id": "4482200002", "name": "USPS COLLECTION BOX - PO LOBBY", "address": {"city": "BUTLER", "state": "OH", "street": "14 W ELM ST", "postcode": "44822"}}},
{"geometry": {"type": "Point", "coordinates": [-82.8063544597, 41.4000165322]}, "type": "Feature", "properties": {"collection_times": [{"days": "Mon-Fri", "time": "4:30pm"}, {"days": "Sat", "time": "12:00pm"}, {"days": "Sun", "time": "Closed"}], "id": "4482400001", "name": "USPS COLLECTION BOX - BLUE BOX", "address": {"city": "CASTALIA", "state": "OH", "street": "105 N WATER ST", "postcode": "44824"}}},
{"geometry": {"type": "Point", "coordinates": [-82.942342507, 40.9537681773]}, "type": "Feature", "properties": {"collection_times": [{"days": "Mon-Fri", "time": "3:55pm"}, {"days": "Sat", "time": "11:00am"}, {"days": "Sun", "time": "Closed"}], "id": "4482500001", "name": "USPS COLLECTION BOX - PO LOBBY", "address": {"city": "CHATFIELD", "state": "OH", "street": "6890 SANDUSKY ST", "postcode": "44825"}}},
{"geometry": {"type": "Point", "coordinates": [-82.942342507, 40.9537681773]}, "type": "Feature", "properties": {"collection_times": [{"days": "Mon-Fri", "time": "3:55pm"}, {"days": "Sat", "time": "11:00am"}, {"days": "Sun", "time": "Closed"}], "id": "4482500002", "name": "USPS COLLECTION BOX - BLUE BOX", "address": {"city": "CHATFIELD", "state": "OH", "street": "6890 SANDUSKY ST", "postcode": "44825"}}},
{"geometry": {"type": "Point", "coordinates": [-82.4927333251, 41.2583820827]}, "type": "Feature", "properties": {"collection_times": [{"days": "Mon-Fri", "time": "4:15pm"}, {"days": "Sat", "time": "11:30am"}, {"days": "Sun", "time": "Closed"}], "id": "4482600001", "name": "USPS COLLECTION BOX - BLUE BOX", "address": {"city": "COLLINS", "state": "OH", "street": "2728 N RAILROAD ST", "postcode": "44826"}}},
{"geometry": {"type": "Point", "coordinates": [-82.7365573958, 40.7856444228]}, "type": "Feature", "properties": {"collection_times": [{"days": "Mon-Fri", "time": "5:00pm"}, {"days": "Sat", "time": "2:45pm"}, {"days": "Sun", "time": "Closed"}], "id": "4482700001", "name": "USPS COLLECTION BOX - BLUE BOX", "address": {"city": "CRESTLINE", "state": "OH", "street": "244 N SELTZER ST", "postcode": "44827"}}},
{"geometry": {"type": "Point", "coordinates": [-82.7365573958, 40.7856444228]}, "type": "Feature", "properties": {"collection_times": [{"days": "Mon-Fri", "time": "5:00pm"}, {"days": "Sat", "time": "2:45pm"}, {"days": "Sun", "time": "Closed"}], "id": "4482700002", "name": "USPS COLLECTION BOX - BLUE BOX", "address": {"city": "CRESTLINE", "state": "OH", "street": "244 N SELTZER ST", "postcode": "44827"}}},
{"geometry": {"type": "Point", "coordinates": [-82.7365573958, 40.7856444228]}, "type": "Feature", "properties": {"collection_times": [{"days": "Mon-Fri", "time": "5:00pm"}, {"days": "Sat", "time": "2:45pm"}, {"days": "Sun", "time": "Closed"}], "id": "4482700020", "name": "USPS COLLECTION BOX - PO LOBBY", "address": {"city": "CRESTLINE", "state": "OH", "street": "244 N SELTZER ST", "postcode": "44827"}}},
{"geometry": {"type": "Point", "coordinates": [-82.7365573958, 40.7856444228]}, "type": "Feature", "properties": {"collection_times": [{"days": "Mon-Fri", "time": "5:00pm"}, {"days": "Sat", "time": "2:45pm"}, {"days": "Sun", "time": "Closed"}], "id": "4482700021", "name": "USPS COLLECTION BOX - PO LOBBY", "address": {"city": "CRESTLINE", "state": "OH", "street": "244 N SELTZER ST", "postcode": "44827"}}},
{"geometry": {"type": "Point", "coordinates": [-82.8595233634, 41.2360521821]}, "type": "Feature", "properties": {"collection_times": [{"days": "Mon-Fri", "time": "4:30pm"}, {"days": "Sat", "time": "11:00am"}, {"days": "Sun", "time": "Closed"}], "id": "4482800001", "name": "USPS COLLECTION BOX - BLUE BOX", "address": {"city": "FLAT ROCK", "state": "OH", "street": "15909 JEFFERSON ST", "postcode": "44828"}}},
{"geometry": {"type": "Point", "coordinates": [-83.4164455327, 41.1576035749]}, "type": "Feature", "properties": {"collection_times": [{"days": "Mon-Fri", "time": "5:00pm"}, {"days": "Sat", "time": "12:00pm"}, {"days": "Sun", "time": "Closed"}], "id": "4483000031", "name": "USPS COLLECTION BOX - BLUE BOX", "address": {"city": "FOSTORIA", "state": "OH", "street": "202 W CENTER ST", "postcode": "44830"}}},
{"geometry": {"type": "Point", "coordinates": [-83.4164455327, 41.1576035749]}, "type": "Feature", "properties": {"collection_times": [{"days": "Mon-Fri", "time": "5:00pm"}, {"days": "Sat", "time": "12:00pm"}, {"days": "Sun", "time": "Closed"}], "id": "4483000034", "name": "USPS COLLECTION BOX - PO LOBBY", "address": {"city": "FOSTORIA", "state": "OH", "street": "202 W CENTER ST", "postcode": "44830"}}},
{"geometry": {"type": "Point", "coordinates": [-83.4245236481, 41.1787897531]}, "type": "Feature", "properties": {"collection_times": [{"days": "Mon-Sat", "time": "3:30pm"}, {"days": "Sun", "time": "Closed"}], "id": "4483000038", "name": "USPS COLLECTION BOX - BLUE BOX", "address": {"city": "FOSTORIA", "state": "OH", "street": "560 PLAZA DR", "postcode": "44830"}}},
{"geometry": {"type": "Point", "coordinates": [-83.4136404568, 41.1504881553]}, "type": "Feature", "properties": {"collection_times": [{"days": "Mon-Sat", "time": "3:30pm"}, {"days": "Sun", "time": "Closed"}], "id": "4483000075", "name": "USPS COLLECTION BOX - BLUE BOX", "address": {"city": "FOSTORIA", "state": "OH", "street": "100 E LYTLE ST", "postcode": "44830"}}},
{"geometry": {"type": "Point", "coordinates": [-83.4243636547, 41.150364201]}, "type": "Feature", "properties": {"collection_times": [{"days": "Mon-Sat", "time": "3:30pm"}, {"days": "Sun", "time": "Closed"}], "id": "4483000076", "name": "USPS COLLECTION BOX - BLUE BOX", "address": {"city": "FOSTORIA", "state": "OH", "street": "461 W LYTLE ST", "postcode": "44830"}}},
{"geometry": {"type": "Point", "coordinates": [-83.4150375424, 41.1618453361]}, "type": "Feature", "properties": {"collection_times": [{"days": "Mon-Sat", "time": "3:30pm"}, {"days": "Sun", "time": "Closed"}], "id": "4483000079", "name": "USPS COLLECTION BOX - BLUE BOX", "address": {"city": "FOSTORIA", "state": "OH", "street": "126 W HIGH ST", "postcode": "44830"}}},
{"geometry": {"type": "Point", "coordinates": [-83.4231816504, 41.1636172647]}, "type": "Feature", "properties": {"collection_times": [{"days": "Mon-Sat", "time": "3:30pm"}, {"days": "Sun", "time": "Closed"}], "id": "4483000080", "name": "USPS COLLECTION BOX - BLUE BOX", "address": {"city": "FOSTORIA", "state": "OH", "street": "501 VANBUREN ST", "postcode": "44830"}}},
{"geometry": {"type": "Point", "coordinates": [-83.4057930895, 41.1689913055]}, "type": "Feature", "properties": {"collection_times": [{"days": "Mon-Fri", "time": "3:30pm"}, {"days": "Sat", "time": "12:30pm"}, {"days": "Sun", "time": "Closed"}], "id": "4483000084", "name": "USPS COLLECTION BOX - BLUE BOX", "address": {"city": "FOSTORIA", "state": "OH", "street": "940 BUCKLEY ST", "postcode": "44830"}}},
{"geometry": {"type": "Point", "coordinates": [-82.7949415806, 40.6777064047]}, "type": "Feature", "properties": {"collection_times": [{"days": "Mon-Sat", "time": "1:00pm"}, {"days": "Sun", "time": "Closed"}], "id": "4483300007", "name": "USPS COLLECTION BOX - BLUE BOX", "address": {"city": "GALION", "state": "OH", "street": "739 CARTER DR", "postcode": "44833"}}},
{"geometry": {"type": "Point", "coordinates": [-82.7896186891, 40.729902745]}, "type": "Feature", "properties": {"collection_times": [{"days": "Mon-Fri", "time": "5:00pm"}, {"days": "Sat", "time": "4:30pm"}, {"days": "Sun", "time": "Closed"}], "id": "4483300023", "name": "USPS COLLECTION BOX - BLUE BOX", "address": {"city": "GALION", "state": "OH", "street": "133 N COLUMBUS ST", "postcode": "44833"}}},
{"geometry": {"type": "Point", "coordinates": [-82.7896186891, 40.729902745]}, "type": "Feature", "properties": {"collection_times": [{"days": "Mon-Fri", "time": "5:00pm"}, {"days": "Sat", "time": "4:30pm"}, {"days": "Sun", "time": "Closed"}], "id": "4483300042", "name": "USPS COLLECTION BOX - BLUE BOX", "address": {"city": "GALION", "state": "OH", "street": "133 N COLUMBUS ST", "postcode": "44833"}}},
{"geometry": {"type": "Point", "coordinates": [-82.7896186891, 40.729902745]}, "type": "Feature", "properties": {"collection_times": [{"days": "Mon-Fri", "time": "5:00pm"}, {"days": "Sat", "time": "4:30pm"}, {"days": "Sun", "time": "Closed"}], "id": "4483300043", "name": "USPS COLLECTION BOX - PO LOBBY", "address": {"city": "GALION", "state": "OH", "street": "133 N COLUMBUS ST", "postcode": "44833"}}},
{"geometry": {"type": "Point", "coordinates": [-82.7949415806, 40.6777064047]}, "type": "Feature", "properties": {"collection_times": [{"days": "Mon-Sat", "time": "2:30pm"}, {"days": "Sun", "time": "Closed"}], "id": "4483300045", "name": "USPS COLLECTION BOX - BLUE BOX", "address": {"city": "GALION", "state": "OH", "street": "8 PUBLIC SQ", "postcode": "44833"}}},
{"geometry": {"type": "Point", "coordinates": [-82.8079860202, 40.7344102905]}, "type": "Feature", "properties": {"collection_times": [{"days": "Mon-Sat", "time": "2:15pm"}, {"days": "Sun", "time": "Closed"}], "id": "4483300064", "name": "USPS COLLECTION BOX - BLUE BOX", "address": {"city": "GALION", "state": "OH", "street": "901 BUCYRUS RD", "postcode": "44833"}}},
{"geometry": {"type": "Point", "coordinates": [-82.7896186891, 40.729902745]}, "type": "Feature", "properties": {"collection_times": [{"days": "Mon-Fri", "time": "5:00pm"}, {"days": "Sat", "time": "4:30pm"}, {"days": "Sun", "time": "Closed"}], "id": "4483300065", "name": "USPS COLLECTION BOX - BLUE BOX", "address": {"city": "GALION", "state": "OH", "street": "133 N COLUMBUS ST", "postcode": "44833"}}},
{"geometry": {"type": "Point", "coordinates": [-82.7896186891, 40.729902745]}, "type": "Feature", "properties": {"collection_times": [{"days": "Mon-Fri", "time": "5:00pm"}, {"days": "Sat", "time": "4:30pm"}, {"days": "Sun", "time": "Closed"}], "id": "4483300067", "name": "USPS COLLECTION BOX - BLUE BOX", "address": {"city": "GALION", "state": "OH", "street": "133 N COLUMBUS ST", "postcode": "44833"}}},
{"geometry": {"type": "Point", "coordinates": [-83.0519984441, 41.2565986255]}, "type": "Feature", "properties": {"collection_times": [{"days": "Mon-Fri", "time": "4:15pm"}, {"days": "Sat", "time": "12:00pm"}, {"days": "Sun", "time": "Closed"}], "id": "4483600001", "name": "USPS COLLECTION BOX - BLUE BOX", "address": {"city": "GREEN SPRINGS", "state": "OH", "street": "108 S BROADWAY ST", "postcode": "44836"}}},
{"geometry": {"type": "Point", "coordinates": [-83.0519984441, 41.2565986255]}, "type": "Feature", "properties": {"collection_times": [{"days": "Mon-Fri", "time": "4:15pm"}, {"days": "Sat", "time": "12:00pm"}, {"days": "Sun", "time": "Closed"}], "id": "4483600003", "name": "USPS COLLECTION BOX - BLUE BOX", "address": {"city": "GREEN SPRINGS", "state": "OH", "street": "108 S BROADWAY ST", "postcode": "44836"}}},
{"geometry": {"type": "Point", "coordinates": [-82.5234819109, 41.0300287307]}, "type": "Feature", "properties": {"collection_times": [{"days": "Mon-Fri", "time": "4:00pm"}, {"days": "Sat", "time": "11:30am"}, {"days": "Sun", "time": "Closed"}], "id": "4483700002", "name": "USPS COLLECTION BOX - PO LOBBY", "address": {"city": "GREENWICH", "state": "OH", "street": "18 MAIN ST", "postcode": "44837"}}},
{"geometry": {"type": "Point", "coordinates": [-82.5234819109, 41.0300287307]}, "type": "Feature", "properties": {"collection_times": [{"days": "Mon-Fri", "time": "4:00pm"}, {"days": "Sat", "time": "11:15am"}, {"days": "Sun", "time": "Closed"}], "id": "4483700003", "name": "USPS COLLECTION BOX - BLUE BOX", "address": {"city": "GREENWICH", "state": "OH", "street": "18 MAIN ST", "postcode": "44837"}}},
{"geometry": {"type": "Point", "coordinates": [-82.5234819109, 41.0300287307]}, "type": "Feature", "properties": {"collection_times": [{"days": "Mon-Fri", "time": "4:00pm"}, {"days": "Sat", "time": "11:30am"}, {"days": "Sun", "time": "Closed"}], "id": "4483700004", "name": "USPS COLLECTION BOX - BLUE BOX", "address": {"city": "GREENWICH", "state": "OH", "street": "18 MAIN ST", "postcode": "44837"}}},
{"geometry": {"type": "Point", "coordinates": [-82.4739791434, 40.908735073]}, "type": "Feature", "properties": {"collection_times": [{"days": "Mon-Sat", "time": "11:00am"}, {"days": "Sun", "time": "Closed"}], "id": "4483700005", "name": "USPS COLLECTION BOX - BLUE BOX", "address": {"city": "GREENWICH", "state": "OH", "street": "1121 CLAYBERG RD", "postcode": "44837"}}},
{"geometry": {"type": "Point", "coordinates": [-82.5234819109, 41.0300287307]}, "type": "Feature", "properties": {"collection_times": [{"days": "Mon-Fri", "time": "4:00pm"}, {"days": "Sat", "time": "11:30am"}, {"days": "Sun", "time": "Closed"}], "id": "4483700006", "name": "USPS COLLECTION BOX - PO LOBBY", "address": {"city": "GREENWICH", "state": "OH", "street": "18 MAIN ST", "postcode": "44837"}}},
{"geometry": {"type": "Point", "coordinates": [-82.4952028289, 41.0380899439]}, "type": "Feature", "properties": {"collection_times": [{"days": "Mon-Sat", "time": "8:30am"}, {"days": "Sun", "time": "Closed"}], "id": "4483700007", "name": "USPS COLLECTION BOX - BLUE BOX", "address": {"city": "GREENWICH", "state": "OH", "street": "3764 U S 224 E", "postcode": "44837"}}},
{"geometry": {"type": "Point", "coordinates": [-82.2621435178, 40.7731504026]}, "type": "Feature", "properties": {"collection_times": [{"days": "Mon-Fri", "time": "4:00pm"}, {"days": "Sat", "time": "11:30am"}, {"days": "Sun", "time": "Closed"}], "id": "4483800001", "name": "USPS COLLECTION BOX - BLUE BOX", "address": {"city": "HAYESVILLE", "state": "OH", "street": "1 E MAIN ST", "postcode": "44838"}}},
{"geometry": {"type": "Point", "coordinates": [-82.2621435178, 40.7731504026]}, "type": "Feature", "properties": {"collection_times": [{"days": "Mon-Fri", "time": "4:00pm"}, {"days": "Sat", "time": "11:30am"}, {"days": "Sun", "time": "Closed"}], "id": "4483800002", "name": "USPS COLLECTION BOX - PO LOBBY", "address": {"city": "HAYESVILLE", "state": "OH", "street": "1 E MAIN ST", "postcode": "44838"}}},
{"geometry": {"type": "Point", "coordinates": [-82.550313991, 41.3894777923]}, "type": "Feature", "properties": {"collection_times": [{"days": "Mon-Sat", "time": "9:30am"}, {"days": "Sun", "time": "Closed"}], "id": "4483900004", "name": "USPS COLLECTION BOX - BLUE BOX", "address": {"city": "HURON", "state": "OH", "street": "412 CLEVELAND RD E", "postcode": "44839"}}},
{"geometry": {"type": "Point", "coordinates": [-82.5930956094, 41.3975084747]}, "type": "Feature", "properties": {"collection_times": [{"days": "Mon-Fri", "time": "12:00pm"}, {"days": "Sat-Sun", "time": "Closed"}], "id": "4483900006", "name": "USPS COLLECTION BOX - BLUE BOX", "address": {"city": "HURON", "state": "OH", "street": "1 UNIVERSITY DR", "postcode": "44839"}}},
{"geometry": {"type": "Point", "coordinates": [-82.561107216, 41.3984394634]}, "type": "Feature", "properties": {"collection_times": [{"days": "Mon-Sat", "time": "9:15am"}, {"days": "Sun", "time": "Closed"}], "id": "4483900008", "name": "USPS COLLECTION BOX - BLUE BOX", "address": {"city": "HURON", "state": "OH", "street": "525 CLEVELAND RD W", "postcode": "44839"}}},
{"geometry": {"type": "Point", "coordinates": [-82.5560275902, 41.3929978521]}, "type": "Feature", "properties": {"collection_times": [{"days": "Mon-Sat", "time": "5:00pm"}, {"days": "Sun", "time": "Closed"}], "id": "4483900009", "name": "USPS COLLECTION BOX - PO LOBBY", "address": {"city": "HURON", "state": "OH", "street": "378 MAIN ST", "postcode": "44839"}}},
{"geometry": {"type": "Point", "coordinates": [-82.5560275902, 41.3929978521]}, "type": "Feature", "properties": {"collection_times": [{"days": "Mon-Sat", "time": "5:00pm"}, {"days": "Sun", "time": "Closed"}], "id": "4483900014", "name": "USPS COLLECTION BOX - PO LOBBY", "address": {"city": "HURON", "state": "OH", "street": "378 MAIN ST", "postcode": "44839"}}},
{"geometry": {"type": "Point", "coordinates": [-82.5560275902, 41.3929978521]}, "type": "Feature", "properties": {"collection_times": [{"days": "Mon-Sat", "time": "5:00pm"}, {"days": "Sun", "time": "Closed"}], "id": "4483900015", "name": "USPS COLLECTION BOX - BLUE BOX", "address": {"city": "HURON", "state": "OH", "street": "378 MAIN ST", "postcode": "44839"}}},
{"geometry": {"type": "Point", "coordinates": [-82.5560275902, 41.3929978521]}, "type": "Feature", "properties": {"collection_times": [{"days": "Mon-Sat", "time": "5:00pm"}, {"days": "Sun", "time": "Closed"}], "id": "4483900016", "name": "USPS COLLECTION BOX - BLUE BOX", "address": {"city": "HURON", "state": "OH", "street": "378 MAIN ST", "postcode": "44839"}}},
{"geometry": {"type": "Point", "coordinates": [-82.1952298868, 40.8031611576]}, "type": "Feature", "properties": {"collection_times": [{"days": "Mon-Fri", "time": "4:30pm"}, {"days": "Sat", "time": "11:30am"}, {"days": "Sun", "time": "Closed"}], "id": "4484000001", "name": "USPS COLLECTION BOX - BLUE BOX", "address": {"city": "JEROMESVILLE", "state": "OH", "street": "21 S HIGH ST", "postcode": "44840"}}},
{"geometry": {"type": "Point", "coordinates": [-82.1952298868, 40.8031611576]}, "type": "Feature", "properties": {"collection_times": [{"days": "Mon-Fri", "time": "4:30pm"}, {"days": "Sat", "time": "11:30am"}, {"days": "Sun", "time": "Closed"}], "id": "4484000002", "name": "USPS COLLECTION BOX - PO LOBBY", "address": {"city": "JEROMESVILLE", "state": "OH", "street": "21 S HIGH ST", "postcode": "44840"}}},
{"geometry": {"type": "Point", "coordinates": [-83.2843815618, 41.245036212]}, "type": "Feature", "properties": {"collection_times": [{"days": "Mon-Fri", "time": "3:45pm"}, {"days": "Sat", "time": "11:15am"}, {"days": "Sun", "time": "Closed"}], "id": "4484100001", "name": "USPS COLLECTION BOX - BLUE BOX", "address": {"city": "KANSAS", "state": "OH", "street": "6047 MAIN ST", "postcode": "44841"}}},
{"geometry": {"type": "Point", "coordinates": [-83.2843815618, 41.245036212]}, "type": "Feature", "properties": {"collection_times": [{"days": "Mon-Fri", "time": "3:45pm"}, {"days": "Sat", "time": "11:15am"}, {"days": "Sun", "time": "Closed"}], "id": "4484100002", "name": "USPS COLLECTION BOX - PO LOBBY", "address": {"city": "KANSAS", "state": "OH", "street": "6047 MAIN ST", "postcode": "44841"}}},
{"geometry": {"type": "Point", "coordinates": [-82.2350348102, 40.6358302208]}, "type": "Feature", "properties": {"collection_times": [{"days": "Mon-Fri", "time": "3:00pm"}, {"days": "Sat", "time": "12:30pm"}, {"days": "Sun", "time": "Closed"}], "id": "4484200001", "name": "USPS COLLECTION BOX - BLUE BOX", "address": {"city": "LOUDONVILLE", "state": "OH", "street": "120 N WATER ST", "postcode": "44842"}}},
{"geometry": {"type": "Point", "coordinates": [-82.2350569502, 40.63536485]}, "type": "Feature", "properties": {"collection_times": [{"days": "Mon-Fri", "time": "4:45pm"}, {"days": "Sat", "time": "12:30pm"}, {"days": "Sun", "time": "Closed"}], "id": "4484200002", "name": "USPS COLLECTION BOX - BLUE BOX", "address": {"city": "LOUDONVILLE", "state": "OH", "street": "124 S WATER ST", "postcode": "44842"}}},
{"geometry": {"type": "Point", "coordinates": [-82.2350569502, 40.63536485]}, "type": "Feature", "properties": {"collection_times": [{"days": "Mon-Fri", "time": "5:00pm"}, {"days": "Sat", "time": "12:30pm"}, {"days": "Sun", "time": "Closed"}], "id": "4484200004", "name": "USPS COLLECTION BOX - PO LOBBY", "address": {"city": "LOUDONVILLE", "state": "OH", "street": "124 S WATER ST", "postcode": "44842"}}},
{"geometry": {"type": "Point", "coordinates": [-82.2350569502, 40.63536485]}, "type": "Feature", "properties": {"collection_times": [{"days": "Mon-Fri", "time": "5:00pm"}, {"days": "Sat", "time": "12:30pm"}, {"days": "Sun", "time": "Closed"}], "id": "4484200005", "name": "USPS COLLECTION BOX - PO LOBBY", "address": {"city": "LOUDONVILLE", "state": "OH", "street": "124 S WATER ST", "postcode": "44842"}}},
{"geometry": {"type": "Point", "coordinates": [-82.423268071, 40.7046201532]}, "type": "Feature", "properties": {"collection_times": [{"days": "Mon-Fri", "time": "4:00pm"}, {"days": "Sat", "time": "12:00pm"}, {"days": "Sun", "time": "Closed"}], "id": "4484300001", "name": "USPS COLLECTION BOX - BLUE BOX", "address": {"city": "LUCAS", "state": "OH", "street": "36 W MAIN ST", "postcode": "44843"}}},
{"geometry": {"type": "Point", "coordinates": [-82.423268071, 40.7046201532]}, "type": "Feature", "properties": {"collection_times": [{"days": "Mon-Fri", "time": "4:00pm"}, {"days": "Sat", "time": "12:00pm"}, {"days": "Sun", "time": "Closed"}], "id": "4484300002", "name": "USPS COLLECTION BOX - PO LOBBY", "address": {"city": "LUCAS", "state": "OH", "street": "36 W MAIN ST", "postcode": "44843"}}},
{"geometry": {"type": "Point", "coordinates": [-83.2597652823, 40.9910442539]}, "type": "Feature", "properties": {"collection_times": [{"days": "Mon-Fri", "time": "4:15pm"}, {"days": "Sat", "time": "11:00am"}, {"days": "Sun", "time": "Closed"}], "id": "4484400001", "name": "USPS COLLECTION BOX - BLUE BOX", "address": {"city": "MCCUTCHENVILLE", "state": "OH", "street": "172 STATE HIGHWAY 53 N", "postcode": "44844"}}},
{"geometry": {"type": "Point", "coordinates": [-83.2597652823, 40.9910442539]}, "type": "Feature", "properties": {"collection_times": [{"days": "Mon-Fri", "time": "4:15pm"}, {"days": "Sat", "time": "11:00am"}, {"days": "Sun", "time": "Closed"}], "id": "4484400002", "name": "USPS COLLECTION BOX - PO LOBBY", "address": {"city": "MCCUTCHENVILLE", "state": "OH", "street": "172 STATE HIGHWAY 53 N", "postcode": "44844"}}},
{"geometry": {"type": "Point", "coordinates": [-83.1092449468, 41.0246934359]}, "type": "Feature", "properties": {"collection_times": [{"days": "Mon-Sat", "time": "12:00pm"}, {"days": "Sun", "time": "Closed"}], "id": "4484500000", "name": "USPS COLLECTION BOX - BLUE BOX", "address": {"city": "TIFFIN", "state": "OH", "street": "6842 S STATE ROUTE 67", "postcode": "44845"}}},
{"geometry": {"type": "Point", "coordinates": [-82.6056144378, 41.2977271347]}, "type": "Feature", "properties": {"collection_times": [{"days": "Mon-Fri", "time": "5:00pm"}, {"days": "Sat", "time": "12:15pm"}, {"days": "Sun", "time": "Closed"}], "id": "4484600003", "name": "USPS COLLECTION BOX - PO LOBBY", "address": {"city": "MILAN", "state": "OH", "street": "11 E CHURCH ST", "postcode": "44846"}}},
{"geometry": {"type": "Point", "coordinates": [-82.6056144378, 41.2977271347]}, "type": "Feature", "properties": {"collection_times": [{"days": "Mon-Fri", "time": "5:00pm"}, {"days": "Sat", "time": "12:15pm"}, {"days": "Sun", "time": "Closed"}], "id": "4484600004", "name": "USPS COLLECTION BOX - BLUE BOX", "address": {"city": "MILAN", "state": "OH", "street": "11 E CHURCH ST", "postcode": "44846"}}},
{"geometry": {"type": "Point", "coordinates": [-82.6939892292, 41.2365599949]}, "type": "Feature", "properties": {"collection_times": [{"days": "Mon-Fri", "time": "4:30pm"}, {"days": "Sat", "time": "12:00pm"}, {"days": "Sun", "time": "Closed"}], "id": "4484700002", "name": "USPS COLLECTION BOX - BLUE BOX", "address": {"city": "MONROEVILLE", "state": "OH", "street": "10 N MAIN ST", "postcode": "44847"}}},
{"geometry": {"type": "Point", "coordinates": [-82.2815863815, 40.9218882001]}, "type": "Feature", "properties": {"collection_times": [{"days": "Mon-Fri", "time": "4:15pm"}, {"days": "Sat", "time": "11:30am"}, {"days": "Sun", "time": "Closed"}], "id": "4484800001", "name": "USPS COLLECTION BOX - BLUE BOX", "address": {"city": "NANKIN", "state": "OH", "street": "953 STATE ROUTE 58", "postcode": "44848"}}},
{"geometry": {"type": "Point", "coordinates": [-82.2815863815, 40.9218882001]}, "type": "Feature", "properties": {"collection_times": [{"days": "Mon-Fri", "time": "4:15pm"}, {"days": "Sat", "time": "11:30am"}, {"days": "Sun", "time": "Closed"}], "id": "4484800002", "name": "USPS COLLECTION BOX - PO LOBBY", "address": {"city": "NANKIN", "state": "OH", "street": "953 STATE ROUTE 58", "postcode": "44848"}}},
{"geometry": {"type": "Point", "coordinates": [-83.1309269406, 40.8170112754]}, "type": "Feature", "properties": {"collection_times": [{"days": "Mon-Fri", "time": "4:00pm"}, {"days": "Sat", "time": "12:00pm"}, {"days": "Sun", "time": "Closed"}], "id": "4484900001", "name": "USPS COLLECTION BOX - BLUE BOX", "address": {"city": "NEVADA", "state": "OH", "street": "115 N MAIN ST", "postcode": "44849"}}},
{"geometry": {"type": "Point", "coordinates": [-83.1309269406, 40.8170112754]}, "type": "Feature", "properties": {"collection_times": [{"days": "Mon-Fri", "time": "4:15pm"}, {"days": "Sat", "time": "12:00pm"}, {"days": "Sun", "time": "Closed"}], "id": "4484900002", "name": "USPS COLLECTION BOX - PO LOBBY", "address": {"city": "NEVADA", "state": "OH", "street": "115 N MAIN ST", "postcode": "44849"}}},
{"geometry": {"type": "Point", "coordinates": [-82.68124326, 41.0323130321]}, "type": "Feature", "properties": {"collection_times": [{"days": "Mon-Fri", "time": "4:15pm"}, {"days": "Sat", "time": "11:15am"}, {"days": "Sun", "time": "Closed"}], "id": "4485000001", "name": "USPS COLLECTION BOX - BLUE BOX", "address": {"city": "NEW HAVEN", "state": "OH", "street": "3991 CENTER ST", "postcode": "44850"}}},
{"geometry": {"type": "Point", "coordinates": [-82.4065945198, 41.0858139154]}, "type": "Feature", "properties": {"collection_times": [{"days": "Mon-Sat", "time": "10:00am"}, {"days": "Sun", "time": "Closed"}], "id": "4485100001", "name": "USPS COLLECTION BOX - BLUE BOX", "address": {"city": "NEW LONDON", "state": "OH", "street": "166 W MAIN ST", "postcode": "44851"}}},
{"geometry": {"type": "Point", "coordinates": [-82.3955580746, 41.0850088376]}, "type": "Feature", "properties": {"collection_times": [{"days": "Mon-Fri", "time": "4:15pm"}, {"days": "Sat", "time": "3:15pm"}, {"days": "Sun", "time": "Closed"}], "id": "4485100005", "name": "USPS COLLECTION BOX - BLUE BOX", "address": {"city": "NEW LONDON", "state": "OH", "street": "86 E MAIN ST", "postcode": "44851"}}},
{"geometry": {"type": "Point", "coordinates": [-82.3955580746, 41.0850088376]}, "type": "Feature", "properties": {"collection_times": [{"days": "Mon-Fri", "time": "4:15pm"}, {"days": "Sat", "time": "3:15pm"}, {"days": "Sun", "time": "Closed"}], "id": "4485100006", "name": "USPS COLLECTION BOX - PO LOBBY", "address": {"city": "NEW LONDON", "state": "OH", "street": "86 E MAIN ST", "postcode": "44851"}}},
{"geometry": {"type": "Point", "coordinates": [-82.3983019737, 41.085234836]}, "type": "Feature", "properties": {"collection_times": [{"days": "Mon-Sat", "time": "2:15pm"}, {"days": "Sun", "time": "Closed"}], "id": "4485100007", "name": "USPS COLLECTION BOX - BLUE BOX", "address": {"city": "NEW LONDON", "state": "OH", "street": "24 E MAIN ST", "postcode": "44851"}}},
{"geometry": {"type": "Point", "coordinates": [-83.318665671, 41.052033135]}, "type": "Feature", "properties": {"collection_times": [{"days": "Mon-Fri", "time": "3:45pm"}, {"days": "Sat", "time": "11:45am"}, {"days": "Sun", "time": "Closed"}], "id": "4485300001", "name": "USPS COLLECTION BOX - PO LOBBY", "address": {"city": "NEW RIEGEL", "state": "OH", "street": "13 N PERRY ST", "postcode": "44853"}}},
{"geometry": {"type": "Point", "coordinates": [-83.318665671, 41.052033135]}, "type": "Feature", "properties": {"collection_times": [{"days": "Mon-Fri", "time": "3:45pm"}, {"days": "Sat", "time": "11:45am"}, {"days": "Sun", "time": "Closed"}], "id": "4485300002", "name": "USPS COLLECTION BOX - BLUE BOX", "address": {"city": "NEW RIEGEL", "state": "OH", "street": "13 N PERRY ST", "postcode": "44853"}}},
{"geometry": {"type": "Point", "coordinates": [-82.8550503829, 40.9623832344]}, "type": "Feature", "properties": {"collection_times": [{"days": "Mon-Fri", "time": "4:00pm"}, {"days": "Sat", "time": "11:00am"}, {"days": "Sun", "time": "Closed"}], "id": "4485400003", "name": "USPS COLLECTION BOX - BLUE BOX", "address": {"city": "NEW WASHINGTON", "state": "OH", "street": "214 W MANSFIELD ST", "postcode": "44854"}}},
{"geometry": {"type": "Point", "coordinates": [-82.8550503829, 40.9623832344]}, "type": "Feature", "properties": {"collection_times": [{"days": "Mon-Fri", "time": "4:00pm"}, {"days": "Sat", "time": "11:00am"}, {"days": "Sun", "time": "Closed"}], "id": "4485400004", "name": "USPS COLLECTION BOX - PO LOBBY", "address": {"city": "NEW WASHINGTON", "state": "OH", "street": "214 W MANSFIELD ST", "postcode": "44854"}}},
{"geometry": {"type": "Point", "coordinates": [-82.8550503829, 40.9623832344]}, "type": "Feature", "properties": {"collection_times": [{"days": "Mon-Fri", "time": "4:00pm"}, {"days": "Sat", "time": "11:00am"}, {"days": "Sun", "time": "Closed"}], "id": "4485400006", "name": "USPS COLLECTION BOX - BLUE BOX", "address": {"city": "NEW WASHINGTON", "state": "OH", "street": "214 W MANSFIELD ST", "postcode": "44854"}}},
{"geometry": {"type": "Point", "coordinates": [-82.6116638, 41.1042342989]}, "type": "Feature", "properties": {"collection_times": [{"days": "Mon-Fri", "time": "3:30pm"}, {"days": "Sat", "time": "10:45am"}, {"days": "Sun", "time": "Closed"}], "id": "4485500002", "name": "USPS COLLECTION BOX - BLUE BOX", "address": {"city": "N FAIRFIELD", "state": "OH", "street": "1 N MAIN ST", "postcode": "44855"}}},
{"geometry": {"type": "Point", "coordinates": [-82.6191759197, 41.2471437599]}, "type": "Feature", "properties": {"collection_times": [{"days": "Mon-Sat", "time": "11:00am"}, {"days": "Sun", "time": "Closed"}], "id": "4485700001", "name": "USPS COLLECTION BOX - BLUE BOX", "address": {"city": "NORWALK", "state": "OH", "street": "117 WHITTLESEY AVE", "postcode": "44857"}}},
{"geometry": {"type": "Point", "coordinates": [-82.6119924745, 41.2553920143]}, "type": "Feature", "properties": {"collection_times": [{"days": "Mon-Sat", "time": "10:15am"}, {"days": "Sun", "time": "Closed"}], "id": "4485700003", "name": "USPS COLLECTION BOX - BLUE BOX", "address": {"city": "NORWALK", "state": "OH", "street": "201 MILAN AVE", "postcode": "44857"}}},
{"geometry": {"type": "Point", "coordinates": [-82.6118264435, 41.2548298069]}, "type": "Feature", "properties": {"collection_times": [{"days": "Mon-Sat", "time": "10:00am"}, {"days": "Sun", "time": "Closed"}], "id": "4485700004", "name": "USPS COLLECTION BOX - BLUE BOX", "address": {"city": "NORWALK", "state": "OH", "street": "180 MILAN AVE", "postcode": "44857"}}},
{"geometry": {"type": "Point", "coordinates": [-82.6160337603, 41.2430306101]}, "type": "Feature", "properties": {"collection_times": [{"days": "Mon-Sat", "time": "5:00pm"}, {"days": "Sun", "time": "Closed"}], "id": "4485700015", "name": "USPS COLLECTION BOX - BLUE BOX", "address": {"city": "NORWALK", "state": "OH", "street": "16 WHITTLESEY AVE", "postcode": "44857"}}},
{"geometry": {"type": "Point", "coordinates": [-82.6160337603, 41.2430306101]}, "type": "Feature", "properties": {"collection_times": [{"days": "Mon-Sat", "time": "5:00pm"}, {"days": "Sun", "time": "Closed"}], "id": "4485700016", "name": "USPS COLLECTION BOX - BLUE BOX", "address": {"city": "NORWALK", "state": "OH", "street": "16 WHITTLESEY AVE", "postcode": "44857"}}},
{"geometry": {"type": "Point", "coordinates": [-82.6160337603, 41.2430306101]}, "type": "Feature", "properties": {"collection_times": [{"days": "Mon-Sat", "time": "5:00pm"}, {"days": "Sun", "time": "Closed"}], "id": "4485700018", "name": "USPS COLLECTION BOX - BLUE BOX", "address": {"city": "NORWALK", "state": "OH", "street": "16 WHITTLESEY AVE", "postcode": "44857"}}},
{"geometry": {"type": "Point", "coordinates": [-82.6160337603, 41.2430306101]}, "type": "Feature", "properties": {"collection_times": [{"days": "Mon-Sat", "time": "5:00pm"}, {"days": "Sun", "time": "Closed"}], "id": "4485700020", "name": "USPS COLLECTION BOX - PO LOBBY", "address": {"city": "NORWALK", "state": "OH", "street": "16 WHITTLESEY AVE", "postcode": "44857"}}},
{"geometry": {"type": "Point", "coordinates": [-82.6119621207, 41.2545442776]}, "type": "Feature", "properties": {"collection_times": [{"days": "Mon-Fri", "time": "10:45am"}, {"days": "Sat", "time": "10:30am"}, {"days": "Sun", "time": "Closed"}], "id": "4485700027", "name": "USPS COLLECTION BOX - BLUE BOX", "address": {"city": "NORWALK", "state": "OH", "street": "171 MILAN AVE", "postcode": "44857"}}},
{"geometry": {"type": "Point", "coordinates": [-82.61311239, 41.2555024665]}, "type": "Feature", "properties": {"collection_times": [{"days": "Mon-Sat", "time": "10:30am"}, {"days": "Sun", "time": "Closed"}], "id": "4485700028", "name": "USPS COLLECTION BOX - BLUE BOX", "address": {"city": "NORWALK", "state": "OH", "street": "201 CLINE ST", "postcode": "44857"}}},
{"geometry": {"type": "Point", "coordinates": [-82.3049222688, 41.0294802117]}, "type": "Feature", "properties": {"collection_times": [{"days": "Mon-Fri", "time": "4:00pm"}, {"days": "Sat", "time": "11:00am"}, {"days": "Sun", "time": "Closed"}], "id": "4485900001", "name": "USPS COLLECTION BOX - BLUE BOX", "address": {"city": "NOVA", "state": "OH", "street": "246 STATE ROUTE 511", "postcode": "44859"}}},
{"geometry": {"type": "Point", "coordinates": [-82.3049222688, 41.0294802117]}, "type": "Feature", "properties": {"collection_times": [{"days": "Mon-Fri", "time": "4:00pm"}, {"days": "Sat", "time": "11:00am"}, {"days": "Sun", "time": "Closed"}], "id": "4485900002", "name": "USPS COLLECTION BOX - PO LOBBY", "address": {"city": "NOVA", "state": "OH", "street": "246 STATE ROUTE 511", "postcode": "44859"}}},
{"geometry": {"type": "Point", "coordinates": [-83.0933234827, 40.8448418705]}, "type": "Feature", "properties": {"collection_times": [{"days": "Mon-Fri", "time": "4:00pm"}, {"days": "Sat", "time": "11:00am"}, {"days": "Sun", "time": "Closed"}], "id": "4486000001", "name": "USPS COLLECTION BOX - BLUE BOX", "address": {"city": "OCEOLA", "state": "OH", "street": "3910 MARION MELMORE RD", "postcode": "44860"}}},
{"geometry": {"type": "Point", "coordinates": [-83.0933234827, 40.8448418705]}, "type": "Feature", "properties": {"collection_times": [{"days": "Mon-Fri", "time": "4:00pm"}, {"days": "Sat", "time": "11:00am"}, {"days": "Sun", "time": "Closed"}], "id": "4486000002", "name": "USPS COLLECTION BOX - PO LOBBY", "address": {"city": "OCEOLA", "state": "OH", "street": "3910 MARION MELMORE RD", "postcode": "44860"}}},
{"geometry": {"type": "Point", "coordinates": [-83.1494132334, 41.2409226331]}, "type": "Feature", "properties": {"collection_times": [{"days": "Mon-Fri", "time": "4:00pm"}, {"days": "Sat", "time": "11:00am"}, {"days": "Sun", "time": "Closed"}], "id": "4486100001", "name": "USPS COLLECTION BOX - BLUE BOX", "address": {"city": "OLD FORT", "state": "OH", "street": "8064 MAIN ST", "postcode": "44861"}}},
{"geometry": {"type": "Point", "coordinates": [-83.1494132334, 41.2409226331]}, "type": "Feature", "properties": {"collection_times": [{"days": "Mon-Fri", "time": "4:00pm"}, {"days": "Sat", "time": "11:00am"}, {"days": "Sun", "time": "Closed"}], "id": "4486100002", "name": "USPS COLLECTION BOX - PO LOBBY", "address": {"city": "OLD FORT", "state": "OH", "street": "8064 MAIN ST", "postcode": "44861"}}},
{"geometry": {"type": "Point", "coordinates": [-82.6457072154, 40.7604455069]}, "type": "Feature", "properties": {"collection_times": [{"days": "Mon-Fri", "time": "5:00pm"}, {"days": "Sat", "time": "12:00pm"}, {"days": "Sun", "time": "Closed"}], "id": "4486200001", "name": "USPS COLLECTION BOX - BLUE BOX", "address": {"city": "ONTARIO", "state": "OH", "street": "3656 PARK AVE W", "postcode": "44862"}}},
{"geometry": {"type": "Point", "coordinates": [-82.3099216902, 40.6585708203]}, "type": "Feature", "properties": {"collection_times": [{"days": "Mon-Fri", "time": "4:15pm"}, {"days": "Sat", "time": "11:45am"}, {"days": "Sun", "time": "Closed"}], "id": "4486400001", "name": "USPS COLLECTION BOX - BLUE BOX", "address": {"city": "PERRYSVILLE", "state": "OH", "street": "112 W 1ST ST", "postcode": "44864"}}},
{"geometry": {"type": "Point", "coordinates": [-82.6669201951, 40.9985021386]}, "type": "Feature", "properties": {"collection_times": [{"days": "Mon-Sat", "time": "9:00am"}, {"days": "Sun", "time": "Closed"}], "id": "4486500002", "name": "USPS COLLECTION BOX - BLUE BOX", "address": {"city": "PLYMOUTH", "state": "OH", "street": "262 SANDUSKY ST", "postcode": "44865"}}},
{"geometry": {"type": "Point", "coordinates": [-82.6668577039, 40.9890557327]}, "type": "Feature", "properties": {"collection_times": [{"days": "Mon-Fri", "time": "5:00pm"}, {"days": "Sat", "time": "11:15am"}, {"days": "Sun", "time": "Closed"}], "id": "4486500003", "name": "USPS COLLECTION BOX - BLUE BOX", "address": {"city": "PLYMOUTH", "state": "OH", "street": "27 PLYMOUTH ST", "postcode": "44865"}}},
{"geometry": {"type": "Point", "coordinates": [-82.6668577039, 40.9890557327]}, "type": "Feature", "properties": {"collection_times": [{"days": "Mon-Fri", "time": "5:00pm"}, {"days": "Sat", "time": "11:15am"}, {"days": "Sun", "time": "Closed"}], "id": "4486500004", "name": "USPS COLLECTION BOX - PO LOBBY", "address": {"city": "PLYMOUTH", "state": "OH", "street": "27 PLYMOUTH ST", "postcode": "44865"}}},
{"geometry": {"type": "Point", "coordinates": [-82.2149567148, 40.9447576193]}, "type": "Feature", "properties": {"collection_times": [{"days": "Mon-Fri", "time": "4:00pm"}, {"days": "Sat", "time": "11:00am"}, {"days": "Sun", "time": "Closed"}], "id": "4486600001", "name": "USPS COLLECTION BOX - PO LOBBY", "address": {"city": "POLK", "state": "OH", "street": "103 W CONGRESS ST", "postcode": "44866"}}},
{"geometry": {"type": "Point", "coordinates": [-82.2149567148, 40.9447576193]}, "type": "Feature", "properties": {"collection_times": [{"days": "Mon-Fri", "time": "4:00pm"}, {"days": "Sat", "time": "11:00am"}, {"days": "Sun", "time": "Closed"}], "id": "4486600002", "name": "USPS COLLECTION BOX - BLUE BOX", "address": {"city": "POLK", "state": "OH", "street": "103 W CONGRESS ST", "postcode": "44866"}}},
{"geometry": {"type": "Point", "coordinates": [-83.015549135, 41.1185590037]}, "type": "Feature", "properties": {"collection_times": [{"days": "Mon-Fri", "time": "4:00pm"}, {"days": "Sat", "time": "12:00pm"}, {"days": "Sun", "time": "Closed"}], "id": "4486700001", "name": "USPS COLLECTION BOX - PO LOBBY", "address": {"city": "REPUBLIC", "state": "OH", "street": "300 MADISON ST", "postcode": "44867"}}},
{"geometry": {"type": "Point", "coordinates": [-83.015549135, 41.1185590037]}, "type": "Feature", "properties": {"collection_times": [{"days": "Mon-Fri", "time": "5:00pm"}, {"days": "Sat", "time": "12:00pm"}, {"days": "Sun", "time": "Closed"}], "id": "4486700002", "name": "USPS COLLECTION BOX - BLUE BOX", "address": {"city": "REPUBLIC", "state": "OH", "street": "300 MADISON ST", "postcode": "44867"}}},
{"geometry": {"type": "Point", "coordinates": [-82.7017231823, 41.4583894578]}, "type": "Feature", "properties": {"collection_times": [{"days": "Mon-Fri", "time": "4:15pm"}, {"days": "Sat", "time": "12:00pm"}, {"days": "Sun", "time": "Closed"}], "id": "4487000004", "name": "USPS COLLECTION BOX - BLUE BOX", "address": {"city": "SANDUSKY", "state": "OH", "street": "222 MEIGS ST", "postcode": "44870"}}},
{"geometry": {"type": "Point", "coordinates": [-82.6667365381, 41.4394438991]}, "type": "Feature", "properties": {"collection_times": [{"days": "Mon-Sat", "time": "10:30am"}, {"days": "Sun", "time": "Closed"}], "id": "4487000007", "name": "USPS COLLECTION BOX - BLUE BOX", "address": {"city": "SANDUSKY", "state": "OH", "street": "127 PALMER DR", "postcode": "44870"}}},
{"geometry": {"type": "Point", "coordinates": [-82.7164718936, 41.430077838]}, "type": "Feature", "properties": {"collection_times": [{"days": "Mon-Sat", "time": "2:30pm"}, {"days": "Sun", "time": "Closed"}], "id": "4487000009", "name": "USPS COLLECTION BOX - BLUE BOX", "address": {"city": "SANDUSKY", "state": "OH", "street": "2509 HAYES AVE", "postcode": "44870"}}},
{"geometry": {"type": "Point", "coordinates": [-82.7357722902, 41.4402038296]}, "type": "Feature", "properties": {"collection_times": [{"days": "Mon-Sat", "time": "2:45pm"}, {"days": "Sun", "time": "Closed"}], "id": "4487000011", "name": "USPS COLLECTION BOX - BLUE BOX", "address": {"city": "SANDUSKY", "state": "OH", "street": "2609 VENICE RD", "postcode": "44870"}}},
{"geometry": {"type": "Point", "coordinates": [-82.6899721266, 41.419474946]}, "type": "Feature", "properties": {"collection_times": [{"days": "Mon-Fri", "time": "2:30pm"}, {"days": "Sat", "time": "1:00pm"}, {"days": "Sun", "time": "Closed"}], "id": "4487000016", "name": "USPS COLLECTION BOX - BLUE BOX", "address": {"city": "SANDUSKY", "state": "OH", "street": "3416 COLUMBUS AVE", "postcode": "44870"}}},
{"geometry": {"type": "Point", "coordinates": [-82.7097542907, 41.4557384468]}, "type": "Feature", "properties": {"collection_times": [{"days": "Mon-Fri", "time": "4:30pm"}, {"days": "Sat", "time": "12:00pm"}, {"days": "Sun", "time": "Closed"}], "id": "4487000021", "name": "USPS COLLECTION BOX - BLUE BOX", "address": {"city": "SANDUSKY", "state": "OH", "street": "173 E WASHINGTON ROW", "postcode": "44870"}}},
{"geometry": {"type": "Point", "coordinates": [-82.6948005064, 41.4470898338]}, "type": "Feature", "properties": {"collection_times": [{"days": "Mon-Sat", "time": "11:00am"}, {"days": "Sun", "time": "Closed"}], "id": "4487000022", "name": "USPS COLLECTION BOX - BLUE BOX", "address": {"city": "SANDUSKY", "state": "OH", "street": "1104 ERIE BLVD", "postcode": "44870"}}},
{"geometry": {"type": "Point", "coordinates": [-82.7813594115, 41.4477395218]}, "type": "Feature", "properties": {"collection_times": [{"days": "Mon-Sat", "time": "10:00am"}, {"days": "Sun", "time": "Closed"}], "id": "4487000029", "name": "USPS COLLECTION BOX - BLUE BOX", "address": {"city": "SANDUSKY", "state": "OH", "street": "101 LANDRUSH ST", "postcode": "44870"}}},
{"geometry": {"type": "Point", "coordinates": [-82.6977626797, 41.4469518993]}, "type": "Feature", "properties": {"collection_times": [{"days": "Mon-Fri", "time": "4:00pm"}, {"days": "Sat", "time": "3:00pm"}, {"days": "Sun", "time": "Closed"}], "id": "4487000034", "name": "USPS COLLECTION BOX - BLUE BOX", "address": {"city": "SANDUSKY", "state": "OH", "street": "1040 CLEVELAND RD", "postcode": "44870"}}},
{"geometry": {"type": "Point", "coordinates": [-82.6977626797, 41.4469518993]}, "type": "Feature", "properties": {"collection_times": [{"days": "Mon-Fri", "time": "4:00pm"}, {"days": "Sat", "time": "3:00pm"}, {"days": "Sun", "time": "Closed"}], "id": "4487000035", "name": "USPS COLLECTION BOX - BLUE BOX", "address": {"city": "SANDUSKY", "state": "OH", "street": "1040 CLEVELAND RD", "postcode": "44870"}}},
{"geometry": {"type": "Point", "coordinates": [-82.7026328777, 41.4341766537]}, "type": "Feature", "properties": {"collection_times": [{"days": "Mon-Fri", "time": "5:15pm"}, {"days": "Sat", "time": "4:00pm"}, {"days": "Sun", "time": "Closed"}], "id": "4487000042", "name": "USPS COLLECTION BOX - BLUE BOX", "address": {"city": "SANDUSKY", "state": "OH", "street": "2220 CALDWELL ST", "postcode": "44870"}}},
{"geometry": {"type": "Point", "coordinates": [-82.7082673113, 41.4568669896]}, "type": "Feature", "properties": {"collection_times": [{"days": "Mon-Fri", "time": "4:30pm"}, {"days": "Sat", "time": "12:00pm"}, {"days": "Sun", "time": "Closed"}], "id": "4487000043", "name": "USPS COLLECTION BOX - BLUE BOX", "address": {"city": "SANDUSKY", "state": "OH", "street": "200 HANCOCK ST", "postcode": "44870"}}},
{"geometry": {"type": "Point", "coordinates": [-82.7124325265, 41.4559858108]}, "type": "Feature", "properties": {"collection_times": [{"days": "Mon-Fri", "time": "5:00pm"}, {"days": "Sat", "time": "2:00pm"}, {"days": "Sun", "time": "Closed"}], "id": "4487000044", "name": "USPS COLLECTION BOX - BLUE BOX", "address": {"city": "SANDUSKY", "state": "OH", "street": "201 W MARKET ST", "postcode": "44870"}}},
{"geometry": {"type": "Point", "coordinates": [-82.7124325265, 41.4559858108]}, "type": "Feature", "properties": {"collection_times": [{"days": "Mon-Fri", "time": "5:00pm"}, {"days": "Sat", "time": "2:00pm"}, {"days": "Sun", "time": "Closed"}], "id": "4487000046", "name": "USPS COLLECTION BOX - BLUE BOX", "address": {"city": "SANDUSKY", "state": "OH", "street": "201 W MARKET ST", "postcode": "44870"}}},
{"geometry": {"type": "Point", "coordinates": [-82.7124325265, 41.4559858108]}, "type": "Feature", "properties": {"collection_times": [{"days": "Mon-Fri", "time": "5:00pm"}, {"days": "Sat", "time": "2:00pm"}, {"days": "Sun", "time": "Closed"}], "id": "4487000048", "name": "USPS COLLECTION BOX - BLUE BOX", "address": {"city": "SANDUSKY", "state": "OH", "street": "201 W MARKET ST", "postcode": "44870"}}},
{"geometry": {"type": "Point", "coordinates": [-82.7101813389, 41.453597291]}, "type": "Feature", "properties": {"collection_times": [{"days": "Mon-Sat", "time": "2:00pm"}, {"days": "Sun", "time": "Closed"}], "id": "4487000053", "name": "USPS COLLECTION BOX - BLUE BOX", "address": {"city": "SANDUSKY", "state": "OH", "street": "402 COLUMBUS AVE", "postcode": "44870"}}},
{"geometry": {"type": "Point", "coordinates": [-82.6961810195, 41.4328044213]}, "type": "Feature", "properties": {"collection_times": [{"days": "Mon-Sat", "time": "2:45pm"}, {"days": "Sun", "time": "Closed"}], "id": "4487000055", "name": "USPS COLLECTION BOX - BLUE BOX", "address": {"city": "SANDUSKY", "state": "OH", "street": "124 E PERKINS AVE", "postcode": "44870"}}},
{"geometry": {"type": "Point", "coordinates": [-82.6961810195, 41.4328044213]}, "type": "Feature", "properties": {"collection_times": [{"days": "Mon-Sat", "time": "2:45pm"}, {"days": "Sun", "time": "Closed"}], "id": "4487000056", "name": "USPS COLLECTION BOX - BLUE BOX", "address": {"city": "SANDUSKY", "state": "OH", "street": "124 E PERKINS AVE", "postcode": "44870"}}},
{"geometry": {"type": "Point", "coordinates": [-82.6873242057, 41.4150091696]}, "type": "Feature", "properties": {"collection_times": [{"days": "Mon-Fri", "time": "2:30pm"}, {"days": "Sat", "time": "1:00pm"}, {"days": "Sun", "time": "Closed"}], "id": "4487000057", "name": "USPS COLLECTION BOX - BLUE BOX", "address": {"city": "SANDUSKY", "state": "OH", "street": "3708 COLUMBUS AVE", "postcode": "44870"}}},
{"geometry": {"type": "Point", "coordinates": [-82.6721447688, 41.416356338]}, "type": "Feature", "properties": {"collection_times": [{"days": "Mon-Fri", "time": "4:00pm"}, {"days": "Sat", "time": "2:00pm"}, {"days": "Sun", "time": "Closed"}], "id": "4487000060", "name": "USPS COLLECTION BOX - BLUE BOX", "address": {"city": "SANDUSKY", "state": "OH", "street": "4314 MILAN RD", "postcode": "44870"}}},
{"geometry": {"type": "Point", "coordinates": [-82.6757924649, 41.4432128376]}, "type": "Feature", "properties": {"collection_times": [{"days": "Mon-Sat", "time": "11:00am"}, {"days": "Sun", "time": "Closed"}], "id": "4487000062", "name": "USPS COLLECTION BOX - BLUE BOX", "address": {"city": "SANDUSKY", "state": "OH", "street": "230 MARINA POINT DR", "postcode": "44870"}}},
{"geometry": {"type": "Point", "coordinates": [-82.7026328777, 41.4341766537]}, "type": "Feature", "properties": {"collection_times": [{"days": "Mon-Fri", "time": "5:15pm"}, {"days": "Sat", "time": "4:00pm"}, {"days": "Sun", "time": "Closed"}], "id": "4487000063", "name": "USPS COLLECTION BOX - BLUE BOX", "address": {"city": "SANDUSKY", "state": "OH", "street": "2220 CALDWELL ST", "postcode": "44870"}}},
{"geometry": {"type": "Point", "coordinates": [-82.7026328777, 41.4341766537]}, "type": "Feature", "properties": {"collection_times": [{"days": "Mon-Fri", "time": "5:15pm"}, {"days": "Sat", "time": "4:00pm"}, {"days": "Sun", "time": "Closed"}], "id": "4487000065", "name": "USPS COLLECTION BOX - BLUE BOX", "address": {"city": "SANDUSKY", "state": "OH", "street": "2220 CALDWELL ST", "postcode": "44870"}}},
{"geometry": {"type": "Point", "coordinates": [-82.7026328777, 41.4341766537]}, "type": "Feature", "properties": {"collection_times": [{"days": "Mon-Fri", "time": "5:15pm"}, {"days": "Sat", "time": "4:00pm"}, {"days": "Sun", "time": "Closed"}], "id": "4487000067", "name": "USPS COLLECTION BOX - BLUE BOX", "address": {"city": "SANDUSKY", "state": "OH", "street": "2220 CALDWELL ST", "postcode": "44870"}}},
{"geometry": {"type": "Point", "coordinates": [-82.7026328777, 41.4341766537]}, "type": "Feature", "properties": {"collection_times": [{"days": "Mon-Fri", "time": "5:15pm"}, {"days": "Sat", "time": "4:00pm"}, {"days": "Sun", "time": "Closed"}], "id": "4487000068", "name": "USPS COLLECTION BOX - BLUE BOX", "address": {"city": "SANDUSKY", "state": "OH", "street": "2220 CALDWELL ST", "postcode": "44870"}}},
{"geometry": {"type": "Point", "coordinates": [-82.7026328777, 41.4341766537]}, "type": "Feature", "properties": {"collection_times": [{"days": "Mon-Fri", "time": "5:15pm"}, {"days": "Sat", "time": "4:00pm"}, {"days": "Sun", "time": "Closed"}], "id": "4487000069", "name": "USPS COLLECTION BOX - BLUE BOX", "address": {"city": "SANDUSKY", "state": "OH", "street": "2220 CALDWELL ST", "postcode": "44870"}}},
{"geometry": {"type": "Point", "coordinates": [-82.7026328777, 41.4341766537]}, "type": "Feature", "properties": {"collection_times": [{"days": "Mon-Fri", "time": "5:15pm"}, {"days": "Sat", "time": "4:00pm"}, {"days": "Sun", "time": "Closed"}], "id": "4487000070", "name": "USPS COLLECTION BOX - PO LOBBY", "address": {"city": "SANDUSKY", "state": "OH", "street": "2220 CALDWELL ST", "postcode": "44870"}}},
{"geometry": {"type": "Point", "coordinates": [-82.7026328777, 41.4341766537]}, "type": "Feature", "properties": {"collection_times": [{"days": "Mon-Fri", "time": "5:15pm"}, {"days": "Sat", "time": "4:00pm"}, {"days": "Sun", "time": "Closed"}], "id": "4487000071", "name": "USPS COLLECTION BOX - PO LOBBY", "address": {"city": "SANDUSKY", "state": "OH", "street": "2220 CALDWELL ST", "postcode": "44870"}}},
{"geometry": {"type": "Point", "coordinates": [-82.7026328777, 41.4341766537]}, "type": "Feature", "properties": {"collection_times": [{"days": "Mon-Fri", "time": "5:15pm"}, {"days": "Sat", "time": "4:00pm"}, {"days": "Sun", "time": "Closed"}], "id": "4487000072", "name": "USPS COLLECTION BOX - PO LOBBY", "address": {"city": "SANDUSKY", "state": "OH", "street": "2220 CALDWELL ST", "postcode": "44870"}}},
{"geometry": {"type": "Point", "coordinates": [-82.7026328777, 41.4341766537]}, "type": "Feature", "properties": {"collection_times": [{"days": "Mon-Fri", "time": "5:15pm"}, {"days": "Sat", "time": "4:00pm"}, {"days": "Sun", "time": "Closed"}], "id": "4487000073", "name": "USPS COLLECTION BOX - PO LOBBY", "address": {"city": "SANDUSKY", "state": "OH", "street": "2220 CALDWELL ST", "postcode": "44870"}}},
{"geometry": {"type": "Point", "coordinates": [-82.7026328777, 41.4341766537]}, "type": "Feature", "properties": {"collection_times": [{"days": "Mon-Fri", "time": "5:15pm"}, {"days": "Sat", "time": "4:00pm"}, {"days": "Sun", "time": "Closed"}], "id": "4487000074", "name": "USPS COLLECTION BOX - PO LOBBY", "address": {"city": "SANDUSKY", "state": "OH", "street": "2220 CALDWELL ST", "postcode": "44870"}}},
{"geometry": {"type": "Point", "coordinates": [-82.7113832252, 41.4556260657]}, "type": "Feature", "properties": {"collection_times": [{"days": "Mon-Sat", "time": "2:00pm"}, {"days": "Sun", "time": "Closed"}], "id": "4487000080", "name": "USPS COLLECTION BOX - BLUE BOX", "address": {"city": "SANDUSKY", "state": "OH", "street": "247 COLUMBUS AVE", "postcode": "44870"}}},
{"geometry": {"type": "Point", "coordinates": [-82.7026328777, 41.4341766537]}, "type": "Feature", "properties": {"collection_times": [{"days": "Mon-Fri", "time": "5:15pm"}, {"days": "Sat", "time": "4:00pm"}, {"days": "Sun", "time": "Closed"}], "id": "4487000084", "name": "USPS COLLECTION BOX - APC", "address": {"city": "SANDUSKY", "state": "OH", "street": "2220 CALDWELL ST", "postcode": "44870"}}},
{"geometry": {"type": "Point", "coordinates": [-82.3646437427, 40.9654966291]}, "type": "Feature", "properties": {"collection_times": [{"days": "Mon-Fri", "time": "5:00pm"}, {"days": "Sat", "time": "12:00pm"}, {"days": "Sun", "time": "Closed"}], "id": "4487400001", "name": "USPS COLLECTION BOX - BLUE BOX", "address": {"city": "SAVANNAH", "state": "OH", "street": "2 MAIN ST", "postcode": "44874"}}},
{"geometry": {"type": "Point", "coordinates": [-82.3646437427, 40.9654966291]}, "type": "Feature", "properties": {"collection_times": [{"days": "Mon-Fri", "time": "5:00pm"}, {"days": "Sat", "time": "12:00pm"}, {"days": "Sun", "time": "Closed"}], "id": "4487400002", "name": "USPS COLLECTION BOX - PO LOBBY", "address": {"city": "SAVANNAH", "state": "OH", "street": "2 MAIN ST", "postcode": "44874"}}},
{"geometry": {"type": "Point", "coordinates": [-82.648370748, 40.8723588548]}, "type": "Feature", "properties": {"collection_times": [{"days": "Mon-Sat", "time": "12:00pm"}, {"days": "Sun", "time": "Closed"}], "id": "4487500021", "name": "USPS COLLECTION BOX - BLUE BOX", "address": {"city": "SHELBY", "state": "OH", "street": "140 MANSFIELD AVE", "postcode": "44875"}}},
{"geometry": {"type": "Point", "coordinates": [-82.6451288946, 40.8726107117]}, "type": "Feature", "properties": {"collection_times": [{"days": "Mon-Sat", "time": "12:00pm"}, {"days": "Sun", "time": "Closed"}], "id": "4487500024", "name": "USPS COLLECTION BOX - BLUE BOX", "address": {"city": "SHELBY", "state": "OH", "street": "93 PARK VLG", "postcode": "44875"}}},
{"geometry": {"type": "Point", "coordinates": [-82.6460791585, 40.8786070735]}, "type": "Feature", "properties": {"collection_times": [{"days": "Mon-Sat", "time": "12:00pm"}, {"days": "Sun", "time": "Closed"}], "id": "4487500025", "name": "USPS COLLECTION BOX - BLUE BOX", "address": {"city": "SHELBY", "state": "OH", "street": "44 ROBERTS DR", "postcode": "44875"}}},
{"geometry": {"type": "Point", "coordinates": [-82.6617261567, 40.880064479]}, "type": "Feature", "properties": {"collection_times": [{"days": "Mon-Fri", "time": "5:00pm"}, {"days": "Sat", "time": "4:30pm"}, {"days": "Sun", "time": "Closed"}], "id": "4487500029", "name": "USPS COLLECTION BOX - BLUE BOX", "address": {"city": "SHELBY", "state": "OH", "street": "26 N GAMBLE ST", "postcode": "44875"}}},
{"geometry": {"type": "Point", "coordinates": [-82.6617261567, 40.880064479]}, "type": "Feature", "properties": {"collection_times": [{"days": "Mon-Fri", "time": "5:00pm"}, {"days": "Sat", "time": "4:30pm"}, {"days": "Sun", "time": "Closed"}], "id": "4487500030", "name": "USPS COLLECTION BOX - BLUE BOX", "address": {"city": "SHELBY", "state": "OH", "street": "26 N GAMBLE ST", "postcode": "44875"}}},
{"geometry": {"type": "Point", "coordinates": [-82.6617261567, 40.880064479]}, "type": "Feature", "properties": {"collection_times": [{"days": "Mon-Fri", "time": "5:00pm"}, {"days": "Sat", "time": "4:30pm"}, {"days": "Sun", "time": "Closed"}], "id": "4487500032", "name": "USPS COLLECTION BOX - BLUE BOX", "address": {"city": "SHELBY", "state": "OH", "street": "26 N GAMBLE ST", "postcode": "44875"}}},
{"geometry": {"type": "Point", "coordinates": [-82.6617261567, 40.880064479]}, "type": "Feature", "properties": {"collection_times": [{"days": "Mon-Fri", "time": "5:00pm"}, {"days": "Sat", "time": "4:30pm"}, {"days": "Sun", "time": "Closed"}], "id": "4487500033", "name": "USPS COLLECTION BOX - BLUE BOX", "address": {"city": "SHELBY", "state": "OH", "street": "26 N GAMBLE ST", "postcode": "44875"}}},
{"geometry": {"type": "Point", "coordinates": [-82.6720365616, 40.878247824]}, "type": "Feature", "properties": {"collection_times": [{"days": "Mon-Sat", "time": "10:00am"}, {"days": "Sun", "time": "Closed"}], "id": "4487500041", "name": "USPS COLLECTION BOX - BLUE BOX", "address": {"city": "SHELBY", "state": "OH", "street": "10 W PARK DR", "postcode": "44875"}}},
{"geometry": {"type": "Point", "coordinates": [-82.6530818566, 40.8798403678]}, "type": "Feature", "properties": {"collection_times": [{"days": "Mon-Sat", "time": "10:00am"}, {"days": "Sun", "time": "Closed"}], "id": "4487500044", "name": "USPS COLLECTION BOX - BLUE BOX", "address": {"city": "SHELBY", "state": "OH", "street": "10 GRAND BLVD", "postcode": "44875"}}},
{"geometry": {"type": "Point", "coordinates": [-82.6617261567, 40.880064479]}, "type": "Feature", "properties": {"collection_times": [{"days": "Mon-Fri", "time": "5:00pm"}, {"days": "Sat", "time": "4:30pm"}, {"days": "Sun", "time": "Closed"}], "id": "4487500045", "name": "USPS COLLECTION BOX - PO LOBBY", "address": {"city": "SHELBY", "state": "OH", "street": "26 N GAMBLE ST", "postcode": "44875"}}},
{"geometry": {"type": "Point", "coordinates": [-82.6617261567, 40.880064479]}, "type": "Feature", "properties": {"collection_times": [{"days": "Mon-Fri", "time": "5:00pm"}, {"days": "Sat", "time": "4:30pm"}, {"days": "Sun", "time": "Closed"}], "id": "4487500046", "name": "USPS COLLECTION BOX - PO LOBBY", "address": {"city": "SHELBY", "state": "OH", "street": "26 N GAMBLE ST", "postcode": "44875"}}},
{"geometry": {"type": "Point", "coordinates": [-82.6391718663, 40.8639106194]}, "type": "Feature", "properties": {"collection_times": [{"days": "Mon-Sat", "time": "10:00am"}, {"days": "Sun", "time": "Closed"}], "id": "4487500047", "name": "USPS COLLECTION BOX - BLUE BOX", "address": {"city": "SHELBY", "state": "OH", "street": "219 MANSFIELD AVE", "postcode": "44875"}}},
{"geometry": {"type": "Point", "coordinates": [-82.6014378586, 40.9672463751]}, "type": "Feature", "properties": {"collection_times": [{"days": "Mon-Fri", "time": "4:00pm"}, {"days": "Sat", "time": "12:00pm"}, {"days": "Sun", "time": "Closed"}], "id": "4487800001", "name": "USPS COLLECTION BOX - BLUE BOX", "address": {"city": "SHILOH", "state": "OH", "street": "9 W MAIN ST", "postcode": "44878"}}},
{"geometry": {"type": "Point", "coordinates": [-82.6014378586, 40.9672463751]}, "type": "Feature", "properties": {"collection_times": [{"days": "Mon-Fri", "time": "4:00pm"}, {"days": "Sat", "time": "12:00pm"}, {"days": "Sun", "time": "Closed"}], "id": "4487800002", "name": "USPS COLLECTION BOX - PO LOBBY", "address": {"city": "SHILOH", "state": "OH", "street": "9 W MAIN ST", "postcode": "44878"}}},
{"geometry": {"type": "Point", "coordinates": [-82.222049963, 41.0287142576]}, "type": "Feature", "properties": {"collection_times": [{"days": "Mon-Fri", "time": "11:30am"}, {"days": "Sat", "time": "10:45am"}, {"days": "Sun", "time": "Closed"}], "id": "4488000002", "name": "USPS COLLECTION BOX - BLUE BOX", "address": {"city": "SULLIVAN", "state": "OH", "street": "246 STATE ROUTE 58", "postcode": "44880"}}},
{"geometry": {"type": "Point", "coordinates": [-82.9771316844, 40.80594646]}, "type": "Feature", "properties": {"collection_times": [{"days": "Mon-Fri", "time": "3:00pm"}, {"days": "Sat", "time": "9:45am"}, {"days": "Sun", "time": "Closed"}], "id": "4488100001", "name": "USPS COLLECTION BOX - PO LOBBY", "address": {"city": "SULPHUR SPRINGS", "state": "OH", "street": "4861 ZEIGLER RD", "postcode": "44881"}}},
{"geometry": {"type": "Point", "coordinates": [-82.9771316844, 40.80594646]}, "type": "Feature", "properties": {"collection_times": [{"days": "Mon-Fri", "time": "3:00pm"}, {"days": "Sat", "time": "9:45am"}, {"days": "Sun", "time": "Closed"}], "id": "4488100002", "name": "USPS COLLECTION BOX - BLUE BOX", "address": {"city": "SULPHUR SPRINGS", "state": "OH", "street": "4861 ZEIGLER RD", "postcode": "44881"}}},
{"geometry": {"type": "Point", "coordinates": [-83.1700576559, 40.9485202024]}, "type": "Feature", "properties": {"collection_times": [{"days": "Mon-Fri", "time": "3:45pm"}, {"days": "Sat", "time": "10:45am"}, {"days": "Sun", "time": "Closed"}], "id": "4488200001", "name": "USPS COLLECTION BOX - BLUE BOX", "address": {"city": "SYCAMORE", "state": "OH", "street": "201 S SYCAMORE AVE", "postcode": "44882"}}},
{"geometry": {"type": "Point", "coordinates": [-83.176650851, 41.1146924529]}, "type": "Feature", "properties": {"collection_times": [{"days": "Mon-Sat", "time": "2:30pm"}, {"days": "Sun", "time": "Closed"}], "id": "4488300001", "name": "USPS COLLECTION BOX - BLUE BOX", "address": {"city": "TIFFIN", "state": "OH", "street": "103 S WASHINGTON ST", "postcode": "44883"}}},
{"geometry": {"type": "Point", "coordinates": [-83.1912397345, 41.113232767]}, "type": "Feature", "properties": {"collection_times": [{"days": "Mon-Sat", "time": "2:30pm"}, {"days": "Sun", "time": "Closed"}], "id": "4488300003", "name": "USPS COLLECTION BOX - BLUE BOX", "address": {"city": "TIFFIN", "state": "OH", "street": "530 W MARKET ST", "postcode": "44883"}}},
{"geometry": {"type": "Point", "coordinates": [-83.1766286381, 41.1145497181]}, "type": "Feature", "properties": {"collection_times": [{"days": "Mon-Sat", "time": "2:30pm"}, {"days": "Sun", "time": "Closed"}], "id": "4488300006", "name": "USPS COLLECTION BOX - BLUE BOX", "address": {"city": "TIFFIN", "state": "OH", "street": "109 S WASHINGTON ST", "postcode": "44883"}}},
{"geometry": {"type": "Point", "coordinates": [-83.1789290149, 41.1143204949]}, "type": "Feature", "properties": {"collection_times": [{"days": "Mon-Sat", "time": "2:30pm"}, {"days": "Sun", "time": "Closed"}], "id": "4488300016", "name": "USPS COLLECTION BOX - BLUE BOX", "address": {"city": "TIFFIN", "state": "OH", "street": "51 E MARKET ST", "postcode": "44883"}}},
{"geometry": {"type": "Point", "coordinates": [-83.1951125499, 41.1128644434]}, "type": "Feature", "properties": {"collection_times": [{"days": "Mon-Sat", "time": "2:00pm"}, {"days": "Sun", "time": "Closed"}], "id": "4488300022", "name": "USPS COLLECTION BOX - BLUE BOX", "address": {"city": "TIFFIN", "state": "OH", "street": "710 W MARKET ST", "postcode": "44883"}}},
{"geometry": {"type": "Point", "coordinates": [-83.1772469501, 41.1272747769]}, "type": "Feature", "properties": {"collection_times": [{"days": "Mon-Sat", "time": "2:00pm"}, {"days": "Sun", "time": "Closed"}], "id": "4488300028", "name": "USPS COLLECTION BOX - BLUE BOX", "address": {"city": "TIFFIN", "state": "OH", "street": "380 N SANDUSKY ST", "postcode": "44883"}}},
{"geometry": {"type": "Point", "coordinates": [-83.1773915311, 41.1089498439]}, "type": "Feature", "properties": {"collection_times": [{"days": "Mon-Fri", "time": "5:00pm"}, {"days": "Sat", "time": "4:30pm"}, {"days": "Sun", "time": "Closed"}], "id": "4488300032", "name": "USPS COLLECTION BOX - BLUE BOX", "address": {"city": "TIFFIN", "state": "OH", "street": "175 S MONROE ST", "postcode": "44883"}}},
{"geometry": {"type": "Point", "coordinates": [-83.1776224065, 41.1208271749]}, "type": "Feature", "properties": {"collection_times": [{"days": "Mon-Sat", "time": "2:30pm"}, {"days": "Sun", "time": "Closed"}], "id": "4488300034", "name": "USPS COLLECTION BOX - BLUE BOX", "address": {"city": "TIFFIN", "state": "OH", "street": "111 N WASHINGTON ST", "postcode": "44883"}}},
{"geometry": {"type": "Point", "coordinates": [-83.1773915311, 41.1089498439]}, "type": "Feature", "properties": {"collection_times": [{"days": "Mon-Fri", "time": "5:00pm"}, {"days": "Sat", "time": "4:30pm"}, {"days": "Sun", "time": "Closed"}], "id": "4488300036", "name": "USPS COLLECTION BOX - PO LOBBY", "address": {"city": "TIFFIN", "state": "OH", "street": "175 S MONROE ST", "postcode": "44883"}}},
{"geometry": {"type": "Point", "coordinates": [-83.1987115213, 41.1125205998]}, "type": "Feature", "properties": {"collection_times": [{"days": "Mon-Sat", "time": "2:00pm"}, {"days": "Sun", "time": "Closed"}], "id": "4488300038", "name": "USPS COLLECTION BOX - BLUE BOX", "address": {"city": "TIFFIN", "state": "OH", "street": "870 W MARKET ST", "postcode": "44883"}}},
{"geometry": {"type": "Point", "coordinates": [-83.1773915311, 41.1089498439]}, "type": "Feature", "properties": {"collection_times": [{"days": "Mon-Fri", "time": "5:00pm"}, {"days": "Sat", "time": "4:30pm"}, {"days": "Sun", "time": "Closed"}], "id": "4488300042", "name": "USPS COLLECTION BOX - BLUE BOX", "address": {"city": "TIFFIN", "state": "OH", "street": "175 S MONROE ST", "postcode": "44883"}}},
{"geometry": {"type": "Point", "coordinates": [-83.1773915311, 41.1089498439]}, "type": "Feature", "properties": {"collection_times": [{"days": "Mon-Fri", "time": "5:00pm"}, {"days": "Sat", "time": "4:30pm"}, {"days": "Sun", "time": "Closed"}], "id": "4488300047", "name": "USPS COLLECTION BOX - BLUE BOX", "address": {"city": "TIFFIN", "state": "OH", "street": "175 S MONROE ST", "postcode": "44883"}}},
{"geometry": {"type": "Point", "coordinates": [-83.2305233163, 41.115475827]}, "type": "Feature", "properties": {"collection_times": [{"days": "Mon-Sat", "time": "10:00am"}, {"days": "Sun", "time": "Closed"}], "id": "4488300049", "name": "USPS COLLECTION BOX - BLUE BOX", "address": {"city": "TIFFIN", "state": "OH", "street": "2801 W STATE ROUTE 18", "postcode": "44883"}}},
{"geometry": {"type": "Point", "coordinates": [-82.7724509182, 40.9052258316]}, "type": "Feature", "properties": {"collection_times": [{"days": "Mon-Fri", "time": "3:30pm"}, {"days": "Sat", "time": "10:30am"}, {"days": "Sun", "time": "Closed"}], "id": "4488700001", "name": "USPS COLLECTION BOX - BLUE BOX", "address": {"city": "TIRO", "state": "OH", "street": "104 N MAIN ST", "postcode": "44887"}}},
{"geometry": {"type": "Point", "coordinates": [-82.4053492351, 41.2548669231]}, "type": "Feature", "properties": {"collection_times": [{"days": "Mon-Fri", "time": "4:30pm"}, {"days": "Sat", "time": "11:45am"}, {"days": "Sun", "time": "Closed"}], "id": "4488900002", "name": "USPS COLLECTION BOX - BLUE BOX", "address": {"city": "WAKEMAN", "state": "OH", "street": "16 W MAIN ST", "postcode": "44889"}}},
{"geometry": {"type": "Point", "coordinates": [-82.3989638945, 41.2547461835]}, "type": "Feature", "properties": {"collection_times": [{"days": "Mon-Sat", "time": "10:00am"}, {"days": "Sun", "time": "Closed"}], "id": "4488900003", "name": "USPS COLLECTION BOX - BLUE BOX", "address": {"city": "WAKEMAN", "state": "OH", "street": "64 E MAIN ST", "postcode": "44889"}}},
{"geometry": {"type": "Point", "coordinates": [-82.3542233168, 41.3308719296]}, "type": "Feature", "properties": {"collection_times": [{"days": "Mon-Sat", "time": "10:30am"}, {"days": "Sun", "time": "Closed"}], "id": "4488900005", "name": "USPS COLLECTION BOX - BLUE BOX", "address": {"city": "WAKEMAN", "state": "OH", "street": "11011 CHAPEL ST", "postcode": "44889"}}},
{"geometry": {"type": "Point", "coordinates": [-82.7260289364, 41.0553889061]}, "type": "Feature", "properties": {"collection_times": [{"days": "Mon-Fri", "time": "5:00pm"}, {"days": "Sat", "time": "4:00pm"}, {"days": "Sun", "time": "Closed"}], "id": "4489000003", "name": "USPS COLLECTION BOX - BLUE BOX", "address": {"city": "WILLARD", "state": "OH", "street": "210 S MYRTLE AVE", "postcode": "44890"}}},
{"geometry": {"type": "Point", "coordinates": [-82.7260289364, 41.0553889061]}, "type": "Feature", "properties": {"collection_times": [{"days": "Mon-Fri", "time": "5:00pm"}, {"days": "Sat", "time": "4:00pm"}, {"days": "Sun", "time": "Closed"}], "id": "4489000004", "name": "USPS COLLECTION BOX - BLUE BOX", "address": {"city": "WILLARD", "state": "OH", "street": "210 S MYRTLE AVE", "postcode": "44890"}}},
{"geometry": {"type": "Point", "coordinates": [-82.731493432, 41.0427157177]}, "type": "Feature", "properties": {"collection_times": [{"days": "Mon-Sat", "time": "9:30am"}, {"days": "Sun", "time": "Closed"}], "id": "4489000021", "name": "USPS COLLECTION BOX - BLUE BOX", "address": {"city": "WILLARD", "state": "OH", "street": "114 BLOSSOM CENTRE BLVD", "postcode": "44890"}}},
{"geometry": {"type": "Point", "coordinates": [-82.7316089802, 41.0427304472]}, "type": "Feature", "properties": {"collection_times": [{"days": "Mon-Sat", "time": "9:30am"}, {"days": "Sun", "time": "Closed"}], "id": "4489000022", "name": "USPS COLLECTION BOX - BLUE BOX", "address": {"city": "WILLARD", "state": "OH", "street": "307 W WALTON ST", "postcode": "44890"}}},
{"geometry": {"type": "Point", "coordinates": [-82.7260289364, 41.0553889061]}, "type": "Feature", "properties": {"collection_times": [{"days": "Mon-Fri", "time": "5:00pm"}, {"days": "Sat", "time": "4:00pm"}, {"days": "Sun", "time": "Closed"}], "id": "4489000024", "name": "USPS COLLECTION BOX - PO LOBBY", "address": {"city": "WILLARD", "state": "OH", "street": "210 S MYRTLE AVE", "postcode": "44890"}}},
{"geometry": {"type": "Point", "coordinates": [-82.7260289364, 41.0553889061]}, "type": "Feature", "properties": {"collection_times": [{"days": "Mon-Fri", "time": "5:00pm"}, {"days": "Sat", "time": "4:00pm"}, {"days": "Sun", "time": "Closed"}], "id": "4489000026", "name": "USPS COLLECTION BOX - PO LOBBY", "address": {"city": "WILLARD", "state": "OH", "street": "210 S MYRTLE AVE", "postcode": "44890"}}},
{"geometry": {"type": "Point", "coordinates": [-82.7260289364, 41.0553889061]}, "type": "Feature", "properties": {"collection_times": [{"days": "Mon-Fri", "time": "5:00pm"}, {"days": "Sat", "time": "4:00pm"}, {"days": "Sun", "time": "Closed"}], "id": "4489000027", "name": "USPS COLLECTION BOX - PO LOBBY", "address": {"city": "WILLARD", "state": "OH", "street": "210 S MYRTLE AVE", "postcode": "44890"}}},
{"geometry": {"type": "Point", "coordinates": [-82.7260289364, 41.0553889061]}, "type": "Feature", "properties": {"collection_times": [{"days": "Mon-Fri", "time": "5:00pm"}, {"days": "Sat", "time": "4:00pm"}, {"days": "Sun", "time": "Closed"}], "id": "4489000028", "name": "USPS COLLECTION BOX - BLUE BOX", "address": {"city": "WILLARD", "state": "OH", "street": "210 S MYRTLE AVE", "postcode": "44890"}}},
{"geometry": {"type": "Point", "coordinates": [-82.6777854396, 41.0526116929]}, "type": "Feature", "properties": {"collection_times": [{"days": "Mon-Fri", "time": "9:00am"}, {"days": "Sat-Sun", "time": "Closed"}], "id": "4489000029", "name": "USPS COLLECTION BOX - BLUE BOX", "address": {"city": "WILLARD", "state": "OH", "street": "3320 STATE ROUTE 103 E", "postcode": "44890"}}},
{"geometry": {"type": "Point", "coordinates": [-82.7316089802, 41.0427304472]}, "type": "Feature", "properties": {"collection_times": [{"days": "Mon-Sat", "time": "9:30am"}, {"days": "Sun", "time": "Closed"}], "id": "4489000030", "name": "USPS COLLECTION BOX - BLUE BOX", "address": {"city": "WILLARD", "state": "OH", "street": "307 W WALTON ST", "postcode": "44890"}}}
]}
