{"type": "FeatureCollection", "features": [
{"geometry": {"type": "Point", "coordinates": [-82.5144797054, 40.7530667363]}, "type": "Feature", "properties": {"collection_times": [{"days": "Mon-Fri", "time": "6:00pm"}, {"days": "Sat", "time": "3:00pm"}, {"days": "Sun", "time": "Closed"}], "id": "4490100000", "name": "USPS COLLECTION BOX - PO LOBBY", "address": {"city": "MANSFIELD", "state": "OH", "street": "200 N DIAMOND ST", "postcode": "44901"}}},
{"geometry": {"type": "Point", "coordinates": [-82.5144797054, 40.7530667363]}, "type": "Feature", "properties": {"collection_times": [{"days": "Mon-Fri", "time": "6:00pm"}, {"days": "Sat", "time": "3:00pm"}, {"days": "Sun", "time": "Closed"}], "id": "4490100001", "name": "USPS COLLECTION BOX - PO LOBBY", "address": {"city": "MANSFIELD", "state": "OH", "street": "200 N DIAMOND ST", "postcode": "44901"}}},
{"geometry": {"type": "Point", "coordinates": [-82.5144797054, 40.7530667363]}, "type": "Feature", "properties": {"collection_times": [{"days": "Mon-Fri", "time": "6:00pm"}, {"days": "Sat", "time": "5:00pm"}, {"days": "Sun", "time": "Closed"}], "id": "4490100002", "name": "USPS COLLECTION BOX - PO LOBBY", "address": {"city": "MANSFIELD", "state": "OH", "street": "200 N DIAMOND ST", "postcode": "44901"}}},
{"geometry": {"type": "Point", "coordinates": [-82.5144797054, 40.7530667363]}, "type": "Feature", "properties": {"collection_times": [{"days": "Mon-Fri", "time": "6:00pm"}, {"days": "Sat", "time": "5:00pm"}, {"days": "Sun", "time": "Closed"}], "id": "4490100003", "name": "USPS COLLECTION BOX - PO LOBBY", "address": {"city": "MANSFIELD", "state": "OH", "street": "200 N DIAMOND ST", "postcode": "44901"}}},
{"geometry": {"type": "Point", "coordinates": [-82.5144797054, 40.7530667363]}, "type": "Feature", "properties": {"collection_times": [{"days": "Mon-Fri", "time": "6:00pm"}, {"days": "Sat", "time": "5:00pm"}, {"days": "Sun", "time": "Closed"}], "id": "4490100004", "name": "USPS COLLECTION BOX - BLUE BOX", "address": {"city": "MANSFIELD", "state": "OH", "street": "200 N DIAMOND ST", "postcode": "44901"}}},
{"geometry": {"type": "Point", "coordinates": [-82.5144797054, 40.7530667363]}, "type": "Feature", "properties": {"collection_times": [{"days": "Mon-Fri", "time": "6:00pm"}, {"days": "Sat", "time": "5:00pm"}, {"days": "Sun", "time": "Closed"}], "id": "4490100005", "name": "USPS COLLECTION BOX - BLUE BOX", "address": {"city": "MANSFIELD", "state": "OH", "street": "200 N DIAMOND ST", "postcode": "44901"}}},
{"geometry": {"type": "Point", "coordinates": [-82.5144797054, 40.7530667363]}, "type": "Feature", "properties": {"collection_times": [{"days": "Mon-Fri", "time": "6:00pm"}, {"days": "Sat", "time": "5:00pm"}, {"days": "Sun", "time": "Closed"}], "id": "4490100006", "name": "USPS COLLECTION BOX - BLUE BOX", "address": {"city": "MANSFIELD", "state": "OH", "street": "200 N DIAMOND ST", "postcode": "44901"}}},
{"geometry": {"type": "Point", "coordinates": [-82.513819465, 40.7629725819]}, "type": "Feature", "properties": {"collection_times": [{"days": "Mon-Fri", "time": "6:00pm"}, {"days": "Sat", "time": "5:00pm"}, {"days": "Sun", "time": "Closed"}], "id": "4490100010", "name": "USPS COLLECTION BOX - EXPRESS", "address": {"city": "MANSFIELD", "state": "OH", "street": "200 N DIAMOND ST", "postcode": "44901"}}},
{"geometry": {"type": "Point", "coordinates": [-82.5198751359, 40.7587881843]}, "type": "Feature", "properties": {"collection_times": [{"days": "Mon-Sat", "time": "2:00pm"}, {"days": "Sun", "time": "Closed"}], "id": "4490200002", "name": "USPS COLLECTION BOX - BLUE BOX", "address": {"city": "MANSFIELD", "state": "OH", "street": "116 PARK AVE W", "postcode": "44902"}}},
{"geometry": {"type": "Point", "coordinates": [-82.5179925894, 40.758702341]}, "type": "Feature", "properties": {"collection_times": [{"days": "Mon-Fri", "time": "3:30pm"}, {"days": "Sat-Sun", "time": "Closed"}], "id": "4490200004", "name": "USPS COLLECTION BOX - BLUE BOX", "address": {"city": "MANSFIELD", "state": "OH", "street": "70 PARK AVE W", "postcode": "44902"}}},
{"geometry": {"type": "Point", "coordinates": [-82.5157998877, 40.7598013217]}, "type": "Feature", "properties": {"collection_times": [{"days": "Mon-Fri", "time": "2:30pm"}, {"days": "Sat-Sun", "time": "Closed"}], "id": "4490200005", "name": "USPS COLLECTION BOX - BLUE BOX", "address": {"city": "MANSFIELD", "state": "OH", "street": "6 W 3RD ST", "postcode": "44902"}}},
{"geometry": {"type": "Point", "coordinates": [-82.5179800256, 40.7598608937]}, "type": "Feature", "properties": {"collection_times": [{"days": "Mon-Fri", "time": "1:30pm"}, {"days": "Sat-Sun", "time": "Closed"}], "id": "4490200014", "name": "USPS COLLECTION BOX - BLUE BOX", "address": {"city": "MANSFIELD", "state": "OH", "street": "53 N MULBERRY ST", "postcode": "44902"}}},
{"geometry": {"type": "Point", "coordinates": [-82.5155292594, 40.7586599609]}, "type": "Feature", "properties": {"collection_times": [{"days": "Mon-Fri", "time": "1:30pm"}, {"days": "Sat-Sun", "time": "Closed"}], "id": "4490200020", "name": "USPS COLLECTION BOX - BLUE BOX", "address": {"city": "MANSFIELD", "state": "OH", "street": "3 N MAIN ST", "postcode": "44902"}}},
{"geometry": {"type": "Point", "coordinates": [-82.5140573891, 40.7589046388]}, "type": "Feature", "properties": {"collection_times": [{"days": "Mon-Fri", "time": "1:30pm"}, {"days": "Sat-Sun", "time": "Closed"}], "id": "4490200024", "name": "USPS COLLECTION BOX - BLUE BOX", "address": {"city": "MANSFIELD", "state": "OH", "street": "30 N DIAMOND ST", "postcode": "44902"}}},
{"geometry": {"type": "Point", "coordinates": [-82.5140573891, 40.7589046388]}, "type": "Feature", "properties": {"collection_times": [{"days": "Mon-Fri", "time": "1:30pm"}, {"days": "Sat-Sun", "time": "Closed"}], "id": "4490200026", "name": "USPS COLLECTION BOX - BLUE BOX", "address": {"city": "MANSFIELD", "state": "OH", "street": "30 N DIAMOND ST", "postcode": "44902"}}},
{"geometry": {"type": "Point", "coordinates": [-82.5106563821, 40.7608151176]}, "type": "Feature", "properties": {"collection_times": [{"days": "Mon-Fri", "time": "9:00am"}, {"days": "Sat-Sun", "time": "Closed"}], "id": "4490200027", "name": "USPS COLLECTION BOX - BLUE BOX", "address": {"city": "MANSFIELD", "state": "OH", "street": "150 E 4TH ST", "postcode": "44902"}}},
{"geometry": {"type": "Point", "coordinates": [-82.5086577216, 40.7480109165]}, "type": "Feature", "properties": {"collection_times": [{"days": "Mon-Fri", "time": "10:00am"}, {"days": "Sat-Sun", "time": "Closed"}], "id": "4490200029", "name": "USPS COLLECTION BOX - BLUE BOX", "address": {"city": "MANSFIELD", "state": "OH", "street": "460 S DIAMOND ST", "postcode": "44902"}}},
{"geometry": {"type": "Point", "coordinates": [-82.5161737027, 40.7585805081]}, "type": "Feature", "properties": {"collection_times": [{"days": "Mon-Fri", "time": "1:30pm"}, {"days": "Sat-Sun", "time": "Closed"}], "id": "4490200032", "name": "USPS COLLECTION BOX - BLUE BOX", "address": {"city": "MANSFIELD", "state": "OH", "street": "13 PARK AVE W", "postcode": "44902"}}},
{"geometry": {"type": "Point", "coordinates": [-82.5081165692, 40.7626617165]}, "type": "Feature", "properties": {"collection_times": [{"days": "Mon-Fri", "time": "2:00pm"}, {"days": "Sat-Sun", "time": "Closed"}], "id": "4490200036", "name": "USPS COLLECTION BOX - BLUE BOX", "address": {"city": "MANSFIELD", "state": "OH", "street": "201 E 5TH ST", "postcode": "44902"}}},
{"geometry": {"type": "Point", "coordinates": [-82.5232669063, 40.7588583283]}, "type": "Feature", "properties": {"collection_times": [{"days": "Mon-Fri", "time": "1:15pm"}, {"days": "Sat-Sun", "time": "Closed"}], "id": "4490300000", "name": "USPS COLLECTION BOX - BLUE BOX", "address": {"city": "MANSFIELD", "state": "OH", "street": "1 MARION AVE", "postcode": "44903"}}},
{"geometry": {"type": "Point", "coordinates": [-82.5232655417, 40.7575986521]}, "type": "Feature", "properties": {"collection_times": [{"days": "Mon-Fri", "time": "1:15pm"}, {"days": "Sat-Sun", "time": "Closed"}], "id": "4490300002", "name": "USPS COLLECTION BOX - BLUE BOX", "address": {"city": "MANSFIELD", "state": "OH", "street": "44 STURGES AVE", "postcode": "44903"}}},
{"geometry": {"type": "Point", "coordinates": [-82.5148203494, 40.7689797417]}, "type": "Feature", "properties": {"collection_times": [{"days": "Mon-Fri", "time": "2:00pm"}, {"days": "Sat-Sun", "time": "Closed"}], "id": "4490300004", "name": "USPS COLLECTION BOX - BLUE BOX", "address": {"city": "MANSFIELD", "state": "OH", "street": "380 N MAIN ST", "postcode": "44903"}}},
{"geometry": {"type": "Point", "coordinates": [-82.533949942, 40.75470709]}, "type": "Feature", "properties": {"collection_times": [{"days": "Mon-Fri", "time": "1:15pm"}, {"days": "Sat", "time": "3:15pm"}, {"days": "Sun", "time": "Closed"}], "id": "4490300009", "name": "USPS COLLECTION BOX - BLUE BOX", "address": {"city": "MANSFIELD", "state": "OH", "street": "345 MARION AVE", "postcode": "44903"}}},
{"geometry": {"type": "Point", "coordinates": [-82.5266048562, 40.7533787726]}, "type": "Feature", "properties": {"collection_times": [{"days": "Mon-Fri", "time": "1:15pm"}, {"days": "Sat-Sun", "time": "Closed"}], "id": "4490300021", "name": "USPS COLLECTION BOX - BLUE BOX", "address": {"city": "MANSFIELD", "state": "OH", "street": "295 GLESSNER AVE", "postcode": "44903"}}},
{"geometry": {"type": "Point", "coordinates": [-82.5279301512, 40.7533415673]}, "type": "Feature", "properties": {"collection_times": [{"days": "Mon-Fri", "time": "10:00am"}, {"days": "Sat", "time": "3:15pm"}, {"days": "Sun", "time": "Closed"}], "id": "4490300023", "name": "USPS COLLECTION BOX - BLUE BOX", "address": {"city": "MANSFIELD", "state": "OH", "street": "335 GLESSNER AVE", "postcode": "44903"}}},
{"geometry": {"type": "Point", "coordinates": [-82.5136075755, 40.8086327078]}, "type": "Feature", "properties": {"collection_times": [{"days": "Mon-Fri", "time": "12:00pm"}, {"days": "Sat-Sun", "time": "Closed"}], "id": "4490300026", "name": "USPS COLLECTION BOX - BLUE BOX", "address": {"city": "MANSFIELD", "state": "OH", "street": "1895 HARRINGTON MEMORIAL RD", "postcode": "44903"}}},
{"geometry": {"type": "Point", "coordinates": [-82.5284661952, 40.7721429727]}, "type": "Feature", "properties": {"collection_times": [{"days": "Mon-Fri", "time": "2:00pm"}, {"days": "Sat-Sun", "time": "Closed"}], "id": "4490300027", "name": "USPS COLLECTION BOX - BLUE BOX", "address": {"city": "MANSFIELD", "state": "OH", "street": "600 SPRINGMILL ST", "postcode": "44903"}}},
{"geometry": {"type": "Point", "coordinates": [-82.533949942, 40.75470709]}, "type": "Feature", "properties": {"collection_times": [{"days": "Mon-Fri", "time": "12:45pm"}, {"days": "Sat", "time": "3:15pm"}, {"days": "Sun", "time": "Closed"}], "id": "4490300031", "name": "USPS COLLECTION BOX - BLUE BOX", "address": {"city": "MANSFIELD", "state": "OH", "street": "345 MARION AVE", "postcode": "44903"}}},
{"geometry": {"type": "Point", "coordinates": [-82.5832956757, 40.6787320284]}, "type": "Feature", "properties": {"collection_times": [{"days": "Mon-Fri", "time": "12:45pm"}, {"days": "Sat", "time": "4:45pm"}, {"days": "Sun", "time": "Closed"}], "id": "4490400001", "name": "USPS COLLECTION BOX - BLUE BOX", "address": {"city": "LEXINGTON", "state": "OH", "street": "14 W MAIN ST", "postcode": "44904"}}},
{"geometry": {"type": "Point", "coordinates": [-82.572004634, 40.6800663386]}, "type": "Feature", "properties": {"collection_times": [{"days": "Mon-Fri", "time": "12:45pm"}, {"days": "Sat", "time": "4:45pm"}, {"days": "Sun", "time": "Closed"}], "id": "4490400002", "name": "USPS COLLECTION BOX - BLUE BOX", "address": {"city": "LEXINGTON", "state": "OH", "street": "305 E MAIN ST", "postcode": "44904"}}},
{"geometry": {"type": "Point", "coordinates": [-82.5705164716, 40.6806779284]}, "type": "Feature", "properties": {"collection_times": [{"days": "Mon-Fri", "time": "2:00pm"}, {"days": "Sat-Sun", "time": "Closed"}], "id": "4490400003", "name": "USPS COLLECTION BOX - BLUE BOX", "address": {"city": "LEXINGTON", "state": "OH", "street": "340 W MAIN ST", "postcode": "44904"}}},
{"geometry": {"type": "Point", "coordinates": [-82.5846729416, 40.6793187085]}, "type": "Feature", "properties": {"collection_times": [{"days": "Mon-Fri", "time": "12:45pm"}, {"days": "Sat", "time": "5:00pm"}, {"days": "Sun", "time": "Closed"}], "id": "4490400004", "name": "USPS COLLECTION BOX - PO LOBBY", "address": {"city": "LEXINGTON", "state": "OH", "street": "24 SHORT ST", "postcode": "44904"}}},
{"geometry": {"type": "Point", "coordinates": [-82.4468416036, 40.7756900808]}, "type": "Feature", "properties": {"collection_times": [{"days": "Mon-Fri", "time": "2:00pm"}, {"days": "Sat-Sun", "time": "Closed"}], "id": "4490500003", "name": "USPS COLLECTION BOX - BLUE BOX", "address": {"city": "MANSFIELD", "state": "OH", "street": "777 LAVER RD", "postcode": "44905"}}},
{"geometry": {"type": "Point", "coordinates": [-82.4919234119, 40.7582101363]}, "type": "Feature", "properties": {"collection_times": [{"days": "Mon-Fri", "time": "2:00pm"}, {"days": "Sat-Sun", "time": "Closed"}], "id": "4490500004", "name": "USPS COLLECTION BOX - BLUE BOX", "address": {"city": "MANSFIELD", "state": "OH", "street": "661 PARK AVE E", "postcode": "44905"}}},
{"geometry": {"type": "Point", "coordinates": [-82.4805837841, 40.7735584282]}, "type": "Feature", "properties": {"collection_times": [{"days": "Mon-Fri", "time": "12:00pm"}, {"days": "Sat", "time": "3:30pm"}, {"days": "Sun", "time": "Closed"}], "id": "4490500008", "name": "USPS COLLECTION BOX - BLUE BOX", "address": {"city": "MANSFIELD", "state": "OH", "street": "989 ASHLAND RD", "postcode": "44905"}}},
{"geometry": {"type": "Point", "coordinates": [-82.478523957, 40.7745230143]}, "type": "Feature", "properties": {"collection_times": [{"days": "Mon-Sat", "time": "2:00pm"}, {"days": "Sun", "time": "Closed"}], "id": "4490500009", "name": "USPS COLLECTION BOX - BLUE BOX", "address": {"city": "MANSFIELD", "state": "OH", "street": "1060 ASHLAND RD", "postcode": "44905"}}},
{"geometry": {"type": "Point", "coordinates": [-82.5586327112, 40.7592338837]}, "type": "Feature", "properties": {"collection_times": [{"days": "Mon-Fri", "time": "10:00am"}, {"days": "Sat-Sun", "time": "Closed"}], "id": "4490600006", "name": "USPS COLLECTION BOX - BLUE BOX", "address": {"city": "ONTARIO", "state": "OH", "street": "1187 PARK AVE W", "postcode": "44906"}}},
{"geometry": {"type": "Point", "coordinates": [-82.5749229627, 40.7699500186]}, "type": "Feature", "properties": {"collection_times": [{"days": "Mon-Fri", "time": "10:00am"}, {"days": "Sat-Sun", "time": "Closed"}], "id": "4490600013", "name": "USPS COLLECTION BOX - BLUE BOX", "address": {"city": "ONTARIO", "state": "OH", "street": "1750 W 4TH ST", "postcode": "44906"}}},
{"geometry": {"type": "Point", "coordinates": [-82.5628441946, 40.7678997169]}, "type": "Feature", "properties": {"collection_times": [{"days": "Mon-Fri", "time": "12:15pm"}, {"days": "Sat-Sun", "time": "Closed"}], "id": "4490600014", "name": "USPS COLLECTION BOX - BLUE BOX", "address": {"city": "ONTARIO", "state": "OH", "street": "1332 W 4TH ST", "postcode": "44906"}}},
{"geometry": {"type": "Point", "coordinates": [-82.5517970387, 40.7445945788]}, "type": "Feature", "properties": {"collection_times": [{"days": "Mon-Fri", "time": "1:00pm"}, {"days": "Sat-Sun", "time": "Closed"}], "id": "4490600018", "name": "USPS COLLECTION BOX - BLUE BOX", "address": {"city": "ONTARIO", "state": "OH", "street": "500 S TRIMBLE RD", "postcode": "44906"}}},
{"geometry": {"type": "Point", "coordinates": [-82.581630602, 40.7630316487]}, "type": "Feature", "properties": {"collection_times": [{"days": "Mon-Fri", "time": "10:00am"}, {"days": "Sat-Sun", "time": "Closed"}], "id": "4490600019", "name": "USPS COLLECTION BOX - BLUE BOX", "address": {"city": "ONTARIO", "state": "OH", "street": "1760 UNIVERSITY DR", "postcode": "44906"}}},
{"geometry": {"type": "Point", "coordinates": [-82.581630602, 40.7630316487]}, "type": "Feature", "properties": {"collection_times": [{"days": "Mon-Sat", "time": "9:00am"}, {"days": "Sun", "time": "Closed"}], "id": "4490600021", "name": "USPS COLLECTION BOX - BLUE BOX", "address": {"city": "ONTARIO", "state": "OH", "street": "123 CHESTNUT CT", "postcode": "44906"}}},
{"geometry": {"type": "Point", "coordinates": [-82.5964410173, 40.7753146456]}, "type": "Feature", "properties": {"collection_times": [{"days": "Mon-Fri", "time": "12:30pm"}, {"days": "Sat-Sun", "time": "Closed"}], "id": "4490600022", "name": "USPS COLLECTION BOX - BLUE BOX", "address": {"city": "ONTARIO", "state": "OH", "street": "2280 VILLAGE MALL DR", "postcode": "44906"}}},
{"geometry": {"type": "Point", "coordinates": [-82.5964410173, 40.7753146456]}, "type": "Feature", "properties": {"collection_times": [{"days": "Mon-Fri", "time": "12:30pm"}, {"days": "Sat-Sun", "time": "Closed"}], "id": "4490600023", "name": "USPS COLLECTION BOX - BLUE BOX", "address": {"city": "ONTARIO", "state": "OH", "street": "2280 VILLAGE MALL DR", "postcode": "44906"}}},
{"geometry": {"type": "Point", "coordinates": [-82.5916721306, 40.7726573362]}, "type": "Feature", "properties": {"collection_times": [{"days": "Mon-Fri", "time": "10:00am"}, {"days": "Sat-Sun", "time": "Closed"}], "id": "4490600024", "name": "USPS COLLECTION BOX - BLUE BOX", "address": {"city": "ONTARIO", "state": "OH", "street": "2166 W 4TH ST", "postcode": "44906"}}},
{"geometry": {"type": "Point", "coordinates": [-82.552067084, 40.7836707062]}, "type": "Feature", "properties": {"collection_times": [{"days": "Mon-Sat", "time": "10:00am"}, {"days": "Sun", "time": "Closed"}], "id": "4490600026", "name": "USPS COLLECTION BOX - BLUE BOX", "address": {"city": "ONTARIO", "state": "OH", "street": "889 N TRIMBLE RD", "postcode": "44906"}}},
{"geometry": {"type": "Point", "coordinates": [-82.5529022126, 40.7720496789]}, "type": "Feature", "properties": {"collection_times": [{"days": "Mon-Fri", "time": "12:15pm"}, {"days": "Sat-Sun", "time": "Closed"}], "id": "4490600027", "name": "USPS COLLECTION BOX - BLUE BOX", "address": {"city": "ONTARIO", "state": "OH", "street": "1040 NATIONAL PKWY", "postcode": "44906"}}},
{"geometry": {"type": "Point", "coordinates": [-82.5958625108, 40.7656135944]}, "type": "Feature", "properties": {"collection_times": [{"days": "Mon-Fri", "time": "12:30pm"}, {"days": "Sat-Sun", "time": "Closed"}], "id": "4490600030", "name": "USPS COLLECTION BOX - BLUE BOX", "address": {"city": "ONTARIO", "state": "OH", "street": "2270 STUMBO RD", "postcode": "44906"}}},
{"geometry": {"type": "Point", "coordinates": [-82.6171498065, 40.7562539712]}, "type": "Feature", "properties": {"collection_times": [{"days": "Mon-Fri", "time": "12:30pm"}, {"days": "Sat-Sun", "time": "Closed"}], "id": "4490600037", "name": "USPS COLLECTION BOX - BLUE BOX", "address": {"city": "ONTARIO", "state": "OH", "street": "2598 TAPPAN DR", "postcode": "44906"}}},
{"geometry": {"type": "Point", "coordinates": [-82.5904373185, 40.7602548166]}, "type": "Feature", "properties": {"collection_times": [{"days": "Mon-Fri", "time": "12:00pm"}, {"days": "Sat", "time": "4:15pm"}, {"days": "Sun", "time": "Closed"}], "id": "4490600041", "name": "USPS COLLECTION BOX - BLUE BOX", "address": {"city": "ONTARIO", "state": "OH", "street": "325 N LEXINGTON SPRINGMILL RD", "postcode": "44906"}}},
{"geometry": {"type": "Point", "coordinates": [-82.5904373185, 40.7602548166]}, "type": "Feature", "properties": {"collection_times": [{"days": "Mon-Fri", "time": "12:30pm"}, {"days": "Sat", "time": "4:15pm"}, {"days": "Sun", "time": "Closed"}], "id": "4490600042", "name": "USPS COLLECTION BOX - BLUE BOX", "address": {"city": "ONTARIO", "state": "OH", "street": "325 N LEXINGTON SPRINGMILL RD", "postcode": "44906"}}},
{"geometry": {"type": "Point", "coordinates": [-82.5625350475, 40.7761994989]}, "type": "Feature", "properties": {"collection_times": [{"days": "Mon-Fri", "time": "12:00pm"}, {"days": "Sat-Sun", "time": "Closed"}], "id": "4490600044", "name": "USPS COLLECTION BOX - BLUE BOX", "address": {"city": "ONTARIO", "state": "OH", "street": "1495 W LONGVIEW AVE", "postcode": "44906"}}},
{"geometry": {"type": "Point", "coordinates": [-82.5625350475, 40.7761994989]}, "type": "Feature", "properties": {"collection_times": [{"days": "Mon-Fri", "time": "12:15pm"}, {"days": "Sat-Sun", "time": "Closed"}], "id": "4490600046", "name": "USPS COLLECTION BOX - BLUE BOX", "address": {"city": "ONTARIO", "state": "OH", "street": "1495 W LONGVIEW AVE", "postcode": "44906"}}},
{"geometry": {"type": "Point", "coordinates": [-82.56444518, 40.7593555487]}, "type": "Feature", "properties": {"collection_times": [{"days": "Mon-Fri", "time": "4:30pm"}, {"days": "Sat", "time": "4:00pm"}, {"days": "Sun", "time": "Closed"}], "id": "4490600047", "name": "USPS COLLECTION BOX - BLUE BOX", "address": {"city": "ONTARIO", "state": "OH", "street": "1343 PARK AVE W", "postcode": "44906"}}},
{"geometry": {"type": "Point", "coordinates": [-82.5404751203, 40.7590655336]}, "type": "Feature", "properties": {"collection_times": [{"days": "Mon-Fri", "time": "1:00pm"}, {"days": "Sat-Sun", "time": "Closed"}], "id": "4490600048", "name": "USPS COLLECTION BOX - BLUE BOX", "address": {"city": "ONTARIO", "state": "OH", "street": "680 PARK AVE W", "postcode": "44906"}}},
{"geometry": {"type": "Point", "coordinates": [-82.5535179728, 40.7383332499]}, "type": "Feature", "properties": {"collection_times": [{"days": "Mon-Sat", "time": "10:00am"}, {"days": "Sun", "time": "Closed"}], "id": "4490600049", "name": "USPS COLLECTION BOX - BLUE BOX", "address": {"city": "ONTARIO", "state": "OH", "street": "770 BALGREEN DR", "postcode": "44906"}}},
{"geometry": {"type": "Point", "coordinates": [-82.5866460776, 40.7717364066]}, "type": "Feature", "properties": {"collection_times": [{"days": "Mon-Fri", "time": "2:00pm"}, {"days": "Sat-Sun", "time": "Closed"}], "id": "4490600052", "name": "USPS COLLECTION BOX - BLUE BOX", "address": {"city": "ONTARIO", "state": "OH", "street": "2009 W 4TH ST", "postcode": "44906"}}},
{"geometry": {"type": "Point", "coordinates": [-82.581630602, 40.7630316487]}, "type": "Feature", "properties": {"collection_times": [{"days": "Mon-Fri", "time": "10:00am"}, {"days": "Sat", "time": "4:00pm"}, {"days": "Sun", "time": "Closed"}], "id": "4490600053", "name": "USPS COLLECTION BOX - BLUE BOX", "address": {"city": "ONTARIO", "state": "OH", "street": "2209 WESTFIELD SHOPPINGTOWN RICHLAND", "postcode": "44906"}}},
{"geometry": {"type": "Point", "coordinates": [-82.5504028322, 40.7400926277]}, "type": "Feature", "properties": {"collection_times": [{"days": "Mon-Fri", "time": "10:00am"}, {"days": "Sat-Sun", "time": "Closed"}], "id": "4490600054", "name": "USPS COLLECTION BOX - BLUE BOX", "address": {"city": "ONTARIO", "state": "OH", "street": "675 BALLY ROW", "postcode": "44906"}}},
{"geometry": {"type": "Point", "coordinates": [-82.5425309143, 40.7225920841]}, "type": "Feature", "properties": {"collection_times": [{"days": "Mon-Fri", "time": "12:45pm"}, {"days": "Sat", "time": "3:00pm"}, {"days": "Sun", "time": "Closed"}], "id": "4490700000", "name": "USPS COLLECTION BOX - BLUE BOX", "address": {"city": "MANSFIELD", "state": "OH", "street": "1402 LEXINGTON AVE", "postcode": "44907"}}},
{"geometry": {"type": "Point", "coordinates": [-82.5249370627, 40.7431488084]}, "type": "Feature", "properties": {"collection_times": [{"days": "Mon-Fri", "time": "12:00pm"}, {"days": "Sat", "time": "3:15pm"}, {"days": "Sun", "time": "Closed"}], "id": "4490700002", "name": "USPS COLLECTION BOX - BLUE BOX", "address": {"city": "MANSFIELD", "state": "OH", "street": "421 SCHOLL RD", "postcode": "44907"}}},
{"geometry": {"type": "Point", "coordinates": [-82.5332247292, 40.734401976]}, "type": "Feature", "properties": {"collection_times": [{"days": "Mon-Fri", "time": "1:00pm"}, {"days": "Sat", "time": "3:00pm"}, {"days": "Sun", "time": "Closed"}], "id": "4490700005", "name": "USPS COLLECTION BOX - BLUE BOX", "address": {"city": "MANSFIELD", "state": "OH", "street": "875 LEXINGTON AVE", "postcode": "44907"}}},
{"geometry": {"type": "Point", "coordinates": [-82.5133554764, 40.7356482703]}, "type": "Feature", "properties": {"collection_times": [{"days": "Mon-Sat", "time": "2:00pm"}, {"days": "Sun", "time": "Closed"}], "id": "4490700008", "name": "USPS COLLECTION BOX - BLUE BOX", "address": {"city": "MANSFIELD", "state": "OH", "street": "861 S MAIN ST", "postcode": "44907"}}},
{"geometry": {"type": "Point", "coordinates": [-82.4920471769, 40.74813581]}, "type": "Feature", "properties": {"collection_times": [{"days": "Mon-Sat", "time": "10:00am"}, {"days": "Sun", "time": "Closed"}], "id": "4490700012", "name": "USPS COLLECTION BOX - BLUE BOX", "address": {"city": "MANSFIELD", "state": "OH", "street": "630 OAK ST", "postcode": "44907"}}},
{"geometry": {"type": "Point", "coordinates": [-82.5224009164, 40.7257417252]}, "type": "Feature", "properties": {"collection_times": [{"days": "Mon-Sat", "time": "5:00pm"}, {"days": "Sun", "time": "Closed"}], "id": "4490700014", "name": "USPS COLLECTION BOX - BLUE BOX", "address": {"city": "MANSFIELD", "state": "OH", "street": "6721/2 LOGAN RD", "postcode": "44907"}}},
{"geometry": {"type": "Point", "coordinates": [-82.5224009164, 40.7257417252]}, "type": "Feature", "properties": {"collection_times": [{"days": "Mon-Sat", "time": "5:00pm"}, {"days": "Sun", "time": "Closed"}], "id": "4490700016", "name": "USPS COLLECTION BOX - BLUE BOX", "address": {"city": "MANSFIELD", "state": "OH", "street": "6721/2 LOGAN RD", "postcode": "44907"}}},
{"geometry": {"type": "Point", "coordinates": [-82.5029118917, 40.7448465431]}, "type": "Feature", "properties": {"collection_times": [{"days": "Mon-Sat", "time": "2:00pm"}, {"days": "Sun", "time": "Closed"}], "id": "4490700018", "name": "USPS COLLECTION BOX - BLUE BOX", "address": {"city": "MANSFIELD", "state": "OH", "street": "660 S DIAMOND ST", "postcode": "44907"}}},
{"geometry": {"type": "Point", "coordinates": [-82.5296200625, 40.747486779]}, "type": "Feature", "properties": {"collection_times": [{"days": "Mon-Fri", "time": "1:15pm"}, {"days": "Sat-Sun", "time": "Closed"}], "id": "4490700019", "name": "USPS COLLECTION BOX - BLUE BOX", "address": {"city": "MANSFIELD", "state": "OH", "street": "370 CLINE AVE", "postcode": "44907"}}},
{"geometry": {"type": "Point", "coordinates": [-82.5425309143, 40.7225920841]}, "type": "Feature", "properties": {"collection_times": [{"days": "Mon-Fri", "time": "12:45pm"}, {"days": "Sat", "time": "3:00pm"}, {"days": "Sun", "time": "Closed"}], "id": "4490700023", "name": "USPS COLLECTION BOX - BLUE BOX", "address": {"city": "MANSFIELD", "state": "OH", "street": "1402 LEXINGTON AVE", "postcode": "44907"}}}
]}
