{"type": "FeatureCollection", "features": [
{"geometry": {"type": "Point", "coordinates": [-84.7146666445, 39.1391630196]}, "type": "Feature", "properties": {"collection_times": [{"days": "Mon-Fri", "time": "4:45pm"}, {"days": "Sat", "time": "11:45am"}, {"days": "Sun", "time": "Closed"}], "id": "4500100000", "name": "USPS COLLECTION BOX - BLUE BOX", "address": {"city": "ADDYSTON", "state": "OH", "street": "234 MAIN ST", "postcode": "45001"}}},
{"geometry": {"type": "Point", "coordinates": [-84.7146666445, 39.1391630196]}, "type": "Feature", "properties": {"collection_times": [{"days": "Mon-Fri", "time": "4:45pm"}, {"days": "Sat", "time": "11:45am"}, {"days": "Sun", "time": "Closed"}], "id": "4500100001", "name": "USPS COLLECTION BOX - PO LOBBY", "address": {"city": "ADDYSTON", "state": "OH", "street": "234 MAIN ST", "postcode": "45001"}}},
{"geometry": {"type": "Point", "coordinates": [-84.7490004684, 39.1715499687]}, "type": "Feature", "properties": {"collection_times": [{"days": "Mon-Fri", "time": "4:45pm"}, {"days": "Sat", "time": "11:45am"}, {"days": "Sun", "time": "Closed"}], "id": "4500200000", "name": "USPS COLLECTION BOX - BLUE BOX", "address": {"city": "CLEVES", "state": "OH", "street": "650 N MIAMI AVE", "postcode": "45002"}}},
{"geometry": {"type": "Point", "coordinates": [-84.7492193158, 39.1621383472]}, "type": "Feature", "properties": {"collection_times": [{"days": "Mon-Sat", "time": "11:00am"}, {"days": "Sun", "time": "Closed"}], "id": "4500200002", "name": "USPS COLLECTION BOX - BLUE BOX", "address": {"city": "CLEVES", "state": "OH", "street": "1 N MIAMI AVE", "postcode": "45002"}}},
{"geometry": {"type": "Point", "coordinates": [-84.7355357142, 39.2054729086]}, "type": "Feature", "properties": {"collection_times": [{"days": "Mon-Sat", "time": "9:00am"}, {"days": "Sun", "time": "Closed"}], "id": "4500200006", "name": "USPS COLLECTION BOX - BLUE BOX", "address": {"city": "CLEVES", "state": "OH", "street": "5747 STATE ROUTE 128", "postcode": "45002"}}},
{"geometry": {"type": "Point", "coordinates": [-84.7490004684, 39.1715499687]}, "type": "Feature", "properties": {"collection_times": [{"days": "Mon-Fri", "time": "4:45pm"}, {"days": "Sat", "time": "11:45am"}, {"days": "Sun", "time": "Closed"}], "id": "4500200009", "name": "USPS COLLECTION BOX - PO LOBBY", "address": {"city": "CLEVES", "state": "OH", "street": "650 N MIAMI AVE", "postcode": "45002"}}},
{"geometry": {"type": "Point", "coordinates": [-84.7490004684, 39.1715499687]}, "type": "Feature", "properties": {"collection_times": [{"days": "Mon-Fri", "time": "4:45pm"}, {"days": "Sat", "time": "11:45am"}, {"days": "Sun", "time": "Closed"}], "id": "4500200011", "name": "USPS COLLECTION BOX - PO LOBBY", "address": {"city": "CLEVES", "state": "OH", "street": "650 N MIAMI AVE", "postcode": "45002"}}},
{"geometry": {"type": "Point", "coordinates": [-84.6095068628, 39.5144830465]}, "type": "Feature", "properties": {"collection_times": [{"days": "Mon-Fri", "time": "10:00am"}, {"days": "Sat", "time": "9:00am"}, {"days": "Sun", "time": "Closed"}], "id": "4500400000", "name": "USPS COLLECTION BOX - BLUE BOX", "address": {"city": "COLLINSVILLE", "state": "OH", "street": "1419 DEPOT RD", "postcode": "45004"}}},
{"geometry": {"type": "Point", "coordinates": [-84.2890955968, 39.5637860386]}, "type": "Feature", "properties": {"collection_times": [{"days": "Mon-Fri", "time": "5:00pm"}, {"days": "Sat", "time": "4:00pm"}, {"days": "Sun", "time": "Closed"}], "id": "4500500009", "name": "USPS COLLECTION BOX - BLUE BOX", "address": {"city": "MIDDLETOWN", "state": "OH", "street": "712 E 2ND ST", "postcode": "45005"}}},
{"geometry": {"type": "Point", "coordinates": [-84.2706252415, 39.5642009515]}, "type": "Feature", "properties": {"collection_times": [{"days": "Mon-Fri", "time": "11:15am"}, {"days": "Sat", "time": "9:00am"}, {"days": "Sun", "time": "Closed"}], "id": "4500500024", "name": "USPS COLLECTION BOX - BLUE BOX", "address": {"city": "MIDDLETOWN", "state": "OH", "street": "8401 CLAUDE THOMAS RD", "postcode": "45005"}}},
{"geometry": {"type": "Point", "coordinates": [-84.3240457978, 39.5841803497]}, "type": "Feature", "properties": {"collection_times": [{"days": "Mon-Fri", "time": "3:45pm"}, {"days": "Sat", "time": "12:00pm"}, {"days": "Sun", "time": "Closed"}], "id": "4500500025", "name": "USPS COLLECTION BOX - BLUE BOX", "address": {"city": "MIDDLETOWN", "state": "OH", "street": "769 CENTRAL AVE", "postcode": "45005"}}},
{"geometry": {"type": "Point", "coordinates": [-84.3038077804, 39.5605701388]}, "type": "Feature", "properties": {"collection_times": [{"days": "Mon-Fri", "time": "3:00pm"}, {"days": "Sat", "time": "11:00am"}, {"days": "Sun", "time": "Closed"}], "id": "4500500027", "name": "USPS COLLECTION BOX - BLUE BOX", "address": {"city": "MIDDLETOWN", "state": "OH", "street": "345 S MAIN ST", "postcode": "45005"}}},
{"geometry": {"type": "Point", "coordinates": [-84.3258154529, 39.4948662748]}, "type": "Feature", "properties": {"collection_times": [{"days": "Mon-Fri", "time": "1:00pm"}, {"days": "Sat", "time": "11:00am"}, {"days": "Sun", "time": "Closed"}], "id": "4500500028", "name": "USPS COLLECTION BOX - BLUE BOX", "address": {"city": "MIDDLETOWN", "state": "OH", "street": "3471 VILLAGE DR", "postcode": "45005"}}},
{"geometry": {"type": "Point", "coordinates": [-84.3290512188, 39.495164955]}, "type": "Feature", "properties": {"collection_times": [{"days": "Mon-Fri", "time": "1:00pm"}, {"days": "Sat", "time": "11:00am"}, {"days": "Sun", "time": "Closed"}], "id": "4500500029", "name": "USPS COLLECTION BOX - BLUE BOX", "address": {"city": "MIDDLETOWN", "state": "OH", "street": "3461 TOWNE BLVD", "postcode": "45005"}}},
{"geometry": {"type": "Point", "coordinates": [-84.2890955968, 39.5637860386]}, "type": "Feature", "properties": {"collection_times": [{"days": "Mon-Fri", "time": "5:00pm"}, {"days": "Sat", "time": "4:00pm"}, {"days": "Sun", "time": "Closed"}], "id": "4500500033", "name": "USPS COLLECTION BOX - BLUE BOX", "address": {"city": "MIDDLETOWN", "state": "OH", "street": "712 E 2ND ST", "postcode": "45005"}}},
{"geometry": {"type": "Point", "coordinates": [-84.2890955968, 39.5637860386]}, "type": "Feature", "properties": {"collection_times": [{"days": "Mon-Fri", "time": "5:00pm"}, {"days": "Sat", "time": "4:00pm"}, {"days": "Sun", "time": "Closed"}], "id": "4500500034", "name": "USPS COLLECTION BOX - PO LOBBY", "address": {"city": "MIDDLETOWN", "state": "OH", "street": "712 E 2ND ST", "postcode": "45005"}}},
{"geometry": {"type": "Point", "coordinates": [-84.3240457978, 39.5841803497]}, "type": "Feature", "properties": {"collection_times": [{"days": "Mon-Fri", "time": "3:45pm"}, {"days": "Sat", "time": "12:00pm"}, {"days": "Sun", "time": "Closed"}], "id": "4500500035", "name": "USPS COLLECTION BOX - PO LOBBY", "address": {"city": "MIDDLETOWN", "state": "OH", "street": "769 CENTRAL AVE", "postcode": "45005"}}},
{"geometry": {"type": "Point", "coordinates": [-84.2890955968, 39.5637860386]}, "type": "Feature", "properties": {"collection_times": [{"days": "Mon-Fri", "time": "5:00pm"}, {"days": "Sat", "time": "4:00pm"}, {"days": "Sun", "time": "Closed"}], "id": "4500500036", "name": "USPS COLLECTION BOX - PO LOBBY", "address": {"city": "MIDDLETOWN", "state": "OH", "street": "712 E 2ND ST", "postcode": "45005"}}},
{"geometry": {"type": "Point", "coordinates": [-84.5640663184, 39.3987842828]}, "type": "Feature", "properties": {"collection_times": [{"days": "Mon-Sat", "time": "5:00pm"}, {"days": "Sun", "time": "Closed"}], "id": "4501100000", "name": "USPS COLLECTION BOX - BLUE BOX", "address": {"city": "LIBERTY TWP", "state": "OH", "street": "212 S FRONT ST", "postcode": "45011"}}},
{"geometry": {"type": "Point", "coordinates": [-84.5640663184, 39.3987842828]}, "type": "Feature", "properties": {"collection_times": [{"days": "Mon-Sat", "time": "5:00pm"}, {"days": "Sun", "time": "Closed"}], "id": "4501100001", "name": "USPS COLLECTION BOX - BLUE BOX", "address": {"city": "LIBERTY TWP", "state": "OH", "street": "212 S FRONT ST", "postcode": "45011"}}},
{"geometry": {"type": "Point", "coordinates": [-84.5640663184, 39.3987842828]}, "type": "Feature", "properties": {"collection_times": [{"days": "Mon-Sat", "time": "5:00pm"}, {"days": "Sun", "time": "Closed"}], "id": "4501100002", "name": "USPS COLLECTION BOX - BLUE BOX", "address": {"city": "LIBERTY TWP", "state": "OH", "street": "212 S FRONT ST", "postcode": "45011"}}},
{"geometry": {"type": "Point", "coordinates": [-84.5640663184, 39.3987842828]}, "type": "Feature", "properties": {"collection_times": [{"days": "Mon-Sat", "time": "5:00pm"}, {"days": "Sun", "time": "Closed"}], "id": "4501100004", "name": "USPS COLLECTION BOX - BLUE BOX", "address": {"city": "LIBERTY TWP", "state": "OH", "street": "212 S FRONT ST", "postcode": "45011"}}},
{"geometry": {"type": "Point", "coordinates": [-84.5640663184, 39.3987842828]}, "type": "Feature", "properties": {"collection_times": [{"days": "Mon-Sat", "time": "5:00pm"}, {"days": "Sun", "time": "Closed"}], "id": "4501100005", "name": "USPS COLLECTION BOX - BLUE BOX", "address": {"city": "LIBERTY TWP", "state": "OH", "street": "212 S FRONT ST", "postcode": "45011"}}},
{"geometry": {"type": "Point", "coordinates": [-84.5630014644, 39.4001638864]}, "type": "Feature", "properties": {"collection_times": [{"days": "Mon-Sat", "time": "10:30am"}, {"days": "Sun", "time": "Closed"}], "id": "4501100012", "name": "USPS COLLECTION BOX - BLUE BOX", "address": {"city": "LIBERTY TWP", "state": "OH", "street": "130 HIGH ST", "postcode": "45011"}}},
{"geometry": {"type": "Point", "coordinates": [-84.5032193383, 39.3961816275]}, "type": "Feature", "properties": {"collection_times": [{"days": "Mon-Sat", "time": "10:45am"}, {"days": "Sun", "time": "Closed"}], "id": "4501100016", "name": "USPS COLLECTION BOX - BLUE BOX", "address": {"city": "LIBERTY TWP", "state": "OH", "street": "300 HIGH ST", "postcode": "45011"}}},
{"geometry": {"type": "Point", "coordinates": [-84.5637057191, 39.3995310539]}, "type": "Feature", "properties": {"collection_times": [{"days": "Mon-Sat", "time": "10:30am"}, {"days": "Sun", "time": "Closed"}], "id": "4501100021", "name": "USPS COLLECTION BOX - BLUE BOX", "address": {"city": "LIBERTY TWP", "state": "OH", "street": "100 COURT ST", "postcode": "45011"}}},
{"geometry": {"type": "Point", "coordinates": [-84.5634562593, 39.4003211848]}, "type": "Feature", "properties": {"collection_times": [{"days": "Mon-Sat", "time": "10:45am"}, {"days": "Sun", "time": "Closed"}], "id": "4501100025", "name": "USPS COLLECTION BOX - BLUE BOX", "address": {"city": "LIBERTY TWP", "state": "OH", "street": "1 RIVERFRONT PLZ", "postcode": "45011"}}},
{"geometry": {"type": "Point", "coordinates": [-84.5329862961, 39.4435537058]}, "type": "Feature", "properties": {"collection_times": [{"days": "Mon-Sat", "time": "11:00am"}, {"days": "Sun", "time": "Closed"}], "id": "4501100040", "name": "USPS COLLECTION BOX - BLUE BOX", "address": {"city": "LIBERTY TWP", "state": "OH", "street": "3636 TRENTON RD", "postcode": "45011"}}},
{"geometry": {"type": "Point", "coordinates": [-84.5034853892, 39.362567049]}, "type": "Feature", "properties": {"collection_times": [{"days": "Mon-Sat", "time": "10:30am"}, {"days": "Sun", "time": "Closed"}], "id": "4501100041", "name": "USPS COLLECTION BOX - BLUE BOX", "address": {"city": "LIBERTY TWP", "state": "OH", "street": "3501 TYLERSVILLE RD", "postcode": "45011"}}},
{"geometry": {"type": "Point", "coordinates": [-84.4461417978, 39.4297833273]}, "type": "Feature", "properties": {"collection_times": [{"days": "Mon-Sat", "time": "11:00am"}, {"days": "Sun", "time": "Closed"}], "id": "4501100049", "name": "USPS COLLECTION BOX - BLUE BOX", "address": {"city": "LIBERTY TWP", "state": "OH", "street": "5050 HAMILTON MIDDLETOWN RD", "postcode": "45011"}}},
{"geometry": {"type": "Point", "coordinates": [-84.5497443231, 39.3793881176]}, "type": "Feature", "properties": {"collection_times": [{"days": "Mon-Sat", "time": "9:00am"}, {"days": "Sun", "time": "Closed"}], "id": "4501100050", "name": "USPS COLLECTION BOX - BLUE BOX", "address": {"city": "LIBERTY TWP", "state": "OH", "street": "1780 S ERIE HWY", "postcode": "45011"}}},
{"geometry": {"type": "Point", "coordinates": [-84.4407414136, 39.4331959935]}, "type": "Feature", "properties": {"collection_times": [{"days": "Mon-Sat", "time": "11:00am"}, {"days": "Sun", "time": "Closed"}], "id": "4501100058", "name": "USPS COLLECTION BOX - BLUE BOX", "address": {"city": "LIBERTY TWP", "state": "OH", "street": "5300 HAMILTON MIDDLETOWN RD", "postcode": "45011"}}},
{"geometry": {"type": "Point", "coordinates": [-84.5371005817, 39.3811933507]}, "type": "Feature", "properties": {"collection_times": [{"days": "Mon-Sat", "time": "11:45am"}, {"days": "Sun", "time": "Closed"}], "id": "4501100059", "name": "USPS COLLECTION BOX - BLUE BOX", "address": {"city": "LIBERTY TWP", "state": "OH", "street": "2511 GRAND BLVD", "postcode": "45011"}}},
{"geometry": {"type": "Point", "coordinates": [-84.5234748306, 39.3920917306]}, "type": "Feature", "properties": {"collection_times": [{"days": "Mon-Sat", "time": "12:00pm"}, {"days": "Sun", "time": "Closed"}], "id": "4501100065", "name": "USPS COLLECTION BOX - BLUE BOX", "address": {"city": "LIBERTY TWP", "state": "OH", "street": "2484 SERVICE LN", "postcode": "45011"}}},
{"geometry": {"type": "Point", "coordinates": [-84.5328032866, 39.4043303387]}, "type": "Feature", "properties": {"collection_times": [{"days": "Mon-Sat", "time": "10:00am"}, {"days": "Sun", "time": "Closed"}], "id": "4501100070", "name": "USPS COLLECTION BOX - BLUE BOX", "address": {"city": "LIBERTY TWP", "state": "OH", "street": "295 CAMPBELL DR", "postcode": "45011"}}},
{"geometry": {"type": "Point", "coordinates": [-84.475369702, 39.4184232837]}, "type": "Feature", "properties": {"collection_times": [{"days": "Mon-Sat", "time": "12:00pm"}, {"days": "Sun", "time": "Closed"}], "id": "4501100074", "name": "USPS COLLECTION BOX - BLUE BOX", "address": {"city": "LIBERTY TWP", "state": "OH", "street": "5420 LIBERTY FAIRFIELD RD", "postcode": "45011"}}},
{"geometry": {"type": "Point", "coordinates": [-84.4099959152, 39.3866939194]}, "type": "Feature", "properties": {"collection_times": [{"days": "Mon-Fri", "time": "11:00am"}, {"days": "Sat", "time": "10:00am"}, {"days": "Sun", "time": "Closed"}], "id": "4501100080", "name": "USPS COLLECTION BOX - BLUE BOX", "address": {"city": "LIBERTY TWP", "state": "OH", "street": "6400 PRINCETON RD", "postcode": "45011"}}},
{"geometry": {"type": "Point", "coordinates": [-84.5031591207, 39.3645718094]}, "type": "Feature", "properties": {"collection_times": [{"days": "Mon-Sat", "time": "10:00am"}, {"days": "Sun", "time": "Closed"}], "id": "4501100082", "name": "USPS COLLECTION BOX - BLUE BOX", "address": {"city": "LIBERTY TWP", "state": "OH", "street": "7907 JESSIES WAY", "postcode": "45011"}}},
{"geometry": {"type": "Point", "coordinates": [-84.5636990666, 39.3994115081]}, "type": "Feature", "properties": {"collection_times": [{"days": "Mon-Sat", "time": "5:00pm"}, {"days": "Sun", "time": "Closed"}], "id": "4501100083", "name": "USPS COLLECTION BOX - PO LOBBY", "address": {"city": "LIBERTY TWP", "state": "OH", "street": "105 COURT ST", "postcode": "45011"}}},
{"geometry": {"type": "Point", "coordinates": [-84.5604495687, 39.398561484]}, "type": "Feature", "properties": {"collection_times": [{"days": "Mon-Sat", "time": "11:00am"}, {"days": "Sun", "time": "Closed"}], "id": "4501100084", "name": "USPS COLLECTION BOX - BLUE BOX", "address": {"city": "LIBERTY TWP", "state": "OH", "street": "318 COURT ST", "postcode": "45011"}}},
{"geometry": {"type": "Point", "coordinates": [-84.5615002895, 39.3996126275]}, "type": "Feature", "properties": {"collection_times": [{"days": "Mon-Sat", "time": "10:45am"}, {"days": "Sun", "time": "Closed"}], "id": "4501100085", "name": "USPS COLLECTION BOX - BLUE BOX", "address": {"city": "LIBERTY TWP", "state": "OH", "street": "219 HIGH ST", "postcode": "45011"}}},
{"geometry": {"type": "Point", "coordinates": [-84.560305909, 39.3992423258]}, "type": "Feature", "properties": {"collection_times": [{"days": "Mon-Sat", "time": "11:00am"}, {"days": "Sun", "time": "Closed"}], "id": "4501100088", "name": "USPS COLLECTION BOX - BLUE BOX", "address": {"city": "LIBERTY TWP", "state": "OH", "street": "2 S 3RD ST", "postcode": "45011"}}},
{"geometry": {"type": "Point", "coordinates": [-84.5491178687, 39.3960780612]}, "type": "Feature", "properties": {"collection_times": [{"days": "Mon-Sat", "time": "10:00am"}, {"days": "Sun", "time": "Closed"}], "id": "4501100089", "name": "USPS COLLECTION BOX - BLUE BOX", "address": {"city": "LIBERTY TWP", "state": "OH", "street": "1090 HIGH ST", "postcode": "45011"}}},
{"geometry": {"type": "Point", "coordinates": [-84.4764663844, 39.316761019]}, "type": "Feature", "properties": {"collection_times": [{"days": "Mon-Sat", "time": "10:00am"}, {"days": "Sun", "time": "Closed"}], "id": "4501100091", "name": "USPS COLLECTION BOX - BLUE BOX", "address": {"city": "LIBERTY TWP", "state": "OH", "street": "4434 MULHAUSER RD", "postcode": "45011"}}},
{"geometry": {"type": "Point", "coordinates": [-84.5810297591, 39.409603899]}, "type": "Feature", "properties": {"collection_times": [{"days": "Mon-Sat", "time": "5:00pm"}, {"days": "Sun", "time": "Closed"}], "id": "4501300000", "name": "USPS COLLECTION BOX - BLUE BOX", "address": {"city": "ROSSVILLE", "state": "OH", "street": "865 FRANKLIN ST", "postcode": "45013"}}},
{"geometry": {"type": "Point", "coordinates": [-84.5738421004, 39.4152099415]}, "type": "Feature", "properties": {"collection_times": [{"days": "Mon-Sat", "time": "9:30am"}, {"days": "Sun", "time": "Closed"}], "id": "4501300003", "name": "USPS COLLECTION BOX - BLUE BOX", "address": {"city": "ROSSVILLE", "state": "OH", "street": "630 EATON AVE", "postcode": "45013"}}},
{"geometry": {"type": "Point", "coordinates": [-84.5936517146, 39.4236330707]}, "type": "Feature", "properties": {"collection_times": [{"days": "Mon-Sat", "time": "9:15am"}, {"days": "Sun", "time": "Closed"}], "id": "4501300004", "name": "USPS COLLECTION BOX - BLUE BOX", "address": {"city": "ROSSVILLE", "state": "OH", "street": "1466 MAIN ST", "postcode": "45013"}}},
{"geometry": {"type": "Point", "coordinates": [-84.5871450379, 39.4223209767]}, "type": "Feature", "properties": {"collection_times": [{"days": "Mon-Sat", "time": "9:15am"}, {"days": "Sun", "time": "Closed"}], "id": "4501300005", "name": "USPS COLLECTION BOX - BLUE BOX", "address": {"city": "ROSSVILLE", "state": "OH", "street": "102 N BROOKWOOD AVE", "postcode": "45013"}}},
{"geometry": {"type": "Point", "coordinates": [-84.6107974621, 39.4069580397]}, "type": "Feature", "properties": {"collection_times": [{"days": "Mon-Sat", "time": "9:00am"}, {"days": "Sun", "time": "Closed"}], "id": "4501300006", "name": "USPS COLLECTION BOX - BLUE BOX", "address": {"city": "ROSSVILLE", "state": "OH", "street": "1510 PLAZA DR", "postcode": "45013"}}},
{"geometry": {"type": "Point", "coordinates": [-84.5923979947, 39.4206929563]}, "type": "Feature", "properties": {"collection_times": [{"days": "Mon-Sat", "time": "9:00am"}, {"days": "Sun", "time": "Closed"}], "id": "4501300007", "name": "USPS COLLECTION BOX - BLUE BOX", "address": {"city": "ROSSVILLE", "state": "OH", "street": "855 STAHLHEBER RD", "postcode": "45013"}}},
{"geometry": {"type": "Point", "coordinates": [-84.5773164509, 39.4250202202]}, "type": "Feature", "properties": {"collection_times": [{"days": "Mon-Sat", "time": "9:15am"}, {"days": "Sun", "time": "Closed"}], "id": "4501300012", "name": "USPS COLLECTION BOX - BLUE BOX", "address": {"city": "ROSSVILLE", "state": "OH", "street": "1220 EATON AVE", "postcode": "45013"}}},
{"geometry": {"type": "Point", "coordinates": [-84.6494965198, 39.4066110388]}, "type": "Feature", "properties": {"collection_times": [{"days": "Mon-Sat", "time": "10:00am"}, {"days": "Sun", "time": "Closed"}], "id": "4501300017", "name": "USPS COLLECTION BOX - BLUE BOX", "address": {"city": "ROSSVILLE", "state": "OH", "street": "685 PYRAMID HILL BLVD", "postcode": "45013"}}},
{"geometry": {"type": "Point", "coordinates": [-84.5712857261, 39.4053831014]}, "type": "Feature", "properties": {"collection_times": [{"days": "Mon-Sat", "time": "9:45am"}, {"days": "Sun", "time": "Closed"}], "id": "4501300027", "name": "USPS COLLECTION BOX - BLUE BOX", "address": {"city": "ROSSVILLE", "state": "OH", "street": "434 MAIN ST", "postcode": "45013"}}},
{"geometry": {"type": "Point", "coordinates": [-84.5707415649, 39.4237958577]}, "type": "Feature", "properties": {"collection_times": [{"days": "Mon-Sat", "time": "9:30am"}, {"days": "Sun", "time": "Closed"}], "id": "4501300029", "name": "USPS COLLECTION BOX - BLUE BOX", "address": {"city": "ROSSVILLE", "state": "OH", "street": "801 MARK AVE", "postcode": "45013"}}},
{"geometry": {"type": "Point", "coordinates": [-84.6382807053, 39.3971852957]}, "type": "Feature", "properties": {"collection_times": [{"days": "Mon-Sat", "time": "11:30am"}, {"days": "Sun", "time": "Closed"}], "id": "4501300032", "name": "USPS COLLECTION BOX - BLUE BOX", "address": {"city": "ROSSVILLE", "state": "OH", "street": "2345 MILLVILLE AVE", "postcode": "45013"}}},
{"geometry": {"type": "Point", "coordinates": [-84.5982914963, 39.4061082552]}, "type": "Feature", "properties": {"collection_times": [{"days": "Mon-Sat", "time": "9:00am"}, {"days": "Sun", "time": "Closed"}], "id": "4501300033", "name": "USPS COLLECTION BOX - BLUE BOX", "address": {"city": "ROSSVILLE", "state": "OH", "street": "1069 MILLVILLE AVE", "postcode": "45013"}}},
{"geometry": {"type": "Point", "coordinates": [-84.5790270095, 39.4193124432]}, "type": "Feature", "properties": {"collection_times": [{"days": "Mon-Sat", "time": "9:15am"}, {"days": "Sun", "time": "Closed"}], "id": "4501300039", "name": "USPS COLLECTION BOX - BLUE BOX", "address": {"city": "ROSSVILLE", "state": "OH", "street": "1430 PARK AVE", "postcode": "45013"}}},
{"geometry": {"type": "Point", "coordinates": [-84.5859809824, 39.4172092524]}, "type": "Feature", "properties": {"collection_times": [{"days": "Mon-Sat", "time": "9:15am"}, {"days": "Sun", "time": "Closed"}], "id": "4501300049", "name": "USPS COLLECTION BOX - BLUE BOX", "address": {"city": "ROSSVILLE", "state": "OH", "street": "1204 MAIN ST", "postcode": "45013"}}},
{"geometry": {"type": "Point", "coordinates": [-84.5810297591, 39.409603899]}, "type": "Feature", "properties": {"collection_times": [{"days": "Mon-Sat", "time": "5:00pm"}, {"days": "Sun", "time": "Closed"}], "id": "4501300056", "name": "USPS COLLECTION BOX - BLUE BOX", "address": {"city": "ROSSVILLE", "state": "OH", "street": "865 FRANKLIN ST", "postcode": "45013"}}},
{"geometry": {"type": "Point", "coordinates": [-84.5522012456, 39.4302440369]}, "type": "Feature", "properties": {"collection_times": [{"days": "Mon-Sat", "time": "9:30am"}, {"days": "Sun", "time": "Closed"}], "id": "4501300061", "name": "USPS COLLECTION BOX - BLUE BOX", "address": {"city": "ROSSVILLE", "state": "OH", "street": "1 ALGONQUIN DR", "postcode": "45013"}}},
{"geometry": {"type": "Point", "coordinates": [-84.605726708, 39.4060317092]}, "type": "Feature", "properties": {"collection_times": [{"days": "Mon-Sat", "time": "11:30am"}, {"days": "Sun", "time": "Closed"}], "id": "4501300068", "name": "USPS COLLECTION BOX - BLUE BOX", "address": {"city": "ROSSVILLE", "state": "OH", "street": "4870 HUSTON RD", "postcode": "45013"}}},
{"geometry": {"type": "Point", "coordinates": [-84.522919882, 39.3097477773]}, "type": "Feature", "properties": {"collection_times": [{"days": "Mon-Sat", "time": "2:30pm"}, {"days": "Sun", "time": "Closed"}], "id": "4501400003", "name": "USPS COLLECTION BOX - BLUE BOX", "address": {"city": "FAIRFIELD", "state": "OH", "street": "6120 S GILMORE RD", "postcode": "45014"}}},
{"geometry": {"type": "Point", "coordinates": [-84.5313726906, 39.3323389342]}, "type": "Feature", "properties": {"collection_times": [{"days": "Mon-Sat", "time": "1:15pm"}, {"days": "Sun", "time": "Closed"}], "id": "4501400006", "name": "USPS COLLECTION BOX - BLUE BOX", "address": {"city": "FAIRFIELD", "state": "OH", "street": "1400 SHERWOOD DR", "postcode": "45014"}}},
{"geometry": {"type": "Point", "coordinates": [-84.5201017973, 39.3108739787]}, "type": "Feature", "properties": {"collection_times": [{"days": "Mon-Sat", "time": "2:30pm"}, {"days": "Sun", "time": "Closed"}], "id": "4501400007", "name": "USPS COLLECTION BOX - BLUE BOX", "address": {"city": "FAIRFIELD", "state": "OH", "street": "3000 MACK RD", "postcode": "45014"}}},
{"geometry": {"type": "Point", "coordinates": [-84.5140405563, 39.3121820604]}, "type": "Feature", "properties": {"collection_times": [{"days": "Mon-Sat", "time": "2:15pm"}, {"days": "Sun", "time": "Closed"}], "id": "4501400010", "name": "USPS COLLECTION BOX - BLUE BOX", "address": {"city": "FAIRFIELD", "state": "OH", "street": "1 WILDWOOD DR", "postcode": "45014"}}},
{"geometry": {"type": "Point", "coordinates": [-84.4976015087, 39.3075037112]}, "type": "Feature", "properties": {"collection_times": [{"days": "Mon-Sat", "time": "2:00pm"}, {"days": "Sun", "time": "Closed"}], "id": "4501400014", "name": "USPS COLLECTION BOX - BLUE BOX", "address": {"city": "FAIRFIELD", "state": "OH", "street": "3800 WOODRIDGE BLVD", "postcode": "45014"}}},
{"geometry": {"type": "Point", "coordinates": [-84.5053445263, 39.3175095962]}, "type": "Feature", "properties": {"collection_times": [{"days": "Mon-Sat", "time": "2:15pm"}, {"days": "Sun", "time": "Closed"}], "id": "4501400021", "name": "USPS COLLECTION BOX - BLUE BOX", "address": {"city": "FAIRFIELD", "state": "OH", "street": "25 WOODSTOCK DR", "postcode": "45014"}}},
{"geometry": {"type": "Point", "coordinates": [-84.4905045674, 39.3168164276]}, "type": "Feature", "properties": {"collection_times": [{"days": "Mon-Sat", "time": "2:00pm"}, {"days": "Sun", "time": "Closed"}], "id": "4501400024", "name": "USPS COLLECTION BOX - BLUE BOX", "address": {"city": "FAIRFIELD", "state": "OH", "street": "6918 FAIRFIELD BUSINESS CTR", "postcode": "45014"}}},
{"geometry": {"type": "Point", "coordinates": [-84.5410584788, 39.3472112573]}, "type": "Feature", "properties": {"collection_times": [{"days": "Mon-Sat", "time": "1:15pm"}, {"days": "Sun", "time": "Closed"}], "id": "4501400036", "name": "USPS COLLECTION BOX - BLUE BOX", "address": {"city": "FAIRFIELD", "state": "OH", "street": "4757 DIXIE HWY", "postcode": "45014"}}},
{"geometry": {"type": "Point", "coordinates": [-84.542526506, 39.350626529]}, "type": "Feature", "properties": {"collection_times": [{"days": "Mon-Sat", "time": "1:15pm"}, {"days": "Sun", "time": "Closed"}], "id": "4501400037", "name": "USPS COLLECTION BOX - BLUE BOX", "address": {"city": "FAIRFIELD", "state": "OH", "street": "4619 DIXIE HWY", "postcode": "45014"}}},
{"geometry": {"type": "Point", "coordinates": [-84.5252639213, 39.3108239679]}, "type": "Feature", "properties": {"collection_times": [{"days": "Mon-Sat", "time": "2:45pm"}, {"days": "Sun", "time": "Closed"}], "id": "4501400041", "name": "USPS COLLECTION BOX - BLUE BOX", "address": {"city": "FAIRFIELD", "state": "OH", "street": "2844 MACK RD", "postcode": "45014"}}},
{"geometry": {"type": "Point", "coordinates": [-84.4975384717, 39.3195561788]}, "type": "Feature", "properties": {"collection_times": [{"days": "Mon-Sat", "time": "2:15pm"}, {"days": "Sun", "time": "Closed"}], "id": "4501400042", "name": "USPS COLLECTION BOX - BLUE BOX", "address": {"city": "FAIRFIELD", "state": "OH", "street": "6625 DIXIE HWY", "postcode": "45014"}}},
{"geometry": {"type": "Point", "coordinates": [-84.5568049855, 39.3353299073]}, "type": "Feature", "properties": {"collection_times": [{"days": "Mon-Fri", "time": "6:00pm"}, {"days": "Sat", "time": "4:00pm"}, {"days": "Sun", "time": "Closed"}], "id": "4501400047", "name": "USPS COLLECTION BOX - BLUE BOX", "address": {"city": "FAIRFIELD", "state": "OH", "street": "700 WESSEL DR", "postcode": "45014"}}},
{"geometry": {"type": "Point", "coordinates": [-84.5568049855, 39.3353299073]}, "type": "Feature", "properties": {"collection_times": [{"days": "Mon-Fri", "time": "6:00pm"}, {"days": "Sat", "time": "4:00pm"}, {"days": "Sun", "time": "Closed"}], "id": "4501400050", "name": "USPS COLLECTION BOX - BLUE BOX", "address": {"city": "FAIRFIELD", "state": "OH", "street": "700 WESSEL DR", "postcode": "45014"}}},
{"geometry": {"type": "Point", "coordinates": [-84.5497133676, 39.3284721255]}, "type": "Feature", "properties": {"collection_times": [{"days": "Mon-Sat", "time": "2:45pm"}, {"days": "Sun", "time": "Closed"}], "id": "4501400055", "name": "USPS COLLECTION BOX - BLUE BOX", "address": {"city": "FAIRFIELD", "state": "OH", "street": "1700 GELHOT DR", "postcode": "45014"}}},
{"geometry": {"type": "Point", "coordinates": [-84.5568049855, 39.3353299073]}, "type": "Feature", "properties": {"collection_times": [{"days": "Mon-Fri", "time": "6:00pm"}, {"days": "Sat", "time": "4:00pm"}, {"days": "Sun", "time": "Closed"}], "id": "4501400058", "name": "USPS COLLECTION BOX - PO LOBBY", "address": {"city": "FAIRFIELD", "state": "OH", "street": "700 WESSEL DR", "postcode": "45014"}}},
{"geometry": {"type": "Point", "coordinates": [-84.5568049855, 39.3353299073]}, "type": "Feature", "properties": {"collection_times": [{"days": "Mon-Fri", "time": "6:00pm"}, {"days": "Sat", "time": "4:00pm"}, {"days": "Sun", "time": "Closed"}], "id": "4501400060", "name": "USPS COLLECTION BOX - PO LOBBY", "address": {"city": "FAIRFIELD", "state": "OH", "street": "700 WESSEL DR", "postcode": "45014"}}},
{"geometry": {"type": "Point", "coordinates": [-84.5212300042, 39.3107042814]}, "type": "Feature", "properties": {"collection_times": [{"days": "Mon-Sat", "time": "2:30pm"}, {"days": "Sun", "time": "Closed"}], "id": "4501400061", "name": "USPS COLLECTION BOX - BLUE BOX", "address": {"city": "FAIRFIELD", "state": "OH", "street": "2960 MACK RD", "postcode": "45014"}}},
{"geometry": {"type": "Point", "coordinates": [-84.497257337, 39.3357943573]}, "type": "Feature", "properties": {"collection_times": [{"days": "Mon-Sat", "time": "1:45pm"}, {"days": "Sun", "time": "Closed"}], "id": "4501400062", "name": "USPS COLLECTION BOX - BLUE BOX", "address": {"city": "FAIRFIELD", "state": "OH", "street": "500 QUALITY BLVD", "postcode": "45014"}}},
{"geometry": {"type": "Point", "coordinates": [-84.5568049855, 39.3353299073]}, "type": "Feature", "properties": {"collection_times": [{"days": "Mon-Fri", "time": "6:00pm"}, {"days": "Sat", "time": "4:00pm"}, {"days": "Sun", "time": "Closed"}], "id": "4501400063", "name": "USPS COLLECTION BOX - APC", "address": {"city": "FAIRFIELD", "state": "OH", "street": "700 WESSEL DR", "postcode": "45014"}}},
{"geometry": {"type": "Point", "coordinates": [-84.5195490721, 39.3109543016]}, "type": "Feature", "properties": {"collection_times": [{"days": "Mon-Sat", "time": "2:30pm"}, {"days": "Sun", "time": "Closed"}], "id": "4501400064", "name": "USPS COLLECTION BOX - BLUE BOX", "address": {"city": "FAIRFIELD", "state": "OH", "street": "3050 MACK RD", "postcode": "45014"}}},
{"geometry": {"type": "Point", "coordinates": [-84.5568049855, 39.3353299073]}, "type": "Feature", "properties": {"collection_times": [{"days": "Mon-Fri", "time": "6:00pm"}, {"days": "Sat", "time": "4:00pm"}, {"days": "Sun", "time": "Closed"}], "id": "4501400066", "name": "USPS COLLECTION BOX - BLUE BOX", "address": {"city": "FAIRFIELD", "state": "OH", "street": "700 WESSEL DR", "postcode": "45014"}}},
{"geometry": {"type": "Point", "coordinates": [-84.5568049855, 39.3353299073]}, "type": "Feature", "properties": {"collection_times": [{"days": "Mon-Fri", "time": "6:00pm"}, {"days": "Sat", "time": "4:00pm"}, {"days": "Sun", "time": "Closed"}], "id": "4501400067", "name": "USPS COLLECTION BOX - BLUE BOX", "address": {"city": "FAIRFIELD", "state": "OH", "street": "700 WESSEL DR", "postcode": "45014"}}},
{"geometry": {"type": "Point", "coordinates": [-84.5006086597, 39.3437521223]}, "type": "Feature", "properties": {"collection_times": [{"days": "Mon-Sat", "time": "1:30pm"}, {"days": "Sun", "time": "Closed"}], "id": "4501500010", "name": "USPS COLLECTION BOX - BLUE BOX", "address": {"city": "HAMILTON", "state": "OH", "street": "3620 SYMMES RD", "postcode": "45015"}}},
{"geometry": {"type": "Point", "coordinates": [-84.5569462715, 39.3671809103]}, "type": "Feature", "properties": {"collection_times": [{"days": "Mon-Sat", "time": "12:00pm"}, {"days": "Sun", "time": "Closed"}], "id": "4501500012", "name": "USPS COLLECTION BOX - BLUE BOX", "address": {"city": "HAMILTON", "state": "OH", "street": "640 HOOVEN AVE", "postcode": "45015"}}},
{"geometry": {"type": "Point", "coordinates": [-84.5588668634, 39.3557975825]}, "type": "Feature", "properties": {"collection_times": [{"days": "Mon-Sat", "time": "1:00pm"}, {"days": "Sun", "time": "Closed"}], "id": "4501500016", "name": "USPS COLLECTION BOX - BLUE BOX", "address": {"city": "HAMILTON", "state": "OH", "street": "575 ANDOVER AVE", "postcode": "45015"}}},
{"geometry": {"type": "Point", "coordinates": [-84.8199157624, 39.2580359646]}, "type": "Feature", "properties": {"collection_times": [{"days": "Mon-Fri", "time": "5:00pm"}, {"days": "Sat", "time": "4:30pm"}, {"days": "Sun", "time": "Closed"}], "id": "4503000001", "name": "USPS COLLECTION BOX - BLUE BOX", "address": {"city": "HARRISON", "state": "OH", "street": "420 S STATE ST", "postcode": "45030"}}},
{"geometry": {"type": "Point", "coordinates": [-84.8092438367, 39.2589978443]}, "type": "Feature", "properties": {"collection_times": [{"days": "Mon-Sat", "time": "9:30am"}, {"days": "Sun", "time": "Closed"}], "id": "4503000003", "name": "USPS COLLECTION BOX - BLUE BOX", "address": {"city": "HARRISON", "state": "OH", "street": "300 GEORGE ST", "postcode": "45030"}}},
{"geometry": {"type": "Point", "coordinates": [-84.815500316, 39.2619587124]}, "type": "Feature", "properties": {"collection_times": [{"days": "Mon-Sat", "time": "10:30am"}, {"days": "Sun", "time": "Closed"}], "id": "4503000005", "name": "USPS COLLECTION BOX - BLUE BOX", "address": {"city": "HARRISON", "state": "OH", "street": "416 HARRISON AVE", "postcode": "45030"}}},
{"geometry": {"type": "Point", "coordinates": [-84.7983610332, 39.2539124925]}, "type": "Feature", "properties": {"collection_times": [{"days": "Mon-Sat", "time": "9:30am"}, {"days": "Sun", "time": "Closed"}], "id": "4503000007", "name": "USPS COLLECTION BOX - BLUE BOX", "address": {"city": "HARRISON", "state": "OH", "street": "200 MORGANS WAY", "postcode": "45030"}}},
{"geometry": {"type": "Point", "coordinates": [-84.7943077968, 39.2526950389]}, "type": "Feature", "properties": {"collection_times": [{"days": "Mon-Sat", "time": "11:30am"}, {"days": "Sun", "time": "Closed"}], "id": "4503000008", "name": "USPS COLLECTION BOX - BLUE BOX", "address": {"city": "HARRISON", "state": "OH", "street": "10548 HARRISON AVE", "postcode": "45030"}}},
{"geometry": {"type": "Point", "coordinates": [-84.7922790221, 39.2514978844]}, "type": "Feature", "properties": {"collection_times": [{"days": "Mon-Sat", "time": "9:30am"}, {"days": "Sun", "time": "Closed"}], "id": "4503000010", "name": "USPS COLLECTION BOX - BLUE BOX", "address": {"city": "HARRISON", "state": "OH", "street": "10515 HARRISON AVE", "postcode": "45030"}}},
{"geometry": {"type": "Point", "coordinates": [-84.8021667245, 39.2590884273]}, "type": "Feature", "properties": {"collection_times": [{"days": "Mon-Sat", "time": "10:00am"}, {"days": "Sun", "time": "Closed"}], "id": "4503000014", "name": "USPS COLLECTION BOX - BLUE BOX", "address": {"city": "HARRISON", "state": "OH", "street": "10905 SHAKER POINT WAY", "postcode": "45030"}}},
{"geometry": {"type": "Point", "coordinates": [-84.6766805028, 39.2870858232]}, "type": "Feature", "properties": {"collection_times": [{"days": "Mon-Sat", "time": "9:45am"}, {"days": "Sun", "time": "Closed"}], "id": "4503000017", "name": "USPS COLLECTION BOX - BLUE BOX", "address": {"city": "HARRISON", "state": "OH", "street": "6200 RIVER RD", "postcode": "45030"}}},
{"geometry": {"type": "Point", "coordinates": [-84.7964004512, 39.2571074758]}, "type": "Feature", "properties": {"collection_times": [{"days": "Mon-Sat", "time": "12:00pm"}, {"days": "Sun", "time": "Closed"}], "id": "4503000018", "name": "USPS COLLECTION BOX - BLUE BOX", "address": {"city": "HARRISON", "state": "OH", "street": "1151 STONE DR", "postcode": "45030"}}},
{"geometry": {"type": "Point", "coordinates": [-84.7833075637, 39.2427283703]}, "type": "Feature", "properties": {"collection_times": [{"days": "Mon-Sat", "time": "9:30am"}, {"days": "Sun", "time": "Closed"}], "id": "4503000020", "name": "USPS COLLECTION BOX - BLUE BOX", "address": {"city": "HARRISON", "state": "OH", "street": "100 MAY DR", "postcode": "45030"}}},
{"geometry": {"type": "Point", "coordinates": [-84.8134835616, 39.2598188178]}, "type": "Feature", "properties": {"collection_times": [{"days": "Mon-Sat", "time": "10:00am"}, {"days": "Sun", "time": "Closed"}], "id": "4503000022", "name": "USPS COLLECTION BOX - BLUE BOX", "address": {"city": "HARRISON", "state": "OH", "street": "507 KATER AVE", "postcode": "45030"}}},
{"geometry": {"type": "Point", "coordinates": [-84.796839329, 39.2612158923]}, "type": "Feature", "properties": {"collection_times": [{"days": "Mon-Sat", "time": "9:45am"}, {"days": "Sun", "time": "Closed"}], "id": "4503000024", "name": "USPS COLLECTION BOX - BLUE BOX", "address": {"city": "HARRISON", "state": "OH", "street": "10501 NEW HAVEN RD", "postcode": "45030"}}},
{"geometry": {"type": "Point", "coordinates": [-84.7704191234, 39.2424920178]}, "type": "Feature", "properties": {"collection_times": [{"days": "Mon-Sat", "time": "9:30am"}, {"days": "Sun", "time": "Closed"}], "id": "4503000027", "name": "USPS COLLECTION BOX - BLUE BOX", "address": {"city": "HARRISON", "state": "OH", "street": "9055 DRY FORK RD", "postcode": "45030"}}},
{"geometry": {"type": "Point", "coordinates": [-84.8199157624, 39.2580359646]}, "type": "Feature", "properties": {"collection_times": [{"days": "Mon-Fri", "time": "5:00pm"}, {"days": "Sat", "time": "4:30pm"}, {"days": "Sun", "time": "Closed"}], "id": "4503000028", "name": "USPS COLLECTION BOX - BLUE BOX", "address": {"city": "HARRISON", "state": "OH", "street": "420 S STATE ST", "postcode": "45030"}}},
{"geometry": {"type": "Point", "coordinates": [-84.7309614909, 39.2762767465]}, "type": "Feature", "properties": {"collection_times": [{"days": "Mon-Sat", "time": "8:30am"}, {"days": "Sun", "time": "Closed"}], "id": "4503000029", "name": "USPS COLLECTION BOX - BLUE BOX", "address": {"city": "HARRISON", "state": "OH", "street": "27968 STATE ROUTE 1", "postcode": "45030"}}},
{"geometry": {"type": "Point", "coordinates": [-84.8199157624, 39.2580359646]}, "type": "Feature", "properties": {"collection_times": [{"days": "Mon-Fri", "time": "5:00pm"}, {"days": "Sat", "time": "4:30pm"}, {"days": "Sun", "time": "Closed"}], "id": "4503000030", "name": "USPS COLLECTION BOX - PO LOBBY", "address": {"city": "HARRISON", "state": "OH", "street": "420 S STATE ST", "postcode": "45030"}}},
{"geometry": {"type": "Point", "coordinates": [-84.7922873029, 39.2474628114]}, "type": "Feature", "properties": {"collection_times": [{"days": "Mon-Sat", "time": "11:00am"}, {"days": "Sun", "time": "Closed"}], "id": "4503000032", "name": "USPS COLLECTION BOX - BLUE BOX", "address": {"city": "HARRISON", "state": "OH", "street": "10518 WEST RD", "postcode": "45030"}}},
{"geometry": {"type": "Point", "coordinates": [-82.7112131521, 40.4130547318]}, "type": "Feature", "properties": {"collection_times": [{"days": "Mon-Fri", "time": "4:00pm"}, {"days": "Sat", "time": "12:00pm"}, {"days": "Sun", "time": "Closed"}], "id": "4503200001", "name": "USPS COLLECTION BOX - BLUE BOX", "address": {"city": "HARVEYSBURG", "state": "OH", "street": "46 W MAIN ST", "postcode": "45032"}}},
{"geometry": {"type": "Point", "coordinates": [-84.0110249507, 39.5037200671]}, "type": "Feature", "properties": {"collection_times": [{"days": "Mon-Fri", "time": "4:00pm"}, {"days": "Sat", "time": "12:00pm"}, {"days": "Sun", "time": "Closed"}], "id": "4503200002", "name": "USPS COLLECTION BOX - PO LOBBY", "address": {"city": "HARVEYSBURG", "state": "OH", "street": "46 W MAIN ST", "postcode": "45032"}}},
{"geometry": {"type": "Point", "coordinates": [-84.7597920603, 39.176455233]}, "type": "Feature", "properties": {"collection_times": [{"days": "Mon-Sat", "time": "10:30am"}, {"days": "Sun", "time": "Closed"}], "id": "4503300001", "name": "USPS COLLECTION BOX - BLUE BOX", "address": {"city": "HOOVEN", "state": "OH", "street": "312 OHIO AVE", "postcode": "45033"}}},
{"geometry": {"type": "Point", "coordinates": [-84.2530365178, 39.3568838626]}, "type": "Feature", "properties": {"collection_times": [{"days": "Mon-Fri", "time": "4:00pm"}, {"days": "Sat", "time": "11:00am"}, {"days": "Sun", "time": "Closed"}], "id": "4503400001", "name": "USPS COLLECTION BOX - BLUE BOX", "address": {"city": "KINGS MILLS", "state": "OH", "street": "1985 KING AVE", "postcode": "45034"}}},
{"geometry": {"type": "Point", "coordinates": [-84.2530365178, 39.3568838626]}, "type": "Feature", "properties": {"collection_times": [{"days": "Mon-Fri", "time": "5:00pm"}, {"days": "Sat", "time": "11:30am"}, {"days": "Sun", "time": "Closed"}], "id": "4503400002", "name": "USPS COLLECTION BOX - PO LOBBY", "address": {"city": "KINGS MILLS", "state": "OH", "street": "1985 KING AVE", "postcode": "45034"}}},
{"geometry": {"type": "Point", "coordinates": [-84.2209241409, 39.393502083]}, "type": "Feature", "properties": {"collection_times": [{"days": "Mon-Fri", "time": "10:00am"}, {"days": "Sat-Sun", "time": "Closed"}], "id": "4503600000", "name": "USPS COLLECTION BOX - BLUE BOX", "address": {"city": "LEBANON", "state": "OH", "street": "3000 HENKLE DR", "postcode": "45036"}}},
{"geometry": {"type": "Point", "coordinates": [-84.204344179, 39.4385072228]}, "type": "Feature", "properties": {"collection_times": [{"days": "Mon-Fri", "time": "5:00pm"}, {"days": "Sat", "time": "3:15pm"}, {"days": "Sun", "time": "Closed"}], "id": "4503600001", "name": "USPS COLLECTION BOX - BLUE BOX", "address": {"city": "LEBANON", "state": "OH", "street": "230 NEW ST", "postcode": "45036"}}},
{"geometry": {"type": "Point", "coordinates": [-84.2035130133, 39.4352531688]}, "type": "Feature", "properties": {"collection_times": [{"days": "Mon-Sat", "time": "9:30am"}, {"days": "Sun", "time": "Closed"}], "id": "4503600008", "name": "USPS COLLECTION BOX - BLUE BOX", "address": {"city": "LEBANON", "state": "OH", "street": "312 E SILVER ST", "postcode": "45036"}}},
{"geometry": {"type": "Point", "coordinates": [-84.1936613416, 39.4323968234]}, "type": "Feature", "properties": {"collection_times": [{"days": "Mon-Sat", "time": "10:30am"}, {"days": "Sun", "time": "Closed"}], "id": "4503600009", "name": "USPS COLLECTION BOX - BLUE BOX", "address": {"city": "LEBANON", "state": "OH", "street": "726 E MAIN ST", "postcode": "45036"}}},
{"geometry": {"type": "Point", "coordinates": [-84.2165541871, 39.4299933797]}, "type": "Feature", "properties": {"collection_times": [{"days": "Mon-Sat", "time": "10:30am"}, {"days": "Sun", "time": "Closed"}], "id": "4503600010", "name": "USPS COLLECTION BOX - BLUE BOX", "address": {"city": "LEBANON", "state": "OH", "street": "500 CINCINNATI AVE", "postcode": "45036"}}},
{"geometry": {"type": "Point", "coordinates": [-84.204344179, 39.4385072228]}, "type": "Feature", "properties": {"collection_times": [{"days": "Mon-Fri", "time": "5:00pm"}, {"days": "Sat", "time": "3:15pm"}, {"days": "Sun", "time": "Closed"}], "id": "4503600011", "name": "USPS COLLECTION BOX - BLUE BOX", "address": {"city": "LEBANON", "state": "OH", "street": "230 NEW ST", "postcode": "45036"}}},
{"geometry": {"type": "Point", "coordinates": [-84.204344179, 39.4385072228]}, "type": "Feature", "properties": {"collection_times": [{"days": "Mon-Fri", "time": "5:00pm"}, {"days": "Sat", "time": "3:15pm"}, {"days": "Sun", "time": "Closed"}], "id": "4503600012", "name": "USPS COLLECTION BOX - PO LOBBY", "address": {"city": "LEBANON", "state": "OH", "street": "230 NEW ST", "postcode": "45036"}}},
{"geometry": {"type": "Point", "coordinates": [-84.2077898393, 39.4574661403]}, "type": "Feature", "properties": {"collection_times": [{"days": "Mon-Sat", "time": "10:00am"}, {"days": "Sun", "time": "Closed"}], "id": "4503600015", "name": "USPS COLLECTION BOX - BLUE BOX", "address": {"city": "LEBANON", "state": "OH", "street": "201 MILLER RD", "postcode": "45036"}}},
{"geometry": {"type": "Point", "coordinates": [-84.1887899481, 39.4503629437]}, "type": "Feature", "properties": {"collection_times": [{"days": "Mon-Sat", "time": "10:00am"}, {"days": "Sun", "time": "Closed"}], "id": "4503600026", "name": "USPS COLLECTION BOX - BLUE BOX", "address": {"city": "LEBANON", "state": "OH", "street": "1030 HUNTERS RUN DR", "postcode": "45036"}}},
{"geometry": {"type": "Point", "coordinates": [-84.2089572247, 39.4314519681]}, "type": "Feature", "properties": {"collection_times": [{"days": "Mon-Sat", "time": "10:30am"}, {"days": "Sun", "time": "Closed"}], "id": "4503600028", "name": "USPS COLLECTION BOX - BLUE BOX", "address": {"city": "LEBANON", "state": "OH", "street": "6 CINCINNATI AVE", "postcode": "45036"}}},
{"geometry": {"type": "Point", "coordinates": [-84.1918311523, 39.4440662197]}, "type": "Feature", "properties": {"collection_times": [{"days": "Mon-Sat", "time": "10:00am"}, {"days": "Sun", "time": "Closed"}], "id": "4503600031", "name": "USPS COLLECTION BOX - BLUE BOX", "address": {"city": "LEBANON", "state": "OH", "street": "777 COLUMBUS AVE", "postcode": "45036"}}},
{"geometry": {"type": "Point", "coordinates": [-84.204344179, 39.4385072228]}, "type": "Feature", "properties": {"collection_times": [{"days": "Mon-Fri", "time": "5:00pm"}, {"days": "Sat", "time": "3:15pm"}, {"days": "Sun", "time": "Closed"}], "id": "4503600034", "name": "USPS COLLECTION BOX - PO LOBBY", "address": {"city": "LEBANON", "state": "OH", "street": "230 NEW ST", "postcode": "45036"}}},
{"geometry": {"type": "Point", "coordinates": [-84.2209241409, 39.393502083]}, "type": "Feature", "properties": {"collection_times": [{"days": "Mon-Fri", "time": "10:00am"}, {"days": "Sat-Sun", "time": "Closed"}], "id": "4503600036", "name": "USPS COLLECTION BOX - BLUE BOX", "address": {"city": "LEBANON", "state": "OH", "street": "3000 HENKLE DR", "postcode": "45036"}}},
{"geometry": {"type": "Point", "coordinates": [-84.204344179, 39.4385072228]}, "type": "Feature", "properties": {"collection_times": [{"days": "Mon-Fri", "time": "5:00pm"}, {"days": "Sat", "time": "3:15pm"}, {"days": "Sun", "time": "Closed"}], "id": "4503600037", "name": "USPS COLLECTION BOX - APC", "address": {"city": "LEBANON", "state": "OH", "street": "230 NEW ST", "postcode": "45036"}}},
{"geometry": {"type": "Point", "coordinates": [-84.1971252693, 39.439956436]}, "type": "Feature", "properties": {"collection_times": [{"days": "Mon-Sat", "time": "12:00pm"}, {"days": "Sun", "time": "Closed"}], "id": "4503600038", "name": "USPS COLLECTION BOX - BLUE BOX", "address": {"city": "LEBANON", "state": "OH", "street": "489 LALUZ BLVD", "postcode": "45036"}}},
{"geometry": {"type": "Point", "coordinates": [-84.2081930673, 39.4338637086]}, "type": "Feature", "properties": {"collection_times": [{"days": "Mon-Sat", "time": "10:00am"}, {"days": "Sun", "time": "Closed"}], "id": "4503600040", "name": "USPS COLLECTION BOX - BLUE BOX", "address": {"city": "LEBANON", "state": "OH", "street": "50 S BROADWAY ST", "postcode": "45036"}}},
{"geometry": {"type": "Point", "coordinates": [-84.2086650338, 39.4344661475]}, "type": "Feature", "properties": {"collection_times": [{"days": "Mon-Fri", "time": "10:30am"}, {"days": "Sat", "time": "10:00am"}, {"days": "Sun", "time": "Closed"}], "id": "4503600041", "name": "USPS COLLECTION BOX - BLUE BOX", "address": {"city": "LEBANON", "state": "OH", "street": "12 W MULBERRY ST", "postcode": "45036"}}},
{"geometry": {"type": "Point", "coordinates": [-84.2208406364, 39.3197728953]}, "type": "Feature", "properties": {"collection_times": [{"days": "Mon-Fri", "time": "4:30pm"}, {"days": "Sat", "time": "11:00am"}, {"days": "Sun", "time": "Closed"}], "id": "4503900000", "name": "USPS COLLECTION BOX - PO LOBBY", "address": {"city": "MAINEVILLE", "state": "OH", "street": "7878 S STATE ROUTE 48", "postcode": "45039"}}},
{"geometry": {"type": "Point", "coordinates": [-84.2364814206, 39.326618001]}, "type": "Feature", "properties": {"collection_times": [{"days": "Mon-Fri", "time": "12:30pm"}, {"days": "Sat", "time": "10:00am"}, {"days": "Sun", "time": "Closed"}], "id": "4503900002", "name": "USPS COLLECTION BOX - BLUE BOX", "address": {"city": "MAINEVILLE", "state": "OH", "street": "2894 W US HIGHWAY 22 AND 3", "postcode": "45039"}}},
{"geometry": {"type": "Point", "coordinates": [-84.2813194483, 39.3332097471]}, "type": "Feature", "properties": {"collection_times": [{"days": "Mon-Sat", "time": "10:00am"}, {"days": "Sun", "time": "Closed"}], "id": "4503900003", "name": "USPS COLLECTION BOX - BLUE BOX", "address": {"city": "MAINEVILLE", "state": "OH", "street": "7264 COLUMBIA RD", "postcode": "45039"}}},
{"geometry": {"type": "Point", "coordinates": [-84.2208406364, 39.3197728953]}, "type": "Feature", "properties": {"collection_times": [{"days": "Mon-Fri", "time": "4:30pm"}, {"days": "Sat", "time": "11:00am"}, {"days": "Sun", "time": "Closed"}], "id": "4503900006", "name": "USPS COLLECTION BOX - PO LOBBY", "address": {"city": "MAINEVILLE", "state": "OH", "street": "7878 S STATE ROUTE 48", "postcode": "45039"}}},
{"geometry": {"type": "Point", "coordinates": [-84.2208406364, 39.3197728953]}, "type": "Feature", "properties": {"collection_times": [{"days": "Mon-Fri", "time": "4:30pm"}, {"days": "Sat", "time": "11:00am"}, {"days": "Sun", "time": "Closed"}], "id": "4503900007", "name": "USPS COLLECTION BOX - BLUE BOX", "address": {"city": "MAINEVILLE", "state": "OH", "street": "7878 S STATE ROUTE 48", "postcode": "45039"}}},
{"geometry": {"type": "Point", "coordinates": [-84.2364814206, 39.326618001]}, "type": "Feature", "properties": {"collection_times": [{"days": "Mon-Fri", "time": "12:30pm"}, {"days": "Sat", "time": "10:00am"}, {"days": "Sun", "time": "Closed"}], "id": "4503900008", "name": "USPS COLLECTION BOX - BLUE BOX", "address": {"city": "MAINEVILLE", "state": "OH", "street": "2894 W US HIGHWAY 22 AND 3", "postcode": "45039"}}},
{"geometry": {"type": "Point", "coordinates": [-84.2364814206, 39.326618001]}, "type": "Feature", "properties": {"collection_times": [{"days": "Mon-Fri", "time": "12:30pm"}, {"days": "Sat", "time": "10:00am"}, {"days": "Sun", "time": "Closed"}], "id": "4503900009", "name": "USPS COLLECTION BOX - BLUE BOX", "address": {"city": "MAINEVILLE", "state": "OH", "street": "2894 W US HIGHWAY 22 AND 3", "postcode": "45039"}}},
{"geometry": {"type": "Point", "coordinates": [-84.2192086793, 39.350488491]}, "type": "Feature", "properties": {"collection_times": [{"days": "Mon-Sat", "time": "11:00am"}, {"days": "Sun", "time": "Closed"}], "id": "4503900010", "name": "USPS COLLECTION BOX - BLUE BOX", "address": {"city": "MAINEVILLE", "state": "OH", "street": "5705 S STATE ROUTE 48", "postcode": "45039"}}},
{"geometry": {"type": "Point", "coordinates": [-84.3309628917, 39.3521363782]}, "type": "Feature", "properties": {"collection_times": [{"days": "Mon-Fri", "time": "5:00pm"}, {"days": "Sat", "time": "3:00pm"}, {"days": "Sun", "time": "Closed"}], "id": "4504000000", "name": "USPS COLLECTION BOX - PO LOBBY", "address": {"city": "MASON", "state": "OH", "street": "6338 SNIDER RD", "postcode": "45040"}}},
{"geometry": {"type": "Point", "coordinates": [-84.3309628917, 39.3521363782]}, "type": "Feature", "properties": {"collection_times": [{"days": "Mon-Fri", "time": "5:00pm"}, {"days": "Sat", "time": "3:00pm"}, {"days": "Sun", "time": "Closed"}], "id": "4504000001", "name": "USPS COLLECTION BOX - BLUE BOX", "address": {"city": "MASON", "state": "OH", "street": "6338 SNIDER RD", "postcode": "45040"}}},
{"geometry": {"type": "Point", "coordinates": [-84.3309628917, 39.3521363782]}, "type": "Feature", "properties": {"collection_times": [{"days": "Mon-Fri", "time": "5:00pm"}, {"days": "Sat", "time": "3:00pm"}, {"days": "Sun", "time": "Closed"}], "id": "4504000002", "name": "USPS COLLECTION BOX - BLUE BOX", "address": {"city": "MASON", "state": "OH", "street": "6338 SNIDER RD", "postcode": "45040"}}},
{"geometry": {"type": "Point", "coordinates": [-84.2858743995, 39.3140917921]}, "type": "Feature", "properties": {"collection_times": [{"days": "Mon-Sat", "time": "10:00am"}, {"days": "Sun", "time": "Closed"}], "id": "4504000005", "name": "USPS COLLECTION BOX - BLUE BOX", "address": {"city": "MASON", "state": "OH", "street": "3530 IRWIN SIMPSON RD", "postcode": "45040"}}},
{"geometry": {"type": "Point", "coordinates": [-84.3081128451, 39.3023012401]}, "type": "Feature", "properties": {"collection_times": [{"days": "Mon-Fri", "time": "2:00pm"}, {"days": "Sat", "time": "10:00am"}, {"days": "Sun", "time": "Closed"}], "id": "4504000017", "name": "USPS COLLECTION BOX - BLUE BOX", "address": {"city": "MASON", "state": "OH", "street": "4605 DUKE DR", "postcode": "45040"}}},
{"geometry": {"type": "Point", "coordinates": [-84.3150165936, 39.298844634]}, "type": "Feature", "properties": {"collection_times": [{"days": "Mon-Sat", "time": "10:00am"}, {"days": "Sun", "time": "Closed"}], "id": "4504000025", "name": "USPS COLLECTION BOX - BLUE BOX", "address": {"city": "MASON", "state": "OH", "street": "9560 S MASON MONTGOMERY RD", "postcode": "45040"}}},
{"geometry": {"type": "Point", "coordinates": [-84.3405909835, 39.3390155546]}, "type": "Feature", "properties": {"collection_times": [{"days": "Mon-Sat", "time": "12:00pm"}, {"days": "Sun", "time": "Closed"}], "id": "4504000027", "name": "USPS COLLECTION BOX - BLUE BOX", "address": {"city": "MASON", "state": "OH", "street": "1065 READING RD", "postcode": "45040"}}},
{"geometry": {"type": "Point", "coordinates": [-84.3135876669, 39.3590422427]}, "type": "Feature", "properties": {"collection_times": [{"days": "Mon-Fri", "time": "1:00pm"}, {"days": "Sat", "time": "11:00am"}, {"days": "Sun", "time": "Closed"}], "id": "4504000033", "name": "USPS COLLECTION BOX - BLUE BOX", "address": {"city": "MASON", "state": "OH", "street": "226 READING RD", "postcode": "45040"}}},
{"geometry": {"type": "Point", "coordinates": [-84.3309628917, 39.3521363782]}, "type": "Feature", "properties": {"collection_times": [{"days": "Mon-Fri", "time": "5:00pm"}, {"days": "Sat", "time": "3:00pm"}, {"days": "Sun", "time": "Closed"}], "id": "4504000034", "name": "USPS COLLECTION BOX - PO LOBBY", "address": {"city": "MASON", "state": "OH", "street": "6338 SNIDER RD", "postcode": "45040"}}},
{"geometry": {"type": "Point", "coordinates": [-84.3021921355, 39.3137830398]}, "type": "Feature", "properties": {"collection_times": [{"days": "Mon-Fri", "time": "3:00pm"}, {"days": "Sat-Sun", "time": "Closed"}], "id": "4504000035", "name": "USPS COLLECTION BOX - BLUE BOX", "address": {"city": "MASON", "state": "OH", "street": "8585 DUKE BLVD", "postcode": "45040"}}},
{"geometry": {"type": "Point", "coordinates": [-84.3309628917, 39.3521363782]}, "type": "Feature", "properties": {"collection_times": [{"days": "Mon-Fri", "time": "5:00pm"}, {"days": "Sat", "time": "3:00pm"}, {"days": "Sun", "time": "Closed"}], "id": "4504000036", "name": "USPS COLLECTION BOX - BLUE BOX", "address": {"city": "MASON", "state": "OH", "street": "6338 SNIDER RD", "postcode": "45040"}}},
{"geometry": {"type": "Point", "coordinates": [-84.2685062109, 39.3579298361]}, "type": "Feature", "properties": {"collection_times": [{"days": "Mon-Sat", "time": "10:30am"}, {"days": "Sun", "time": "Closed"}], "id": "4504000037", "name": "USPS COLLECTION BOX - BLUE BOX", "address": {"city": "MASON", "state": "OH", "street": "5542 STATE ROUTE 741", "postcode": "45040"}}},
{"geometry": {"type": "Point", "coordinates": [-84.313983829, 39.3192246492]}, "type": "Feature", "properties": {"collection_times": [{"days": "Mon-Sat", "time": "10:00am"}, {"days": "Sun", "time": "Closed"}], "id": "4504000038", "name": "USPS COLLECTION BOX - BLUE BOX", "address": {"city": "MASON", "state": "OH", "street": "8211 ARBOR SQUARE DR", "postcode": "45040"}}},
{"geometry": {"type": "Point", "coordinates": [-84.3309628917, 39.3521363782]}, "type": "Feature", "properties": {"collection_times": [{"days": "Mon-Fri", "time": "5:00pm"}, {"days": "Sat", "time": "3:00pm"}, {"days": "Sun", "time": "Closed"}], "id": "4504000039", "name": "USPS COLLECTION BOX - APC", "address": {"city": "MASON", "state": "OH", "street": "6338 SNIDER RD", "postcode": "45040"}}},
{"geometry": {"type": "Point", "coordinates": [-84.30953003, 39.3533175285]}, "type": "Feature", "properties": {"collection_times": [{"days": "Mon-Fri", "time": "3:00pm"}, {"days": "Sat", "time": "10:00am"}, {"days": "Sun", "time": "Closed"}], "id": "4504000041", "name": "USPS COLLECTION BOX - BLUE BOX", "address": {"city": "MASON", "state": "OH", "street": "6000 S MASON MONTGOMERY RD", "postcode": "45040"}}},
{"geometry": {"type": "Point", "coordinates": [-84.7044610088, 39.214951403]}, "type": "Feature", "properties": {"collection_times": [{"days": "Mon-Fri", "time": "4:30pm"}, {"days": "Sat", "time": "11:30am"}, {"days": "Sun", "time": "Closed"}], "id": "4504100001", "name": "USPS COLLECTION BOX - BLUE BOX", "address": {"city": "MIAMITOWN", "state": "OH", "street": "6739 STATE ROUTE 128", "postcode": "45041"}}},
{"geometry": {"type": "Point", "coordinates": [-84.7044610088, 39.214951403]}, "type": "Feature", "properties": {"collection_times": [{"days": "Mon-Fri", "time": "4:30pm"}, {"days": "Sat", "time": "11:30am"}, {"days": "Sun", "time": "Closed"}], "id": "4504100002", "name": "USPS COLLECTION BOX - BLUE BOX", "address": {"city": "MIAMITOWN", "state": "OH", "street": "6739 STATE ROUTE 128", "postcode": "45041"}}},
{"geometry": {"type": "Point", "coordinates": [-84.7044610088, 39.214951403]}, "type": "Feature", "properties": {"collection_times": [{"days": "Mon-Fri", "time": "4:30pm"}, {"days": "Sat", "time": "11:30am"}, {"days": "Sun", "time": "Closed"}], "id": "4504100003", "name": "USPS COLLECTION BOX - PO LOBBY", "address": {"city": "MIAMITOWN", "state": "OH", "street": "6739 STATE ROUTE 128", "postcode": "45041"}}},
{"geometry": {"type": "Point", "coordinates": [-84.7044610088, 39.214951403]}, "type": "Feature", "properties": {"collection_times": [{"days": "Mon-Fri", "time": "4:30pm"}, {"days": "Sat", "time": "11:30am"}, {"days": "Sun", "time": "Closed"}], "id": "4504100004", "name": "USPS COLLECTION BOX - PO LOBBY", "address": {"city": "MIAMITOWN", "state": "OH", "street": "6739 STATE ROUTE 128", "postcode": "45041"}}},
{"geometry": {"type": "Point", "coordinates": [-83.6196173301, 40.1914303025]}, "type": "Feature", "properties": {"collection_times": [{"days": "Mon-Sat", "time": "10:00am"}, {"days": "Sun", "time": "Closed"}], "id": "4504200001", "name": "USPS COLLECTION BOX - BLUE BOX", "address": {"city": "MIDDLETOWN", "state": "OH", "street": "701 N UNIVERSITY BLVD", "postcode": "45042"}}},
{"geometry": {"type": "Point", "coordinates": [-84.3728856437, 39.5228979431]}, "type": "Feature", "properties": {"collection_times": [{"days": "Mon-Fri", "time": "3:00pm"}, {"days": "Sat", "time": "12:30pm"}, {"days": "Sun", "time": "Closed"}], "id": "4504200002", "name": "USPS COLLECTION BOX - BLUE BOX", "address": {"city": "MIDDLETOWN", "state": "OH", "street": "1000 N UNIVERSITY BLVD", "postcode": "45042"}}},
{"geometry": {"type": "Point", "coordinates": [-84.3527723247, 39.5244289682]}, "type": "Feature", "properties": {"collection_times": [{"days": "Mon-Fri", "time": "3:00pm"}, {"days": "Sat", "time": "12:30pm"}, {"days": "Sun", "time": "Closed"}], "id": "4504200004", "name": "USPS COLLECTION BOX - BLUE BOX", "address": {"city": "MIDDLETOWN", "state": "OH", "street": "1040 SUMMITT DR", "postcode": "45042"}}},
{"geometry": {"type": "Point", "coordinates": [-84.3545265041, 39.5132266732]}, "type": "Feature", "properties": {"collection_times": [{"days": "Mon-Fri", "time": "3:00pm"}, {"days": "Sat", "time": "12:30pm"}, {"days": "Sun", "time": "Closed"}], "id": "4504200005", "name": "USPS COLLECTION BOX - BLUE BOX", "address": {"city": "MIDDLETOWN", "state": "OH", "street": "62 N BREIEL BLVD", "postcode": "45042"}}},
{"geometry": {"type": "Point", "coordinates": [-84.4019084785, 39.5174270598]}, "type": "Feature", "properties": {"collection_times": [{"days": "Mon-Fri", "time": "10:00am"}, {"days": "Sat", "time": "12:30pm"}, {"days": "Sun", "time": "Closed"}], "id": "4504200006", "name": "USPS COLLECTION BOX - BLUE BOX", "address": {"city": "MIDDLETOWN", "state": "OH", "street": "1131 MANCHESTER AVE", "postcode": "45042"}}},
{"geometry": {"type": "Point", "coordinates": [-84.4000435711, 39.5187627092]}, "type": "Feature", "properties": {"collection_times": [{"days": "Mon-Fri", "time": "5:00pm"}, {"days": "Sat", "time": "4:00pm"}, {"days": "Sun", "time": "Closed"}], "id": "4504200012", "name": "USPS COLLECTION BOX - BLUE BOX", "address": {"city": "MIDDLETOWN", "state": "OH", "street": "320 N VERITY PKWY", "postcode": "45042"}}},
{"geometry": {"type": "Point", "coordinates": [-84.4000435711, 39.5187627092]}, "type": "Feature", "properties": {"collection_times": [{"days": "Mon-Fri", "time": "5:00pm"}, {"days": "Sat", "time": "4:00pm"}, {"days": "Sun", "time": "Closed"}], "id": "4504200013", "name": "USPS COLLECTION BOX - BLUE BOX", "address": {"city": "MIDDLETOWN", "state": "OH", "street": "320 N VERITY PKWY", "postcode": "45042"}}},
{"geometry": {"type": "Point", "coordinates": [-84.3835514295, 39.5515155702]}, "type": "Feature", "properties": {"collection_times": [{"days": "Mon-Sat", "time": "10:00am"}, {"days": "Sun", "time": "Closed"}], "id": "4504200016", "name": "USPS COLLECTION BOX - BLUE BOX", "address": {"city": "MIDDLETOWN", "state": "OH", "street": "6501 GERMANTOWN RD", "postcode": "45042"}}},
{"geometry": {"type": "Point", "coordinates": [-84.3685667801, 39.5294187148]}, "type": "Feature", "properties": {"collection_times": [{"days": "Mon-Sat", "time": "11:00am"}, {"days": "Sun", "time": "Closed"}], "id": "4504200019", "name": "USPS COLLECTION BOX - BLUE BOX", "address": {"city": "MIDDLETOWN", "state": "OH", "street": "3405 VANNEST AVE", "postcode": "45042"}}},
{"geometry": {"type": "Point", "coordinates": [-84.4000435711, 39.5187627092]}, "type": "Feature", "properties": {"collection_times": [{"days": "Mon-Fri", "time": "5:00pm"}, {"days": "Sat", "time": "4:00pm"}, {"days": "Sun", "time": "Closed"}], "id": "4504200045", "name": "USPS COLLECTION BOX - PO LOBBY", "address": {"city": "MIDDLETOWN", "state": "OH", "street": "320 N VERITY PKWY", "postcode": "45042"}}},
{"geometry": {"type": "Point", "coordinates": [-84.4000435711, 39.5187627092]}, "type": "Feature", "properties": {"collection_times": [{"days": "Mon-Fri", "time": "5:00pm"}, {"days": "Sat", "time": "4:00pm"}, {"days": "Sun", "time": "Closed"}], "id": "4504200046", "name": "USPS COLLECTION BOX - PO LOBBY", "address": {"city": "MIDDLETOWN", "state": "OH", "street": "320 N VERITY PKWY", "postcode": "45042"}}},
{"geometry": {"type": "Point", "coordinates": [-84.4000435711, 39.5187627092]}, "type": "Feature", "properties": {"collection_times": [{"days": "Mon-Fri", "time": "5:00pm"}, {"days": "Sat", "time": "4:00pm"}, {"days": "Sun", "time": "Closed"}], "id": "4504200049", "name": "USPS COLLECTION BOX - APC", "address": {"city": "MIDDLETOWN", "state": "OH", "street": "320 N VERITY PKWY", "postcode": "45042"}}},
{"geometry": {"type": "Point", "coordinates": [-84.3979100772, 39.4765167899]}, "type": "Feature", "properties": {"collection_times": [{"days": "Mon-Sat", "time": "12:30pm"}, {"days": "Sun", "time": "Closed"}], "id": "4504400001", "name": "USPS COLLECTION BOX - BLUE BOX", "address": {"city": "LIBERTY TWP", "state": "OH", "street": "1824 OXFORD STATE RD", "postcode": "45044"}}},
{"geometry": {"type": "Point", "coordinates": [-84.352297092, 39.5023939008]}, "type": "Feature", "properties": {"collection_times": [{"days": "Mon-Sat", "time": "10:00am"}, {"days": "Sun", "time": "Closed"}], "id": "4504400015", "name": "USPS COLLECTION BOX - BLUE BOX", "address": {"city": "LIBERTY TWP", "state": "OH", "street": "4473 MARIE DR", "postcode": "45044"}}},
{"geometry": {"type": "Point", "coordinates": [-84.3960279895, 39.4840593362]}, "type": "Feature", "properties": {"collection_times": [{"days": "Mon-Sat", "time": "11:00am"}, {"days": "Sun", "time": "Closed"}], "id": "4504400016", "name": "USPS COLLECTION BOX - BLUE BOX", "address": {"city": "LIBERTY TWP", "state": "OH", "street": "2900 YANKEE RD", "postcode": "45044"}}},
{"geometry": {"type": "Point", "coordinates": [-84.3496394366, 39.4983755056]}, "type": "Feature", "properties": {"collection_times": [{"days": "Mon-Sat", "time": "10:00am"}, {"days": "Sun", "time": "Closed"}], "id": "4504400019", "name": "USPS COLLECTION BOX - BLUE BOX", "address": {"city": "LIBERTY TWP", "state": "OH", "street": "4601 ROOSEVELT BLVD", "postcode": "45044"}}},
{"geometry": {"type": "Point", "coordinates": [-84.3458641453, 39.5033197363]}, "type": "Feature", "properties": {"collection_times": [{"days": "Mon-Sat", "time": "10:00am"}, {"days": "Sun", "time": "Closed"}], "id": "4504400020", "name": "USPS COLLECTION BOX - BLUE BOX", "address": {"city": "LIBERTY TWP", "state": "OH", "street": "700 S MARSHALL RD", "postcode": "45044"}}},
{"geometry": {"type": "Point", "coordinates": [-84.3611158474, 39.4998731157]}, "type": "Feature", "properties": {"collection_times": [{"days": "Mon-Sat", "time": "12:30pm"}, {"days": "Sun", "time": "Closed"}], "id": "4504400023", "name": "USPS COLLECTION BOX - BLUE BOX", "address": {"city": "LIBERTY TWP", "state": "OH", "street": "4017 ROOSEVELT BLVD", "postcode": "45044"}}},
{"geometry": {"type": "Point", "coordinates": [-84.3646724791, 39.5113147108]}, "type": "Feature", "properties": {"collection_times": [{"days": "Mon-Sat", "time": "10:00am"}, {"days": "Sun", "time": "Closed"}], "id": "4504400024", "name": "USPS COLLECTION BOX - BLUE BOX", "address": {"city": "LIBERTY TWP", "state": "OH", "street": "3701 CENTRAL AVE", "postcode": "45044"}}},
{"geometry": {"type": "Point", "coordinates": [-84.382752824, 39.5046511029]}, "type": "Feature", "properties": {"collection_times": [{"days": "Mon-Sat", "time": "10:00am"}, {"days": "Sun", "time": "Closed"}], "id": "4504400039", "name": "USPS COLLECTION BOX - BLUE BOX", "address": {"city": "LIBERTY TWP", "state": "OH", "street": "700 STANLEY ST", "postcode": "45044"}}},
{"geometry": {"type": "Point", "coordinates": [-84.3743171436, 39.5043589121]}, "type": "Feature", "properties": {"collection_times": [{"days": "Mon-Fri", "time": "10:00am"}, {"days": "Sat", "time": "12:30pm"}, {"days": "Sun", "time": "Closed"}], "id": "4504400048", "name": "USPS COLLECTION BOX - BLUE BOX", "address": {"city": "LIBERTY TWP", "state": "OH", "street": "3101 GRAND AVE", "postcode": "45044"}}},
{"geometry": {"type": "Point", "coordinates": [-84.3876597378, 39.5125733791]}, "type": "Feature", "properties": {"collection_times": [{"days": "Mon-Sat", "time": "10:00am"}, {"days": "Sun", "time": "Closed"}], "id": "4504400059", "name": "USPS COLLECTION BOX - BLUE BOX", "address": {"city": "LIBERTY TWP", "state": "OH", "street": "2101 CENTRAL AVE", "postcode": "45044"}}},
{"geometry": {"type": "Point", "coordinates": [-84.3548723463, 39.5104244753]}, "type": "Feature", "properties": {"collection_times": [{"days": "Mon-Fri", "time": "3:00pm"}, {"days": "Sat", "time": "12:30pm"}, {"days": "Sun", "time": "Closed"}], "id": "4504400062", "name": "USPS COLLECTION BOX - BLUE BOX", "address": {"city": "LIBERTY TWP", "state": "OH", "street": "20 S BREIEL BLVD", "postcode": "45044"}}},
{"geometry": {"type": "Point", "coordinates": [-84.3551875142, 39.5059109542]}, "type": "Feature", "properties": {"collection_times": [{"days": "Mon-Fri", "time": "3:00pm"}, {"days": "Sat", "time": "12:30pm"}, {"days": "Sun", "time": "Closed"}], "id": "4504400063", "name": "USPS COLLECTION BOX - BLUE BOX", "address": {"city": "LIBERTY TWP", "state": "OH", "street": "500 S BREIEL BLVD", "postcode": "45044"}}},
{"geometry": {"type": "Point", "coordinates": [-84.3293585126, 39.485456273]}, "type": "Feature", "properties": {"collection_times": [{"days": "Mon-Sat", "time": "12:30pm"}, {"days": "Sun", "time": "Closed"}], "id": "4504400065", "name": "USPS COLLECTION BOX - BLUE BOX", "address": {"city": "LIBERTY TWP", "state": "OH", "street": "2900 TOWNE BLVD", "postcode": "45044"}}},
{"geometry": {"type": "Point", "coordinates": [-84.373584892, 39.3846576603]}, "type": "Feature", "properties": {"collection_times": [{"days": "Mon-Sat", "time": "10:00am"}, {"days": "Sun", "time": "Closed"}], "id": "4504400071", "name": "USPS COLLECTION BOX - BLUE BOX", "address": {"city": "LIBERTY TWP", "state": "OH", "street": "6583 CINCINNATI DAYTON RD", "postcode": "45044"}}},
{"geometry": {"type": "Point", "coordinates": [-84.3309723442, 39.4813385306]}, "type": "Feature", "properties": {"collection_times": [{"days": "Mon-Sat", "time": "10:00am"}, {"days": "Sun", "time": "Closed"}], "id": "4504400072", "name": "USPS COLLECTION BOX - BLUE BOX", "address": {"city": "LIBERTY TWP", "state": "OH", "street": "2535 BRIDGEWOOD DR", "postcode": "45044"}}},
{"geometry": {"type": "Point", "coordinates": [-84.3582945272, 39.503642011]}, "type": "Feature", "properties": {"collection_times": [{"days": "Mon-Fri", "time": "3:00pm"}, {"days": "Sat", "time": "12:15pm"}, {"days": "Sun", "time": "Closed"}], "id": "4504400075", "name": "USPS COLLECTION BOX - BLUE BOX", "address": {"city": "LIBERTY TWP", "state": "OH", "street": "4220 GRAND AVE", "postcode": "45044"}}},
{"geometry": {"type": "Point", "coordinates": [-84.3819290134, 39.3768156819]}, "type": "Feature", "properties": {"collection_times": [{"days": "Mon-Sat", "time": "11:00am"}, {"days": "Sun", "time": "Closed"}], "id": "4504400076", "name": "USPS COLLECTION BOX - BLUE BOX", "address": {"city": "LIBERTY TWP", "state": "OH", "street": "7300 YANKEE RD", "postcode": "45044"}}},
{"geometry": {"type": "Point", "coordinates": [-84.362659083, 39.4404235289]}, "type": "Feature", "properties": {"collection_times": [{"days": "Mon-Fri", "time": "4:45pm"}, {"days": "Sat", "time": "3:00pm"}, {"days": "Sun", "time": "Closed"}], "id": "4505000001", "name": "USPS COLLECTION BOX - PO LOBBY", "address": {"city": "MONROE", "state": "OH", "street": "301 S MAIN ST", "postcode": "45050"}}},
{"geometry": {"type": "Point", "coordinates": [-84.3598140667, 39.4443296594]}, "type": "Feature", "properties": {"collection_times": [{"days": "Mon-Sat", "time": "1:00pm"}, {"days": "Sun", "time": "Closed"}], "id": "4505000002", "name": "USPS COLLECTION BOX - BLUE BOX", "address": {"city": "MONROE", "state": "OH", "street": "2 EAST AVE", "postcode": "45050"}}},
{"geometry": {"type": "Point", "coordinates": [-84.362659083, 39.4404235289]}, "type": "Feature", "properties": {"collection_times": [{"days": "Mon-Fri", "time": "4:45pm"}, {"days": "Sat", "time": "3:00pm"}, {"days": "Sun", "time": "Closed"}], "id": "4505000004", "name": "USPS COLLECTION BOX - BLUE BOX", "address": {"city": "MONROE", "state": "OH", "street": "301 S MAIN ST", "postcode": "45050"}}},
{"geometry": {"type": "Point", "coordinates": [-84.362659083, 39.4404235289]}, "type": "Feature", "properties": {"collection_times": [{"days": "Mon-Fri", "time": "4:45pm"}, {"days": "Sat", "time": "3:00pm"}, {"days": "Sun", "time": "Closed"}], "id": "4505000008", "name": "USPS COLLECTION BOX - PO LOBBY", "address": {"city": "MONROE", "state": "OH", "street": "301 S MAIN ST", "postcode": "45050"}}},
{"geometry": {"type": "Point", "coordinates": [-83.8641570031, 39.678412383]}, "type": "Feature", "properties": {"collection_times": [{"days": "Mon-Sat", "time": "9:00am"}, {"days": "Sun", "time": "Closed"}], "id": "4505000010", "name": "USPS COLLECTION BOX - BLUE BOX", "address": {"city": "MONROE", "state": "OH", "street": "3033 HERITAGE GREEN DR", "postcode": "45050"}}},
{"geometry": {"type": "Point", "coordinates": [-84.362659083, 39.4404235289]}, "type": "Feature", "properties": {"collection_times": [{"days": "Mon-Fri", "time": "4:45pm"}, {"days": "Sat", "time": "3:00pm"}, {"days": "Sun", "time": "Closed"}], "id": "4505000011", "name": "USPS COLLECTION BOX - BLUE BOX", "address": {"city": "MONROE", "state": "OH", "street": "301 S MAIN ST", "postcode": "45050"}}},
{"geometry": {"type": "Point", "coordinates": [-84.6996898507, 39.1640741455]}, "type": "Feature", "properties": {"collection_times": [{"days": "Mon-Sat", "time": "9:00am"}, {"days": "Sun", "time": "Closed"}], "id": "4505200001", "name": "USPS COLLECTION BOX - BLUE BOX", "address": {"city": "NORTH BEND", "state": "OH", "street": "3803 SHADY LN", "postcode": "45052"}}},
{"geometry": {"type": "Point", "coordinates": [-84.7453403934, 39.1517981028]}, "type": "Feature", "properties": {"collection_times": [{"days": "Mon-Fri", "time": "4:15pm"}, {"days": "Sat", "time": "11:45am"}, {"days": "Sun", "time": "Closed"}], "id": "4505200002", "name": "USPS COLLECTION BOX - BLUE BOX", "address": {"city": "NORTH BEND", "state": "OH", "street": "135 SYMMES AVE", "postcode": "45052"}}},
{"geometry": {"type": "Point", "coordinates": [-84.7453403934, 39.1517981028]}, "type": "Feature", "properties": {"collection_times": [{"days": "Mon-Fri", "time": "4:15pm"}, {"days": "Sat", "time": "11:45am"}, {"days": "Sun", "time": "Closed"}], "id": "4505200003", "name": "USPS COLLECTION BOX - PO LOBBY", "address": {"city": "NORTH BEND", "state": "OH", "street": "135 SYMMES AVE", "postcode": "45052"}}},
{"geometry": {"type": "Point", "coordinates": [-84.7453403934, 39.1517981028]}, "type": "Feature", "properties": {"collection_times": [{"days": "Mon-Fri", "time": "4:15pm"}, {"days": "Sat", "time": "11:45am"}, {"days": "Sun", "time": "Closed"}], "id": "4505200004", "name": "USPS COLLECTION BOX - PO LOBBY", "address": {"city": "NORTH BEND", "state": "OH", "street": "135 SYMMES AVE", "postcode": "45052"}}},
{"geometry": {"type": "Point", "coordinates": [-84.7811592461, 39.3528783704]}, "type": "Feature", "properties": {"collection_times": [{"days": "Mon-Fri", "time": "4:15pm"}, {"days": "Sat", "time": "11:45am"}, {"days": "Sun", "time": "Closed"}], "id": "4505300001", "name": "USPS COLLECTION BOX - BLUE BOX", "address": {"city": "OKEANA", "state": "OH", "street": "6179 CINTI BROOKVILLE RD", "postcode": "45053"}}},
{"geometry": {"type": "Point", "coordinates": [-84.7811592461, 39.3528783704]}, "type": "Feature", "properties": {"collection_times": [{"days": "Mon-Fri", "time": "2:30pm"}, {"days": "Sat", "time": "11:45am"}, {"days": "Sun", "time": "Closed"}], "id": "4505300002", "name": "USPS COLLECTION BOX - PO LOBBY", "address": {"city": "OKEANA", "state": "OH", "street": "6179 CINTI BROOKVILLE RD", "postcode": "45053"}}},
{"geometry": {"type": "Point", "coordinates": [-84.5635915956, 39.3998353151]}, "type": "Feature", "properties": {"collection_times": [{"days": "Mon-Fri", "time": "4:00pm"}, {"days": "Sat", "time": "12:00pm"}, {"days": "Sun", "time": "Closed"}], "id": "4505500000", "name": "USPS COLLECTION BOX - BLUE BOX", "address": {"city": "OVERPECK", "state": "OH", "street": "4212 HAMILTON-TRENTON RD", "postcode": "45055"}}},
{"geometry": {"type": "Point", "coordinates": [-84.5635915956, 39.3998353151]}, "type": "Feature", "properties": {"collection_times": [{"days": "Mon-Fri", "time": "4:00pm"}, {"days": "Sat", "time": "12:00pm"}, {"days": "Sun", "time": "Closed"}], "id": "4505500001", "name": "USPS COLLECTION BOX - PO LOBBY", "address": {"city": "OVERPECK", "state": "OH", "street": "4212 HAMILTON-TRENTON RD", "postcode": "45055"}}},
{"geometry": {"type": "Point", "coordinates": [-84.7392977857, 39.5104268382]}, "type": "Feature", "properties": {"collection_times": [{"days": "Mon-Sat", "time": "10:00am"}, {"days": "Sun", "time": "Closed"}], "id": "4505600004", "name": "USPS COLLECTION BOX - BLUE BOX", "address": {"city": "OXFORD", "state": "OH", "street": "2 S CAMPUS AVE", "postcode": "45056"}}},
{"geometry": {"type": "Point", "coordinates": [-84.7747034533, 39.5316626003]}, "type": "Feature", "properties": {"collection_times": [{"days": "Mon-Fri", "time": "11:00am"}, {"days": "Sat", "time": "10:30am"}, {"days": "Sun", "time": "Closed"}], "id": "4505600006", "name": "USPS COLLECTION BOX - BLUE BOX", "address": {"city": "OXFORD", "state": "OH", "street": "5720 COLLEGE CORNER PIKE", "postcode": "45056"}}},
{"geometry": {"type": "Point", "coordinates": [-84.7408001492, 39.5104247363]}, "type": "Feature", "properties": {"collection_times": [{"days": "Mon-Sat", "time": "10:00am"}, {"days": "Sun", "time": "Closed"}], "id": "4505600019", "name": "USPS COLLECTION BOX - BLUE BOX", "address": {"city": "OXFORD", "state": "OH", "street": "101 E HIGH ST", "postcode": "45056"}}},
{"geometry": {"type": "Point", "coordinates": [-84.7494922213, 39.5074387082]}, "type": "Feature", "properties": {"collection_times": [{"days": "Mon-Sat", "time": "10:00am"}, {"days": "Sun", "time": "Closed"}], "id": "4505600020", "name": "USPS COLLECTION BOX - BLUE BOX", "address": {"city": "OXFORD", "state": "OH", "street": "300 S LOCUST ST", "postcode": "45056"}}},
{"geometry": {"type": "Point", "coordinates": [-84.7377917063, 39.507276382]}, "type": "Feature", "properties": {"collection_times": [{"days": "Mon-Fri", "time": "11:00am"}, {"days": "Sat", "time": "10:00am"}, {"days": "Sun", "time": "Closed"}], "id": "4505600023", "name": "USPS COLLECTION BOX - BLUE BOX", "address": {"city": "OXFORD", "state": "OH", "street": "301 E SPRING ST", "postcode": "45056"}}},
{"geometry": {"type": "Point", "coordinates": [-84.745832389, 39.5159365819]}, "type": "Feature", "properties": {"collection_times": [{"days": "Mon-Fri", "time": "5:00pm"}, {"days": "Sat", "time": "3:00pm"}, {"days": "Sun", "time": "Closed"}], "id": "4505600031", "name": "USPS COLLECTION BOX - BLUE BOX", "address": {"city": "OXFORD", "state": "OH", "street": "5145 BROWN RD", "postcode": "45056"}}},
{"geometry": {"type": "Point", "coordinates": [-84.7311255941, 39.5071821526]}, "type": "Feature", "properties": {"collection_times": [{"days": "Mon-Fri", "time": "11:00am"}, {"days": "Sat", "time": "10:00am"}, {"days": "Sun", "time": "Closed"}], "id": "4505600034", "name": "USPS COLLECTION BOX - BLUE BOX", "address": {"city": "OXFORD", "state": "OH", "street": "809 E SPRING ST", "postcode": "45056"}}},
{"geometry": {"type": "Point", "coordinates": [-84.745832389, 39.5159365819]}, "type": "Feature", "properties": {"collection_times": [{"days": "Mon-Fri", "time": "5:00pm"}, {"days": "Sat", "time": "3:00pm"}, {"days": "Sun", "time": "Closed"}], "id": "4505600035", "name": "USPS COLLECTION BOX - BLUE BOX", "address": {"city": "OXFORD", "state": "OH", "street": "5145 BROWN RD", "postcode": "45056"}}},
{"geometry": {"type": "Point", "coordinates": [-84.742742123, 39.5105637136]}, "type": "Feature", "properties": {"collection_times": [{"days": "Mon-Sat", "time": "10:00am"}, {"days": "Sun", "time": "Closed"}], "id": "4505600037", "name": "USPS COLLECTION BOX - BLUE BOX", "address": {"city": "OXFORD", "state": "OH", "street": "18 W HIGH ST", "postcode": "45056"}}},
{"geometry": {"type": "Point", "coordinates": [-84.745832389, 39.5159365819]}, "type": "Feature", "properties": {"collection_times": [{"days": "Mon-Fri", "time": "5:00pm"}, {"days": "Sat", "time": "3:00pm"}, {"days": "Sun", "time": "Closed"}], "id": "4505600040", "name": "USPS COLLECTION BOX - PO LOBBY", "address": {"city": "OXFORD", "state": "OH", "street": "5145 BROWN RD", "postcode": "45056"}}},
{"geometry": {"type": "Point", "coordinates": [-84.6545169342, 39.3090180297]}, "type": "Feature", "properties": {"collection_times": [{"days": "Mon-Fri", "time": "4:15pm"}, {"days": "Sat", "time": "11:30am"}, {"days": "Sun", "time": "Closed"}], "id": "4506100000", "name": "USPS COLLECTION BOX - PO LOBBY", "address": {"city": "ROSS", "state": "OH", "street": "4275 HAMILTON CLEVES HWY", "postcode": "45061"}}},
{"geometry": {"type": "Point", "coordinates": [-84.6545169342, 39.3090180297]}, "type": "Feature", "properties": {"collection_times": [{"days": "Mon-Fri", "time": "4:15pm"}, {"days": "Sat", "time": "11:30am"}, {"days": "Sun", "time": "Closed"}], "id": "4506100001", "name": "USPS COLLECTION BOX - BLUE BOX", "address": {"city": "ROSS", "state": "OH", "street": "4275 HAMILTON CLEVES HWY", "postcode": "45061"}}},
{"geometry": {"type": "Point", "coordinates": [-84.5537382054, 39.4818728672]}, "type": "Feature", "properties": {"collection_times": [{"days": "Mon-Fri", "time": "4:30pm"}, {"days": "Sat", "time": "11:15am"}, {"days": "Sun", "time": "Closed"}], "id": "4506200001", "name": "USPS COLLECTION BOX - BLUE BOX", "address": {"city": "SEVEN MILE", "state": "OH", "street": "400 N MAIN ST", "postcode": "45062"}}},
{"geometry": {"type": "Point", "coordinates": [-84.5537382054, 39.4818728672]}, "type": "Feature", "properties": {"collection_times": [{"days": "Mon-Fri", "time": "4:30pm"}, {"days": "Sat", "time": "11:15am"}, {"days": "Sun", "time": "Closed"}], "id": "4506200002", "name": "USPS COLLECTION BOX - PO LOBBY", "address": {"city": "SEVEN MILE", "state": "OH", "street": "400 N MAIN ST", "postcode": "45062"}}},
{"geometry": {"type": "Point", "coordinates": [-84.5537382054, 39.4818728672]}, "type": "Feature", "properties": {"collection_times": [{"days": "Mon-Fri", "time": "4:30pm"}, {"days": "Sat", "time": "11:15am"}, {"days": "Sun", "time": "Closed"}], "id": "4506200003", "name": "USPS COLLECTION BOX - PO LOBBY", "address": {"city": "SEVEN MILE", "state": "OH", "street": "400 N MAIN ST", "postcode": "45062"}}},
{"geometry": {"type": "Point", "coordinates": [-84.7154053158, 39.3270144]}, "type": "Feature", "properties": {"collection_times": [{"days": "Mon-Fri", "time": "4:30pm"}, {"days": "Sat", "time": "12:00pm"}, {"days": "Sun", "time": "Closed"}], "id": "4506300001", "name": "USPS COLLECTION BOX - BLUE BOX", "address": {"city": "SHANDON", "state": "OH", "street": "4801 CINCINNATI BROOKVILLE RD", "postcode": "45063"}}},
{"geometry": {"type": "Point", "coordinates": [-84.7154053158, 39.3270144]}, "type": "Feature", "properties": {"collection_times": [{"days": "Mon-Fri", "time": "4:30pm"}, {"days": "Sat", "time": "12:00pm"}, {"days": "Sun", "time": "Closed"}], "id": "4506300002", "name": "USPS COLLECTION BOX - PO LOBBY", "address": {"city": "SHANDON", "state": "OH", "street": "4801 CINCINNATI BROOKVILLE RD", "postcode": "45063"}}},
{"geometry": {"type": "Point", "coordinates": [-84.6386990086, 39.5623144377]}, "type": "Feature", "properties": {"collection_times": [{"days": "Mon-Fri", "time": "4:15pm"}, {"days": "Sat", "time": "11:15am"}, {"days": "Sun", "time": "Closed"}], "id": "4506400000", "name": "USPS COLLECTION BOX - BLUE BOX", "address": {"city": "SOMERVILLE", "state": "OH", "street": "156 S MAIN ST", "postcode": "45064"}}},
{"geometry": {"type": "Point", "coordinates": [-84.6386990086, 39.5623144377]}, "type": "Feature", "properties": {"collection_times": [{"days": "Mon-Fri", "time": "4:15pm"}, {"days": "Sat", "time": "11:15am"}, {"days": "Sun", "time": "Closed"}], "id": "4506400001", "name": "USPS COLLECTION BOX - PO LOBBY", "address": {"city": "SOMERVILLE", "state": "OH", "street": "156 S MAIN ST", "postcode": "45064"}}},
{"geometry": {"type": "Point", "coordinates": [-84.6386990086, 39.5623144377]}, "type": "Feature", "properties": {"collection_times": [{"days": "Mon-Fri", "time": "4:15pm"}, {"days": "Sat", "time": "11:15am"}, {"days": "Sun", "time": "Closed"}], "id": "4506400002", "name": "USPS COLLECTION BOX - PO LOBBY", "address": {"city": "SOMERVILLE", "state": "OH", "street": "156 S MAIN ST", "postcode": "45064"}}},
{"geometry": {"type": "Point", "coordinates": [-84.2119704762, 39.371944011]}, "type": "Feature", "properties": {"collection_times": [{"days": "Mon-Fri", "time": "4:30pm"}, {"days": "Sat", "time": "11:45am"}, {"days": "Sun", "time": "Closed"}], "id": "4506500001", "name": "USPS COLLECTION BOX - BLUE BOX", "address": {"city": "SOUTH LEBANON", "state": "OH", "street": "219 E FOREST AVE", "postcode": "45065"}}},
{"geometry": {"type": "Point", "coordinates": [-84.2119704762, 39.371944011]}, "type": "Feature", "properties": {"collection_times": [{"days": "Mon-Fri", "time": "4:30pm"}, {"days": "Sat", "time": "11:45am"}, {"days": "Sun", "time": "Closed"}], "id": "4506500008", "name": "USPS COLLECTION BOX - PO LOBBY", "address": {"city": "SOUTH LEBANON", "state": "OH", "street": "219 E FOREST AVE", "postcode": "45065"}}},
{"geometry": {"type": "Point", "coordinates": [-84.2119704762, 39.371944011]}, "type": "Feature", "properties": {"collection_times": [{"days": "Mon-Fri", "time": "4:30pm"}, {"days": "Sat", "time": "11:45am"}, {"days": "Sun", "time": "Closed"}], "id": "4506500009", "name": "USPS COLLECTION BOX - PO LOBBY", "address": {"city": "SOUTH LEBANON", "state": "OH", "street": "219 E FOREST AVE", "postcode": "45065"}}},
{"geometry": {"type": "Point", "coordinates": [-84.2343293286, 39.5570833931]}, "type": "Feature", "properties": {"collection_times": [{"days": "Mon-Fri", "time": "1:00pm"}, {"days": "Sat", "time": "11:00am"}, {"days": "Sun", "time": "Closed"}], "id": "4506600001", "name": "USPS COLLECTION BOX - BLUE BOX", "address": {"city": "SPRINGBORO", "state": "OH", "street": "70 W CENTRAL AVE", "postcode": "45066"}}},
{"geometry": {"type": "Point", "coordinates": [-84.2556249558, 39.5604749365]}, "type": "Feature", "properties": {"collection_times": [{"days": "Mon-Fri", "time": "4:30pm"}, {"days": "Sat", "time": "2:30pm"}, {"days": "Sun", "time": "Closed"}], "id": "4506600013", "name": "USPS COLLECTION BOX - BLUE BOX", "address": {"city": "SPRINGBORO", "state": "OH", "street": "55 S PIONEER BLVD", "postcode": "45066"}}},
{"geometry": {"type": "Point", "coordinates": [-84.2556249558, 39.5604749365]}, "type": "Feature", "properties": {"collection_times": [{"days": "Mon-Fri", "time": "5:00pm"}, {"days": "Sat", "time": "2:30pm"}, {"days": "Sun", "time": "Closed"}], "id": "4506600014", "name": "USPS COLLECTION BOX - PO LOBBY", "address": {"city": "SPRINGBORO", "state": "OH", "street": "55 S PIONEER BLVD", "postcode": "45066"}}},
{"geometry": {"type": "Point", "coordinates": [-84.2556249558, 39.5604749365]}, "type": "Feature", "properties": {"collection_times": [{"days": "Mon-Fri", "time": "5:00pm"}, {"days": "Sat", "time": "2:30pm"}, {"days": "Sun", "time": "Closed"}], "id": "4506600015", "name": "USPS COLLECTION BOX - PO LOBBY", "address": {"city": "SPRINGBORO", "state": "OH", "street": "55 S PIONEER BLVD", "postcode": "45066"}}},
{"geometry": {"type": "Point", "coordinates": [-84.2556249558, 39.5604749365]}, "type": "Feature", "properties": {"collection_times": [{"days": "Mon-Fri", "time": "5:00pm"}, {"days": "Sat", "time": "2:30pm"}, {"days": "Sun", "time": "Closed"}], "id": "4506600016", "name": "USPS COLLECTION BOX - PO LOBBY", "address": {"city": "SPRINGBORO", "state": "OH", "street": "55 S PIONEER BLVD", "postcode": "45066"}}},
{"geometry": {"type": "Point", "coordinates": [-84.2251514255, 39.5793337392]}, "type": "Feature", "properties": {"collection_times": [{"days": "Mon-Sat", "time": "12:00pm"}, {"days": "Sun", "time": "Closed"}], "id": "4506600017", "name": "USPS COLLECTION BOX - BLUE BOX", "address": {"city": "SPRINGBORO", "state": "OH", "street": "2 REMICK BLVD", "postcode": "45066"}}},
{"geometry": {"type": "Point", "coordinates": [-84.2556249558, 39.5604749365]}, "type": "Feature", "properties": {"collection_times": [{"days": "Mon-Fri", "time": "5:00pm"}, {"days": "Sat", "time": "2:30pm"}, {"days": "Sun", "time": "Closed"}], "id": "4506600018", "name": "USPS COLLECTION BOX - APC", "address": {"city": "SPRINGBORO", "state": "OH", "street": "55 S PIONEER BLVD", "postcode": "45066"}}},
{"geometry": {"type": "Point", "coordinates": [-84.4707898131, 39.4787726926]}, "type": "Feature", "properties": {"collection_times": [{"days": "Mon-Fri", "time": "4:15pm"}, {"days": "Sat", "time": "1:00pm"}, {"days": "Sun", "time": "Closed"}], "id": "4506700001", "name": "USPS COLLECTION BOX - BLUE BOX", "address": {"city": "TRENTON", "state": "OH", "street": "290 EDGEWOOD DR REAR", "postcode": "45067"}}},
{"geometry": {"type": "Point", "coordinates": [-84.4522244551, 39.4728129453]}, "type": "Feature", "properties": {"collection_times": [{"days": "Mon-Fri", "time": "10:00am"}, {"days": "Sat", "time": "12:00pm"}, {"days": "Sun", "time": "Closed"}], "id": "4506700003", "name": "USPS COLLECTION BOX - BLUE BOX", "address": {"city": "TRENTON", "state": "OH", "street": "311 SYCAMORE RD", "postcode": "45067"}}},
{"geometry": {"type": "Point", "coordinates": [-84.4646791393, 39.48093096]}, "type": "Feature", "properties": {"collection_times": [{"days": "Mon-Sat", "time": "10:00am"}, {"days": "Sun", "time": "Closed"}], "id": "4506700004", "name": "USPS COLLECTION BOX - BLUE BOX", "address": {"city": "TRENTON", "state": "OH", "street": "703 NATHAN DR", "postcode": "45067"}}},
{"geometry": {"type": "Point", "coordinates": [-84.4632682673, 39.4808847608]}, "type": "Feature", "properties": {"collection_times": [{"days": "Mon-Sat", "time": "8:00am"}, {"days": "Sun", "time": "Closed"}], "id": "4506700005", "name": "USPS COLLECTION BOX - BLUE BOX", "address": {"city": "TRENTON", "state": "OH", "street": "313 W STATE ST", "postcode": "45067"}}},
{"geometry": {"type": "Point", "coordinates": [-84.4564261412, 39.4808837419]}, "type": "Feature", "properties": {"collection_times": [{"days": "Mon-Sat", "time": "9:00am"}, {"days": "Sun", "time": "Closed"}], "id": "4506700009", "name": "USPS COLLECTION BOX - BLUE BOX", "address": {"city": "TRENTON", "state": "OH", "street": "16 S 2ND ST", "postcode": "45067"}}},
{"geometry": {"type": "Point", "coordinates": [-84.4707898131, 39.4787726926]}, "type": "Feature", "properties": {"collection_times": [{"days": "Mon-Fri", "time": "4:15pm"}, {"days": "Sat", "time": "1:00pm"}, {"days": "Sun", "time": "Closed"}], "id": "4506700011", "name": "USPS COLLECTION BOX - BLUE BOX", "address": {"city": "TRENTON", "state": "OH", "street": "290 EDGEWOOD DR REAR", "postcode": "45067"}}},
{"geometry": {"type": "Point", "coordinates": [-84.4707898131, 39.4787726926]}, "type": "Feature", "properties": {"collection_times": [{"days": "Mon-Fri", "time": "4:15pm"}, {"days": "Sat", "time": "1:00pm"}, {"days": "Sun", "time": "Closed"}], "id": "4506700012", "name": "USPS COLLECTION BOX - PO LOBBY", "address": {"city": "TRENTON", "state": "OH", "street": "290 EDGEWOOD DR", "postcode": "45067"}}},
{"geometry": {"type": "Point", "coordinates": [-84.4707898131, 39.4787726926]}, "type": "Feature", "properties": {"collection_times": [{"days": "Mon-Fri", "time": "4:15pm"}, {"days": "Sat", "time": "1:00pm"}, {"days": "Sun", "time": "Closed"}], "id": "4506700014", "name": "USPS COLLECTION BOX - PO LOBBY", "address": {"city": "TRENTON", "state": "OH", "street": "290 EDGEWOOD DR", "postcode": "45067"}}},
{"geometry": {"type": "Point", "coordinates": [-84.0870821989, 39.5298154673]}, "type": "Feature", "properties": {"collection_times": [{"days": "Mon-Fri", "time": "4:00pm"}, {"days": "Sat", "time": "11:30am"}, {"days": "Sun", "time": "Closed"}], "id": "4506800001", "name": "USPS COLLECTION BOX - BLUE BOX", "address": {"city": "WAYNESVILLE", "state": "OH", "street": "235 MIAMI ST", "postcode": "45068"}}},
{"geometry": {"type": "Point", "coordinates": [-84.0870821989, 39.5298154673]}, "type": "Feature", "properties": {"collection_times": [{"days": "Mon-Fri", "time": "4:00pm"}, {"days": "Sat", "time": "11:30am"}, {"days": "Sun", "time": "Closed"}], "id": "4506800002", "name": "USPS COLLECTION BOX - PO LOBBY", "address": {"city": "WAYNESVILLE", "state": "OH", "street": "235 MIAMI ST", "postcode": "45068"}}},
{"geometry": {"type": "Point", "coordinates": [-84.4013619729, 39.3362128793]}, "type": "Feature", "properties": {"collection_times": [{"days": "Mon-Fri", "time": "5:30pm"}, {"days": "Sat", "time": "4:00pm"}, {"days": "Sun", "time": "Closed"}], "id": "4506900001", "name": "USPS COLLECTION BOX - BLUE BOX", "address": {"city": "WEST CHESTER", "state": "OH", "street": "8730 CINCINNATI DAYTON RD", "postcode": "45069"}}},
{"geometry": {"type": "Point", "coordinates": [-84.3666597548, 39.3531328253]}, "type": "Feature", "properties": {"collection_times": [{"days": "Mon-Fri", "time": "4:00pm"}, {"days": "Sat", "time": "3:30pm"}, {"days": "Sun", "time": "Closed"}], "id": "4506900003", "name": "USPS COLLECTION BOX - BLUE BOX", "address": {"city": "WEST CHESTER", "state": "OH", "street": "7743 TYLERSVILLE RD", "postcode": "45069"}}},
{"geometry": {"type": "Point", "coordinates": [-84.4108941472, 39.3415348229]}, "type": "Feature", "properties": {"collection_times": [{"days": "Mon-Fri", "time": "5:00pm"}, {"days": "Sat", "time": "3:00pm"}, {"days": "Sun", "time": "Closed"}], "id": "4506900006", "name": "USPS COLLECTION BOX - BLUE BOX", "address": {"city": "WEST CHESTER", "state": "OH", "street": "6067 SCHUMACHER DR", "postcode": "45069"}}},
{"geometry": {"type": "Point", "coordinates": [-84.3665213226, 39.3199729184]}, "type": "Feature", "properties": {"collection_times": [{"days": "Mon-Fri", "time": "3:45pm"}, {"days": "Sat", "time": "3:30pm"}, {"days": "Sun", "time": "Closed"}], "id": "4506900008", "name": "USPS COLLECTION BOX - BLUE BOX", "address": {"city": "WEST CHESTER", "state": "OH", "street": "9145 CINCINNATI COLUMBUS RD", "postcode": "45069"}}},
{"geometry": {"type": "Point", "coordinates": [-84.4550743729, 39.3283770345]}, "type": "Feature", "properties": {"collection_times": [{"days": "Mon-Fri", "time": "2:00pm"}, {"days": "Sat", "time": "1:00pm"}, {"days": "Sun", "time": "Closed"}], "id": "4506900010", "name": "USPS COLLECTION BOX - BLUE BOX", "address": {"city": "WEST CHESTER", "state": "OH", "street": "9130 PORT UNION RIALTO RD", "postcode": "45069"}}},
{"geometry": {"type": "Point", "coordinates": [-84.4614468032, 39.3504890736]}, "type": "Feature", "properties": {"collection_times": [{"days": "Mon-Fri", "time": "5:00pm"}, {"days": "Sat", "time": "3:00pm"}, {"days": "Sun", "time": "Closed"}], "id": "4506900015", "name": "USPS COLLECTION BOX - BLUE BOX", "address": {"city": "WEST CHESTER", "state": "OH", "street": "8300 PRINCETON GLENDALE RD", "postcode": "45069"}}},
{"geometry": {"type": "Point", "coordinates": [-84.3951372214, 39.3539149227]}, "type": "Feature", "properties": {"collection_times": [{"days": "Mon-Fri", "time": "4:15pm"}, {"days": "Sat", "time": "3:45pm"}, {"days": "Sun", "time": "Closed"}], "id": "4506900016", "name": "USPS COLLECTION BOX - BLUE BOX", "address": {"city": "WEST CHESTER", "state": "OH", "street": "7967 CINCINNATI DAYTON RD", "postcode": "45069"}}},
{"geometry": {"type": "Point", "coordinates": [-84.395020786, 39.3554235955]}, "type": "Feature", "properties": {"collection_times": [{"days": "Mon-Fri", "time": "4:15pm"}, {"days": "Sat", "time": "3:45pm"}, {"days": "Sun", "time": "Closed"}], "id": "4506900018", "name": "USPS COLLECTION BOX - BLUE BOX", "address": {"city": "WEST CHESTER", "state": "OH", "street": "7908 CINCINNATI DAYTON RD", "postcode": "45069"}}},
{"geometry": {"type": "Point", "coordinates": [-84.4013619729, 39.3362128793]}, "type": "Feature", "properties": {"collection_times": [{"days": "Mon-Fri", "time": "5:30pm"}, {"days": "Sat", "time": "4:00pm"}, {"days": "Sun", "time": "Closed"}], "id": "4506900022", "name": "USPS COLLECTION BOX - BLUE BOX", "address": {"city": "WEST CHESTER", "state": "OH", "street": "8730 CINCINNATI DAYTON RD", "postcode": "45069"}}},
{"geometry": {"type": "Point", "coordinates": [-84.422303511, 39.3040155267]}, "type": "Feature", "properties": {"collection_times": [{"days": "Mon-Fri", "time": "5:00pm"}, {"days": "Sat", "time": "3:00pm"}, {"days": "Sun", "time": "Closed"}], "id": "4506900026", "name": "USPS COLLECTION BOX - BLUE BOX", "address": {"city": "WEST CHESTER", "state": "OH", "street": "6321 CENTRE PARK DR", "postcode": "45069"}}},
{"geometry": {"type": "Point", "coordinates": [-84.4614468032, 39.3504890736]}, "type": "Feature", "properties": {"collection_times": [{"days": "Mon-Fri", "time": "5:00pm"}, {"days": "Sat", "time": "3:00pm"}, {"days": "Sun", "time": "Closed"}], "id": "4506900027", "name": "USPS COLLECTION BOX - BLUE BOX", "address": {"city": "WEST CHESTER", "state": "OH", "street": "8300 PRINCETON GLENDALE RD", "postcode": "45069"}}},
{"geometry": {"type": "Point", "coordinates": [-84.3700903074, 39.3520314807]}, "type": "Feature", "properties": {"collection_times": [{"days": "Mon-Fri", "time": "4:00pm"}, {"days": "Sat", "time": "3:30pm"}, {"days": "Sun", "time": "Closed"}], "id": "4506900029", "name": "USPS COLLECTION BOX - BLUE BOX", "address": {"city": "WEST CHESTER", "state": "OH", "street": "7665 MONARCH CT", "postcode": "45069"}}},
{"geometry": {"type": "Point", "coordinates": [-84.4346734311, 39.3252899646]}, "type": "Feature", "properties": {"collection_times": [{"days": "Mon-Fri", "time": "5:00pm"}, {"days": "Sat", "time": "3:00pm"}, {"days": "Sun", "time": "Closed"}], "id": "4506900030", "name": "USPS COLLECTION BOX - BLUE BOX", "address": {"city": "WEST CHESTER", "state": "OH", "street": "9177 UNION CENTRE BLVD", "postcode": "45069"}}},
{"geometry": {"type": "Point", "coordinates": [-84.3727907853, 39.3579741766]}, "type": "Feature", "properties": {"collection_times": [{"days": "Mon-Sat", "time": "1:00pm"}, {"days": "Sun", "time": "Closed"}], "id": "4506900032", "name": "USPS COLLECTION BOX - BLUE BOX", "address": {"city": "WEST CHESTER", "state": "OH", "street": "7729 TYLERS PLACE BLVD", "postcode": "45069"}}},
{"geometry": {"type": "Point", "coordinates": [-84.4286599125, 39.3285901372]}, "type": "Feature", "properties": {"collection_times": [{"days": "Mon-Fri", "time": "4:30pm"}, {"days": "Sat", "time": "2:00pm"}, {"days": "Sun", "time": "Closed"}], "id": "4506900034", "name": "USPS COLLECTION BOX - BLUE BOX", "address": {"city": "WEST CHESTER", "state": "OH", "street": "5900 W CHESTER RD", "postcode": "45069"}}},
{"geometry": {"type": "Point", "coordinates": [-84.4013619729, 39.3362128793]}, "type": "Feature", "properties": {"collection_times": [{"days": "Mon-Fri", "time": "5:30pm"}, {"days": "Sat", "time": "4:00pm"}, {"days": "Sun", "time": "Closed"}], "id": "4506900035", "name": "USPS COLLECTION BOX - PO LOBBY", "address": {"city": "WEST CHESTER", "state": "OH", "street": "8730 CINCINNATI DAYTON RD", "postcode": "45069"}}},
{"geometry": {"type": "Point", "coordinates": [-84.4602342703, 39.3544744623]}, "type": "Feature", "properties": {"collection_times": [{"days": "Mon-Fri", "time": "2:00pm"}, {"days": "Sat", "time": "1:00pm"}, {"days": "Sun", "time": "Closed"}], "id": "4506900036", "name": "USPS COLLECTION BOX - BLUE BOX", "address": {"city": "WEST CHESTER", "state": "OH", "street": "8050 BECKETT CENTER DR", "postcode": "45069"}}},
{"geometry": {"type": "Point", "coordinates": [-84.3862165491, 39.372767832]}, "type": "Feature", "properties": {"collection_times": [{"days": "Mon-Fri", "time": "4:00pm"}, {"days": "Sat", "time": "2:00pm"}, {"days": "Sun", "time": "Closed"}], "id": "4506900037", "name": "USPS COLLECTION BOX - BLUE BOX", "address": {"city": "WEST CHESTER", "state": "OH", "street": "7165 LIBERTY CENTRE DR", "postcode": "45069"}}},
{"geometry": {"type": "Point", "coordinates": [-84.4013619729, 39.3362128793]}, "type": "Feature", "properties": {"collection_times": [{"days": "Mon-Fri", "time": "5:30pm"}, {"days": "Sat", "time": "4:00pm"}, {"days": "Sun", "time": "Closed"}], "id": "4506900038", "name": "USPS COLLECTION BOX - PO LOBBY", "address": {"city": "WEST CHESTER", "state": "OH", "street": "8730 CINCINNATI DAYTON RD", "postcode": "45069"}}},
{"geometry": {"type": "Point", "coordinates": [-84.4108941472, 39.3415348229]}, "type": "Feature", "properties": {"collection_times": [{"days": "Mon-Fri", "time": "4:00pm"}, {"days": "Sat", "time": "3:30pm"}, {"days": "Sun", "time": "Closed"}], "id": "4506900040", "name": "USPS COLLECTION BOX - BLUE BOX", "address": {"city": "WEST CHESTER", "state": "OH", "street": "7702 VOA DR", "postcode": "45069"}}},
{"geometry": {"type": "Point", "coordinates": [-84.4013619729, 39.3362128793]}, "type": "Feature", "properties": {"collection_times": [{"days": "Mon-Fri", "time": "5:30pm"}, {"days": "Sat", "time": "4:00pm"}, {"days": "Sun", "time": "Closed"}], "id": "4506900041", "name": "USPS COLLECTION BOX - APC", "address": {"city": "WEST CHESTER", "state": "OH", "street": "8730 CINCINNATI DAYTON RD", "postcode": "45069"}}},
{"geometry": {"type": "Point", "coordinates": [-84.4013619729, 39.3362128793]}, "type": "Feature", "properties": {"collection_times": [{"days": "Mon-Fri", "time": "5:30pm"}, {"days": "Sat", "time": "4:00pm"}, {"days": "Sun", "time": "Closed"}], "id": "4506900042", "name": "USPS COLLECTION BOX - BLUE BOX", "address": {"city": "WEST CHESTER", "state": "OH", "street": "8730 CINCINNATI DAYTON RD", "postcode": "45069"}}},
{"geometry": {"type": "Point", "coordinates": [-84.4602342703, 39.3544744623]}, "type": "Feature", "properties": {"collection_times": [{"days": "Mon-Fri", "time": "2:00pm"}, {"days": "Sat", "time": "1:00pm"}, {"days": "Sun", "time": "Closed"}], "id": "4506900043", "name": "USPS COLLECTION BOX - BLUE BOX", "address": {"city": "WEST CHESTER", "state": "OH", "street": "8050 BECKETT CENTER DR", "postcode": "45069"}}},
{"geometry": {"type": "Point", "coordinates": [-84.3862165491, 39.372767832]}, "type": "Feature", "properties": {"collection_times": [{"days": "Mon-Fri", "time": "4:00pm"}, {"days": "Sat", "time": "2:00pm"}, {"days": "Sun", "time": "Closed"}], "id": "4506900044", "name": "USPS COLLECTION BOX - BLUE BOX", "address": {"city": "WEST CHESTER", "state": "OH", "street": "7165 LIBERTY CENTRE DR", "postcode": "45069"}}},
{"geometry": {"type": "Point", "coordinates": [-84.4108941472, 39.3415348229]}, "type": "Feature", "properties": {"collection_times": [{"days": "Mon-Fri", "time": "5:00pm"}, {"days": "Sat", "time": "3:00pm"}, {"days": "Sun", "time": "Closed"}], "id": "4506900045", "name": "USPS COLLECTION BOX - BLUE BOX", "address": {"city": "WEST CHESTER", "state": "OH", "street": "6067 SCHUMACHER DR", "postcode": "45069"}}},
{"geometry": {"type": "Point", "coordinates": [-84.3667582834, 39.3566921143]}, "type": "Feature", "properties": {"collection_times": [{"days": "Mon-Sat", "time": "1:00pm"}, {"days": "Sun", "time": "Closed"}], "id": "4506900046", "name": "USPS COLLECTION BOX - BLUE BOX", "address": {"city": "WEST CHESTER", "state": "OH", "street": "7777 UNIVERSITY DR", "postcode": "45069"}}},
{"geometry": {"type": "Point", "coordinates": [-84.4230986836, 39.3263463617]}, "type": "Feature", "properties": {"collection_times": [{"days": "Mon-Fri", "time": "4:30pm"}, {"days": "Sat", "time": "2:00pm"}, {"days": "Sun", "time": "Closed"}], "id": "4506900047", "name": "USPS COLLECTION BOX - BLUE BOX", "address": {"city": "WEST CHESTER", "state": "OH", "street": "9075 CENTRE POINTE DR", "postcode": "45069"}}},
{"geometry": {"type": "Point", "coordinates": [-84.3667582834, 39.3566921143]}, "type": "Feature", "properties": {"collection_times": [{"days": "Mon-Fri", "time": "4:00pm"}, {"days": "Sat", "time": "3:30pm"}, {"days": "Sun", "time": "Closed"}], "id": "4506900050", "name": "USPS COLLECTION BOX - BLUE BOX", "address": {"city": "WEST CHESTER", "state": "OH", "street": "7777 UNIVERSITY DR", "postcode": "45069"}}},
{"geometry": {"type": "Point", "coordinates": [-84.3997586636, 39.3374926846]}, "type": "Feature", "properties": {"collection_times": [{"days": "Mon-Sat", "time": "3:00pm"}, {"days": "Sun", "time": "Closed"}], "id": "4506900055", "name": "USPS COLLECTION BOX - BLUE BOX", "address": {"city": "WEST CHESTER", "state": "OH", "street": "7550 BALES ST", "postcode": "45069"}}},
{"geometry": {"type": "Point", "coordinates": [-84.5545023079, 39.5875777457]}, "type": "Feature", "properties": {"collection_times": [{"days": "Mon-Fri", "time": "4:15pm"}, {"days": "Sat", "time": "11:45am"}, {"days": "Sun", "time": "Closed"}], "id": "4507000001", "name": "USPS COLLECTION BOX - PO LOBBY", "address": {"city": "WEST ELKTON", "state": "OH", "street": "117 N MAIN ST", "postcode": "45070"}}},
{"geometry": {"type": "Point", "coordinates": [-84.5545023079, 39.5875777457]}, "type": "Feature", "properties": {"collection_times": [{"days": "Mon-Fri", "time": "4:15pm"}, {"days": "Sat", "time": "11:45am"}, {"days": "Sun", "time": "Closed"}], "id": "4507000002", "name": "USPS COLLECTION BOX - BLUE BOX", "address": {"city": "WEST ELKTON", "state": "OH", "street": "117 N MAIN ST", "postcode": "45070"}}}
]}
