{"type": "FeatureCollection", "features": [
{"geometry": {"type": "Point", "coordinates": [-83.7593684708, 38.6547202652]}, "type": "Feature", "properties": {"collection_times": [{"days": "Mon-Fri", "time": "4:00pm"}, {"days": "Sat", "time": "11:45am"}, {"days": "Sun", "time": "Closed"}], "id": "4510100000", "name": "USPS COLLECTION BOX - PO LOBBY", "address": {"city": "ABERDEEN", "state": "OH", "street": "720 US HIGHWAY 52", "postcode": "45101"}}},
{"geometry": {"type": "Point", "coordinates": [-83.7534278091, 38.6746803835]}, "type": "Feature", "properties": {"collection_times": [{"days": "Mon-Fri", "time": "12:00pm"}, {"days": "Sat", "time": "11:45am"}, {"days": "Sun", "time": "Closed"}], "id": "4510100001", "name": "USPS COLLECTION BOX - BLUE BOX", "address": {"city": "ABERDEEN", "state": "OH", "street": "1670 US HIGHWAY 52", "postcode": "45101"}}},
{"geometry": {"type": "Point", "coordinates": [-83.7593684708, 38.6547202652]}, "type": "Feature", "properties": {"collection_times": [{"days": "Mon-Fri", "time": "4:00pm"}, {"days": "Sat", "time": "11:45am"}, {"days": "Sun", "time": "Closed"}], "id": "4510100002", "name": "USPS COLLECTION BOX - BLUE BOX", "address": {"city": "ABERDEEN", "state": "OH", "street": "720 US HIGHWAY 52", "postcode": "45101"}}},
{"geometry": {"type": "Point", "coordinates": [-84.2217556106, 39.026706986]}, "type": "Feature", "properties": {"collection_times": [{"days": "Mon-Fri", "time": "5:00pm"}, {"days": "Sat", "time": "2:30pm"}, {"days": "Sun", "time": "Closed"}], "id": "4510200000", "name": "USPS COLLECTION BOX - BLUE BOX", "address": {"city": "AMELIA", "state": "OH", "street": "7 S KLINE AVE", "postcode": "45102"}}},
{"geometry": {"type": "Point", "coordinates": [-84.2217556106, 39.026706986]}, "type": "Feature", "properties": {"collection_times": [{"days": "Mon-Fri", "time": "5:00pm"}, {"days": "Sat", "time": "2:30pm"}, {"days": "Sun", "time": "Closed"}], "id": "4510200001", "name": "USPS COLLECTION BOX - BLUE BOX", "address": {"city": "AMELIA", "state": "OH", "street": "7 S KLINE AVE", "postcode": "45102"}}},
{"geometry": {"type": "Point", "coordinates": [-84.2461452302, 39.0474519905]}, "type": "Feature", "properties": {"collection_times": [{"days": "Mon-Fri", "time": "1:30pm"}, {"days": "Sat", "time": "10:30am"}, {"days": "Sun", "time": "Closed"}], "id": "4510200004", "name": "USPS COLLECTION BOX - BLUE BOX", "address": {"city": "AMELIA", "state": "OH", "street": "1260 W OHIO PIKE", "postcode": "45102"}}},
{"geometry": {"type": "Point", "coordinates": [-84.1885529996, 39.0160126537]}, "type": "Feature", "properties": {"collection_times": [{"days": "Mon-Sat", "time": "10:00am"}, {"days": "Sun", "time": "Closed"}], "id": "4510200005", "name": "USPS COLLECTION BOX - BLUE BOX", "address": {"city": "AMELIA", "state": "OH", "street": "1783 E OHIO PIKE", "postcode": "45102"}}},
{"geometry": {"type": "Point", "coordinates": [-84.2217556106, 39.026706986]}, "type": "Feature", "properties": {"collection_times": [{"days": "Mon-Fri", "time": "5:00pm"}, {"days": "Sat", "time": "2:30pm"}, {"days": "Sun", "time": "Closed"}], "id": "4510200010", "name": "USPS COLLECTION BOX - PO LOBBY", "address": {"city": "AMELIA", "state": "OH", "street": "7 S KLINE AVE", "postcode": "45102"}}},
{"geometry": {"type": "Point", "coordinates": [-84.185794785, 39.0816199536]}, "type": "Feature", "properties": {"collection_times": [{"days": "Mon-Fri", "time": "5:30pm"}, {"days": "Sat", "time": "4:30pm"}, {"days": "Sun", "time": "Closed"}], "id": "4510300000", "name": "USPS COLLECTION BOX - BLUE BOX", "address": {"city": "BATAVIA", "state": "OH", "street": "575 W MAIN ST", "postcode": "45103"}}},
{"geometry": {"type": "Point", "coordinates": [-84.185794785, 39.0816199536]}, "type": "Feature", "properties": {"collection_times": [{"days": "Mon-Fri", "time": "5:30pm"}, {"days": "Sat", "time": "4:30pm"}, {"days": "Sun", "time": "Closed"}], "id": "4510300001", "name": "USPS COLLECTION BOX - BLUE BOX", "address": {"city": "BATAVIA", "state": "OH", "street": "575 W MAIN ST", "postcode": "45103"}}},
{"geometry": {"type": "Point", "coordinates": [-84.0968480904, 39.0996106549]}, "type": "Feature", "properties": {"collection_times": [{"days": "Mon-Sat", "time": "11:00am"}, {"days": "Sun", "time": "Closed"}], "id": "4510300005", "name": "USPS COLLECTION BOX - BLUE BOX", "address": {"city": "BATAVIA", "state": "OH", "street": "2615 BATAVIA WILLIAMSBURG PIKE", "postcode": "45103"}}},
{"geometry": {"type": "Point", "coordinates": [-84.2571805469, 39.095580344]}, "type": "Feature", "properties": {"collection_times": [{"days": "Mon-Sat", "time": "10:00am"}, {"days": "Sun", "time": "Closed"}], "id": "4510300006", "name": "USPS COLLECTION BOX - BLUE BOX", "address": {"city": "BATAVIA", "state": "OH", "street": "2 SPOTSWOOD CMN", "postcode": "45103"}}},
{"geometry": {"type": "Point", "coordinates": [-84.2529041502, 39.1035381089]}, "type": "Feature", "properties": {"collection_times": [{"days": "Mon-Sat", "time": "1:00pm"}, {"days": "Sun", "time": "Closed"}], "id": "4510300016", "name": "USPS COLLECTION BOX - BLUE BOX", "address": {"city": "BATAVIA", "state": "OH", "street": "4584 WILLOWBROOK PT", "postcode": "45103"}}},
{"geometry": {"type": "Point", "coordinates": [-84.2436309349, 39.0866561015]}, "type": "Feature", "properties": {"collection_times": [{"days": "Mon-Sat", "time": "1:00pm"}, {"days": "Sun", "time": "Closed"}], "id": "4510300017", "name": "USPS COLLECTION BOX - BLUE BOX", "address": {"city": "BATAVIA", "state": "OH", "street": "4412 EASTWOOD DR", "postcode": "45103"}}},
{"geometry": {"type": "Point", "coordinates": [-84.2215652474, 39.0846326387]}, "type": "Feature", "properties": {"collection_times": [{"days": "Mon-Sat", "time": "11:00am"}, {"days": "Sun", "time": "Closed"}], "id": "4510300018", "name": "USPS COLLECTION BOX - BLUE BOX", "address": {"city": "BATAVIA", "state": "OH", "street": "100 STONELICK WOODS DR", "postcode": "45103"}}},
{"geometry": {"type": "Point", "coordinates": [-84.1772639463, 39.0769815336]}, "type": "Feature", "properties": {"collection_times": [{"days": "Mon-Fri", "time": "3:30pm"}, {"days": "Sat", "time": "2:30pm"}, {"days": "Sun", "time": "Closed"}], "id": "4510300019", "name": "USPS COLLECTION BOX - BLUE BOX", "address": {"city": "BATAVIA", "state": "OH", "street": "101 E MAIN ST", "postcode": "45103"}}},
{"geometry": {"type": "Point", "coordinates": [-84.185794785, 39.0816199536]}, "type": "Feature", "properties": {"collection_times": [{"days": "Mon-Fri", "time": "5:30pm"}, {"days": "Sat", "time": "4:30pm"}, {"days": "Sun", "time": "Closed"}], "id": "4510300023", "name": "USPS COLLECTION BOX - PO LOBBY", "address": {"city": "BATAVIA", "state": "OH", "street": "575 W MAIN ST", "postcode": "45103"}}},
{"geometry": {"type": "Point", "coordinates": [-83.6092574066, 38.6878699998]}, "type": "Feature", "properties": {"collection_times": [{"days": "Mon-Sat", "time": "4:15pm"}, {"days": "Sun", "time": "Closed"}], "id": "4510500001", "name": "USPS COLLECTION BOX - BLUE BOX", "address": {"city": "BENTONVILLE", "state": "OH", "street": "7785 STATE ROUTE 41", "postcode": "45105"}}},
{"geometry": {"type": "Point", "coordinates": [-83.6092574066, 38.6878699998]}, "type": "Feature", "properties": {"collection_times": [{"days": "Mon-Sat", "time": "4:15pm"}, {"days": "Sun", "time": "Closed"}], "id": "4510500002", "name": "USPS COLLECTION BOX - PO LOBBY", "address": {"city": "BENTONVILLE", "state": "OH", "street": "7785 STATE ROUTE 41", "postcode": "45105"}}},
{"geometry": {"type": "Point", "coordinates": [-84.0768147935, 38.9652880606]}, "type": "Feature", "properties": {"collection_times": [{"days": "Mon-Fri", "time": "5:00pm"}, {"days": "Sat", "time": "2:00pm"}, {"days": "Sun", "time": "Closed"}], "id": "4510600001", "name": "USPS COLLECTION BOX - BLUE BOX", "address": {"city": "BETHEL", "state": "OH", "street": "213 N EAST ST", "postcode": "45106"}}},
{"geometry": {"type": "Point", "coordinates": [-84.0845733094, 38.9637641803]}, "type": "Feature", "properties": {"collection_times": [{"days": "Mon-Sat", "time": "9:15am"}, {"days": "Sun", "time": "Closed"}], "id": "4510600008", "name": "USPS COLLECTION BOX - BLUE BOX", "address": {"city": "BETHEL", "state": "OH", "street": "545 W PLANE ST", "postcode": "45106"}}},
{"geometry": {"type": "Point", "coordinates": [-84.0768147935, 38.9652880606]}, "type": "Feature", "properties": {"collection_times": [{"days": "Mon-Fri", "time": "5:00pm"}, {"days": "Sat", "time": "2:00pm"}, {"days": "Sun", "time": "Closed"}], "id": "4510600011", "name": "USPS COLLECTION BOX - PO LOBBY", "address": {"city": "BETHEL", "state": "OH", "street": "213 N EAST ST", "postcode": "45106"}}},
{"geometry": {"type": "Point", "coordinates": [-83.9884162668, 39.2930995752]}, "type": "Feature", "properties": {"collection_times": [{"days": "Mon-Sat", "time": "9:00am"}, {"days": "Sun", "time": "Closed"}], "id": "4510700000", "name": "USPS COLLECTION BOX - BLUE BOX", "address": {"city": "BLANCHESTER", "state": "OH", "street": "102 S BROADWAY ST", "postcode": "45107"}}},
{"geometry": {"type": "Point", "coordinates": [-83.9917678015, 39.292288134]}, "type": "Feature", "properties": {"collection_times": [{"days": "Mon-Sat", "time": "10:45am"}, {"days": "Sun", "time": "Closed"}], "id": "4510700003", "name": "USPS COLLECTION BOX - BLUE BOX", "address": {"city": "BLANCHESTER", "state": "OH", "street": "402 W CENTER ST", "postcode": "45107"}}},
{"geometry": {"type": "Point", "coordinates": [-83.9779792632, 39.2802023748]}, "type": "Feature", "properties": {"collection_times": [{"days": "Mon-Sat", "time": "11:00am"}, {"days": "Sun", "time": "Closed"}], "id": "4510700004", "name": "USPS COLLECTION BOX - BLUE BOX", "address": {"city": "BLANCHESTER", "state": "OH", "street": "7529 FAIRGROUND RD", "postcode": "45107"}}},
{"geometry": {"type": "Point", "coordinates": [-83.9848394361, 39.2964970118]}, "type": "Feature", "properties": {"collection_times": [{"days": "Mon-Sat", "time": "10:00am"}, {"days": "Sun", "time": "Closed"}], "id": "4510700007", "name": "USPS COLLECTION BOX - BLUE BOX", "address": {"city": "BLANCHESTER", "state": "OH", "street": "415 E CENTER ST", "postcode": "45107"}}},
{"geometry": {"type": "Point", "coordinates": [-83.9871618934, 39.2936718097]}, "type": "Feature", "properties": {"collection_times": [{"days": "Mon-Fri", "time": "5:00pm"}, {"days": "Sat", "time": "12:00pm"}, {"days": "Sun", "time": "Closed"}], "id": "4510700012", "name": "USPS COLLECTION BOX - BLUE BOX", "address": {"city": "BLANCHESTER", "state": "OH", "street": "115 S WRIGHT ST", "postcode": "45107"}}},
{"geometry": {"type": "Point", "coordinates": [-83.9871618934, 39.2936718097]}, "type": "Feature", "properties": {"collection_times": [{"days": "Mon-Fri", "time": "5:00pm"}, {"days": "Sat", "time": "12:00pm"}, {"days": "Sun", "time": "Closed"}], "id": "4510700015", "name": "USPS COLLECTION BOX - PO LOBBY", "address": {"city": "BLANCHESTER", "state": "OH", "street": "115 S WRIGHT ST", "postcode": "45107"}}},
{"geometry": {"type": "Point", "coordinates": [-83.9871618934, 39.2936718097]}, "type": "Feature", "properties": {"collection_times": [{"days": "Mon-Fri", "time": "5:00pm"}, {"days": "Sat", "time": "12:00pm"}, {"days": "Sun", "time": "Closed"}], "id": "4510700016", "name": "USPS COLLECTION BOX - PO LOBBY", "address": {"city": "BLANCHESTER", "state": "OH", "street": "115 S WRIGHT ST", "postcode": "45107"}}},
{"geometry": {"type": "Point", "coordinates": [-84.1407091475, 38.7930498179]}, "type": "Feature", "properties": {"collection_times": [{"days": "Mon-Fri", "time": "1:30pm"}, {"days": "Sat", "time": "11:15am"}, {"days": "Sun", "time": "Closed"}], "id": "4511200001", "name": "USPS COLLECTION BOX - BLUE BOX", "address": {"city": "CHILO", "state": "OH", "street": "302 WASHINGTON ST", "postcode": "45112"}}},
{"geometry": {"type": "Point", "coordinates": [-84.1407091475, 38.7930498179]}, "type": "Feature", "properties": {"collection_times": [{"days": "Mon-Fri", "time": "1:30pm"}, {"days": "Sat", "time": "11:15am"}, {"days": "Sun", "time": "Closed"}], "id": "4511200002", "name": "USPS COLLECTION BOX - PO LOBBY", "address": {"city": "CHILO", "state": "OH", "street": "302 WASHINGTON ST", "postcode": "45112"}}},
{"geometry": {"type": "Point", "coordinates": [-83.9859985735, 39.3958513613]}, "type": "Feature", "properties": {"collection_times": [{"days": "Mon-Fri", "time": "4:00pm"}, {"days": "Sat", "time": "11:00am"}, {"days": "Sun", "time": "Closed"}], "id": "4511300001", "name": "USPS COLLECTION BOX - BLUE BOX", "address": {"city": "CLARKSVILLE", "state": "OH", "street": "75 SPRING HILL RD", "postcode": "45113"}}},
{"geometry": {"type": "Point", "coordinates": [-83.9872176068, 39.403984806]}, "type": "Feature", "properties": {"collection_times": [{"days": "Mon-Fri", "time": "4:30pm"}, {"days": "Sat", "time": "11:30am"}, {"days": "Sun", "time": "Closed"}], "id": "4511300002", "name": "USPS COLLECTION BOX - PO LOBBY", "address": {"city": "CLARKSVILLE", "state": "OH", "street": "75 SPRINGHILL RD", "postcode": "45113"}}},
{"geometry": {"type": "Point", "coordinates": [-83.704168687, 38.8154337614]}, "type": "Feature", "properties": {"collection_times": [{"days": "Mon-Fri", "time": "4:00pm"}, {"days": "Sat", "time": "11:00am"}, {"days": "Sun", "time": "Closed"}], "id": "4511500000", "name": "USPS COLLECTION BOX - BLUE BOX", "address": {"city": "DECATUR", "state": "OH", "street": "6471 HUFF HILL RD", "postcode": "45115"}}},
{"geometry": {"type": "Point", "coordinates": [-83.704168687, 38.8154337614]}, "type": "Feature", "properties": {"collection_times": [{"days": "Mon-Fri", "time": "4:00pm"}, {"days": "Sat", "time": "11:00am"}, {"days": "Sun", "time": "Closed"}], "id": "4511500001", "name": "USPS COLLECTION BOX - PO LOBBY", "address": {"city": "DECATUR", "state": "OH", "street": "6471 HUFF HILL RD", "postcode": "45115"}}},
{"geometry": {"type": "Point", "coordinates": [-83.9325306725, 39.1861086888]}, "type": "Feature", "properties": {"collection_times": [{"days": "Mon-Fri", "time": "4:00pm"}, {"days": "Sat", "time": "11:30am"}, {"days": "Sun", "time": "Closed"}], "id": "4511800001", "name": "USPS COLLECTION BOX - BLUE BOX", "address": {"city": "FAYETTEVILLE", "state": "OH", "street": "201 S APPLE ST", "postcode": "45118"}}},
{"geometry": {"type": "Point", "coordinates": [-83.9325306725, 39.1861086888]}, "type": "Feature", "properties": {"collection_times": [{"days": "Mon-Fri", "time": "4:00pm"}, {"days": "Sat", "time": "11:30am"}, {"days": "Sun", "time": "Closed"}], "id": "4511800002", "name": "USPS COLLECTION BOX - PO LOBBY", "address": {"city": "FAYETTEVILLE", "state": "OH", "street": "201 S APPLE ST", "postcode": "45118"}}},
{"geometry": {"type": "Point", "coordinates": [-84.0027182417, 38.8758213868]}, "type": "Feature", "properties": {"collection_times": [{"days": "Mon-Fri", "time": "4:30pm"}, {"days": "Sat", "time": "11:30am"}, {"days": "Sun", "time": "Closed"}], "id": "4511900001", "name": "USPS COLLECTION BOX - BLUE BOX", "address": {"city": "FEESBURG", "state": "OH", "street": "8696 STATE ROUTE 505", "postcode": "45119"}}},
{"geometry": {"type": "Point", "coordinates": [-84.0027182417, 38.8758213868]}, "type": "Feature", "properties": {"collection_times": [{"days": "Mon-Fri", "time": "4:15pm"}, {"days": "Sat", "time": "11:15am"}, {"days": "Sun", "time": "Closed"}], "id": "4511900002", "name": "USPS COLLECTION BOX - PO LOBBY", "address": {"city": "FEESBURG", "state": "OH", "street": "8696 STATE ROUTE 505", "postcode": "45119"}}},
{"geometry": {"type": "Point", "coordinates": [-84.0967625806, 38.8390740041]}, "type": "Feature", "properties": {"collection_times": [{"days": "Mon-Fri", "time": "4:30pm"}, {"days": "Sat", "time": "12:00pm"}, {"days": "Sun", "time": "Closed"}], "id": "4512000000", "name": "USPS COLLECTION BOX - BLUE BOX", "address": {"city": "FELICITY", "state": "OH", "street": "323 W WALNUT ST", "postcode": "45120"}}},
{"geometry": {"type": "Point", "coordinates": [-84.0967625806, 38.8390740041]}, "type": "Feature", "properties": {"collection_times": [{"days": "Mon-Fri", "time": "4:30pm"}, {"days": "Sat", "time": "12:00pm"}, {"days": "Sun", "time": "Closed"}], "id": "4512000001", "name": "USPS COLLECTION BOX - PO LOBBY", "address": {"city": "FELICITY", "state": "OH", "street": "323 W WALNUT ST", "postcode": "45120"}}},
{"geometry": {"type": "Point", "coordinates": [-83.9025185064, 38.8658037392]}, "type": "Feature", "properties": {"collection_times": [{"days": "Mon-Fri", "time": "5:00pm"}, {"days": "Sat", "time": "4:00pm"}, {"days": "Sun", "time": "Closed"}], "id": "4512100002", "name": "USPS COLLECTION BOX - BLUE BOX", "address": {"city": "GEORGETOWN", "state": "OH", "street": "201 E GRANT AVE", "postcode": "45121"}}},
{"geometry": {"type": "Point", "coordinates": [-83.8829008627, 38.8610840412]}, "type": "Feature", "properties": {"collection_times": [{"days": "Mon-Sat", "time": "10:30am"}, {"days": "Sun", "time": "Closed"}], "id": "4512100006", "name": "USPS COLLECTION BOX - BLUE BOX", "address": {"city": "GEORGETOWN", "state": "OH", "street": "4901 STATE ROUTE 125", "postcode": "45121"}}},
{"geometry": {"type": "Point", "coordinates": [-83.8980160987, 38.8585111803]}, "type": "Feature", "properties": {"collection_times": [{"days": "Mon-Sat", "time": "11:15am"}, {"days": "Sun", "time": "Closed"}], "id": "4512100018", "name": "USPS COLLECTION BOX - BLUE BOX", "address": {"city": "GEORGETOWN", "state": "OH", "street": "425 HOME ST", "postcode": "45121"}}},
{"geometry": {"type": "Point", "coordinates": [-83.9043145297, 38.8656410367]}, "type": "Feature", "properties": {"collection_times": [{"days": "Mon-Fri", "time": "2:00pm"}, {"days": "Sat", "time": "11:00am"}, {"days": "Sun", "time": "Closed"}], "id": "4512100022", "name": "USPS COLLECTION BOX - BLUE BOX", "address": {"city": "GEORGETOWN", "state": "OH", "street": "120 S MAIN ST", "postcode": "45121"}}},
{"geometry": {"type": "Point", "coordinates": [-83.9032666463, 38.8673302928]}, "type": "Feature", "properties": {"collection_times": [{"days": "Mon-Sat", "time": "12:30pm"}, {"days": "Sun", "time": "Closed"}], "id": "4512100023", "name": "USPS COLLECTION BOX - BLUE BOX", "address": {"city": "GEORGETOWN", "state": "OH", "street": "201 N APPLE ST", "postcode": "45121"}}},
{"geometry": {"type": "Point", "coordinates": [-83.9025185064, 38.8658037392]}, "type": "Feature", "properties": {"collection_times": [{"days": "Mon-Fri", "time": "5:00pm"}, {"days": "Sat", "time": "4:00pm"}, {"days": "Sun", "time": "Closed"}], "id": "4512100024", "name": "USPS COLLECTION BOX - PO LOBBY", "address": {"city": "GEORGETOWN", "state": "OH", "street": "201 E GRANT AVE", "postcode": "45121"}}},
{"geometry": {"type": "Point", "coordinates": [-83.9031418834, 38.8721898251]}, "type": "Feature", "properties": {"collection_times": [{"days": "Mon-Sat", "time": "9:00am"}, {"days": "Sun", "time": "Closed"}], "id": "4512100026", "name": "USPS COLLECTION BOX - BLUE BOX", "address": {"city": "GEORGETOWN", "state": "OH", "street": "800 MOUNT ORAB PIKE", "postcode": "45121"}}},
{"geometry": {"type": "Point", "coordinates": [-83.8872251245, 38.8752765481]}, "type": "Feature", "properties": {"collection_times": [{"days": "Mon-Sat", "time": "10:00am"}, {"days": "Sun", "time": "Closed"}], "id": "4512100028", "name": "USPS COLLECTION BOX - BLUE BOX", "address": {"city": "GEORGETOWN", "state": "OH", "street": "2003 VETERANS BLVD", "postcode": "45121"}}},
{"geometry": {"type": "Point", "coordinates": [-84.1734304856, 39.2282846613]}, "type": "Feature", "properties": {"collection_times": [{"days": "Mon-Fri", "time": "11:30am"}, {"days": "Sat", "time": "10:00am"}, {"days": "Sun", "time": "Closed"}], "id": "4512200003", "name": "USPS COLLECTION BOX - BLUE BOX", "address": {"city": "GOSHEN", "state": "OH", "street": "1785 STATE ROUTE 28", "postcode": "45122"}}},
{"geometry": {"type": "Point", "coordinates": [-84.1181783358, 39.2215751027]}, "type": "Feature", "properties": {"collection_times": [{"days": "Mon-Fri", "time": "4:30pm"}, {"days": "Sat", "time": "11:45am"}, {"days": "Sun", "time": "Closed"}], "id": "4512200006", "name": "USPS COLLECTION BOX - PO LOBBY", "address": {"city": "GOSHEN", "state": "OH", "street": "1978 OLD STATE RT 28", "postcode": "45122"}}},
{"geometry": {"type": "Point", "coordinates": [-84.1181783358, 39.2215751027]}, "type": "Feature", "properties": {"collection_times": [{"days": "Mon-Fri", "time": "11:30am"}, {"days": "Sat", "time": "10:00am"}, {"days": "Sun", "time": "Closed"}], "id": "4512200007", "name": "USPS COLLECTION BOX - BLUE BOX", "address": {"city": "GOSHEN", "state": "OH", "street": "6725 DICK FLYNN BLVD", "postcode": "45122"}}},
{"geometry": {"type": "Point", "coordinates": [-84.1181783358, 39.2215751027]}, "type": "Feature", "properties": {"collection_times": [{"days": "Mon-Fri", "time": "4:30pm"}, {"days": "Sat", "time": "12:00pm"}, {"days": "Sun", "time": "Closed"}], "id": "4512200008", "name": "USPS COLLECTION BOX - BLUE BOX", "address": {"city": "GOSHEN", "state": "OH", "street": "1978 OLD STATE RT 28", "postcode": "45122"}}},
{"geometry": {"type": "Point", "coordinates": [-84.1181783358, 39.2215751027]}, "type": "Feature", "properties": {"collection_times": [{"days": "Mon-Fri", "time": "4:30pm"}, {"days": "Sat", "time": "11:45am"}, {"days": "Sun", "time": "Closed"}], "id": "4512200009", "name": "USPS COLLECTION BOX - PO LOBBY", "address": {"city": "GOSHEN", "state": "OH", "street": "1978 OLD STATE RT 28", "postcode": "45122"}}},
{"geometry": {"type": "Point", "coordinates": [-83.3819976888, 39.3517482756]}, "type": "Feature", "properties": {"collection_times": [{"days": "Mon-Sat", "time": "2:30pm"}, {"days": "Sun", "time": "Closed"}], "id": "4512300004", "name": "USPS COLLECTION BOX - BLUE BOX", "address": {"city": "GREENFIELD", "state": "OH", "street": "344 JEFFERSON ST", "postcode": "45123"}}},
{"geometry": {"type": "Point", "coordinates": [-83.3990820385, 39.3492528614]}, "type": "Feature", "properties": {"collection_times": [{"days": "Mon-Sat", "time": "2:00pm"}, {"days": "Sun", "time": "Closed"}], "id": "4512300007", "name": "USPS COLLECTION BOX - BLUE BOX", "address": {"city": "GREENFIELD", "state": "OH", "street": "200 N 11TH ST", "postcode": "45123"}}},
{"geometry": {"type": "Point", "coordinates": [-83.3803843096, 39.3522196993]}, "type": "Feature", "properties": {"collection_times": [{"days": "Mon-Fri", "time": "4:45pm"}, {"days": "Sat", "time": "12:00pm"}, {"days": "Sun", "time": "Closed"}], "id": "4512300015", "name": "USPS COLLECTION BOX - BLUE BOX", "address": {"city": "GREENFIELD", "state": "OH", "street": "233 JEFFERSON ST", "postcode": "45123"}}},
{"geometry": {"type": "Point", "coordinates": [-83.3803843096, 39.3522196993]}, "type": "Feature", "properties": {"collection_times": [{"days": "Mon-Fri", "time": "4:45pm"}, {"days": "Sat", "time": "12:00pm"}, {"days": "Sun", "time": "Closed"}], "id": "4512300019", "name": "USPS COLLECTION BOX - PO LOBBY", "address": {"city": "GREENFIELD", "state": "OH", "street": "233 JEFFERSON ST", "postcode": "45123"}}},
{"geometry": {"type": "Point", "coordinates": [-83.3803843096, 39.3522196993]}, "type": "Feature", "properties": {"collection_times": [{"days": "Mon-Fri", "time": "4:45pm"}, {"days": "Sat", "time": "12:00pm"}, {"days": "Sun", "time": "Closed"}], "id": "4512300020", "name": "USPS COLLECTION BOX - PO LOBBY", "address": {"city": "GREENFIELD", "state": "OH", "street": "233 JEFFERSON ST", "postcode": "45123"}}},
{"geometry": {"type": "Point", "coordinates": [-83.987516899, 38.9208660962]}, "type": "Feature", "properties": {"collection_times": [{"days": "Mon-Fri", "time": "4:30pm"}, {"days": "Sat", "time": "12:00pm"}, {"days": "Sun", "time": "Closed"}], "id": "4513000001", "name": "USPS COLLECTION BOX - BLUE BOX", "address": {"city": "HAMERSVILLE", "state": "OH", "street": "202 W MAIN ST", "postcode": "45130"}}},
{"geometry": {"type": "Point", "coordinates": [-83.987516899, 38.9208660962]}, "type": "Feature", "properties": {"collection_times": [{"days": "Mon-Fri", "time": "4:30pm"}, {"days": "Sat", "time": "12:00pm"}, {"days": "Sun", "time": "Closed"}], "id": "4513000002", "name": "USPS COLLECTION BOX - PO LOBBY", "address": {"city": "HAMERSVILLE", "state": "OH", "street": "202 W MAIN ST", "postcode": "45130"}}},
{"geometry": {"type": "Point", "coordinates": [-83.9676187316, 38.788998377]}, "type": "Feature", "properties": {"collection_times": [{"days": "Mon-Fri", "time": "4:15pm"}, {"days": "Sat", "time": "11:45am"}, {"days": "Sun", "time": "Closed"}], "id": "4513100000", "name": "USPS COLLECTION BOX - BLUE BOX", "address": {"city": "HIGGINSPORT", "state": "OH", "street": "400 WASHINGTON ST", "postcode": "45131"}}},
{"geometry": {"type": "Point", "coordinates": [-83.9676187316, 38.788998377]}, "type": "Feature", "properties": {"collection_times": [{"days": "Mon-Fri", "time": "4:15pm"}, {"days": "Sat", "time": "11:45am"}, {"days": "Sun", "time": "Closed"}], "id": "4513100001", "name": "USPS COLLECTION BOX - PO LOBBY", "address": {"city": "HIGGINSPORT", "state": "OH", "street": "400 WASHINGTON ST", "postcode": "45131"}}},
{"geometry": {"type": "Point", "coordinates": [-83.9676187316, 38.788998377]}, "type": "Feature", "properties": {"collection_times": [{"days": "Mon-Fri", "time": "4:15pm"}, {"days": "Sat", "time": "11:45am"}, {"days": "Sun", "time": "Closed"}], "id": "4513100002", "name": "USPS COLLECTION BOX - PO LOBBY", "address": {"city": "HIGGINSPORT", "state": "OH", "street": "400 WASHINGTON ST", "postcode": "45131"}}},
{"geometry": {"type": "Point", "coordinates": [-83.5992419026, 39.3440161841]}, "type": "Feature", "properties": {"collection_times": [{"days": "Mon-Fri", "time": "4:15pm"}, {"days": "Sat", "time": "11:15am"}, {"days": "Sun", "time": "Closed"}], "id": "4513200001", "name": "USPS COLLECTION BOX - BLUE BOX", "address": {"city": "HIGHLAND", "state": "OH", "street": "7914 W MAIN ST", "postcode": "45132"}}},
{"geometry": {"type": "Point", "coordinates": [-83.5992419026, 39.3440161841]}, "type": "Feature", "properties": {"collection_times": [{"days": "Mon-Fri", "time": "4:15pm"}, {"days": "Sat", "time": "11:15am"}, {"days": "Sun", "time": "Closed"}], "id": "4513200002", "name": "USPS COLLECTION BOX - PO LOBBY", "address": {"city": "HIGHLAND", "state": "OH", "street": "7914 W MAIN ST", "postcode": "45132"}}},
{"geometry": {"type": "Point", "coordinates": [-83.613937454, 39.2142597881]}, "type": "Feature", "properties": {"collection_times": [{"days": "Mon-Sat", "time": "4:00pm"}, {"days": "Sun", "time": "Closed"}], "id": "4513300001", "name": "USPS COLLECTION BOX - BLUE BOX", "address": {"city": "HILLSBORO", "state": "OH", "street": "406 N WEST ST", "postcode": "45133"}}},
{"geometry": {"type": "Point", "coordinates": [-83.6109546351, 39.2048332466]}, "type": "Feature", "properties": {"collection_times": [{"days": "Mon-Sat", "time": "5:00pm"}, {"days": "Sun", "time": "Closed"}], "id": "4513300002", "name": "USPS COLLECTION BOX - BLUE BOX", "address": {"city": "HILLSBORO", "state": "OH", "street": "301 N HIGH ST", "postcode": "45133"}}},
{"geometry": {"type": "Point", "coordinates": [-83.6248823028, 39.2247287189]}, "type": "Feature", "properties": {"collection_times": [{"days": "Mon-Sat", "time": "9:00am"}, {"days": "Sun", "time": "Closed"}], "id": "4513300003", "name": "USPS COLLECTION BOX - BLUE BOX", "address": {"city": "HILLSBORO", "state": "OH", "street": "737 N WEST ST", "postcode": "45133"}}},
{"geometry": {"type": "Point", "coordinates": [-83.6063381076, 39.2054798076]}, "type": "Feature", "properties": {"collection_times": [{"days": "Mon-Sat", "time": "9:00am"}, {"days": "Sun", "time": "Closed"}], "id": "4513300005", "name": "USPS COLLECTION BOX - BLUE BOX", "address": {"city": "HILLSBORO", "state": "OH", "street": "399 WILLOW ST", "postcode": "45133"}}},
{"geometry": {"type": "Point", "coordinates": [-83.6088719544, 39.2022292446]}, "type": "Feature", "properties": {"collection_times": [{"days": "Mon-Sat", "time": "9:00am"}, {"days": "Sun", "time": "Closed"}], "id": "4513300006", "name": "USPS COLLECTION BOX - BLUE BOX", "address": {"city": "HILLSBORO", "state": "OH", "street": "134 N EAST ST", "postcode": "45133"}}},
{"geometry": {"type": "Point", "coordinates": [-83.6131493314, 39.1957465424]}, "type": "Feature", "properties": {"collection_times": [{"days": "Mon-Sat", "time": "9:00am"}, {"days": "Sun", "time": "Closed"}], "id": "4513300008", "name": "USPS COLLECTION BOX - BLUE BOX", "address": {"city": "HILLSBORO", "state": "OH", "street": "620 S HIGH ST", "postcode": "45133"}}},
{"geometry": {"type": "Point", "coordinates": [-83.6178400075, 39.1980826065]}, "type": "Feature", "properties": {"collection_times": [{"days": "Mon-Sat", "time": "9:00am"}, {"days": "Sun", "time": "Closed"}], "id": "4513300010", "name": "USPS COLLECTION BOX - BLUE BOX", "address": {"city": "HILLSBORO", "state": "OH", "street": "470 S ELM ST", "postcode": "45133"}}},
{"geometry": {"type": "Point", "coordinates": [-83.6268085408, 39.202486982]}, "type": "Feature", "properties": {"collection_times": [{"days": "Mon-Sat", "time": "9:00am"}, {"days": "Sun", "time": "Closed"}], "id": "4513300012", "name": "USPS COLLECTION BOX - BLUE BOX", "address": {"city": "HILLSBORO", "state": "OH", "street": "233 S GLENN ST", "postcode": "45133"}}},
{"geometry": {"type": "Point", "coordinates": [-83.6139964135, 39.2010469752]}, "type": "Feature", "properties": {"collection_times": [{"days": "Mon-Sat", "time": "9:00am"}, {"days": "Sun", "time": "Closed"}], "id": "4513300014", "name": "USPS COLLECTION BOX - BLUE BOX", "address": {"city": "HILLSBORO", "state": "OH", "street": "199 W WALNUT ST", "postcode": "45133"}}},
{"geometry": {"type": "Point", "coordinates": [-83.6113852744, 39.2287240654]}, "type": "Feature", "properties": {"collection_times": [{"days": "Mon-Sat", "time": "11:00am"}, {"days": "Sun", "time": "Closed"}], "id": "4513300015", "name": "USPS COLLECTION BOX - BLUE BOX", "address": {"city": "HILLSBORO", "state": "OH", "street": "575 HARRY SAUNER RD", "postcode": "45133"}}},
{"geometry": {"type": "Point", "coordinates": [-83.6114403893, 39.202210168]}, "type": "Feature", "properties": {"collection_times": [{"days": "Mon-Sat", "time": "1:30pm"}, {"days": "Sun", "time": "Closed"}], "id": "4513300016", "name": "USPS COLLECTION BOX - BLUE BOX", "address": {"city": "HILLSBORO", "state": "OH", "street": "101 E MAIN ST", "postcode": "45133"}}},
{"geometry": {"type": "Point", "coordinates": [-83.6114653314, 39.2021022395]}, "type": "Feature", "properties": {"collection_times": [{"days": "Mon-Sat", "time": "1:30pm"}, {"days": "Sun", "time": "Closed"}], "id": "4513300019", "name": "USPS COLLECTION BOX - BLUE BOX", "address": {"city": "HILLSBORO", "state": "OH", "street": "100 E MAIN ST", "postcode": "45133"}}},
{"geometry": {"type": "Point", "coordinates": [-83.6114667321, 39.2021170283]}, "type": "Feature", "properties": {"collection_times": [{"days": "Mon-Sat", "time": "1:30pm"}, {"days": "Sun", "time": "Closed"}], "id": "4513300020", "name": "USPS COLLECTION BOX - BLUE BOX", "address": {"city": "HILLSBORO", "state": "OH", "street": "101 S HIGH ST", "postcode": "45133"}}},
{"geometry": {"type": "Point", "coordinates": [-83.617335105, 39.1988659097]}, "type": "Feature", "properties": {"collection_times": [{"days": "Mon-Sat", "time": "9:00am"}, {"days": "Sun", "time": "Closed"}], "id": "4513300022", "name": "USPS COLLECTION BOX - BLUE BOX", "address": {"city": "HILLSBORO", "state": "OH", "street": "405 W PLEASANT ST", "postcode": "45133"}}},
{"geometry": {"type": "Point", "coordinates": [-83.6109546351, 39.2048332466]}, "type": "Feature", "properties": {"collection_times": [{"days": "Mon-Sat", "time": "5:00pm"}, {"days": "Sun", "time": "Closed"}], "id": "4513300023", "name": "USPS COLLECTION BOX - BLUE BOX", "address": {"city": "HILLSBORO", "state": "OH", "street": "301 N HIGH ST", "postcode": "45133"}}},
{"geometry": {"type": "Point", "coordinates": [-83.6109546351, 39.2048332466]}, "type": "Feature", "properties": {"collection_times": [{"days": "Mon-Sat", "time": "5:00pm"}, {"days": "Sun", "time": "Closed"}], "id": "4513300024", "name": "USPS COLLECTION BOX - BLUE BOX", "address": {"city": "HILLSBORO", "state": "OH", "street": "301 N HIGH ST", "postcode": "45133"}}},
{"geometry": {"type": "Point", "coordinates": [-83.6109546351, 39.2048332466]}, "type": "Feature", "properties": {"collection_times": [{"days": "Mon-Sat", "time": "5:00pm"}, {"days": "Sun", "time": "Closed"}], "id": "4513300025", "name": "USPS COLLECTION BOX - PO LOBBY", "address": {"city": "HILLSBORO", "state": "OH", "street": "301 N HIGH ST", "postcode": "45133"}}},
{"geometry": {"type": "Point", "coordinates": [-83.6347479908, 39.2050207684]}, "type": "Feature", "properties": {"collection_times": [{"days": "Mon-Sat", "time": "9:00am"}, {"days": "Sun", "time": "Closed"}], "id": "4513300027", "name": "USPS COLLECTION BOX - BLUE BOX", "address": {"city": "HILLSBORO", "state": "OH", "street": "888 W MAIN ST", "postcode": "45133"}}},
{"geometry": {"type": "Point", "coordinates": [-83.4887795224, 39.1966951662]}, "type": "Feature", "properties": {"collection_times": [{"days": "Mon-Sat", "time": "10:00am"}, {"days": "Sun", "time": "Closed"}], "id": "4513300028", "name": "USPS COLLECTION BOX - BLUE BOX", "address": {"city": "HILLSBORO", "state": "OH", "street": "11115 N SHORE DR", "postcode": "45133"}}},
{"geometry": {"type": "Point", "coordinates": [-83.4280398363, 39.2329347094]}, "type": "Feature", "properties": {"collection_times": [{"days": "Mon-Sat", "time": "12:00pm"}, {"days": "Sun", "time": "Closed"}], "id": "4513300029", "name": "USPS COLLECTION BOX - BLUE BOX", "address": {"city": "HILLSBORO", "state": "OH", "street": "6941 STATE ROUTE 753", "postcode": "45133"}}},
{"geometry": {"type": "Point", "coordinates": [-83.5543025084, 39.3456811049]}, "type": "Feature", "properties": {"collection_times": [{"days": "Mon-Fri", "time": "4:00pm"}, {"days": "Sat", "time": "12:00pm"}, {"days": "Sun", "time": "Closed"}], "id": "4513500000", "name": "USPS COLLECTION BOX - BLUE BOX", "address": {"city": "LEESBURG", "state": "OH", "street": "44 E MAIN ST", "postcode": "45135"}}},
{"geometry": {"type": "Point", "coordinates": [-83.5543025084, 39.3456811049]}, "type": "Feature", "properties": {"collection_times": [{"days": "Mon-Fri", "time": "4:00pm"}, {"days": "Sat", "time": "12:00pm"}, {"days": "Sun", "time": "Closed"}], "id": "4513500002", "name": "USPS COLLECTION BOX - PO LOBBY", "address": {"city": "LEESBURG", "state": "OH", "street": "44 E MAIN ST", "postcode": "45135"}}},
{"geometry": {"type": "Point", "coordinates": [-84.2659275829, 39.2679201467]}, "type": "Feature", "properties": {"collection_times": [{"days": "Mon-Fri", "time": "5:15pm"}, {"days": "Sat", "time": "4:15pm"}, {"days": "Sun", "time": "Closed"}], "id": "4514000000", "name": "USPS COLLECTION BOX - PO LOBBY", "address": {"city": "LOVELAND", "state": "OH", "street": "200 LOVELAND MADEIRA RD", "postcode": "45140"}}},
{"geometry": {"type": "Point", "coordinates": [-84.2659275829, 39.2679201467]}, "type": "Feature", "properties": {"collection_times": [{"days": "Mon-Fri", "time": "5:15pm"}, {"days": "Sat", "time": "4:15pm"}, {"days": "Sun", "time": "Closed"}], "id": "4514000002", "name": "USPS COLLECTION BOX - BLUE BOX", "address": {"city": "LOVELAND", "state": "OH", "street": "200 LOVELAND MADEIRA RD", "postcode": "45140"}}},
{"geometry": {"type": "Point", "coordinates": [-84.2659275829, 39.2679201467]}, "type": "Feature", "properties": {"collection_times": [{"days": "Mon-Fri", "time": "5:15pm"}, {"days": "Sat", "time": "4:15pm"}, {"days": "Sun", "time": "Closed"}], "id": "4514000003", "name": "USPS COLLECTION BOX - BLUE BOX", "address": {"city": "LOVELAND", "state": "OH", "street": "200 LOVELAND MADEIRA RD", "postcode": "45140"}}},
{"geometry": {"type": "Point", "coordinates": [-84.2659275829, 39.2679201467]}, "type": "Feature", "properties": {"collection_times": [{"days": "Mon-Fri", "time": "5:15pm"}, {"days": "Sat", "time": "4:15pm"}, {"days": "Sun", "time": "Closed"}], "id": "4514000004", "name": "USPS COLLECTION BOX - BLUE BOX", "address": {"city": "LOVELAND", "state": "OH", "street": "200 LOVELAND MADEIRA RD", "postcode": "45140"}}},
{"geometry": {"type": "Point", "coordinates": [-84.2441508181, 39.2562436778]}, "type": "Feature", "properties": {"collection_times": [{"days": "Mon-Sat", "time": "12:00pm"}, {"days": "Sun", "time": "Closed"}], "id": "4514000006", "name": "USPS COLLECTION BOX - BLUE BOX", "address": {"city": "LOVELAND", "state": "OH", "street": "901 HERITAGE GRN", "postcode": "45140"}}},
{"geometry": {"type": "Point", "coordinates": [-84.291392741, 39.2455972395]}, "type": "Feature", "properties": {"collection_times": [{"days": "Mon-Sat", "time": "11:00am"}, {"days": "Sun", "time": "Closed"}], "id": "4514000009", "name": "USPS COLLECTION BOX - BLUE BOX", "address": {"city": "LOVELAND", "state": "OH", "street": "100 ARROWHEAD TRL", "postcode": "45140"}}},
{"geometry": {"type": "Point", "coordinates": [-84.2009541198, 39.2055667134]}, "type": "Feature", "properties": {"collection_times": [{"days": "Mon-Sat", "time": "11:00am"}, {"days": "Sun", "time": "Closed"}], "id": "4514000010", "name": "USPS COLLECTION BOX - BLUE BOX", "address": {"city": "LOVELAND", "state": "OH", "street": "101 GARDEN DR", "postcode": "45140"}}},
{"geometry": {"type": "Point", "coordinates": [-84.3039725007, 39.2738202836]}, "type": "Feature", "properties": {"collection_times": [{"days": "Mon-Sat", "time": "10:00am"}, {"days": "Sun", "time": "Closed"}], "id": "4514000011", "name": "USPS COLLECTION BOX - BLUE BOX", "address": {"city": "LOVELAND", "state": "OH", "street": "4000 WHITE CHAPEL LN", "postcode": "45140"}}},
{"geometry": {"type": "Point", "coordinates": [-84.2010751691, 39.2269905235]}, "type": "Feature", "properties": {"collection_times": [{"days": "Mon-Sat", "time": "11:00am"}, {"days": "Sun", "time": "Closed"}], "id": "4514000012", "name": "USPS COLLECTION BOX - BLUE BOX", "address": {"city": "LOVELAND", "state": "OH", "street": "160 CLUB DR", "postcode": "45140"}}},
{"geometry": {"type": "Point", "coordinates": [-84.2932496019, 39.2461160932]}, "type": "Feature", "properties": {"collection_times": [{"days": "Mon-Sat", "time": "1:00pm"}, {"days": "Sun", "time": "Closed"}], "id": "4514000013", "name": "USPS COLLECTION BOX - BLUE BOX", "address": {"city": "LOVELAND", "state": "OH", "street": "368 BRIDGE ST", "postcode": "45140"}}},
{"geometry": {"type": "Point", "coordinates": [-84.2952167647, 39.2543032081]}, "type": "Feature", "properties": {"collection_times": [{"days": "Mon-Fri", "time": "3:30pm"}, {"days": "Sat", "time": "10:30am"}, {"days": "Sun", "time": "Closed"}], "id": "4514000014", "name": "USPS COLLECTION BOX - BLUE BOX", "address": {"city": "LOVELAND", "state": "OH", "street": "10675 LOVELAND MADEIRA RD", "postcode": "45140"}}},
{"geometry": {"type": "Point", "coordinates": [-84.2816326862, 39.2237668663]}, "type": "Feature", "properties": {"collection_times": [{"days": "Mon-Fri", "time": "3:30pm"}, {"days": "Sat", "time": "10:00am"}, {"days": "Sun", "time": "Closed"}], "id": "4514000016", "name": "USPS COLLECTION BOX - BLUE BOX", "address": {"city": "LOVELAND", "state": "OH", "street": "420 WARDS CORNER RD", "postcode": "45140"}}},
{"geometry": {"type": "Point", "coordinates": [-84.3012864794, 39.2869926189]}, "type": "Feature", "properties": {"collection_times": [{"days": "Mon-Sat", "time": "10:00am"}, {"days": "Sun", "time": "Closed"}], "id": "4514000018", "name": "USPS COLLECTION BOX - BLUE BOX", "address": {"city": "LOVELAND", "state": "OH", "street": "200 CARRINGTON LN", "postcode": "45140"}}},
{"geometry": {"type": "Point", "coordinates": [-84.2992098959, 39.2839807546]}, "type": "Feature", "properties": {"collection_times": [{"days": "Mon-Fri", "time": "3:30pm"}, {"days": "Sat", "time": "10:00am"}, {"days": "Sun", "time": "Closed"}], "id": "4514000019", "name": "USPS COLLECTION BOX - BLUE BOX", "address": {"city": "LOVELAND", "state": "OH", "street": "101 NORTHEAST DR", "postcode": "45140"}}},
{"geometry": {"type": "Point", "coordinates": [-84.1970578404, 39.2170572171]}, "type": "Feature", "properties": {"collection_times": [{"days": "Mon-Sat", "time": "12:00pm"}, {"days": "Sun", "time": "Closed"}], "id": "4514000033", "name": "USPS COLLECTION BOX - BLUE BOX", "address": {"city": "LOVELAND", "state": "OH", "street": "1517 STATE ROUTE 28", "postcode": "45140"}}},
{"geometry": {"type": "Point", "coordinates": [-84.2887643683, 39.2928967164]}, "type": "Feature", "properties": {"collection_times": [{"days": "Mon-Sat", "time": "11:15am"}, {"days": "Sun", "time": "Closed"}], "id": "4514000037", "name": "USPS COLLECTION BOX - BLUE BOX", "address": {"city": "LOVELAND", "state": "OH", "street": "9980 HANOVER WAY", "postcode": "45140"}}},
{"geometry": {"type": "Point", "coordinates": [-84.2610156966, 39.2625205226]}, "type": "Feature", "properties": {"collection_times": [{"days": "Mon-Fri", "time": "3:30pm"}, {"days": "Sat", "time": "10:00am"}, {"days": "Sun", "time": "Closed"}], "id": "4514000038", "name": "USPS COLLECTION BOX - BLUE BOX", "address": {"city": "LOVELAND", "state": "OH", "street": "6281 TRI RIDGE BLVD", "postcode": "45140"}}},
{"geometry": {"type": "Point", "coordinates": [-84.2824189764, 39.2238391209]}, "type": "Feature", "properties": {"collection_times": [{"days": "Mon-Fri", "time": "3:30pm"}, {"days": "Sat", "time": "10:00am"}, {"days": "Sun", "time": "Closed"}], "id": "4514000039", "name": "USPS COLLECTION BOX - BLUE BOX", "address": {"city": "LOVELAND", "state": "OH", "street": "6279 TRI RIDGE BLVD", "postcode": "45140"}}},
{"geometry": {"type": "Point", "coordinates": [-84.2659275829, 39.2679201467]}, "type": "Feature", "properties": {"collection_times": [{"days": "Mon-Fri", "time": "5:15pm"}, {"days": "Sat", "time": "4:15pm"}, {"days": "Sun", "time": "Closed"}], "id": "4514000041", "name": "USPS COLLECTION BOX - APC", "address": {"city": "LOVELAND", "state": "OH", "street": "200 LOVELAND MADEIRA RD", "postcode": "45140"}}},
{"geometry": {"type": "Point", "coordinates": [-83.7922420821, 39.2445122612]}, "type": "Feature", "properties": {"collection_times": [{"days": "Mon-Fri", "time": "3:45pm"}, {"days": "Sat", "time": "11:45am"}, {"days": "Sun", "time": "Closed"}], "id": "4514200001", "name": "USPS COLLECTION BOX - PO LOBBY", "address": {"city": "LYNCHBURG", "state": "OH", "street": "264 N MAIN ST", "postcode": "45142"}}},
{"geometry": {"type": "Point", "coordinates": [-83.7922420821, 39.2445122612]}, "type": "Feature", "properties": {"collection_times": [{"days": "Mon-Fri", "time": "3:45pm"}, {"days": "Sat", "time": "11:30am"}, {"days": "Sun", "time": "Closed"}], "id": "4514200002", "name": "USPS COLLECTION BOX - BLUE BOX", "address": {"city": "LYNCHBURG", "state": "OH", "street": "264 N MAIN ST", "postcode": "45142"}}},
{"geometry": {"type": "Point", "coordinates": [-83.6092877822, 38.6878207744]}, "type": "Feature", "properties": {"collection_times": [{"days": "Mon-Fri", "time": "4:30pm"}, {"days": "Sat", "time": "12:00pm"}, {"days": "Sun", "time": "Closed"}], "id": "4514400001", "name": "USPS COLLECTION BOX - BLUE BOX", "address": {"city": "MANCHESTER", "state": "OH", "street": "301 PIKE ST", "postcode": "45144"}}},
{"geometry": {"type": "Point", "coordinates": [-83.6092241698, 38.691885943]}, "type": "Feature", "properties": {"collection_times": [{"days": "Mon-Sat", "time": "9:00am"}, {"days": "Sun", "time": "Closed"}], "id": "4514400005", "name": "USPS COLLECTION BOX - BLUE BOX", "address": {"city": "MANCHESTER", "state": "OH", "street": "206 E 8TH ST", "postcode": "45144"}}},
{"geometry": {"type": "Point", "coordinates": [-83.6059829329, 38.6916544892]}, "type": "Feature", "properties": {"collection_times": [{"days": "Mon-Sat", "time": "9:00am"}, {"days": "Sun", "time": "Closed"}], "id": "4514400006", "name": "USPS COLLECTION BOX - BLUE BOX", "address": {"city": "MANCHESTER", "state": "OH", "street": "415 E 7TH ST", "postcode": "45144"}}},
{"geometry": {"type": "Point", "coordinates": [-83.6017375251, 38.692698376]}, "type": "Feature", "properties": {"collection_times": [{"days": "Mon-Sat", "time": "9:00am"}, {"days": "Sun", "time": "Closed"}], "id": "4514400007", "name": "USPS COLLECTION BOX - BLUE BOX", "address": {"city": "MANCHESTER", "state": "OH", "street": "613 E 7TH ST", "postcode": "45144"}}},
{"geometry": {"type": "Point", "coordinates": [-83.6092877822, 38.6878207744]}, "type": "Feature", "properties": {"collection_times": [{"days": "Mon-Fri", "time": "4:30pm"}, {"days": "Sat", "time": "12:00pm"}, {"days": "Sun", "time": "Closed"}], "id": "4514400009", "name": "USPS COLLECTION BOX - PO LOBBY", "address": {"city": "MANCHESTER", "state": "OH", "street": "301 PIKE ST", "postcode": "45144"}}},
{"geometry": {"type": "Point", "coordinates": [-83.8141764354, 39.3252773578]}, "type": "Feature", "properties": {"collection_times": [{"days": "Mon-Fri", "time": "2:30pm"}, {"days": "Sat", "time": "11:30am"}, {"days": "Sun", "time": "Closed"}], "id": "4514600000", "name": "USPS COLLECTION BOX - PO LOBBY", "address": {"city": "MARTINSVILLE", "state": "OH", "street": "33 HIGH ST", "postcode": "45146"}}},
{"geometry": {"type": "Point", "coordinates": [-84.2997741674, 39.2124980933]}, "type": "Feature", "properties": {"collection_times": [{"days": "Mon-Fri", "time": "4:30pm"}, {"days": "Sat", "time": "12:00pm"}, {"days": "Sun", "time": "Closed"}], "id": "4514700001", "name": "USPS COLLECTION BOX - PO LOBBY", "address": {"city": "MIAMIVILLE", "state": "OH", "street": "352 CENTER ST", "postcode": "45147"}}},
{"geometry": {"type": "Point", "coordinates": [-84.2997741674, 39.2124980933]}, "type": "Feature", "properties": {"collection_times": [{"days": "Mon-Fri", "time": "4:00pm"}, {"days": "Sat", "time": "11:30am"}, {"days": "Sun", "time": "Closed"}], "id": "4514700002", "name": "USPS COLLECTION BOX - BLUE BOX", "address": {"city": "MIAMIVILLE", "state": "OH", "street": "352 CENTER ST", "postcode": "45147"}}},
{"geometry": {"type": "Point", "coordinates": [-84.2709691166, 39.1842336547]}, "type": "Feature", "properties": {"collection_times": [{"days": "Mon-Fri", "time": "5:00pm"}, {"days": "Sat", "time": "1:30pm"}, {"days": "Sun", "time": "Closed"}], "id": "4515000002", "name": "USPS COLLECTION BOX - BLUE BOX", "address": {"city": "MILFORD", "state": "OH", "street": "100 CASTLEBERRY CT", "postcode": "45150"}}},
{"geometry": {"type": "Point", "coordinates": [-84.2709691166, 39.1842336547]}, "type": "Feature", "properties": {"collection_times": [{"days": "Mon-Fri", "time": "5:00pm"}, {"days": "Sat", "time": "1:30pm"}, {"days": "Sun", "time": "Closed"}], "id": "4515000003", "name": "USPS COLLECTION BOX - BLUE BOX", "address": {"city": "MILFORD", "state": "OH", "street": "100 CASTLEBERRY CT", "postcode": "45150"}}},
{"geometry": {"type": "Point", "coordinates": [-84.2709691166, 39.1842336547]}, "type": "Feature", "properties": {"collection_times": [{"days": "Mon-Fri", "time": "5:00pm"}, {"days": "Sat", "time": "1:30pm"}, {"days": "Sun", "time": "Closed"}], "id": "4515000004", "name": "USPS COLLECTION BOX - BLUE BOX", "address": {"city": "MILFORD", "state": "OH", "street": "100 CASTLEBERRY CT", "postcode": "45150"}}},
{"geometry": {"type": "Point", "coordinates": [-84.2518785248, 39.1557006845]}, "type": "Feature", "properties": {"collection_times": [{"days": "Mon-Fri", "time": "3:15pm"}, {"days": "Sat", "time": "10:00am"}, {"days": "Sun", "time": "Closed"}], "id": "4515000010", "name": "USPS COLLECTION BOX - BLUE BOX", "address": {"city": "MILFORD", "state": "OH", "street": "2001 FORD CIR", "postcode": "45150"}}},
{"geometry": {"type": "Point", "coordinates": [-84.253889555, 39.1535547969]}, "type": "Feature", "properties": {"collection_times": [{"days": "Mon-Fri", "time": "3:15pm"}, {"days": "Sat", "time": "10:00am"}, {"days": "Sun", "time": "Closed"}], "id": "4515000013", "name": "USPS COLLECTION BOX - BLUE BOX", "address": {"city": "MILFORD", "state": "OH", "street": "100 TECHNE CENTER DR", "postcode": "45150"}}},
{"geometry": {"type": "Point", "coordinates": [-84.2791877093, 39.1747187915]}, "type": "Feature", "properties": {"collection_times": [{"days": "Mon-Fri", "time": "3:00pm"}, {"days": "Sat", "time": "10:00am"}, {"days": "Sun", "time": "Closed"}], "id": "4515000015", "name": "USPS COLLECTION BOX - BLUE BOX", "address": {"city": "MILFORD", "state": "OH", "street": "933 LILA AVE", "postcode": "45150"}}},
{"geometry": {"type": "Point", "coordinates": [-84.2791877093, 39.1747187915]}, "type": "Feature", "properties": {"collection_times": [{"days": "Mon-Fri", "time": "3:00pm"}, {"days": "Sat", "time": "10:00am"}, {"days": "Sun", "time": "Closed"}], "id": "4515000017", "name": "USPS COLLECTION BOX - BLUE BOX", "address": {"city": "MILFORD", "state": "OH", "street": "933 LILA AVE", "postcode": "45150"}}},
{"geometry": {"type": "Point", "coordinates": [-84.2658060691, 39.1764282706]}, "type": "Feature", "properties": {"collection_times": [{"days": "Mon-Sat", "time": "12:00pm"}, {"days": "Sun", "time": "Closed"}], "id": "4515000023", "name": "USPS COLLECTION BOX - BLUE BOX", "address": {"city": "MILFORD", "state": "OH", "street": "826 STATE ROUTE 131", "postcode": "45150"}}},
{"geometry": {"type": "Point", "coordinates": [-84.2709792805, 39.1745386506]}, "type": "Feature", "properties": {"collection_times": [{"days": "Mon-Fri", "time": "3:00pm"}, {"days": "Sat", "time": "9:30am"}, {"days": "Sun", "time": "Closed"}], "id": "4515000024", "name": "USPS COLLECTION BOX - BLUE BOX", "address": {"city": "MILFORD", "state": "OH", "street": "400 MILFORD PKWY", "postcode": "45150"}}},
{"geometry": {"type": "Point", "coordinates": [-84.2567495028, 39.1541803126]}, "type": "Feature", "properties": {"collection_times": [{"days": "Mon-Fri", "time": "3:00pm"}, {"days": "Sat", "time": "10:00am"}, {"days": "Sun", "time": "Closed"}], "id": "4515000025", "name": "USPS COLLECTION BOX - BLUE BOX", "address": {"city": "MILFORD", "state": "OH", "street": "55 W TECHNE CENTER DR", "postcode": "45150"}}},
{"geometry": {"type": "Point", "coordinates": [-84.2961945335, 39.1728985419]}, "type": "Feature", "properties": {"collection_times": [{"days": "Mon-Sat", "time": "11:30am"}, {"days": "Sun", "time": "Closed"}], "id": "4515000030", "name": "USPS COLLECTION BOX - BLUE BOX", "address": {"city": "MILFORD", "state": "OH", "street": "101 MAIN ST", "postcode": "45150"}}},
{"geometry": {"type": "Point", "coordinates": [-84.2953771089, 39.174710835]}, "type": "Feature", "properties": {"collection_times": [{"days": "Mon-Sat", "time": "11:30am"}, {"days": "Sun", "time": "Closed"}], "id": "4515000031", "name": "USPS COLLECTION BOX - BLUE BOX", "address": {"city": "MILFORD", "state": "OH", "street": "235 MAIN ST", "postcode": "45150"}}},
{"geometry": {"type": "Point", "coordinates": [-84.2549210586, 39.190625278]}, "type": "Feature", "properties": {"collection_times": [{"days": "Mon-Sat", "time": "9:00am"}, {"days": "Sun", "time": "Closed"}], "id": "4515000038", "name": "USPS COLLECTION BOX - BLUE BOX", "address": {"city": "MILFORD", "state": "OH", "street": "931 STATE ROUTE 28", "postcode": "45150"}}},
{"geometry": {"type": "Point", "coordinates": [-84.2313564122, 39.1966261936]}, "type": "Feature", "properties": {"collection_times": [{"days": "Mon-Sat", "time": "10:00am"}, {"days": "Sun", "time": "Closed"}], "id": "4515000039", "name": "USPS COLLECTION BOX - BLUE BOX", "address": {"city": "MILFORD", "state": "OH", "street": "1093 STATE ROUTE 28", "postcode": "45150"}}},
{"geometry": {"type": "Point", "coordinates": [-84.2424743718, 39.1754757929]}, "type": "Feature", "properties": {"collection_times": [{"days": "Mon-Sat", "time": "12:00pm"}, {"days": "Sun", "time": "Closed"}], "id": "4515000040", "name": "USPS COLLECTION BOX - BLUE BOX", "address": {"city": "MILFORD", "state": "OH", "street": "1137 STATE ROUTE 131", "postcode": "45150"}}},
{"geometry": {"type": "Point", "coordinates": [-84.2731625917, 39.1822885601]}, "type": "Feature", "properties": {"collection_times": [{"days": "Mon-Sat", "time": "9:30am"}, {"days": "Sun", "time": "Closed"}], "id": "4515000041", "name": "USPS COLLECTION BOX - BLUE BOX", "address": {"city": "MILFORD", "state": "OH", "street": "1145 MAIN ST", "postcode": "45150"}}},
{"geometry": {"type": "Point", "coordinates": [-84.2660269023, 39.1888915847]}, "type": "Feature", "properties": {"collection_times": [{"days": "Mon-Sat", "time": "10:00am"}, {"days": "Sun", "time": "Closed"}], "id": "4515000042", "name": "USPS COLLECTION BOX - BLUE BOX", "address": {"city": "MILFORD", "state": "OH", "street": "5718 SIGNAL HILL CT STE B", "postcode": "45150"}}},
{"geometry": {"type": "Point", "coordinates": [-84.2709691166, 39.1842336547]}, "type": "Feature", "properties": {"collection_times": [{"days": "Mon-Fri", "time": "5:00pm"}, {"days": "Sat", "time": "1:30pm"}, {"days": "Sun", "time": "Closed"}], "id": "4515000046", "name": "USPS COLLECTION BOX - PO LOBBY", "address": {"city": "MILFORD", "state": "OH", "street": "100 CASTLEBERRY CT", "postcode": "45150"}}},
{"geometry": {"type": "Point", "coordinates": [-84.2335233462, 39.1671178339]}, "type": "Feature", "properties": {"collection_times": [{"days": "Mon-Sat", "time": "10:00am"}, {"days": "Sun", "time": "Closed"}], "id": "4515000047", "name": "USPS COLLECTION BOX - BLUE BOX", "address": {"city": "MILFORD", "state": "OH", "street": "6227 WATCHCREEK WAY", "postcode": "45150"}}},
{"geometry": {"type": "Point", "coordinates": [-84.2814013773, 39.1753603503]}, "type": "Feature", "properties": {"collection_times": [{"days": "Mon-Fri", "time": "3:00pm"}, {"days": "Sat", "time": "10:00am"}, {"days": "Sun", "time": "Closed"}], "id": "4515000048", "name": "USPS COLLECTION BOX - BLUE BOX", "address": {"city": "MILFORD", "state": "OH", "street": "869 LILA AVE", "postcode": "45150"}}},
{"geometry": {"type": "Point", "coordinates": [-82.7112131521, 40.4130547318]}, "type": "Feature", "properties": {"collection_times": [{"days": "Mon-Fri", "time": "3:00pm"}, {"days": "Sat", "time": "10:00am"}, {"days": "Sun", "time": "Closed"}], "id": "4515000050", "name": "USPS COLLECTION BOX - BLUE BOX", "address": {"city": "MILFORD", "state": "OH", "street": "300 TECHNE CENTER DR", "postcode": "45150"}}},
{"geometry": {"type": "Point", "coordinates": [-84.254688036, 39.1535530344]}, "type": "Feature", "properties": {"collection_times": [{"days": "Mon-Fri", "time": "3:15pm"}, {"days": "Sat", "time": "10:00am"}, {"days": "Sun", "time": "Closed"}], "id": "4515000051", "name": "USPS COLLECTION BOX - BLUE BOX", "address": {"city": "MILFORD", "state": "OH", "street": "400 TECHNE CENTER DR", "postcode": "45150"}}},
{"geometry": {"type": "Point", "coordinates": [-84.2709691166, 39.1842336547]}, "type": "Feature", "properties": {"collection_times": [{"days": "Mon-Fri", "time": "5:00pm"}, {"days": "Sat", "time": "1:30pm"}, {"days": "Sun", "time": "Closed"}], "id": "4515000052", "name": "USPS COLLECTION BOX - PO LOBBY", "address": {"city": "MILFORD", "state": "OH", "street": "100 CASTLEBERRY CT", "postcode": "45150"}}},
{"geometry": {"type": "Point", "coordinates": [-84.2709691166, 39.1842336547]}, "type": "Feature", "properties": {"collection_times": [{"days": "Mon-Fri", "time": "5:00pm"}, {"days": "Sat", "time": "1:30pm"}, {"days": "Sun", "time": "Closed"}], "id": "4515000053", "name": "USPS COLLECTION BOX - PO LOBBY", "address": {"city": "MILFORD", "state": "OH", "street": "100 CASTLEBERRY CT", "postcode": "45150"}}},
{"geometry": {"type": "Point", "coordinates": [-84.2709691166, 39.1842336547]}, "type": "Feature", "properties": {"collection_times": [{"days": "Mon-Fri", "time": "5:00pm"}, {"days": "Sat", "time": "1:30pm"}, {"days": "Sun", "time": "Closed"}], "id": "4515000054", "name": "USPS COLLECTION BOX - APC", "address": {"city": "MILFORD", "state": "OH", "street": "100 CASTLEBERRY CT", "postcode": "45150"}}},
{"geometry": {"type": "Point", "coordinates": [-84.1422446198, 39.3561012673]}, "type": "Feature", "properties": {"collection_times": [{"days": "Mon-Fri", "time": "4:30pm"}, {"days": "Sat", "time": "12:00pm"}, {"days": "Sun", "time": "Closed"}], "id": "4515200002", "name": "USPS COLLECTION BOX - BLUE BOX", "address": {"city": "MORROW", "state": "OH", "street": "531 W PIKE ST", "postcode": "45152"}}},
{"geometry": {"type": "Point", "coordinates": [-84.1422446198, 39.3561012673]}, "type": "Feature", "properties": {"collection_times": [{"days": "Mon-Fri", "time": "5:00pm"}, {"days": "Sat", "time": "12:00pm"}, {"days": "Sun", "time": "Closed"}], "id": "4515200003", "name": "USPS COLLECTION BOX - PO LOBBY", "address": {"city": "MORROW", "state": "OH", "street": "531 W PIKE ST", "postcode": "45152"}}},
{"geometry": {"type": "Point", "coordinates": [-84.2294661463, 38.8561292833]}, "type": "Feature", "properties": {"collection_times": [{"days": "Mon-Fri", "time": "2:00pm"}, {"days": "Sat", "time": "11:00am"}, {"days": "Sun", "time": "Closed"}], "id": "4515300001", "name": "USPS COLLECTION BOX - BLUE BOX", "address": {"city": "MOSCOW", "state": "OH", "street": "30 WELLS ST", "postcode": "45153"}}},
{"geometry": {"type": "Point", "coordinates": [-84.2294661463, 38.8561292833]}, "type": "Feature", "properties": {"collection_times": [{"days": "Mon-Fri", "time": "3:45pm"}, {"days": "Sat", "time": "11:00am"}, {"days": "Sun", "time": "Closed"}], "id": "4515300002", "name": "USPS COLLECTION BOX - PO LOBBY", "address": {"city": "MOSCOW", "state": "OH", "street": "30 WELLS ST", "postcode": "45153"}}},
{"geometry": {"type": "Point", "coordinates": [-83.9191711066, 39.0276249766]}, "type": "Feature", "properties": {"collection_times": [{"days": "Mon-Fri", "time": "4:45pm"}, {"days": "Sat", "time": "11:45am"}, {"days": "Sun", "time": "Closed"}], "id": "4515400000", "name": "USPS COLLECTION BOX - BLUE BOX", "address": {"city": "MOUNT ORAB", "state": "OH", "street": "202 E MAIN ST", "postcode": "45154"}}},
{"geometry": {"type": "Point", "coordinates": [-83.9191711066, 39.0276249766]}, "type": "Feature", "properties": {"collection_times": [{"days": "Mon-Fri", "time": "5:00pm"}, {"days": "Sat", "time": "12:00pm"}, {"days": "Sun", "time": "Closed"}], "id": "4515400001", "name": "USPS COLLECTION BOX - PO LOBBY", "address": {"city": "MOUNT ORAB", "state": "OH", "street": "202 E MAIN ST", "postcode": "45154"}}},
{"geometry": {"type": "Point", "coordinates": [-83.7485469985, 39.0384665749]}, "type": "Feature", "properties": {"collection_times": [{"days": "Mon-Fri", "time": "4:00pm"}, {"days": "Sat", "time": "11:45am"}, {"days": "Sun", "time": "Closed"}], "id": "4515500000", "name": "USPS COLLECTION BOX - PO LOBBY", "address": {"city": "MOWRYSTOWN", "state": "OH", "street": "2 W MAIN ST", "postcode": "45155"}}},
{"geometry": {"type": "Point", "coordinates": [-83.7485469985, 39.0384665749]}, "type": "Feature", "properties": {"collection_times": [{"days": "Mon-Fri", "time": "4:00pm"}, {"days": "Sat", "time": "11:30am"}, {"days": "Sun", "time": "Closed"}], "id": "4515500001", "name": "USPS COLLECTION BOX - BLUE BOX", "address": {"city": "MOWRYSTOWN", "state": "OH", "street": "2 W MAIN ST", "postcode": "45155"}}},
{"geometry": {"type": "Point", "coordinates": [-84.2115722178, 38.8093556431]}, "type": "Feature", "properties": {"collection_times": [{"days": "Mon-Fri", "time": "1:15pm"}, {"days": "Sat", "time": "11:00am"}, {"days": "Sun", "time": "Closed"}], "id": "4515600000", "name": "USPS COLLECTION BOX - BLUE BOX", "address": {"city": "NEVILLE", "state": "OH", "street": "406 MAIN ST", "postcode": "45156"}}},
{"geometry": {"type": "Point", "coordinates": [-84.2115722178, 38.8093556431]}, "type": "Feature", "properties": {"collection_times": [{"days": "Mon-Fri", "time": "1:30pm"}, {"days": "Sat", "time": "11:15am"}, {"days": "Sun", "time": "Closed"}], "id": "4515600001", "name": "USPS COLLECTION BOX - PO LOBBY", "address": {"city": "NEVILLE", "state": "OH", "street": "406 MAIN ST", "postcode": "45156"}}},
{"geometry": {"type": "Point", "coordinates": [-84.2476678397, 38.9526825254]}, "type": "Feature", "properties": {"collection_times": [{"days": "Mon-Sat", "time": "10:00am"}, {"days": "Sun", "time": "Closed"}], "id": "4515700000", "name": "USPS COLLECTION BOX - BLUE BOX", "address": {"city": "NEW RICHMOND", "state": "OH", "street": "1041 OLD US 52", "postcode": "45157"}}},
{"geometry": {"type": "Point", "coordinates": [-84.2832550873, 38.9503474442]}, "type": "Feature", "properties": {"collection_times": [{"days": "Mon-Sat", "time": "10:00am"}, {"days": "Sun", "time": "Closed"}], "id": "4515700001", "name": "USPS COLLECTION BOX - BLUE BOX", "address": {"city": "NEW RICHMOND", "state": "OH", "street": "128 FRONT ST", "postcode": "45157"}}},
{"geometry": {"type": "Point", "coordinates": [-84.2844955874, 38.9563221705]}, "type": "Feature", "properties": {"collection_times": [{"days": "Mon-Fri", "time": "4:45pm"}, {"days": "Sat", "time": "12:15pm"}, {"days": "Sun", "time": "Closed"}], "id": "4515700002", "name": "USPS COLLECTION BOX - BLUE BOX", "address": {"city": "NEW RICHMOND", "state": "OH", "street": "501 MARKET ST", "postcode": "45157"}}},
{"geometry": {"type": "Point", "coordinates": [-84.2844955874, 38.9563221705]}, "type": "Feature", "properties": {"collection_times": [{"days": "Mon-Fri", "time": "5:00pm"}, {"days": "Sat", "time": "1:00pm"}, {"days": "Sun", "time": "Closed"}], "id": "4515700003", "name": "USPS COLLECTION BOX - PO LOBBY", "address": {"city": "NEW RICHMOND", "state": "OH", "street": "501 MARKET ST", "postcode": "45157"}}},
{"geometry": {"type": "Point", "coordinates": [-84.0799054898, 39.1816787351]}, "type": "Feature", "properties": {"collection_times": [{"days": "Mon-Fri", "time": "4:00pm"}, {"days": "Sat", "time": "11:15am"}, {"days": "Sun", "time": "Closed"}], "id": "4515800001", "name": "USPS COLLECTION BOX - BLUE BOX", "address": {"city": "NEWTONSVILLE", "state": "OH", "street": "854 WRIGHT ST", "postcode": "45158"}}},
{"geometry": {"type": "Point", "coordinates": [-84.0799054898, 39.1816787351]}, "type": "Feature", "properties": {"collection_times": [{"days": "Mon-Fri", "time": "4:00pm"}, {"days": "Sat", "time": "11:15am"}, {"days": "Sun", "time": "Closed"}], "id": "4515800002", "name": "USPS COLLECTION BOX - PO LOBBY", "address": {"city": "NEWTONSVILLE", "state": "OH", "street": "854 WRIGHT ST", "postcode": "45158"}}},
{"geometry": {"type": "Point", "coordinates": [-83.6920101584, 39.3237221531]}, "type": "Feature", "properties": {"collection_times": [{"days": "Mon-Fri", "time": "4:00pm"}, {"days": "Sat", "time": "11:30am"}, {"days": "Sun", "time": "Closed"}], "id": "4515900001", "name": "USPS COLLECTION BOX - BLUE BOX", "address": {"city": "NEW VIENNA", "state": "OH", "street": "209 W MAIN ST", "postcode": "45159"}}},
{"geometry": {"type": "Point", "coordinates": [-83.6956639039, 39.3265695765]}, "type": "Feature", "properties": {"collection_times": [{"days": "Mon-Sat", "time": "9:00am"}, {"days": "Sun", "time": "Closed"}], "id": "4515900002", "name": "USPS COLLECTION BOX - BLUE BOX", "address": {"city": "NEW VIENNA", "state": "OH", "street": "299 N SOUTH ST", "postcode": "45159"}}},
{"geometry": {"type": "Point", "coordinates": [-83.6920101584, 39.3237221531]}, "type": "Feature", "properties": {"collection_times": [{"days": "Mon-Fri", "time": "4:00pm"}, {"days": "Sat", "time": "11:30am"}, {"days": "Sun", "time": "Closed"}], "id": "4515900003", "name": "USPS COLLECTION BOX - PO LOBBY", "address": {"city": "NEW VIENNA", "state": "OH", "street": "209 W MAIN ST", "postcode": "45159"}}},
{"geometry": {"type": "Point", "coordinates": [-84.1404987035, 39.1219403914]}, "type": "Feature", "properties": {"collection_times": [{"days": "Mon-Fri", "time": "4:15pm"}, {"days": "Sat", "time": "11:15am"}, {"days": "Sun", "time": "Closed"}], "id": "4516000002", "name": "USPS COLLECTION BOX - BLUE BOX", "address": {"city": "OWENSVILLE", "state": "OH", "street": "285 W MAIN ST", "postcode": "45160"}}},
{"geometry": {"type": "Point", "coordinates": [-84.1404987035, 39.1219403914]}, "type": "Feature", "properties": {"collection_times": [{"days": "Mon-Fri", "time": "4:15pm"}, {"days": "Sat", "time": "11:15am"}, {"days": "Sun", "time": "Closed"}], "id": "4516000003", "name": "USPS COLLECTION BOX - PO LOBBY", "address": {"city": "OWENSVILLE", "state": "OH", "street": "285 W MAIN ST", "postcode": "45160"}}},
{"geometry": {"type": "Point", "coordinates": [-84.1404987035, 39.1219403914]}, "type": "Feature", "properties": {"collection_times": [{"days": "Mon-Fri", "time": "4:15pm"}, {"days": "Sat", "time": "11:15am"}, {"days": "Sun", "time": "Closed"}], "id": "4516000004", "name": "USPS COLLECTION BOX - PO LOBBY", "address": {"city": "OWENSVILLE", "state": "OH", "street": "285 W MAIN ST", "postcode": "45160"}}},
{"geometry": {"type": "Point", "coordinates": [-84.1404987035, 39.1219403914]}, "type": "Feature", "properties": {"collection_times": [{"days": "Mon-Fri", "time": "4:15pm"}, {"days": "Sat", "time": "11:15am"}, {"days": "Sun", "time": "Closed"}], "id": "4516000005", "name": "USPS COLLECTION BOX - PO LOBBY", "address": {"city": "OWENSVILLE", "state": "OH", "street": "285 W MAIN ST", "postcode": "45160"}}},
{"geometry": {"type": "Point", "coordinates": [-84.1126130199, 39.2794214806]}, "type": "Feature", "properties": {"collection_times": [{"days": "Mon-Fri", "time": "4:00pm"}, {"days": "Sat", "time": "11:45am"}, {"days": "Sun", "time": "Closed"}], "id": "4516200000", "name": "USPS COLLECTION BOX - BLUE BOX", "address": {"city": "PLEASANT PLAIN", "state": "OH", "street": "10069 STATE ROUTE 132", "postcode": "45162"}}},
{"geometry": {"type": "Point", "coordinates": [-84.1126130199, 39.2794214806]}, "type": "Feature", "properties": {"collection_times": [{"days": "Mon-Fri", "time": "4:00pm"}, {"days": "Sat", "time": "11:45am"}, {"days": "Sun", "time": "Closed"}], "id": "4516200001", "name": "USPS COLLECTION BOX - PO LOBBY", "address": {"city": "PLEASANT PLAIN", "state": "OH", "street": "10069 STATE ROUTE 132", "postcode": "45162"}}},
{"geometry": {"type": "Point", "coordinates": [-83.7860898771, 39.5522093025]}, "type": "Feature", "properties": {"collection_times": [{"days": "Mon-Fri", "time": "12:00pm"}, {"days": "Sat", "time": "11:00am"}, {"days": "Sun", "time": "Closed"}], "id": "4516400000", "name": "USPS COLLECTION BOX - PO LOBBY", "address": {"city": "PORT WILLIAM", "state": "OH", "street": "227 MAIN ST", "postcode": "45164"}}},
{"geometry": {"type": "Point", "coordinates": [-83.6365663154, 39.4888702287]}, "type": "Feature", "properties": {"collection_times": [{"days": "Mon-Fri", "time": "4:30pm"}, {"days": "Sat", "time": "11:30am"}, {"days": "Sun", "time": "Closed"}], "id": "4516600000", "name": "USPS COLLECTION BOX - BLUE BOX", "address": {"city": "REESVILLE", "state": "OH", "street": "540 N STATE ROUTE 72", "postcode": "45166"}}},
{"geometry": {"type": "Point", "coordinates": [-83.6365663154, 39.4888702287]}, "type": "Feature", "properties": {"collection_times": [{"days": "Mon-Fri", "time": "4:30pm"}, {"days": "Sat", "time": "11:30am"}, {"days": "Sun", "time": "Closed"}], "id": "4516600001", "name": "USPS COLLECTION BOX - PO LOBBY", "address": {"city": "REESVILLE", "state": "OH", "street": "540 N STATE ROUTE 72", "postcode": "45166"}}},
{"geometry": {"type": "Point", "coordinates": [-83.8421051993, 38.7405187191]}, "type": "Feature", "properties": {"collection_times": [{"days": "Mon-Fri", "time": "4:00pm"}, {"days": "Sat", "time": "11:30am"}, {"days": "Sun", "time": "Closed"}], "id": "4516700001", "name": "USPS COLLECTION BOX - BLUE BOX", "address": {"city": "RIPLEY", "state": "OH", "street": "100 S 2ND ST", "postcode": "45167"}}},
{"geometry": {"type": "Point", "coordinates": [-83.8421051993, 38.7405187191]}, "type": "Feature", "properties": {"collection_times": [{"days": "Mon-Fri", "time": "4:00pm"}, {"days": "Sat", "time": "11:30am"}, {"days": "Sun", "time": "Closed"}], "id": "4516700007", "name": "USPS COLLECTION BOX - PO LOBBY", "address": {"city": "RIPLEY", "state": "OH", "street": "100 S 2ND ST", "postcode": "45167"}}},
{"geometry": {"type": "Point", "coordinates": [-83.7871274293, 38.8668993127]}, "type": "Feature", "properties": {"collection_times": [{"days": "Mon-Fri", "time": "12:00pm"}, {"days": "Sat", "time": "11:00am"}, {"days": "Sun", "time": "Closed"}], "id": "4516800000", "name": "USPS COLLECTION BOX - BLUE BOX", "address": {"city": "RUSSELLVILLE", "state": "OH", "street": "6 E MAIN ST", "postcode": "45168"}}},
{"geometry": {"type": "Point", "coordinates": [-83.7618484298, 38.8571532344]}, "type": "Feature", "properties": {"collection_times": [{"days": "Mon-Sat", "time": "1:30pm"}, {"days": "Sun", "time": "Closed"}], "id": "4516800004", "name": "USPS COLLECTION BOX - BLUE BOX", "address": {"city": "RUSSELLVILLE", "state": "OH", "street": "10192 STATE ROUTE 125", "postcode": "45168"}}},
{"geometry": {"type": "Point", "coordinates": [-83.636662029, 39.4887737805]}, "type": "Feature", "properties": {"collection_times": [{"days": "Mon-Fri", "time": "4:30pm"}, {"days": "Sat", "time": "12:00pm"}, {"days": "Sun", "time": "Closed"}], "id": "4516900000", "name": "USPS COLLECTION BOX - PO LOBBY", "address": {"city": "SABINA", "state": "OH", "street": "39 N HOWARD ST", "postcode": "45169"}}},
{"geometry": {"type": "Point", "coordinates": [-83.636662029, 39.4887737805]}, "type": "Feature", "properties": {"collection_times": [{"days": "Mon-Fri", "time": "4:30pm"}, {"days": "Sat", "time": "12:00pm"}, {"days": "Sun", "time": "Closed"}], "id": "4516900001", "name": "USPS COLLECTION BOX - BLUE BOX", "address": {"city": "SABINA", "state": "OH", "street": "39 N HOWARD ST", "postcode": "45169"}}},
{"geometry": {"type": "Point", "coordinates": [-83.809614763, 39.0081640076]}, "type": "Feature", "properties": {"collection_times": [{"days": "Mon-Fri", "time": "4:30pm"}, {"days": "Sat", "time": "11:30am"}, {"days": "Sun", "time": "Closed"}], "id": "4517100001", "name": "USPS COLLECTION BOX - BLUE BOX", "address": {"city": "SARDINIA", "state": "OH", "street": "104 BROAD ST", "postcode": "45171"}}},
{"geometry": {"type": "Point", "coordinates": [-83.8094591249, 39.0141932612]}, "type": "Feature", "properties": {"collection_times": [{"days": "Mon-Sat", "time": "1:00pm"}, {"days": "Sun", "time": "Closed"}], "id": "4517100004", "name": "USPS COLLECTION BOX - BLUE BOX", "address": {"city": "SARDINIA", "state": "OH", "street": "7110 BACHMAN RD", "postcode": "45171"}}},
{"geometry": {"type": "Point", "coordinates": [-83.809614763, 39.0081640076]}, "type": "Feature", "properties": {"collection_times": [{"days": "Mon-Fri", "time": "4:30pm"}, {"days": "Sat", "time": "11:30am"}, {"days": "Sun", "time": "Closed"}], "id": "4517100005", "name": "USPS COLLECTION BOX - PO LOBBY", "address": {"city": "SARDINIA", "state": "OH", "street": "104 BROAD ST", "postcode": "45171"}}},
{"geometry": {"type": "Point", "coordinates": [-83.3865939885, 39.0710713982]}, "type": "Feature", "properties": {"collection_times": [{"days": "Mon-Sat", "time": "10:00am"}, {"days": "Sun", "time": "Closed"}], "id": "4517200001", "name": "USPS COLLECTION BOX - BLUE BOX", "address": {"city": "SINKING SPRING", "state": "OH", "street": "103 S MAIN ST", "postcode": "45172"}}},
{"geometry": {"type": "Point", "coordinates": [-83.3865939885, 39.0710713982]}, "type": "Feature", "properties": {"collection_times": [{"days": "Mon-Sat", "time": "10:00am"}, {"days": "Sun", "time": "Closed"}], "id": "4517200002", "name": "USPS COLLECTION BOX - PO LOBBY", "address": {"city": "SINKING SPRING", "state": "OH", "street": "103 S MAIN ST", "postcode": "45172"}}},
{"geometry": {"type": "Point", "coordinates": [-84.3082062989, 39.1629557718]}, "type": "Feature", "properties": {"collection_times": [{"days": "Mon-Fri", "time": "5:00pm"}, {"days": "Sat", "time": "12:00pm"}, {"days": "Sun", "time": "Closed"}], "id": "4517400001", "name": "USPS COLLECTION BOX - BLUE BOX", "address": {"city": "TERRACE PARK", "state": "OH", "street": "409 TERRACE PL", "postcode": "45174"}}},
{"geometry": {"type": "Point", "coordinates": [-84.309260642, 39.1653913828]}, "type": "Feature", "properties": {"collection_times": [{"days": "Mon-Sat", "time": "10:00am"}, {"days": "Sun", "time": "Closed"}], "id": "4517400006", "name": "USPS COLLECTION BOX - BLUE BOX", "address": {"city": "TERRACE PARK", "state": "OH", "street": "705 WOOSTER PIKE", "postcode": "45174"}}},
{"geometry": {"type": "Point", "coordinates": [-84.3082062989, 39.1629557718]}, "type": "Feature", "properties": {"collection_times": [{"days": "Mon-Fri", "time": "5:00pm"}, {"days": "Sat", "time": "12:00pm"}, {"days": "Sun", "time": "Closed"}], "id": "4517400008", "name": "USPS COLLECTION BOX - PO LOBBY", "address": {"city": "TERRACE PARK", "state": "OH", "street": "409 TERRACE PL", "postcode": "45174"}}},
{"geometry": {"type": "Point", "coordinates": [-84.0589477171, 39.0572494026]}, "type": "Feature", "properties": {"collection_times": [{"days": "Mon-Sat", "time": "12:30pm"}, {"days": "Sun", "time": "Closed"}], "id": "4517600001", "name": "USPS COLLECTION BOX - BLUE BOX", "address": {"city": "WILLIAMSBURG", "state": "OH", "street": "609 W MAIN ST", "postcode": "45176"}}},
{"geometry": {"type": "Point", "coordinates": [-84.0539163139, 39.05461516]}, "type": "Feature", "properties": {"collection_times": [{"days": "Mon-Fri", "time": "5:00pm"}, {"days": "Sat", "time": "12:30pm"}, {"days": "Sun", "time": "Closed"}], "id": "4517600002", "name": "USPS COLLECTION BOX - PO LOBBY", "address": {"city": "WILLIAMSBURG", "state": "OH", "street": "332 W MAIN ST", "postcode": "45176"}}},
{"geometry": {"type": "Point", "coordinates": [-84.0248559577, 39.0672907354]}, "type": "Feature", "properties": {"collection_times": [{"days": "Mon-Fri", "time": "2:30pm"}, {"days": "Sat", "time": "12:30pm"}, {"days": "Sun", "time": "Closed"}], "id": "4517600003", "name": "USPS COLLECTION BOX - BLUE BOX", "address": {"city": "WILLIAMSBURG", "state": "OH", "street": "102 W MAIN ST", "postcode": "45176"}}},
{"geometry": {"type": "Point", "coordinates": [-83.8267586618, 39.4453145105]}, "type": "Feature", "properties": {"collection_times": [{"days": "Mon-Fri", "time": "3:30pm"}, {"days": "Sat", "time": "3:00pm"}, {"days": "Sun", "time": "Closed"}], "id": "4517700000", "name": "USPS COLLECTION BOX - BLUE BOX", "address": {"city": "WILMINGTON", "state": "OH", "street": "103 E MAIN ST", "postcode": "45177"}}},
{"geometry": {"type": "Point", "coordinates": [-83.8269943434, 39.4445863019]}, "type": "Feature", "properties": {"collection_times": [{"days": "Mon-Fri", "time": "3:30pm"}, {"days": "Sat", "time": "10:00am"}, {"days": "Sun", "time": "Closed"}], "id": "4517700009", "name": "USPS COLLECTION BOX - BLUE BOX", "address": {"city": "WILMINGTON", "state": "OH", "street": "43 S WALNUT ST", "postcode": "45177"}}},
{"geometry": {"type": "Point", "coordinates": [-83.8301275641, 39.4342756559]}, "type": "Feature", "properties": {"collection_times": [{"days": "Mon-Sat", "time": "3:00pm"}, {"days": "Sun", "time": "Closed"}], "id": "4517700015", "name": "USPS COLLECTION BOX - BLUE BOX", "address": {"city": "WILMINGTON", "state": "OH", "street": "953 S SOUTH ST", "postcode": "45177"}}},
{"geometry": {"type": "Point", "coordinates": [-83.8483581074, 39.4474933162]}, "type": "Feature", "properties": {"collection_times": [{"days": "Mon-Sat", "time": "10:00am"}, {"days": "Sun", "time": "Closed"}], "id": "4517700040", "name": "USPS COLLECTION BOX - BLUE BOX", "address": {"city": "WILMINGTON", "state": "OH", "street": "1052 W LOCUST ST", "postcode": "45177"}}},
{"geometry": {"type": "Point", "coordinates": [-83.8034165467, 39.4524862756]}, "type": "Feature", "properties": {"collection_times": [{"days": "Mon-Fri", "time": "5:00pm"}, {"days": "Sat", "time": "4:00pm"}, {"days": "Sun", "time": "Closed"}], "id": "4517700045", "name": "USPS COLLECTION BOX - BLUE BOX", "address": {"city": "WILMINGTON", "state": "OH", "street": "1515 ALEX DR", "postcode": "45177"}}},
{"geometry": {"type": "Point", "coordinates": [-83.8034165467, 39.4524862756]}, "type": "Feature", "properties": {"collection_times": [{"days": "Mon-Fri", "time": "5:00pm"}, {"days": "Sat", "time": "4:00pm"}, {"days": "Sun", "time": "Closed"}], "id": "4517700048", "name": "USPS COLLECTION BOX - PO LOBBY", "address": {"city": "WILMINGTON", "state": "OH", "street": "1515 ALEX DR", "postcode": "45177"}}},
{"geometry": {"type": "Point", "coordinates": [-83.8034165467, 39.4524862756]}, "type": "Feature", "properties": {"collection_times": [{"days": "Mon-Fri", "time": "5:00pm"}, {"days": "Sat", "time": "4:00pm"}, {"days": "Sun", "time": "Closed"}], "id": "4517700049", "name": "USPS COLLECTION BOX - PO LOBBY", "address": {"city": "WILMINGTON", "state": "OH", "street": "1515 ALEX DR", "postcode": "45177"}}},
{"geometry": {"type": "Point", "coordinates": [-83.8034165467, 39.4524862756]}, "type": "Feature", "properties": {"collection_times": [{"days": "Mon-Fri", "time": "5:00pm"}, {"days": "Sat", "time": "4:00pm"}, {"days": "Sun", "time": "Closed"}], "id": "4517700050", "name": "USPS COLLECTION BOX - PO LOBBY", "address": {"city": "WILMINGTON", "state": "OH", "street": "1515 ALEX DR", "postcode": "45177"}}},
{"geometry": {"type": "Point", "coordinates": [-83.8301275641, 39.4342756559]}, "type": "Feature", "properties": {"collection_times": [{"days": "Mon-Sat", "time": "3:00pm"}, {"days": "Sun", "time": "Closed"}], "id": "4517700051", "name": "USPS COLLECTION BOX - BLUE BOX", "address": {"city": "WILMINGTON", "state": "OH", "street": "953 S SOUTH ST", "postcode": "45177"}}},
{"geometry": {"type": "Point", "coordinates": [-83.8267586618, 39.4453145105]}, "type": "Feature", "properties": {"collection_times": [{"days": "Mon-Fri", "time": "3:30pm"}, {"days": "Sat", "time": "3:00pm"}, {"days": "Sun", "time": "Closed"}], "id": "4517700053", "name": "USPS COLLECTION BOX - BLUE BOX", "address": {"city": "WILMINGTON", "state": "OH", "street": "103 E MAIN ST", "postcode": "45177"}}}
]}
