{"type": "FeatureCollection", "features": [
{"geometry": {"type": "Point", "coordinates": [-84.0221417936, 39.7106661354]}, "type": "Feature", "properties": {"collection_times": [{"days": "Mon-Fri", "time": "5:00pm"}, {"days": "Sat", "time": "12:00pm"}, {"days": "Sun", "time": "Closed"}], "id": "4530100000", "name": "USPS COLLECTION BOX - BLUE BOX", "address": {"city": "ALPHA", "state": "OH", "street": "748 ALPHA RD", "postcode": "45301"}}},
{"geometry": {"type": "Point", "coordinates": [-84.0221417936, 39.7106661354]}, "type": "Feature", "properties": {"collection_times": [{"days": "Mon-Fri", "time": "5:00pm"}, {"days": "Sat", "time": "12:00pm"}, {"days": "Sun", "time": "Closed"}], "id": "4530100001", "name": "USPS COLLECTION BOX - PO LOBBY", "address": {"city": "ALPHA", "state": "OH", "street": "748 ALPHA RD", "postcode": "45301"}}},
{"geometry": {"type": "Point", "coordinates": [-84.1768115535, 40.3951224825]}, "type": "Feature", "properties": {"collection_times": [{"days": "Mon-Fri", "time": "4:00pm"}, {"days": "Sat", "time": "11:30am"}, {"days": "Sun", "time": "Closed"}], "id": "4530200000", "name": "USPS COLLECTION BOX - BLUE BOX", "address": {"city": "ANNA", "state": "OH", "street": "103 N 2ND ST", "postcode": "45302"}}},
{"geometry": {"type": "Point", "coordinates": [-84.1768115535, 40.3951224825]}, "type": "Feature", "properties": {"collection_times": [{"days": "Mon-Fri", "time": "4:30pm"}, {"days": "Sat", "time": "12:00pm"}, {"days": "Sun", "time": "Closed"}], "id": "4530200001", "name": "USPS COLLECTION BOX - PO LOBBY", "address": {"city": "ANNA", "state": "OH", "street": "103 N 2ND ST", "postcode": "45302"}}},
{"geometry": {"type": "Point", "coordinates": [-84.6368352551, 40.2155050623]}, "type": "Feature", "properties": {"collection_times": [{"days": "Mon-Fri", "time": "4:15pm"}, {"days": "Sat", "time": "12:00pm"}, {"days": "Sun", "time": "Closed"}], "id": "4530300001", "name": "USPS COLLECTION BOX - PO LOBBY", "address": {"city": "ANSONIA", "state": "OH", "street": "112 N MAIN ST", "postcode": "45303"}}},
{"geometry": {"type": "Point", "coordinates": [-84.6433370756, 40.2125342501]}, "type": "Feature", "properties": {"collection_times": [{"days": "Mon-Fri", "time": "4:15pm"}, {"days": "Sat", "time": "12:00pm"}, {"days": "Sun", "time": "Closed"}], "id": "4530300004", "name": "USPS COLLECTION BOX - BLUE BOX", "address": {"city": "ANSONIA", "state": "OH", "street": "112 N MAIN ST", "postcode": "45303"}}},
{"geometry": {"type": "Point", "coordinates": [-84.5535516941, 39.9987223538]}, "type": "Feature", "properties": {"collection_times": [{"days": "Mon-Sat", "time": "10:15am"}, {"days": "Sun", "time": "Closed"}], "id": "4530400001", "name": "USPS COLLECTION BOX - BLUE BOX", "address": {"city": "ARCANUM", "state": "OH", "street": "603 N MAIN ST", "postcode": "45304"}}},
{"geometry": {"type": "Point", "coordinates": [-84.5531268292, 39.9901835755]}, "type": "Feature", "properties": {"collection_times": [{"days": "Mon-Fri", "time": "4:30pm"}, {"days": "Sat", "time": "1:45pm"}, {"days": "Sun", "time": "Closed"}], "id": "4530400011", "name": "USPS COLLECTION BOX - BLUE BOX", "address": {"city": "ARCANUM", "state": "OH", "street": "10 S MAIN ST", "postcode": "45304"}}},
{"geometry": {"type": "Point", "coordinates": [-84.5531268292, 39.9901835755]}, "type": "Feature", "properties": {"collection_times": [{"days": "Mon-Fri", "time": "4:30pm"}, {"days": "Sat", "time": "1:45pm"}, {"days": "Sun", "time": "Closed"}], "id": "4530400013", "name": "USPS COLLECTION BOX - PO LOBBY", "address": {"city": "ARCANUM", "state": "OH", "street": "10 S MAIN ST", "postcode": "45304"}}},
{"geometry": {"type": "Point", "coordinates": [-84.5531268292, 39.9901835755]}, "type": "Feature", "properties": {"collection_times": [{"days": "Mon-Fri", "time": "4:30pm"}, {"days": "Sat", "time": "1:45pm"}, {"days": "Sun", "time": "Closed"}], "id": "4530400014", "name": "USPS COLLECTION BOX - PO LOBBY", "address": {"city": "ARCANUM", "state": "OH", "street": "10 S MAIN ST", "postcode": "45304"}}},
{"geometry": {"type": "Point", "coordinates": [-84.0748853874, 39.6362186161]}, "type": "Feature", "properties": {"collection_times": [{"days": "Mon-Sat", "time": "10:45am"}, {"days": "Sun", "time": "Closed"}], "id": "4530500001", "name": "USPS COLLECTION BOX - BLUE BOX", "address": {"city": "BELLBROOK", "state": "OH", "street": "118 W FRANKLIN ST", "postcode": "45305"}}},
{"geometry": {"type": "Point", "coordinates": [-84.1023761708, 39.6377458161]}, "type": "Feature", "properties": {"collection_times": [{"days": "Mon-Sat", "time": "10:45am"}, {"days": "Sun", "time": "Closed"}], "id": "4530500003", "name": "USPS COLLECTION BOX - BLUE BOX", "address": {"city": "BELLBROOK", "state": "OH", "street": "2010 S LAKEMAN DR", "postcode": "45305"}}},
{"geometry": {"type": "Point", "coordinates": [-84.0694203788, 39.6361702192]}, "type": "Feature", "properties": {"collection_times": [{"days": "Mon-Fri", "time": "4:30pm"}, {"days": "Sat", "time": "12:00pm"}, {"days": "Sun", "time": "Closed"}], "id": "4530500005", "name": "USPS COLLECTION BOX - BLUE BOX", "address": {"city": "BELLBROOK", "state": "OH", "street": "22 N EAST ST", "postcode": "45305"}}},
{"geometry": {"type": "Point", "coordinates": [-84.0694203788, 39.6361702192]}, "type": "Feature", "properties": {"collection_times": [{"days": "Mon-Fri", "time": "4:30pm"}, {"days": "Sat", "time": "12:00pm"}, {"days": "Sun", "time": "Closed"}], "id": "4530500006", "name": "USPS COLLECTION BOX - PO LOBBY", "address": {"city": "BELLBROOK", "state": "OH", "street": "22 N EAST ST", "postcode": "45305"}}},
{"geometry": {"type": "Point", "coordinates": [-84.1831746772, 40.467643587]}, "type": "Feature", "properties": {"collection_times": [{"days": "Mon-Fri", "time": "4:00pm"}, {"days": "Sat", "time": "12:00pm"}, {"days": "Sun", "time": "Closed"}], "id": "4530600000", "name": "USPS COLLECTION BOX - BLUE BOX", "address": {"city": "BOTKINS", "state": "OH", "street": "106 S MILL ML", "postcode": "45306"}}},
{"geometry": {"type": "Point", "coordinates": [-84.1831746772, 40.467643587]}, "type": "Feature", "properties": {"collection_times": [{"days": "Mon-Fri", "time": "4:00pm"}, {"days": "Sat", "time": "12:00pm"}, {"days": "Sun", "time": "Closed"}], "id": "4530600001", "name": "USPS COLLECTION BOX - PO LOBBY", "address": {"city": "BOTKINS", "state": "OH", "street": "106 S MILL ML", "postcode": "45306"}}},
{"geometry": {"type": "Point", "coordinates": [-83.724690826, 39.5786742807]}, "type": "Feature", "properties": {"collection_times": [{"days": "Mon-Fri", "time": "3:00pm"}, {"days": "Sat", "time": "11:15am"}, {"days": "Sun", "time": "Closed"}], "id": "4530700000", "name": "USPS COLLECTION BOX - BLUE BOX", "address": {"city": "BOWERSVILLE", "state": "OH", "street": "3180 MAYSVILLE ST", "postcode": "45307"}}},
{"geometry": {"type": "Point", "coordinates": [-83.724690826, 39.5786742807]}, "type": "Feature", "properties": {"collection_times": [{"days": "Mon-Fri", "time": "3:00pm"}, {"days": "Sat", "time": "11:15am"}, {"days": "Sun", "time": "Closed"}], "id": "4530700001", "name": "USPS COLLECTION BOX - PO LOBBY", "address": {"city": "BOWERSVILLE", "state": "OH", "street": "3180 MAYSVILLE ST", "postcode": "45307"}}},
{"geometry": {"type": "Point", "coordinates": [-84.4308680885, 40.1323883085]}, "type": "Feature", "properties": {"collection_times": [{"days": "Mon-Fri", "time": "4:15pm"}, {"days": "Sat", "time": "11:30am"}, {"days": "Sun", "time": "Closed"}], "id": "4530800000", "name": "USPS COLLECTION BOX - BLUE BOX", "address": {"city": "BRADFORD", "state": "OH", "street": "210 N MIAMI AVE", "postcode": "45308"}}},
{"geometry": {"type": "Point", "coordinates": [-84.4308680885, 40.1323883085]}, "type": "Feature", "properties": {"collection_times": [{"days": "Mon-Fri", "time": "4:15pm"}, {"days": "Sat", "time": "11:30am"}, {"days": "Sun", "time": "Closed"}], "id": "4530800002", "name": "USPS COLLECTION BOX - PO LOBBY", "address": {"city": "BRADFORD", "state": "OH", "street": "210 N MIAMI AVE", "postcode": "45308"}}},
{"geometry": {"type": "Point", "coordinates": [-84.4117710643, 39.8359788932]}, "type": "Feature", "properties": {"collection_times": [{"days": "Mon-Fri", "time": "4:30pm"}, {"days": "Sat", "time": "3:00pm"}, {"days": "Sun", "time": "Closed"}], "id": "4530900000", "name": "USPS COLLECTION BOX - BLUE BOX", "address": {"city": "BROOKVILLE", "state": "OH", "street": "22 MULBERRY ST", "postcode": "45309"}}},
{"geometry": {"type": "Point", "coordinates": [-84.4117710643, 39.8359788932]}, "type": "Feature", "properties": {"collection_times": [{"days": "Mon-Fri", "time": "4:30pm"}, {"days": "Sat", "time": "3:00pm"}, {"days": "Sun", "time": "Closed"}], "id": "4530900001", "name": "USPS COLLECTION BOX - BLUE BOX", "address": {"city": "BROOKVILLE", "state": "OH", "street": "22 MULBERRY ST", "postcode": "45309"}}},
{"geometry": {"type": "Point", "coordinates": [-84.4117710643, 39.8359788932]}, "type": "Feature", "properties": {"collection_times": [{"days": "Mon-Fri", "time": "4:30pm"}, {"days": "Sat", "time": "3:00pm"}, {"days": "Sun", "time": "Closed"}], "id": "4530900002", "name": "USPS COLLECTION BOX - PO LOBBY", "address": {"city": "BROOKVILLE", "state": "OH", "street": "22 MULBERRY ST", "postcode": "45309"}}},
{"geometry": {"type": "Point", "coordinates": [-84.4229421291, 39.8401038985]}, "type": "Feature", "properties": {"collection_times": [{"days": "Mon-Sat", "time": "10:30am"}, {"days": "Sun", "time": "Closed"}], "id": "4530900004", "name": "USPS COLLECTION BOX - BLUE BOX", "address": {"city": "BROOKVILLE", "state": "OH", "street": "1 MC MAKEN LN", "postcode": "45309"}}},
{"geometry": {"type": "Point", "coordinates": [-84.6443902185, 40.3518266296]}, "type": "Feature", "properties": {"collection_times": [{"days": "Mon-Fri", "time": "4:00pm"}, {"days": "Sat", "time": "11:15am"}, {"days": "Sun", "time": "Closed"}], "id": "4531000000", "name": "USPS COLLECTION BOX - BLUE BOX", "address": {"city": "BURKETTSVILLE", "state": "OH", "street": "25 W MAIN ST", "postcode": "45310"}}},
{"geometry": {"type": "Point", "coordinates": [-84.6443902185, 40.3518266296]}, "type": "Feature", "properties": {"collection_times": [{"days": "Mon-Fri", "time": "4:00pm"}, {"days": "Sat", "time": "11:15am"}, {"days": "Sun", "time": "Closed"}], "id": "4531000001", "name": "USPS COLLECTION BOX - PO LOBBY", "address": {"city": "BURKETTSVILLE", "state": "OH", "street": "25 W MAIN ST", "postcode": "45310"}}},
{"geometry": {"type": "Point", "coordinates": [-84.6500168172, 39.6313587166]}, "type": "Feature", "properties": {"collection_times": [{"days": "Mon-Sat", "time": "10:30am"}, {"days": "Sun", "time": "Closed"}], "id": "4531100003", "name": "USPS COLLECTION BOX - BLUE BOX", "address": {"city": "CAMDEN", "state": "OH", "street": "200 COTTAGE ST", "postcode": "45311"}}},
{"geometry": {"type": "Point", "coordinates": [-84.6511459928, 39.6312733877]}, "type": "Feature", "properties": {"collection_times": [{"days": "Mon-Sat", "time": "1:00pm"}, {"days": "Sun", "time": "Closed"}], "id": "4531100005", "name": "USPS COLLECTION BOX - BLUE BOX", "address": {"city": "CAMDEN", "state": "OH", "street": "200 N LIBERTY ST", "postcode": "45311"}}},
{"geometry": {"type": "Point", "coordinates": [-84.6527617792, 39.629086839]}, "type": "Feature", "properties": {"collection_times": [{"days": "Mon-Fri", "time": "3:30pm"}, {"days": "Sat", "time": "12:00pm"}, {"days": "Sun", "time": "Closed"}], "id": "4531100008", "name": "USPS COLLECTION BOX - BLUE BOX", "address": {"city": "CAMDEN", "state": "OH", "street": "32 W CENTRAL AVE REAR", "postcode": "45311"}}},
{"geometry": {"type": "Point", "coordinates": [-84.6527617792, 39.629086839]}, "type": "Feature", "properties": {"collection_times": [{"days": "Mon-Fri", "time": "3:30pm"}, {"days": "Sat", "time": "12:00pm"}, {"days": "Sun", "time": "Closed"}], "id": "4531100011", "name": "USPS COLLECTION BOX - PO LOBBY", "address": {"city": "CAMDEN", "state": "OH", "street": "32 W CENTRAL AVE", "postcode": "45311"}}},
{"geometry": {"type": "Point", "coordinates": [-84.1296121071, 40.0519737915]}, "type": "Feature", "properties": {"collection_times": [{"days": "Mon-Fri", "time": "4:00pm"}, {"days": "Sat", "time": "11:30am"}, {"days": "Sun", "time": "Closed"}], "id": "4531200000", "name": "USPS COLLECTION BOX - BLUE BOX", "address": {"city": "CASSTOWN", "state": "OH", "street": "101A N MAIN ST", "postcode": "45312"}}},
{"geometry": {"type": "Point", "coordinates": [-84.1296121071, 40.0519737915]}, "type": "Feature", "properties": {"collection_times": [{"days": "Mon-Fri", "time": "4:00pm"}, {"days": "Sat", "time": "11:30am"}, {"days": "Sun", "time": "Closed"}], "id": "4531200001", "name": "USPS COLLECTION BOX - PO LOBBY", "address": {"city": "CASSTOWN", "state": "OH", "street": "101A N MAIN ST", "postcode": "45312"}}},
{"geometry": {"type": "Point", "coordinates": [-83.8097547094, 39.7509774653]}, "type": "Feature", "properties": {"collection_times": [{"days": "Mon-Sat", "time": "9:30am"}, {"days": "Sun", "time": "Closed"}], "id": "4531400000", "name": "USPS COLLECTION BOX - BLUE BOX", "address": {"city": "CEDARVILLE", "state": "OH", "street": "400 N MAIN ST", "postcode": "45314"}}},
{"geometry": {"type": "Point", "coordinates": [-83.807398719, 39.742499736]}, "type": "Feature", "properties": {"collection_times": [{"days": "Mon-Fri", "time": "4:00pm"}, {"days": "Sat", "time": "12:00pm"}, {"days": "Sun", "time": "Closed"}], "id": "4531400001", "name": "USPS COLLECTION BOX - BLUE BOX", "address": {"city": "CEDARVILLE", "state": "OH", "street": "102 N MAIN ST", "postcode": "45314"}}},
{"geometry": {"type": "Point", "coordinates": [-83.8073583363, 39.7424233125]}, "type": "Feature", "properties": {"collection_times": [{"days": "Mon-Fri", "time": "4:00pm"}, {"days": "Sat", "time": "12:00pm"}, {"days": "Sun", "time": "Closed"}], "id": "4531400003", "name": "USPS COLLECTION BOX - PO LOBBY", "address": {"city": "CEDARVILLE", "state": "OH", "street": "102 N MAIN ST", "postcode": "45314"}}},
{"geometry": {"type": "Point", "coordinates": [-84.360785276, 39.8635797803]}, "type": "Feature", "properties": {"collection_times": [{"days": "Mon-Fri", "time": "4:15pm"}, {"days": "Sat", "time": "12:00pm"}, {"days": "Sun", "time": "Closed"}], "id": "4531500000", "name": "USPS COLLECTION BOX - BLUE BOX", "address": {"city": "CLAYTON", "state": "OH", "street": "196 TALMADGE RD", "postcode": "45315"}}},
{"geometry": {"type": "Point", "coordinates": [-84.3304775451, 39.8573934226]}, "type": "Feature", "properties": {"collection_times": [{"days": "Mon-Sat", "time": "9:30am"}, {"days": "Sun", "time": "Closed"}], "id": "4531500001", "name": "USPS COLLECTION BOX - BLUE BOX", "address": {"city": "CLAYTON", "state": "OH", "street": "7700 HOKE RD", "postcode": "45315"}}},
{"geometry": {"type": "Point", "coordinates": [-84.360785276, 39.8635797803]}, "type": "Feature", "properties": {"collection_times": [{"days": "Mon-Fri", "time": "4:15pm"}, {"days": "Sat", "time": "12:00pm"}, {"days": "Sun", "time": "Closed"}], "id": "4531500002", "name": "USPS COLLECTION BOX - PO LOBBY", "address": {"city": "CLAYTON", "state": "OH", "street": "196 TALMADGE RD", "postcode": "45315"}}},
{"geometry": {"type": "Point", "coordinates": [-84.3369961038, 39.8727933008]}, "type": "Feature", "properties": {"collection_times": [{"days": "Mon-Sat", "time": "9:15am"}, {"days": "Sun", "time": "Closed"}], "id": "4531500005", "name": "USPS COLLECTION BOX - BLUE BOX", "address": {"city": "CLAYTON", "state": "OH", "street": "8949 ANNELIESE WAY", "postcode": "45315"}}},
{"geometry": {"type": "Point", "coordinates": [-83.8251400061, 39.7957981526]}, "type": "Feature", "properties": {"collection_times": [{"days": "Mon-Sat", "time": "11:30am"}, {"days": "Sun", "time": "Closed"}], "id": "4531600000", "name": "USPS COLLECTION BOX - PO LOBBY", "address": {"city": "CLIFTON", "state": "OH", "street": "17 CLINTON ST", "postcode": "45316"}}},
{"geometry": {"type": "Point", "coordinates": [-84.0459284301, 40.1364282847]}, "type": "Feature", "properties": {"collection_times": [{"days": "Mon-Sat", "time": "11:30am"}, {"days": "Sun", "time": "Closed"}], "id": "4531700000", "name": "USPS COLLECTION BOX - PO LOBBY", "address": {"city": "CONOVER", "state": "OH", "street": "7711 N ALCONY CONOVER RD", "postcode": "45317"}}},
{"geometry": {"type": "Point", "coordinates": [-84.0459284301, 40.1364282847]}, "type": "Feature", "properties": {"collection_times": [{"days": "Mon-Sat", "time": "11:30am"}, {"days": "Sun", "time": "Closed"}], "id": "4531700001", "name": "USPS COLLECTION BOX - BLUE BOX", "address": {"city": "CONOVER", "state": "OH", "street": "7711 N ALCONY CONOVER RD", "postcode": "45317"}}},
{"geometry": {"type": "Point", "coordinates": [-84.3529210574, 40.1212188188]}, "type": "Feature", "properties": {"collection_times": [{"days": "Mon-Sat", "time": "2:15pm"}, {"days": "Sun", "time": "Closed"}], "id": "4531800004", "name": "USPS COLLECTION BOX - BLUE BOX", "address": {"city": "COVINGTON", "state": "OH", "street": "150 E BROADWAY ST", "postcode": "45318"}}},
{"geometry": {"type": "Point", "coordinates": [-84.3546207419, 40.1184828397]}, "type": "Feature", "properties": {"collection_times": [{"days": "Mon-Sat", "time": "2:00pm"}, {"days": "Sun", "time": "Closed"}], "id": "4531800008", "name": "USPS COLLECTION BOX - BLUE BOX", "address": {"city": "COVINGTON", "state": "OH", "street": "102 N HIGH ST", "postcode": "45318"}}},
{"geometry": {"type": "Point", "coordinates": [-84.3545423164, 40.116718154]}, "type": "Feature", "properties": {"collection_times": [{"days": "Mon-Fri", "time": "3:30pm"}, {"days": "Sat", "time": "12:00pm"}, {"days": "Sun", "time": "Closed"}], "id": "4531800009", "name": "USPS COLLECTION BOX - BLUE BOX", "address": {"city": "COVINGTON", "state": "OH", "street": "8 E SPRING ST", "postcode": "45318"}}},
{"geometry": {"type": "Point", "coordinates": [-84.3545423164, 40.116718154]}, "type": "Feature", "properties": {"collection_times": [{"days": "Mon-Fri", "time": "3:30pm"}, {"days": "Sat", "time": "12:00pm"}, {"days": "Sun", "time": "Closed"}], "id": "4531800011", "name": "USPS COLLECTION BOX - PO LOBBY", "address": {"city": "COVINGTON", "state": "OH", "street": "8 E SPRING ST", "postcode": "45318"}}},
{"geometry": {"type": "Point", "coordinates": [-83.9482324254, 39.9173080317]}, "type": "Feature", "properties": {"collection_times": [{"days": "Mon-Sat", "time": "12:00pm"}, {"days": "Sun", "time": "Closed"}], "id": "4531900000", "name": "USPS COLLECTION BOX - PO LOBBY", "address": {"city": "DONNELSVILLE", "state": "OH", "street": "17 S HAMPTON RD", "postcode": "45319"}}},
{"geometry": {"type": "Point", "coordinates": [-83.9482324254, 39.9173080317]}, "type": "Feature", "properties": {"collection_times": [{"days": "Mon-Sat", "time": "12:00pm"}, {"days": "Sun", "time": "Closed"}], "id": "4531900001", "name": "USPS COLLECTION BOX - BLUE BOX", "address": {"city": "DONNELSVILLE", "state": "OH", "street": "17 S HAMPTON RD", "postcode": "45319"}}},
{"geometry": {"type": "Point", "coordinates": [-84.6363810996, 39.74395131]}, "type": "Feature", "properties": {"collection_times": [{"days": "Mon-Sat", "time": "3:15pm"}, {"days": "Sun", "time": "Closed"}], "id": "4532000003", "name": "USPS COLLECTION BOX - BLUE BOX", "address": {"city": "EATON", "state": "OH", "street": "101 E MAIN ST", "postcode": "45320"}}},
{"geometry": {"type": "Point", "coordinates": [-84.6363398345, 39.7594233632]}, "type": "Feature", "properties": {"collection_times": [{"days": "Mon-Sat", "time": "10:30am"}, {"days": "Sun", "time": "Closed"}], "id": "4532000012", "name": "USPS COLLECTION BOX - BLUE BOX", "address": {"city": "EATON", "state": "OH", "street": "1322 N BARRON ST", "postcode": "45320"}}},
{"geometry": {"type": "Point", "coordinates": [-84.6364794541, 39.7655252599]}, "type": "Feature", "properties": {"collection_times": [{"days": "Mon-Sat", "time": "12:30pm"}, {"days": "Sun", "time": "Closed"}], "id": "4532000014", "name": "USPS COLLECTION BOX - BLUE BOX", "address": {"city": "EATON", "state": "OH", "street": "1617 N BARRON ST", "postcode": "45320"}}},
{"geometry": {"type": "Point", "coordinates": [-84.6366283984, 39.7438421782]}, "type": "Feature", "properties": {"collection_times": [{"days": "Mon-Fri", "time": "5:00pm"}, {"days": "Sat", "time": "12:15pm"}, {"days": "Sun", "time": "Closed"}], "id": "4532000018", "name": "USPS COLLECTION BOX - BLUE BOX", "address": {"city": "EATON", "state": "OH", "street": "111 W MAIN ST", "postcode": "45320"}}},
{"geometry": {"type": "Point", "coordinates": [-84.6366283984, 39.7438421782]}, "type": "Feature", "properties": {"collection_times": [{"days": "Mon-Fri", "time": "5:00pm"}, {"days": "Sat", "time": "12:15pm"}, {"days": "Sun", "time": "Closed"}], "id": "4532000026", "name": "USPS COLLECTION BOX - PO LOBBY", "address": {"city": "EATON", "state": "OH", "street": "111 W MAIN ST", "postcode": "45320"}}},
{"geometry": {"type": "Point", "coordinates": [-84.6366283984, 39.7438421782]}, "type": "Feature", "properties": {"collection_times": [{"days": "Mon-Fri", "time": "5:00pm"}, {"days": "Sat", "time": "12:15pm"}, {"days": "Sun", "time": "Closed"}], "id": "4532000027", "name": "USPS COLLECTION BOX - PO LOBBY", "address": {"city": "EATON", "state": "OH", "street": "111 W MAIN ST", "postcode": "45320"}}},
{"geometry": {"type": "Point", "coordinates": [-84.6366283984, 39.7438421782]}, "type": "Feature", "properties": {"collection_times": [{"days": "Mon-Fri", "time": "5:00pm"}, {"days": "Sat", "time": "12:15pm"}, {"days": "Sun", "time": "Closed"}], "id": "4532000028", "name": "USPS COLLECTION BOX - PO LOBBY", "address": {"city": "EATON", "state": "OH", "street": "111 W MAIN ST", "postcode": "45320"}}},
{"geometry": {"type": "Point", "coordinates": [-84.6366283984, 39.7438421782]}, "type": "Feature", "properties": {"collection_times": [{"days": "Mon-Fri", "time": "5:00pm"}, {"days": "Sat", "time": "12:15pm"}, {"days": "Sun", "time": "Closed"}], "id": "4532000029", "name": "USPS COLLECTION BOX - PO LOBBY", "address": {"city": "EATON", "state": "OH", "street": "111 W MAIN ST", "postcode": "45320"}}},
{"geometry": {"type": "Point", "coordinates": [-84.6363243276, 39.7399310988]}, "type": "Feature", "properties": {"collection_times": [{"days": "Mon-Sat", "time": "10:00am"}, {"days": "Sun", "time": "Closed"}], "id": "4532000031", "name": "USPS COLLECTION BOX - BLUE BOX", "address": {"city": "EATON", "state": "OH", "street": "400 S BARRON ST", "postcode": "45320"}}},
{"geometry": {"type": "Point", "coordinates": [-84.6767927336, 39.9020096586]}, "type": "Feature", "properties": {"collection_times": [{"days": "Mon-Sat", "time": "12:00pm"}, {"days": "Sun", "time": "Closed"}], "id": "4532100000", "name": "USPS COLLECTION BOX - BLUE BOX", "address": {"city": "ELDORADO", "state": "OH", "street": "100 N MAPLE ST", "postcode": "45321"}}},
{"geometry": {"type": "Point", "coordinates": [-84.6767927336, 39.9020096586]}, "type": "Feature", "properties": {"collection_times": [{"days": "Mon-Sat", "time": "12:00pm"}, {"days": "Sun", "time": "Closed"}], "id": "4532100001", "name": "USPS COLLECTION BOX - PO LOBBY", "address": {"city": "ELDORADO", "state": "OH", "street": "100 N MAPLE ST", "postcode": "45321"}}},
{"geometry": {"type": "Point", "coordinates": [-84.3042398375, 39.87756827]}, "type": "Feature", "properties": {"collection_times": [{"days": "Mon-Fri", "time": "5:00pm"}, {"days": "Sat", "time": "3:00pm"}, {"days": "Sun", "time": "Closed"}], "id": "4532200000", "name": "USPS COLLECTION BOX - PO LOBBY", "address": {"city": "ENGLEWOOD", "state": "OH", "street": "116 W NATIONAL RD", "postcode": "45322"}}},
{"geometry": {"type": "Point", "coordinates": [-84.3042398375, 39.87756827]}, "type": "Feature", "properties": {"collection_times": [{"days": "Mon-Fri", "time": "5:00pm"}, {"days": "Sat", "time": "3:00pm"}, {"days": "Sun", "time": "Closed"}], "id": "4532200001", "name": "USPS COLLECTION BOX - BLUE BOX", "address": {"city": "ENGLEWOOD", "state": "OH", "street": "116 W NATIONAL RD", "postcode": "45322"}}},
{"geometry": {"type": "Point", "coordinates": [-84.3042398375, 39.87756827]}, "type": "Feature", "properties": {"collection_times": [{"days": "Mon-Fri", "time": "5:00pm"}, {"days": "Sat", "time": "3:00pm"}, {"days": "Sun", "time": "Closed"}], "id": "4532200002", "name": "USPS COLLECTION BOX - BLUE BOX", "address": {"city": "ENGLEWOOD", "state": "OH", "street": "116 W NATIONAL RD", "postcode": "45322"}}},
{"geometry": {"type": "Point", "coordinates": [-84.3042398375, 39.87756827]}, "type": "Feature", "properties": {"collection_times": [{"days": "Mon-Fri", "time": "5:00pm"}, {"days": "Sat", "time": "3:00pm"}, {"days": "Sun", "time": "Closed"}], "id": "4532200003", "name": "USPS COLLECTION BOX - BLUE BOX", "address": {"city": "ENGLEWOOD", "state": "OH", "street": "116 W NATIONAL RD", "postcode": "45322"}}},
{"geometry": {"type": "Point", "coordinates": [-84.3042398375, 39.87756827]}, "type": "Feature", "properties": {"collection_times": [{"days": "Mon-Fri", "time": "5:00pm"}, {"days": "Sat", "time": "3:00pm"}, {"days": "Sun", "time": "Closed"}], "id": "4532200004", "name": "USPS COLLECTION BOX - BLUE BOX", "address": {"city": "ENGLEWOOD", "state": "OH", "street": "116 W NATIONAL RD", "postcode": "45322"}}},
{"geometry": {"type": "Point", "coordinates": [-84.3173458398, 39.8985078267]}, "type": "Feature", "properties": {"collection_times": [{"days": "Mon-Sat", "time": "12:00pm"}, {"days": "Sun", "time": "Closed"}], "id": "4532200010", "name": "USPS COLLECTION BOX - BLUE BOX", "address": {"city": "ENGLEWOOD", "state": "OH", "street": "603 W MARTINDALE RD", "postcode": "45322"}}},
{"geometry": {"type": "Point", "coordinates": [-84.3042989854, 39.8474891724]}, "type": "Feature", "properties": {"collection_times": [{"days": "Mon-Sat", "time": "12:00pm"}, {"days": "Sun", "time": "Closed"}], "id": "4532200015", "name": "USPS COLLECTION BOX - BLUE BOX", "address": {"city": "ENGLEWOOD", "state": "OH", "street": "4601 OLD SALEM RD", "postcode": "45322"}}},
{"geometry": {"type": "Point", "coordinates": [-84.308463001, 39.8771246604]}, "type": "Feature", "properties": {"collection_times": [{"days": "Mon-Fri", "time": "2:15pm"}, {"days": "Sat", "time": "12:00pm"}, {"days": "Sun", "time": "Closed"}], "id": "4532200016", "name": "USPS COLLECTION BOX - BLUE BOX", "address": {"city": "ENGLEWOOD", "state": "OH", "street": "333 W NATIONAL RD", "postcode": "45322"}}},
{"geometry": {"type": "Point", "coordinates": [-84.3112963167, 39.8632482908]}, "type": "Feature", "properties": {"collection_times": [{"days": "Mon-Sat", "time": "1:45pm"}, {"days": "Sun", "time": "Closed"}], "id": "4532200019", "name": "USPS COLLECTION BOX - BLUE BOX", "address": {"city": "ENGLEWOOD", "state": "OH", "street": "855 UNION RD", "postcode": "45322"}}},
{"geometry": {"type": "Point", "coordinates": [-84.3042398375, 39.87756827]}, "type": "Feature", "properties": {"collection_times": [{"days": "Mon-Fri", "time": "5:00pm"}, {"days": "Sat", "time": "3:00pm"}, {"days": "Sun", "time": "Closed"}], "id": "4532200021", "name": "USPS COLLECTION BOX - APC", "address": {"city": "ENGLEWOOD", "state": "OH", "street": "116 W NATIONAL RD", "postcode": "45322"}}},
{"geometry": {"type": "Point", "coordinates": [-83.936796897, 39.8796588032]}, "type": "Feature", "properties": {"collection_times": [{"days": "Mon-Fri", "time": "4:30pm"}, {"days": "Sat", "time": "12:00pm"}, {"days": "Sun", "time": "Closed"}], "id": "4532300000", "name": "USPS COLLECTION BOX - BLUE BOX", "address": {"city": "ENON", "state": "OH", "street": "27 N XENIA DR", "postcode": "45323"}}},
{"geometry": {"type": "Point", "coordinates": [-83.936796897, 39.8796588032]}, "type": "Feature", "properties": {"collection_times": [{"days": "Mon-Fri", "time": "4:30pm"}, {"days": "Sat", "time": "12:00pm"}, {"days": "Sun", "time": "Closed"}], "id": "4532300006", "name": "USPS COLLECTION BOX - PO LOBBY", "address": {"city": "ENON", "state": "OH", "street": "27 N XENIA DR", "postcode": "45323"}}},
{"geometry": {"type": "Point", "coordinates": [-83.936796897, 39.8796588032]}, "type": "Feature", "properties": {"collection_times": [{"days": "Mon-Fri", "time": "4:30pm"}, {"days": "Sat", "time": "12:00pm"}, {"days": "Sun", "time": "Closed"}], "id": "4532300007", "name": "USPS COLLECTION BOX - PO LOBBY", "address": {"city": "ENON", "state": "OH", "street": "27 N XENIA DR", "postcode": "45323"}}},
{"geometry": {"type": "Point", "coordinates": [-84.0160759978, 39.8211725318]}, "type": "Feature", "properties": {"collection_times": [{"days": "Mon-Sat", "time": "10:00am"}, {"days": "Sun", "time": "Closed"}], "id": "4532400014", "name": "USPS COLLECTION BOX - BLUE BOX", "address": {"city": "FAIRBORN", "state": "OH", "street": "1 E MAIN ST", "postcode": "45324"}}},
{"geometry": {"type": "Point", "coordinates": [-83.9888456531, 39.7906341586]}, "type": "Feature", "properties": {"collection_times": [{"days": "Mon-Sat", "time": "9:30am"}, {"days": "Sun", "time": "Closed"}], "id": "4532400031", "name": "USPS COLLECTION BOX - BLUE BOX", "address": {"city": "FAIRBORN", "state": "OH", "street": "1343 NORTHGATE BLVD", "postcode": "45324"}}},
{"geometry": {"type": "Point", "coordinates": [-84.0797566537, 39.7746431407]}, "type": "Feature", "properties": {"collection_times": [{"days": "Mon-Sat", "time": "9:00am"}, {"days": "Sun", "time": "Closed"}], "id": "4532400032", "name": "USPS COLLECTION BOX - BLUE BOX", "address": {"city": "FAIRBORN", "state": "OH", "street": "2646 COLONEL GLENN HWY", "postcode": "45324"}}},
{"geometry": {"type": "Point", "coordinates": [-84.0270186193, 39.7825035832]}, "type": "Feature", "properties": {"collection_times": [{"days": "Mon-Sat", "time": "9:00am"}, {"days": "Sun", "time": "Closed"}], "id": "4532400045", "name": "USPS COLLECTION BOX - BLUE BOX", "address": {"city": "FAIRBORN", "state": "OH", "street": "2145 ROCKDELL DR", "postcode": "45324"}}},
{"geometry": {"type": "Point", "coordinates": [-84.0202874231, 39.8269737606]}, "type": "Feature", "properties": {"collection_times": [{"days": "Mon-Fri", "time": "5:00pm"}, {"days": "Sat", "time": "4:00pm"}, {"days": "Sun", "time": "Closed"}], "id": "4532400052", "name": "USPS COLLECTION BOX - BLUE BOX", "address": {"city": "FAIRBORN", "state": "OH", "street": "67 W HEBBLE AVE", "postcode": "45324"}}},
{"geometry": {"type": "Point", "coordinates": [-84.0202874231, 39.8269737606]}, "type": "Feature", "properties": {"collection_times": [{"days": "Mon-Fri", "time": "5:00pm"}, {"days": "Sat", "time": "4:00pm"}, {"days": "Sun", "time": "Closed"}], "id": "4532400054", "name": "USPS COLLECTION BOX - PO LOBBY", "address": {"city": "FAIRBORN", "state": "OH", "street": "67 W HEBBLE AVE", "postcode": "45324"}}},
{"geometry": {"type": "Point", "coordinates": [-82.7112131521, 40.4130547318]}, "type": "Feature", "properties": {"collection_times": [{"days": "Mon-Sat", "time": "12:30pm"}, {"days": "Sun", "time": "Closed"}], "id": "4532400063", "name": "USPS COLLECTION BOX - BLUE BOX", "address": {"city": "FAIRBORN", "state": "OH", "street": "2030 VILLAGE DR", "postcode": "45324"}}},
{"geometry": {"type": "Point", "coordinates": [-84.0202874231, 39.8269737606]}, "type": "Feature", "properties": {"collection_times": [{"days": "Mon-Fri", "time": "5:00pm"}, {"days": "Sat", "time": "4:00pm"}, {"days": "Sun", "time": "Closed"}], "id": "4532400068", "name": "USPS COLLECTION BOX - PO LOBBY", "address": {"city": "FAIRBORN", "state": "OH", "street": "67 W HEBBLE AVE", "postcode": "45324"}}},
{"geometry": {"type": "Point", "coordinates": [-84.0202874231, 39.8269737606]}, "type": "Feature", "properties": {"collection_times": [{"days": "Mon-Fri", "time": "5:00pm"}, {"days": "Sat", "time": "4:00pm"}, {"days": "Sun", "time": "Closed"}], "id": "4532400070", "name": "USPS COLLECTION BOX - APC", "address": {"city": "FAIRBORN", "state": "OH", "street": "67 W HEBBLE AVE", "postcode": "45324"}}},
{"geometry": {"type": "Point", "coordinates": [-84.1113237281, 40.1457546522]}, "type": "Feature", "properties": {"collection_times": [{"days": "Mon-Sat", "time": "12:00pm"}, {"days": "Sun", "time": "Closed"}], "id": "4532600000", "name": "USPS COLLECTION BOX - BLUE BOX", "address": {"city": "FLETCHER", "state": "OH", "street": "21 N WALNUT ST", "postcode": "45326"}}},
{"geometry": {"type": "Point", "coordinates": [-84.3672761718, 39.6250479346]}, "type": "Feature", "properties": {"collection_times": [{"days": "Mon-Sat", "time": "4:00pm"}, {"days": "Sun", "time": "Closed"}], "id": "4532700000", "name": "USPS COLLECTION BOX - BLUE BOX", "address": {"city": "GERMANTOWN", "state": "OH", "street": "205 E MARKET ST", "postcode": "45327"}}},
{"geometry": {"type": "Point", "coordinates": [-84.3706799185, 39.6260691891]}, "type": "Feature", "properties": {"collection_times": [{"days": "Mon-Sat", "time": "12:00pm"}, {"days": "Sun", "time": "Closed"}], "id": "4532700002", "name": "USPS COLLECTION BOX - BLUE BOX", "address": {"city": "GERMANTOWN", "state": "OH", "street": "12 W CENTER ST", "postcode": "45327"}}},
{"geometry": {"type": "Point", "coordinates": [-84.3672761718, 39.6250479346]}, "type": "Feature", "properties": {"collection_times": [{"days": "Mon-Sat", "time": "4:00pm"}, {"days": "Sun", "time": "Closed"}], "id": "4532700007", "name": "USPS COLLECTION BOX - PO LOBBY", "address": {"city": "GERMANTOWN", "state": "OH", "street": "205 E MARKET ST", "postcode": "45327"}}},
{"geometry": {"type": "Point", "coordinates": [-84.495260951, 40.111703549]}, "type": "Feature", "properties": {"collection_times": [{"days": "Mon-Fri", "time": "3:00pm"}, {"days": "Sat", "time": "11:45am"}, {"days": "Sun", "time": "Closed"}], "id": "4532800000", "name": "USPS COLLECTION BOX - BLUE BOX", "address": {"city": "GETTYSBURG", "state": "OH", "street": "105A CLAY ST", "postcode": "45328"}}},
{"geometry": {"type": "Point", "coordinates": [-84.4952592881, 40.1117040525]}, "type": "Feature", "properties": {"collection_times": [{"days": "Mon-Fri", "time": "3:00pm"}, {"days": "Sat", "time": "11:45am"}, {"days": "Sun", "time": "Closed"}], "id": "4532800001", "name": "USPS COLLECTION BOX - PO LOBBY", "address": {"city": "GETTYSBURG", "state": "OH", "street": "105A CLAY ST", "postcode": "45328"}}},
{"geometry": {"type": "Point", "coordinates": [-84.5268088319, 39.6488210599]}, "type": "Feature", "properties": {"collection_times": [{"days": "Mon-Fri", "time": "3:30pm"}, {"days": "Sat", "time": "11:00am"}, {"days": "Sun", "time": "Closed"}], "id": "4533000000", "name": "USPS COLLECTION BOX - BLUE BOX", "address": {"city": "GRATIS", "state": "OH", "street": "100 E FRANKLIN ST", "postcode": "45330"}}},
{"geometry": {"type": "Point", "coordinates": [-84.5268088319, 39.6488210599]}, "type": "Feature", "properties": {"collection_times": [{"days": "Mon-Fri", "time": "3:30pm"}, {"days": "Sat", "time": "11:00am"}, {"days": "Sun", "time": "Closed"}], "id": "4533000001", "name": "USPS COLLECTION BOX - PO LOBBY", "address": {"city": "GRATIS", "state": "OH", "street": "100 E FRANKLIN ST", "postcode": "45330"}}},
{"geometry": {"type": "Point", "coordinates": [-84.6222022255, 40.1172657496]}, "type": "Feature", "properties": {"collection_times": [{"days": "Mon-Sat", "time": "9:00am"}, {"days": "Sun", "time": "Closed"}], "id": "4533100001", "name": "USPS COLLECTION BOX - BLUE BOX", "address": {"city": "GREENVILLE", "state": "OH", "street": "641 WAGNER AVE", "postcode": "45331"}}},
{"geometry": {"type": "Point", "coordinates": [-84.6212559456, 40.1227969627]}, "type": "Feature", "properties": {"collection_times": [{"days": "Mon-Sat", "time": "9:00am"}, {"days": "Sun", "time": "Closed"}], "id": "4533100002", "name": "USPS COLLECTION BOX - BLUE BOX", "address": {"city": "GREENVILLE", "state": "OH", "street": "1345 WAGNER AVE", "postcode": "45331"}}},
{"geometry": {"type": "Point", "coordinates": [-84.6343638022, 40.0848692915]}, "type": "Feature", "properties": {"collection_times": [{"days": "Mon-Fri", "time": "2:00pm"}, {"days": "Sat", "time": "12:00pm"}, {"days": "Sun", "time": "Closed"}], "id": "4533100005", "name": "USPS COLLECTION BOX - BLUE BOX", "address": {"city": "GREENVILLE", "state": "OH", "street": "1107 SWEITZER ST", "postcode": "45331"}}},
{"geometry": {"type": "Point", "coordinates": [-84.6320233004, 40.1011708325]}, "type": "Feature", "properties": {"collection_times": [{"days": "Mon-Fri", "time": "3:00pm"}, {"days": "Sat", "time": "9:00am"}, {"days": "Sun", "time": "Closed"}], "id": "4533100007", "name": "USPS COLLECTION BOX - BLUE BOX", "address": {"city": "GREENVILLE", "state": "OH", "street": "446 S BROADWAY ST", "postcode": "45331"}}},
{"geometry": {"type": "Point", "coordinates": [-84.6314239463, 40.1006639789]}, "type": "Feature", "properties": {"collection_times": [{"days": "Mon-Fri", "time": "3:00pm"}, {"days": "Sat", "time": "9:00am"}, {"days": "Sun", "time": "Closed"}], "id": "4533100009", "name": "USPS COLLECTION BOX - BLUE BOX", "address": {"city": "GREENVILLE", "state": "OH", "street": "504 S BROADWAY ST", "postcode": "45331"}}},
{"geometry": {"type": "Point", "coordinates": [-84.6314058042, 40.100815432]}, "type": "Feature", "properties": {"collection_times": [{"days": "Mon-Fri", "time": "3:00pm"}, {"days": "Sat", "time": "9:00am"}, {"days": "Sun", "time": "Closed"}], "id": "4533100012", "name": "USPS COLLECTION BOX - BLUE BOX", "address": {"city": "GREENVILLE", "state": "OH", "street": "499 S BROADWAY ST", "postcode": "45331"}}},
{"geometry": {"type": "Point", "coordinates": [-84.5846232193, 40.0777225547]}, "type": "Feature", "properties": {"collection_times": [{"days": "Mon-Sat", "time": "9:00am"}, {"days": "Sun", "time": "Closed"}], "id": "4533100021", "name": "USPS COLLECTION BOX - BLUE BOX", "address": {"city": "GREENVILLE", "state": "OH", "street": "6085 SEBRING WARNER RD N", "postcode": "45331"}}},
{"geometry": {"type": "Point", "coordinates": [-84.6328070289, 40.1027788629]}, "type": "Feature", "properties": {"collection_times": [{"days": "Mon-Fri", "time": "5:00pm"}, {"days": "Sat", "time": "3:00pm"}, {"days": "Sun", "time": "Closed"}], "id": "4533100023", "name": "USPS COLLECTION BOX - BLUE BOX", "address": {"city": "GREENVILLE", "state": "OH", "street": "101 E MAIN ST", "postcode": "45331"}}},
{"geometry": {"type": "Point", "coordinates": [-84.6330867342, 40.1024599178]}, "type": "Feature", "properties": {"collection_times": [{"days": "Mon-Fri", "time": "5:00pm"}, {"days": "Sat", "time": "3:00pm"}, {"days": "Sun", "time": "Closed"}], "id": "4533100025", "name": "USPS COLLECTION BOX - BLUE BOX", "address": {"city": "GREENVILLE", "state": "OH", "street": "101 E MAIN ST", "postcode": "45331"}}},
{"geometry": {"type": "Point", "coordinates": [-84.6393071675, 40.0895195969]}, "type": "Feature", "properties": {"collection_times": [{"days": "Mon-Sat", "time": "9:00am"}, {"days": "Sun", "time": "Closed"}], "id": "4533100028", "name": "USPS COLLECTION BOX - BLUE BOX", "address": {"city": "GREENVILLE", "state": "OH", "street": "824 CHESTNUT CIR", "postcode": "45331"}}},
{"geometry": {"type": "Point", "coordinates": [-84.6330867342, 40.1024599178]}, "type": "Feature", "properties": {"collection_times": [{"days": "Mon-Fri", "time": "5:00pm"}, {"days": "Sat", "time": "3:00pm"}, {"days": "Sun", "time": "Closed"}], "id": "4533100030", "name": "USPS COLLECTION BOX - PO LOBBY", "address": {"city": "GREENVILLE", "state": "OH", "street": "101 E MAIN ST", "postcode": "45331"}}},
{"geometry": {"type": "Point", "coordinates": [-84.6330867342, 40.1024599178]}, "type": "Feature", "properties": {"collection_times": [{"days": "Mon-Fri", "time": "5:00pm"}, {"days": "Sat", "time": "3:00pm"}, {"days": "Sun", "time": "Closed"}], "id": "4533100032", "name": "USPS COLLECTION BOX - PO LOBBY", "address": {"city": "GREENVILLE", "state": "OH", "street": "101 E MAIN ST", "postcode": "45331"}}},
{"geometry": {"type": "Point", "coordinates": [-84.7932901172, 39.9987869339]}, "type": "Feature", "properties": {"collection_times": [{"days": "Mon-Fri", "time": "2:00pm"}, {"days": "Sat", "time": "11:00am"}, {"days": "Sun", "time": "Closed"}], "id": "4533200000", "name": "USPS COLLECTION BOX - BLUE BOX", "address": {"city": "HOLLANSBURG", "state": "OH", "street": "124 N MAIN ST", "postcode": "45332"}}},
{"geometry": {"type": "Point", "coordinates": [-84.7932901172, 39.9987869339]}, "type": "Feature", "properties": {"collection_times": [{"days": "Mon-Fri", "time": "2:00pm"}, {"days": "Sat", "time": "11:00am"}, {"days": "Sun", "time": "Closed"}], "id": "4533200001", "name": "USPS COLLECTION BOX - PO LOBBY", "address": {"city": "HOLLANSBURG", "state": "OH", "street": "124 N MAIN ST", "postcode": "45332"}}},
{"geometry": {"type": "Point", "coordinates": [-84.335902772, 40.2528417721]}, "type": "Feature", "properties": {"collection_times": [{"days": "Mon-Fri", "time": "3:00pm"}, {"days": "Sat", "time": "11:30am"}, {"days": "Sun", "time": "Closed"}], "id": "4533300000", "name": "USPS COLLECTION BOX - BLUE BOX", "address": {"city": "HOUSTON", "state": "OH", "street": "3733 STATE ROUTE 66", "postcode": "45333"}}},
{"geometry": {"type": "Point", "coordinates": [-84.335902772, 40.2528417721]}, "type": "Feature", "properties": {"collection_times": [{"days": "Mon-Fri", "time": "3:00pm"}, {"days": "Sat", "time": "11:30am"}, {"days": "Sun", "time": "Closed"}], "id": "4533300001", "name": "USPS COLLECTION BOX - PO LOBBY", "address": {"city": "HOUSTON", "state": "OH", "street": "3733 STATE ROUTE 66", "postcode": "45333"}}},
{"geometry": {"type": "Point", "coordinates": [-84.0399857482, 40.4397895708]}, "type": "Feature", "properties": {"collection_times": [{"days": "Mon-Fri", "time": "4:00pm"}, {"days": "Sat", "time": "12:00pm"}, {"days": "Sun", "time": "Closed"}], "id": "4533400000", "name": "USPS COLLECTION BOX - BLUE BOX", "address": {"city": "JACKSON CENTER", "state": "OH", "street": "114 E PIKE ST", "postcode": "45334"}}},
{"geometry": {"type": "Point", "coordinates": [-84.0399857482, 40.4397895708]}, "type": "Feature", "properties": {"collection_times": [{"days": "Mon-Fri", "time": "4:00pm"}, {"days": "Sat", "time": "12:00pm"}, {"days": "Sun", "time": "Closed"}], "id": "4533400001", "name": "USPS COLLECTION BOX - PO LOBBY", "address": {"city": "JACKSON CENTER", "state": "OH", "street": "114 E PIKE ST", "postcode": "45334"}}},
{"geometry": {"type": "Point", "coordinates": [-83.7345066896, 39.6581483094]}, "type": "Feature", "properties": {"collection_times": [{"days": "Mon-Sat", "time": "11:00am"}, {"days": "Sun", "time": "Closed"}], "id": "4533500002", "name": "USPS COLLECTION BOX - BLUE BOX", "address": {"city": "JAMESTOWN", "state": "OH", "street": "2 E WASHINGTON ST", "postcode": "45335"}}},
{"geometry": {"type": "Point", "coordinates": [-83.7994215427, 39.6471287148]}, "type": "Feature", "properties": {"collection_times": [{"days": "Mon-Sat", "time": "11:00am"}, {"days": "Sun", "time": "Closed"}], "id": "4533500006", "name": "USPS COLLECTION BOX - BLUE BOX", "address": {"city": "JAMESTOWN", "state": "OH", "street": "3542 JASPER RD", "postcode": "45335"}}},
{"geometry": {"type": "Point", "coordinates": [-83.734543521, 39.6618550627]}, "type": "Feature", "properties": {"collection_times": [{"days": "Mon-Fri", "time": "4:00pm"}, {"days": "Sat", "time": "12:00pm"}, {"days": "Sun", "time": "Closed"}], "id": "4533500007", "name": "USPS COLLECTION BOX - BLUE BOX", "address": {"city": "JAMESTOWN", "state": "OH", "street": "37 N LIMESTONE ST", "postcode": "45335"}}},
{"geometry": {"type": "Point", "coordinates": [-83.734543521, 39.6618550627]}, "type": "Feature", "properties": {"collection_times": [{"days": "Mon-Fri", "time": "4:00pm"}, {"days": "Sat", "time": "12:00pm"}, {"days": "Sun", "time": "Closed"}], "id": "4533500009", "name": "USPS COLLECTION BOX - PO LOBBY", "address": {"city": "JAMESTOWN", "state": "OH", "street": "37 N LIMESTONE ST", "postcode": "45335"}}},
{"geometry": {"type": "Point", "coordinates": [-84.2645521936, 40.4392481355]}, "type": "Feature", "properties": {"collection_times": [{"days": "Mon-Fri", "time": "3:30pm"}, {"days": "Sat", "time": "11:45am"}, {"days": "Sun", "time": "Closed"}], "id": "4533600000", "name": "USPS COLLECTION BOX - BLUE BOX", "address": {"city": "KETTLERSVILLE", "state": "OH", "street": "16620 KETTLERSVILLE RD", "postcode": "45336"}}},
{"geometry": {"type": "Point", "coordinates": [-84.2645521936, 40.4392481355]}, "type": "Feature", "properties": {"collection_times": [{"days": "Mon-Fri", "time": "3:30pm"}, {"days": "Sat", "time": "11:45am"}, {"days": "Sun", "time": "Closed"}], "id": "4533600001", "name": "USPS COLLECTION BOX - PO LOBBY", "address": {"city": "KETTLERSVILLE", "state": "OH", "street": "16620 KETTLERSVILLE RD", "postcode": "45336"}}},
{"geometry": {"type": "Point", "coordinates": [-84.4172331297, 39.960924423]}, "type": "Feature", "properties": {"collection_times": [{"days": "Mon-Fri", "time": "2:00pm"}, {"days": "Sat", "time": "11:30am"}, {"days": "Sun", "time": "Closed"}], "id": "4533700000", "name": "USPS COLLECTION BOX - BLUE BOX", "address": {"city": "LAURA", "state": "OH", "street": "203 S MAIN ST", "postcode": "45337"}}},
{"geometry": {"type": "Point", "coordinates": [-84.4172331297, 39.960924423]}, "type": "Feature", "properties": {"collection_times": [{"days": "Mon-Fri", "time": "2:00pm"}, {"days": "Sat", "time": "11:30am"}, {"days": "Sun", "time": "Closed"}], "id": "4533700001", "name": "USPS COLLECTION BOX - PO LOBBY", "address": {"city": "LAURA", "state": "OH", "street": "203 S MAIN ST", "postcode": "45337"}}},
{"geometry": {"type": "Point", "coordinates": [-84.5382038442, 39.8528170156]}, "type": "Feature", "properties": {"collection_times": [{"days": "Mon-Fri", "time": "4:15pm"}, {"days": "Sat", "time": "12:00pm"}, {"days": "Sun", "time": "Closed"}], "id": "4533800001", "name": "USPS COLLECTION BOX - BLUE BOX", "address": {"city": "LEWISBURG", "state": "OH", "street": "723 N COMMERCE ST", "postcode": "45338"}}},
{"geometry": {"type": "Point", "coordinates": [-84.5382038442, 39.8528170156]}, "type": "Feature", "properties": {"collection_times": [{"days": "Mon-Fri", "time": "4:15pm"}, {"days": "Sat", "time": "12:00pm"}, {"days": "Sun", "time": "Closed"}], "id": "4533800003", "name": "USPS COLLECTION BOX - PO LOBBY", "address": {"city": "LEWISBURG", "state": "OH", "street": "723 N COMMERCE ST", "postcode": "45338"}}},
{"geometry": {"type": "Point", "coordinates": [-84.5397047455, 39.8457746134]}, "type": "Feature", "properties": {"collection_times": [{"days": "Mon-Sat", "time": "10:30am"}, {"days": "Sun", "time": "Closed"}], "id": "4533800004", "name": "USPS COLLECTION BOX - BLUE BOX", "address": {"city": "LEWISBURG", "state": "OH", "street": "112 S COMMERCE ST", "postcode": "45338"}}},
{"geometry": {"type": "Point", "coordinates": [-84.3381398896, 39.9982115805]}, "type": "Feature", "properties": {"collection_times": [{"days": "Mon-Fri", "time": "2:00pm"}, {"days": "Sat", "time": "11:30am"}, {"days": "Sun", "time": "Closed"}], "id": "4533900001", "name": "USPS COLLECTION BOX - PO LOBBY", "address": {"city": "LUDLOW FALLS", "state": "OH", "street": "110 COVINGTON AVE", "postcode": "45339"}}},
{"geometry": {"type": "Point", "coordinates": [-84.3381398896, 39.9982115805]}, "type": "Feature", "properties": {"collection_times": [{"days": "Mon-Fri", "time": "2:00pm"}, {"days": "Sat", "time": "11:15am"}, {"days": "Sun", "time": "Closed"}], "id": "4533900002", "name": "USPS COLLECTION BOX - BLUE BOX", "address": {"city": "LUDLOW FALLS", "state": "OH", "street": "110 COVINGTON AVE", "postcode": "45339"}}},
{"geometry": {"type": "Point", "coordinates": [-84.018062815, 40.3762899012]}, "type": "Feature", "properties": {"collection_times": [{"days": "Mon-Fri", "time": "1:00pm"}, {"days": "Sat", "time": "11:15am"}, {"days": "Sun", "time": "Closed"}], "id": "4534000000", "name": "USPS COLLECTION BOX - BLUE BOX", "address": {"city": "MAPLEWOOD", "state": "OH", "street": "21611 MAPLEWOOD RD", "postcode": "45340"}}},
{"geometry": {"type": "Point", "coordinates": [-84.018062815, 40.3762899012]}, "type": "Feature", "properties": {"collection_times": [{"days": "Mon-Fri", "time": "1:00pm"}, {"days": "Sat", "time": "11:15am"}, {"days": "Sun", "time": "Closed"}], "id": "4534000001", "name": "USPS COLLECTION BOX - PO LOBBY", "address": {"city": "MAPLEWOOD", "state": "OH", "street": "21611 MAPLEWOOD RD", "postcode": "45340"}}},
{"geometry": {"type": "Point", "coordinates": [-84.0108825756, 39.881431814]}, "type": "Feature", "properties": {"collection_times": [{"days": "Mon-Fri", "time": "2:00pm"}, {"days": "Sat", "time": "12:00pm"}, {"days": "Sun", "time": "Closed"}], "id": "4534100000", "name": "USPS COLLECTION BOX - PO LOBBY", "address": {"city": "MEDWAY", "state": "OH", "street": "117 W MAIN ST", "postcode": "45341"}}},
{"geometry": {"type": "Point", "coordinates": [-84.0108825756, 39.881431814]}, "type": "Feature", "properties": {"collection_times": [{"days": "Mon-Fri", "time": "2:00pm"}, {"days": "Sat", "time": "12:00pm"}, {"days": "Sun", "time": "Closed"}], "id": "4534100001", "name": "USPS COLLECTION BOX - BLUE BOX", "address": {"city": "MEDWAY", "state": "OH", "street": "117 W MAIN ST", "postcode": "45341"}}},
{"geometry": {"type": "Point", "coordinates": [-84.0488431655, 39.8585531488]}, "type": "Feature", "properties": {"collection_times": [{"days": "Mon-Sat", "time": "10:30am"}, {"days": "Sun", "time": "Closed"}], "id": "4534100002", "name": "USPS COLLECTION BOX - BLUE BOX", "address": {"city": "MEDWAY", "state": "OH", "street": "12250 LOWER VALLEY PIKE", "postcode": "45341"}}},
{"geometry": {"type": "Point", "coordinates": [-84.2773289897, 39.6296742858]}, "type": "Feature", "properties": {"collection_times": [{"days": "Mon-Sat", "time": "2:00pm"}, {"days": "Sun", "time": "Closed"}], "id": "4534200015", "name": "USPS COLLECTION BOX - BLUE BOX", "address": {"city": "MIAMISBURG", "state": "OH", "street": "900 HUNT DR", "postcode": "45342"}}},
{"geometry": {"type": "Point", "coordinates": [-84.2261258934, 39.6076883861]}, "type": "Feature", "properties": {"collection_times": [{"days": "Mon-Sat", "time": "9:00am"}, {"days": "Sun", "time": "Closed"}], "id": "4534200016", "name": "USPS COLLECTION BOX - BLUE BOX", "address": {"city": "MIAMISBURG", "state": "OH", "street": "2835 MIAMI VILLAGE DR", "postcode": "45342"}}},
{"geometry": {"type": "Point", "coordinates": [-84.2649918231, 39.63712291]}, "type": "Feature", "properties": {"collection_times": [{"days": "Mon-Fri", "time": "5:00pm"}, {"days": "Sat", "time": "3:30pm"}, {"days": "Sun", "time": "Closed"}], "id": "4534200022", "name": "USPS COLLECTION BOX - BLUE BOX", "address": {"city": "MIAMISBURG", "state": "OH", "street": "240 S HEINCKE RD", "postcode": "45342"}}},
{"geometry": {"type": "Point", "coordinates": [-84.2649918231, 39.63712291]}, "type": "Feature", "properties": {"collection_times": [{"days": "Mon-Fri", "time": "5:00pm"}, {"days": "Sat", "time": "3:30pm"}, {"days": "Sun", "time": "Closed"}], "id": "4534200023", "name": "USPS COLLECTION BOX - BLUE BOX", "address": {"city": "MIAMISBURG", "state": "OH", "street": "240 S HEINCKE RD", "postcode": "45342"}}},
{"geometry": {"type": "Point", "coordinates": [-84.2649918231, 39.63712291]}, "type": "Feature", "properties": {"collection_times": [{"days": "Mon-Fri", "time": "5:00pm"}, {"days": "Sat", "time": "3:30pm"}, {"days": "Sun", "time": "Closed"}], "id": "4534200024", "name": "USPS COLLECTION BOX - BLUE BOX", "address": {"city": "MIAMISBURG", "state": "OH", "street": "240 S HEINCKE RD", "postcode": "45342"}}},
{"geometry": {"type": "Point", "coordinates": [-84.2649918231, 39.63712291]}, "type": "Feature", "properties": {"collection_times": [{"days": "Mon-Fri", "time": "5:00pm"}, {"days": "Sat", "time": "3:30pm"}, {"days": "Sun", "time": "Closed"}], "id": "4534200025", "name": "USPS COLLECTION BOX - BLUE BOX", "address": {"city": "MIAMISBURG", "state": "OH", "street": "240 S HEINCKE RD", "postcode": "45342"}}},
{"geometry": {"type": "Point", "coordinates": [-84.2649918231, 39.63712291]}, "type": "Feature", "properties": {"collection_times": [{"days": "Mon-Fri", "time": "5:00pm"}, {"days": "Sat", "time": "3:30pm"}, {"days": "Sun", "time": "Closed"}], "id": "4534200026", "name": "USPS COLLECTION BOX - PO LOBBY", "address": {"city": "MIAMISBURG", "state": "OH", "street": "240 S HEINCKE RD", "postcode": "45342"}}},
{"geometry": {"type": "Point", "coordinates": [-84.2773289897, 39.6296742858]}, "type": "Feature", "properties": {"collection_times": [{"days": "Mon-Sat", "time": "3:00pm"}, {"days": "Sun", "time": "Closed"}], "id": "4534200027", "name": "USPS COLLECTION BOX - BLUE BOX", "address": {"city": "MIAMISBURG", "state": "OH", "street": "4000 MIAMISBURG CENTERVILLE RD", "postcode": "45342"}}},
{"geometry": {"type": "Point", "coordinates": [-84.2370217432, 39.6257151234]}, "type": "Feature", "properties": {"collection_times": [{"days": "Mon-Sat", "time": "12:00pm"}, {"days": "Sun", "time": "Closed"}], "id": "4534200030", "name": "USPS COLLECTION BOX - BLUE BOX", "address": {"city": "MIAMISBURG", "state": "OH", "street": "2570 TECHNICAL DR", "postcode": "45342"}}},
{"geometry": {"type": "Point", "coordinates": [-84.2461258732, 39.5923564084]}, "type": "Feature", "properties": {"collection_times": [{"days": "Mon-Sat", "time": "10:30am"}, {"days": "Sun", "time": "Closed"}], "id": "4534200031", "name": "USPS COLLECTION BOX - BLUE BOX", "address": {"city": "MIAMISBURG", "state": "OH", "street": "10401 IMPERIAL CROWN BLVD", "postcode": "45342"}}},
{"geometry": {"type": "Point", "coordinates": [-84.2343243731, 39.6258499286]}, "type": "Feature", "properties": {"collection_times": [{"days": "Mon-Sat", "time": "10:00am"}, {"days": "Sun", "time": "Closed"}], "id": "4534200032", "name": "USPS COLLECTION BOX - BLUE BOX", "address": {"city": "MIAMISBURG", "state": "OH", "street": "8500 TREE TOP CT S", "postcode": "45342"}}},
{"geometry": {"type": "Point", "coordinates": [-84.2268329176, 39.6207668061]}, "type": "Feature", "properties": {"collection_times": [{"days": "Mon-Sat", "time": "3:00pm"}, {"days": "Sun", "time": "Closed"}], "id": "4534200039", "name": "USPS COLLECTION BOX - BLUE BOX", "address": {"city": "MIAMISBURG", "state": "OH", "street": "9009 SPRINGBORO PIKE", "postcode": "45342"}}},
{"geometry": {"type": "Point", "coordinates": [-84.2773289897, 39.6296742858]}, "type": "Feature", "properties": {"collection_times": [{"days": "Mon-Sat", "time": "3:00pm"}, {"days": "Sun", "time": "Closed"}], "id": "4534200040", "name": "USPS COLLECTION BOX - BLUE BOX", "address": {"city": "MIAMISBURG", "state": "OH", "street": "9900 GANDER CRK", "postcode": "45342"}}},
{"geometry": {"type": "Point", "coordinates": [-84.2268482961, 39.6192869244]}, "type": "Feature", "properties": {"collection_times": [{"days": "Mon-Sat", "time": "3:00pm"}, {"days": "Sun", "time": "Closed"}], "id": "4534200041", "name": "USPS COLLECTION BOX - BLUE BOX", "address": {"city": "MIAMISBURG", "state": "OH", "street": "9080 SPRINGBORO PIKE", "postcode": "45342"}}},
{"geometry": {"type": "Point", "coordinates": [-84.2646760267, 39.6425232908]}, "type": "Feature", "properties": {"collection_times": [{"days": "Mon-Sat", "time": "10:00am"}, {"days": "Sun", "time": "Closed"}], "id": "4534200047", "name": "USPS COLLECTION BOX - BLUE BOX", "address": {"city": "MIAMISBURG", "state": "OH", "street": "155 N HEINCKE RD", "postcode": "45342"}}},
{"geometry": {"type": "Point", "coordinates": [-84.2281199769, 39.6380202626]}, "type": "Feature", "properties": {"collection_times": [{"days": "Mon-Sat", "time": "12:00pm"}, {"days": "Sun", "time": "Closed"}], "id": "4534200051", "name": "USPS COLLECTION BOX - BLUE BOX", "address": {"city": "MIAMISBURG", "state": "OH", "street": "1 PRESTIGE PLAZA DR", "postcode": "45342"}}},
{"geometry": {"type": "Point", "coordinates": [-84.2279330617, 39.6384304092]}, "type": "Feature", "properties": {"collection_times": [{"days": "Mon-Sat", "time": "12:00pm"}, {"days": "Sun", "time": "Closed"}], "id": "4534200052", "name": "USPS COLLECTION BOX - BLUE BOX", "address": {"city": "MIAMISBURG", "state": "OH", "street": "2 PRESTIGE PLAZA DR", "postcode": "45342"}}},
{"geometry": {"type": "Point", "coordinates": [-84.222901935, 39.6132107989]}, "type": "Feature", "properties": {"collection_times": [{"days": "Mon-Sat", "time": "10:00am"}, {"days": "Sun", "time": "Closed"}], "id": "4534200055", "name": "USPS COLLECTION BOX - BLUE BOX", "address": {"city": "MIAMISBURG", "state": "OH", "street": "3091 SAGEBROOK DR", "postcode": "45342"}}},
{"geometry": {"type": "Point", "coordinates": [-84.2773289897, 39.6296742858]}, "type": "Feature", "properties": {"collection_times": [{"days": "Mon-Sat", "time": "3:00pm"}, {"days": "Sun", "time": "Closed"}], "id": "4534200056", "name": "USPS COLLECTION BOX - BLUE BOX", "address": {"city": "MIAMISBURG", "state": "OH", "street": "10800 W TECH RD", "postcode": "45342"}}},
{"geometry": {"type": "Point", "coordinates": [-84.2773289897, 39.6296742858]}, "type": "Feature", "properties": {"collection_times": [{"days": "Mon-Sat", "time": "3:00pm"}, {"days": "Sun", "time": "Closed"}], "id": "4534200057", "name": "USPS COLLECTION BOX - BLUE BOX", "address": {"city": "MIAMISBURG", "state": "OH", "street": "10800 W TECH RD", "postcode": "45342"}}},
{"geometry": {"type": "Point", "coordinates": [-84.2649918231, 39.63712291]}, "type": "Feature", "properties": {"collection_times": [{"days": "Mon-Fri", "time": "5:00pm"}, {"days": "Sat", "time": "3:30pm"}, {"days": "Sun", "time": "Closed"}], "id": "4534200058", "name": "USPS COLLECTION BOX - APC", "address": {"city": "MIAMISBURG", "state": "OH", "street": "240 S HEINCKE RD", "postcode": "45342"}}},
{"geometry": {"type": "Point", "coordinates": [-84.0256186954, 39.9408033415]}, "type": "Feature", "properties": {"collection_times": [{"days": "Mon-Fri", "time": "4:00pm"}, {"days": "Sat", "time": "3:00pm"}, {"days": "Sun", "time": "Closed"}], "id": "4534400001", "name": "USPS COLLECTION BOX - BLUE BOX", "address": {"city": "NEW CARLISLE", "state": "OH", "street": "107 W LAKE AVE", "postcode": "45344"}}},
{"geometry": {"type": "Point", "coordinates": [-84.0256186954, 39.9408033415]}, "type": "Feature", "properties": {"collection_times": [{"days": "Mon-Fri", "time": "4:00pm"}, {"days": "Sat", "time": "3:00pm"}, {"days": "Sun", "time": "Closed"}], "id": "4534400002", "name": "USPS COLLECTION BOX - BLUE BOX", "address": {"city": "NEW CARLISLE", "state": "OH", "street": "107 W LAKE AVE", "postcode": "45344"}}},
{"geometry": {"type": "Point", "coordinates": [-84.0250627047, 39.9361779719]}, "type": "Feature", "properties": {"collection_times": [{"days": "Mon-Sat", "time": "12:00pm"}, {"days": "Sun", "time": "Closed"}], "id": "4534400006", "name": "USPS COLLECTION BOX - BLUE BOX", "address": {"city": "NEW CARLISLE", "state": "OH", "street": "135 S MAIN ST", "postcode": "45344"}}},
{"geometry": {"type": "Point", "coordinates": [-84.0213389903, 39.9421364128]}, "type": "Feature", "properties": {"collection_times": [{"days": "Mon-Sat", "time": "9:30am"}, {"days": "Sun", "time": "Closed"}], "id": "4534400007", "name": "USPS COLLECTION BOX - BLUE BOX", "address": {"city": "NEW CARLISLE", "state": "OH", "street": "199 SUNRISE TER", "postcode": "45344"}}},
{"geometry": {"type": "Point", "coordinates": [-84.0242467868, 39.9444192578]}, "type": "Feature", "properties": {"collection_times": [{"days": "Mon-Sat", "time": "10:15am"}, {"days": "Sun", "time": "Closed"}], "id": "4534400012", "name": "USPS COLLECTION BOX - BLUE BOX", "address": {"city": "NEW CARLISLE", "state": "OH", "street": "534 N MAIN ST", "postcode": "45344"}}},
{"geometry": {"type": "Point", "coordinates": [-84.0442509523, 39.890067801]}, "type": "Feature", "properties": {"collection_times": [{"days": "Mon-Sat", "time": "2:00pm"}, {"days": "Sun", "time": "Closed"}], "id": "4534400015", "name": "USPS COLLECTION BOX - BLUE BOX", "address": {"city": "NEW CARLISLE", "state": "OH", "street": "1775 STYER DR", "postcode": "45344"}}},
{"geometry": {"type": "Point", "coordinates": [-84.0470769571, 39.8890499507]}, "type": "Feature", "properties": {"collection_times": [{"days": "Mon-Sat", "time": "2:00pm"}, {"days": "Sun", "time": "Closed"}], "id": "4534400017", "name": "USPS COLLECTION BOX - BLUE BOX", "address": {"city": "NEW CARLISLE", "state": "OH", "street": "610 MCADAMS DR", "postcode": "45344"}}},
{"geometry": {"type": "Point", "coordinates": [-84.0462116451, 39.8869869893]}, "type": "Feature", "properties": {"collection_times": [{"days": "Mon-Sat", "time": "10:30am"}, {"days": "Sun", "time": "Closed"}], "id": "4534400022", "name": "USPS COLLECTION BOX - BLUE BOX", "address": {"city": "NEW CARLISLE", "state": "OH", "street": "1791 DALTON DR", "postcode": "45344"}}},
{"geometry": {"type": "Point", "coordinates": [-84.0256186954, 39.9408033415]}, "type": "Feature", "properties": {"collection_times": [{"days": "Mon-Fri", "time": "4:00pm"}, {"days": "Sat", "time": "3:00pm"}, {"days": "Sun", "time": "Closed"}], "id": "4534400024", "name": "USPS COLLECTION BOX - PO LOBBY", "address": {"city": "NEW CARLISLE", "state": "OH", "street": "107 W LAKE AVE", "postcode": "45344"}}},
{"geometry": {"type": "Point", "coordinates": [-84.02097093, 39.9434569766]}, "type": "Feature", "properties": {"collection_times": [{"days": "Mon-Sat", "time": "9:30am"}, {"days": "Sun", "time": "Closed"}], "id": "4534400025", "name": "USPS COLLECTION BOX - BLUE BOX", "address": {"city": "NEW CARLISLE", "state": "OH", "street": "185 RACHEL CT", "postcode": "45344"}}},
{"geometry": {"type": "Point", "coordinates": [-84.3870977219, 39.7456818315]}, "type": "Feature", "properties": {"collection_times": [{"days": "Mon-Fri", "time": "4:30pm"}, {"days": "Sat", "time": "12:00pm"}, {"days": "Sun", "time": "Closed"}], "id": "4534500000", "name": "USPS COLLECTION BOX - BLUE BOX", "address": {"city": "NEW LEBANON", "state": "OH", "street": "77 W MAIN ST", "postcode": "45345"}}},
{"geometry": {"type": "Point", "coordinates": [-84.3962067923, 39.7454759842]}, "type": "Feature", "properties": {"collection_times": [{"days": "Mon-Sat", "time": "9:30am"}, {"days": "Sun", "time": "Closed"}], "id": "4534500003", "name": "USPS COLLECTION BOX - BLUE BOX", "address": {"city": "NEW LEBANON", "state": "OH", "street": "460 W MAIN ST", "postcode": "45345"}}},
{"geometry": {"type": "Point", "coordinates": [-84.3870977219, 39.7456818315]}, "type": "Feature", "properties": {"collection_times": [{"days": "Mon-Fri", "time": "4:30pm"}, {"days": "Sat", "time": "12:00pm"}, {"days": "Sun", "time": "Closed"}], "id": "4534500009", "name": "USPS COLLECTION BOX - PO LOBBY", "address": {"city": "NEW LEBANON", "state": "OH", "street": "77 W MAIN ST", "postcode": "45345"}}},
{"geometry": {"type": "Point", "coordinates": [-84.3870977219, 39.7456818315]}, "type": "Feature", "properties": {"collection_times": [{"days": "Mon-Fri", "time": "4:30pm"}, {"days": "Sat", "time": "12:00pm"}, {"days": "Sun", "time": "Closed"}], "id": "4534500010", "name": "USPS COLLECTION BOX - PO LOBBY", "address": {"city": "NEW LEBANON", "state": "OH", "street": "77 W MAIN ST", "postcode": "45345"}}},
{"geometry": {"type": "Point", "coordinates": [-84.708014905, 39.9676866422]}, "type": "Feature", "properties": {"collection_times": [{"days": "Mon-Fri", "time": "3:30pm"}, {"days": "Sat", "time": "11:45am"}, {"days": "Sun", "time": "Closed"}], "id": "4534600000", "name": "USPS COLLECTION BOX - BLUE BOX", "address": {"city": "NEW MADISON", "state": "OH", "street": "133 N HARRISON ST", "postcode": "45346"}}},
{"geometry": {"type": "Point", "coordinates": [-84.708014905, 39.9676866422]}, "type": "Feature", "properties": {"collection_times": [{"days": "Mon-Fri", "time": "3:15pm"}, {"days": "Sat", "time": "11:45am"}, {"days": "Sun", "time": "Closed"}], "id": "4534600001", "name": "USPS COLLECTION BOX - PO LOBBY", "address": {"city": "NEW MADISON", "state": "OH", "street": "133 N HARRISON ST", "postcode": "45346"}}},
{"geometry": {"type": "Point", "coordinates": [-84.8119956102, 39.8335190633]}, "type": "Feature", "properties": {"collection_times": [{"days": "Mon-Sat", "time": "9:00am"}, {"days": "Sun", "time": "Closed"}], "id": "4534700000", "name": "USPS COLLECTION BOX - BLUE BOX", "address": {"city": "NEW PARIS", "state": "OH", "street": "9787 US ROUTE 40 W", "postcode": "45347"}}},
{"geometry": {"type": "Point", "coordinates": [-84.7925857053, 39.854256155]}, "type": "Feature", "properties": {"collection_times": [{"days": "Mon-Fri", "time": "4:30pm"}, {"days": "Sat", "time": "12:30pm"}, {"days": "Sun", "time": "Closed"}], "id": "4534700005", "name": "USPS COLLECTION BOX - PO LOBBY", "address": {"city": "NEW PARIS", "state": "OH", "street": "306 S WASHINGTON ST", "postcode": "45347"}}},
{"geometry": {"type": "Point", "coordinates": [-84.7925857053, 39.854256155]}, "type": "Feature", "properties": {"collection_times": [{"days": "Mon-Fri", "time": "4:30pm"}, {"days": "Sat", "time": "12:30pm"}, {"days": "Sun", "time": "Closed"}], "id": "4534700006", "name": "USPS COLLECTION BOX - BLUE BOX", "address": {"city": "NEW PARIS", "state": "OH", "street": "306 S WASHINGTON ST", "postcode": "45347"}}},
{"geometry": {"type": "Point", "coordinates": [-83.9399961255, 39.9906153776]}, "type": "Feature", "properties": {"collection_times": [{"days": "Mon-Fri", "time": "3:00pm"}, {"days": "Sat", "time": "12:00pm"}, {"days": "Sun", "time": "Closed"}], "id": "4534900000", "name": "USPS COLLECTION BOX - PO LOBBY", "address": {"city": "NORTH HAMPTON", "state": "OH", "street": "23 N MAIN ST", "postcode": "45349"}}},
{"geometry": {"type": "Point", "coordinates": [-83.9399961255, 39.9906153776]}, "type": "Feature", "properties": {"collection_times": [{"days": "Mon-Fri", "time": "3:00pm"}, {"days": "Sat", "time": "11:45am"}, {"days": "Sun", "time": "Closed"}], "id": "4534900001", "name": "USPS COLLECTION BOX - BLUE BOX", "address": {"city": "NORTH HAMPTON", "state": "OH", "street": "23 N MAIN ST", "postcode": "45349"}}},
{"geometry": {"type": "Point", "coordinates": [-84.5680912217, 40.3244793596]}, "type": "Feature", "properties": {"collection_times": [{"days": "Mon-Fri", "time": "2:00pm"}, {"days": "Sat", "time": "10:15am"}, {"days": "Sun", "time": "Closed"}], "id": "4535000000", "name": "USPS COLLECTION BOX - BLUE BOX", "address": {"city": "NORTH STAR", "state": "OH", "street": "4 S MAIN ST", "postcode": "45350"}}},
{"geometry": {"type": "Point", "coordinates": [-84.5680912217, 40.3244793596]}, "type": "Feature", "properties": {"collection_times": [{"days": "Mon-Fri", "time": "2:00pm"}, {"days": "Sat", "time": "10:00am"}, {"days": "Sun", "time": "Closed"}], "id": "4535000001", "name": "USPS COLLECTION BOX - PO LOBBY", "address": {"city": "NORTH STAR", "state": "OH", "street": "4 S MAIN ST", "postcode": "45350"}}},
{"geometry": {"type": "Point", "coordinates": [-84.4955129268, 40.3397940075]}, "type": "Feature", "properties": {"collection_times": [{"days": "Mon-Fri", "time": "1:00pm"}, {"days": "Sat", "time": "10:30am"}, {"days": "Sun", "time": "Closed"}], "id": "4535100000", "name": "USPS COLLECTION BOX - PO LOBBY", "address": {"city": "OSGOOD", "state": "OH", "street": "24 W MAIN ST", "postcode": "45351"}}},
{"geometry": {"type": "Point", "coordinates": [-84.4955129268, 40.3397940075]}, "type": "Feature", "properties": {"collection_times": [{"days": "Mon-Fri", "time": "1:00pm"}, {"days": "Sat", "time": "10:30am"}, {"days": "Sun", "time": "Closed"}], "id": "4535100001", "name": "USPS COLLECTION BOX - BLUE BOX", "address": {"city": "OSGOOD", "state": "OH", "street": "24 W MAIN ST", "postcode": "45351"}}},
{"geometry": {"type": "Point", "coordinates": [-84.7437826548, 40.0496583355]}, "type": "Feature", "properties": {"collection_times": [{"days": "Mon-Fri", "time": "2:00pm"}, {"days": "Sat", "time": "11:45am"}, {"days": "Sun", "time": "Closed"}], "id": "4535200000", "name": "USPS COLLECTION BOX - BLUE BOX", "address": {"city": "PALESTINE", "state": "OH", "street": "105 W CROSS ST", "postcode": "45352"}}},
{"geometry": {"type": "Point", "coordinates": [-84.7437826548, 40.0496583355]}, "type": "Feature", "properties": {"collection_times": [{"days": "Mon-Fri", "time": "2:00pm"}, {"days": "Sat", "time": "11:45am"}, {"days": "Sun", "time": "Closed"}], "id": "4535200001", "name": "USPS COLLECTION BOX - PO LOBBY", "address": {"city": "PALESTINE", "state": "OH", "street": "105 W CROSS ST", "postcode": "45352"}}},
{"geometry": {"type": "Point", "coordinates": [-84.0335123361, 40.2949852836]}, "type": "Feature", "properties": {"collection_times": [{"days": "Mon-Fri", "time": "2:00pm"}, {"days": "Sat", "time": "11:45am"}, {"days": "Sun", "time": "Closed"}], "id": "4535300000", "name": "USPS COLLECTION BOX - BLUE BOX", "address": {"city": "PEMBERTON", "state": "OH", "street": "6673 PALESTINE ST", "postcode": "45353"}}},
{"geometry": {"type": "Point", "coordinates": [-84.0335123361, 40.2949852836]}, "type": "Feature", "properties": {"collection_times": [{"days": "Mon-Fri", "time": "2:00pm"}, {"days": "Sat", "time": "11:45am"}, {"days": "Sun", "time": "Closed"}], "id": "4535300001", "name": "USPS COLLECTION BOX - PO LOBBY", "address": {"city": "PEMBERTON", "state": "OH", "street": "6673 PALESTINE ST", "postcode": "45353"}}},
{"geometry": {"type": "Point", "coordinates": [-84.4011523733, 39.9046508171]}, "type": "Feature", "properties": {"collection_times": [{"days": "Mon-Sat", "time": "12:00pm"}, {"days": "Sun", "time": "Closed"}], "id": "4535400000", "name": "USPS COLLECTION BOX - BLUE BOX", "address": {"city": "PHILLIPSBURG", "state": "OH", "street": "15 E MAIN ST", "postcode": "45354"}}},
{"geometry": {"type": "Point", "coordinates": [-84.4011523733, 39.9046508171]}, "type": "Feature", "properties": {"collection_times": [{"days": "Mon-Sat", "time": "12:00pm"}, {"days": "Sun", "time": "Closed"}], "id": "4535400001", "name": "USPS COLLECTION BOX - PO LOBBY", "address": {"city": "PHILLIPSBURG", "state": "OH", "street": "15 E MAIN ST", "postcode": "45354"}}},
{"geometry": {"type": "Point", "coordinates": [-84.241056749, 40.1476674711]}, "type": "Feature", "properties": {"collection_times": [{"days": "Mon-Fri", "time": "4:30pm"}, {"days": "Sat", "time": "3:30pm"}, {"days": "Sun", "time": "Closed"}], "id": "4535600000", "name": "USPS COLLECTION BOX - PO LOBBY", "address": {"city": "PIQUA", "state": "OH", "street": "220 N WAYNE ST", "postcode": "45356"}}},
{"geometry": {"type": "Point", "coordinates": [-84.241056749, 40.1476674711]}, "type": "Feature", "properties": {"collection_times": [{"days": "Mon-Fri", "time": "4:30pm"}, {"days": "Sat", "time": "3:30pm"}, {"days": "Sun", "time": "Closed"}], "id": "4535600001", "name": "USPS COLLECTION BOX - PO LOBBY", "address": {"city": "PIQUA", "state": "OH", "street": "220 N WAYNE ST", "postcode": "45356"}}},
{"geometry": {"type": "Point", "coordinates": [-84.2400415681, 40.1508615703]}, "type": "Feature", "properties": {"collection_times": [{"days": "Mon-Fri", "time": "10:45am"}, {"days": "Sat", "time": "9:45am"}, {"days": "Sun", "time": "Closed"}], "id": "4535600003", "name": "USPS COLLECTION BOX - BLUE BOX", "address": {"city": "PIQUA", "state": "OH", "street": "124 W GREENE ST", "postcode": "45356"}}},
{"geometry": {"type": "Point", "coordinates": [-84.2393160182, 40.1487435468]}, "type": "Feature", "properties": {"collection_times": [{"days": "Mon-Fri", "time": "3:00pm"}, {"days": "Sat", "time": "2:30pm"}, {"days": "Sun", "time": "Closed"}], "id": "4535600007", "name": "USPS COLLECTION BOX - BLUE BOX", "address": {"city": "PIQUA", "state": "OH", "street": "120 E HIGH ST", "postcode": "45356"}}},
{"geometry": {"type": "Point", "coordinates": [-84.2175920364, 40.1508769396]}, "type": "Feature", "properties": {"collection_times": [{"days": "Mon-Sat", "time": "10:00am"}, {"days": "Sun", "time": "Closed"}], "id": "4535600011", "name": "USPS COLLECTION BOX - BLUE BOX", "address": {"city": "PIQUA", "state": "OH", "street": "987 E ASH ST", "postcode": "45356"}}},
{"geometry": {"type": "Point", "coordinates": [-84.2481740044, 40.1484895086]}, "type": "Feature", "properties": {"collection_times": [{"days": "Mon-Sat", "time": "1:30pm"}, {"days": "Sun", "time": "Closed"}], "id": "4535600019", "name": "USPS COLLECTION BOX - BLUE BOX", "address": {"city": "PIQUA", "state": "OH", "street": "633 W HIGH ST", "postcode": "45356"}}},
{"geometry": {"type": "Point", "coordinates": [-84.2662417854, 40.1416789575]}, "type": "Feature", "properties": {"collection_times": [{"days": "Mon-Sat", "time": "10:00am"}, {"days": "Sun", "time": "Closed"}], "id": "4535600023", "name": "USPS COLLECTION BOX - BLUE BOX", "address": {"city": "PIQUA", "state": "OH", "street": "1510 COVINGTON AVE", "postcode": "45356"}}},
{"geometry": {"type": "Point", "coordinates": [-84.2485407714, 40.1406822336]}, "type": "Feature", "properties": {"collection_times": [{"days": "Mon-Sat", "time": "9:00am"}, {"days": "Sun", "time": "Closed"}], "id": "4535600024", "name": "USPS COLLECTION BOX - BLUE BOX", "address": {"city": "PIQUA", "state": "OH", "street": "600 SOUTH ST", "postcode": "45356"}}},
{"geometry": {"type": "Point", "coordinates": [-84.2708645291, 40.1525638935]}, "type": "Feature", "properties": {"collection_times": [{"days": "Mon-Sat", "time": "12:30pm"}, {"days": "Sun", "time": "Closed"}], "id": "4535600029", "name": "USPS COLLECTION BOX - BLUE BOX", "address": {"city": "PIQUA", "state": "OH", "street": "1712 PARK AVE", "postcode": "45356"}}},
{"geometry": {"type": "Point", "coordinates": [-84.2596415412, 40.1379637927]}, "type": "Feature", "properties": {"collection_times": [{"days": "Mon-Sat", "time": "1:00pm"}, {"days": "Sun", "time": "Closed"}], "id": "4535600031", "name": "USPS COLLECTION BOX - BLUE BOX", "address": {"city": "PIQUA", "state": "OH", "street": "538 MCKINLEY AVE", "postcode": "45356"}}},
{"geometry": {"type": "Point", "coordinates": [-84.2110913724, 40.1508008688]}, "type": "Feature", "properties": {"collection_times": [{"days": "Mon-Sat", "time": "10:30am"}, {"days": "Sun", "time": "Closed"}], "id": "4535600034", "name": "USPS COLLECTION BOX - BLUE BOX", "address": {"city": "PIQUA", "state": "OH", "street": "1300 E ASH ST", "postcode": "45356"}}},
{"geometry": {"type": "Point", "coordinates": [-84.2056988323, 40.1477811808]}, "type": "Feature", "properties": {"collection_times": [{"days": "Mon-Sat", "time": "11:00am"}, {"days": "Sun", "time": "Closed"}], "id": "4535600035", "name": "USPS COLLECTION BOX - BLUE BOX", "address": {"city": "PIQUA", "state": "OH", "street": "1240 GARBRY RD", "postcode": "45356"}}},
{"geometry": {"type": "Point", "coordinates": [-84.4873271407, 39.98814227]}, "type": "Feature", "properties": {"collection_times": [{"days": "Mon-Fri", "time": "12:00pm"}, {"days": "Sat", "time": "10:30am"}, {"days": "Sun", "time": "Closed"}], "id": "4535800000", "name": "USPS COLLECTION BOX - BLUE BOX", "address": {"city": "PITSBURG", "state": "OH", "street": "100 N JEFFERSON ST", "postcode": "45358"}}},
{"geometry": {"type": "Point", "coordinates": [-84.4873271407, 39.98814227]}, "type": "Feature", "properties": {"collection_times": [{"days": "Mon-Fri", "time": "12:00pm"}, {"days": "Sat", "time": "10:30am"}, {"days": "Sun", "time": "Closed"}], "id": "4535800001", "name": "USPS COLLECTION BOX - PO LOBBY", "address": {"city": "PITSBURG", "state": "OH", "street": "100 N JEFFERSON ST", "postcode": "45358"}}},
{"geometry": {"type": "Point", "coordinates": [-84.3442526275, 40.0529746556]}, "type": "Feature", "properties": {"collection_times": [{"days": "Mon-Fri", "time": "4:30pm"}, {"days": "Sat", "time": "12:00pm"}, {"days": "Sun", "time": "Closed"}], "id": "4535900000", "name": "USPS COLLECTION BOX - BLUE BOX", "address": {"city": "PLEASANT HILL", "state": "OH", "street": "102 N MAIN ST", "postcode": "45359"}}},
{"geometry": {"type": "Point", "coordinates": [-84.3442526275, 40.0529746556]}, "type": "Feature", "properties": {"collection_times": [{"days": "Mon-Fri", "time": "4:30pm"}, {"days": "Sat", "time": "12:00pm"}, {"days": "Sun", "time": "Closed"}], "id": "4535900001", "name": "USPS COLLECTION BOX - PO LOBBY", "address": {"city": "PLEASANT HILL", "state": "OH", "street": "102 N MAIN ST", "postcode": "45359"}}},
{"geometry": {"type": "Point", "coordinates": [-84.0940437591, 40.3286367609]}, "type": "Feature", "properties": {"collection_times": [{"days": "Mon-Fri", "time": "2:00pm"}, {"days": "Sat", "time": "11:45am"}, {"days": "Sun", "time": "Closed"}], "id": "4536000000", "name": "USPS COLLECTION BOX - BLUE BOX", "address": {"city": "PORT JEFFERSON", "state": "OH", "street": "109 E MAIN ST", "postcode": "45360"}}},
{"geometry": {"type": "Point", "coordinates": [-84.0940437591, 40.3286367609]}, "type": "Feature", "properties": {"collection_times": [{"days": "Mon-Fri", "time": "2:00pm"}, {"days": "Sat", "time": "11:45am"}, {"days": "Sun", "time": "Closed"}], "id": "4536000001", "name": "USPS COLLECTION BOX - PO LOBBY", "address": {"city": "PORT JEFFERSON", "state": "OH", "street": "109 E MAIN ST", "postcode": "45360"}}},
{"geometry": {"type": "Point", "coordinates": [-84.4049367956, 39.9634209475]}, "type": "Feature", "properties": {"collection_times": [{"days": "Mon-Sat", "time": "11:45am"}, {"days": "Sun", "time": "Closed"}], "id": "4536100000", "name": "USPS COLLECTION BOX - PO LOBBY", "address": {"city": "POTSDAM", "state": "OH", "street": "2 W CROSS ST", "postcode": "45361"}}},
{"geometry": {"type": "Point", "coordinates": [-84.4049367956, 39.9634209475]}, "type": "Feature", "properties": {"collection_times": [{"days": "Mon-Sat", "time": "11:45am"}, {"days": "Sun", "time": "Closed"}], "id": "4536100001", "name": "USPS COLLECTION BOX - BLUE BOX", "address": {"city": "POTSDAM", "state": "OH", "street": "2 W CROSS ST", "postcode": "45361"}}},
{"geometry": {"type": "Point", "coordinates": [-84.6372379093, 40.2802565243]}, "type": "Feature", "properties": {"collection_times": [{"days": "Mon-Fri", "time": "2:00pm"}, {"days": "Sat", "time": "10:45am"}, {"days": "Sun", "time": "Closed"}], "id": "4536200000", "name": "USPS COLLECTION BOX - PO LOBBY", "address": {"city": "ROSSBURG", "state": "OH", "street": "201 N BROAD ST", "postcode": "45362"}}},
{"geometry": {"type": "Point", "coordinates": [-84.6372379093, 40.2802565243]}, "type": "Feature", "properties": {"collection_times": [{"days": "Mon-Fri", "time": "2:00pm"}, {"days": "Sat", "time": "10:45am"}, {"days": "Sun", "time": "Closed"}], "id": "4536200001", "name": "USPS COLLECTION BOX - BLUE BOX", "address": {"city": "ROSSBURG", "state": "OH", "street": "201 N BROAD ST", "postcode": "45362"}}},
{"geometry": {"type": "Point", "coordinates": [-84.4116995931, 40.2338307892]}, "type": "Feature", "properties": {"collection_times": [{"days": "Mon-Fri", "time": "2:00pm"}, {"days": "Sat", "time": "12:00pm"}, {"days": "Sun", "time": "Closed"}], "id": "4536300000", "name": "USPS COLLECTION BOX - PO LOBBY", "address": {"city": "RUSSIA", "state": "OH", "street": "234 W MAIN ST", "postcode": "45363"}}},
{"geometry": {"type": "Point", "coordinates": [-84.4116995931, 40.2338307892]}, "type": "Feature", "properties": {"collection_times": [{"days": "Mon-Fri", "time": "2:00pm"}, {"days": "Sat", "time": "12:00pm"}, {"days": "Sun", "time": "Closed"}], "id": "4536300001", "name": "USPS COLLECTION BOX - BLUE BOX", "address": {"city": "RUSSIA", "state": "OH", "street": "234 W MAIN ST", "postcode": "45363"}}},
{"geometry": {"type": "Point", "coordinates": [-84.1580990073, 40.2860010926]}, "type": "Feature", "properties": {"collection_times": [{"days": "Mon-Fri", "time": "5:00pm"}, {"days": "Sat", "time": "3:30pm"}, {"days": "Sun", "time": "Closed"}], "id": "4536500000", "name": "USPS COLLECTION BOX - BLUE BOX", "address": {"city": "SIDNEY", "state": "OH", "street": "130 N WEST ST", "postcode": "45365"}}},
{"geometry": {"type": "Point", "coordinates": [-84.155113091, 40.3022683227]}, "type": "Feature", "properties": {"collection_times": [{"days": "Mon-Sat", "time": "10:00am"}, {"days": "Sun", "time": "Closed"}], "id": "4536500014", "name": "USPS COLLECTION BOX - BLUE BOX", "address": {"city": "SIDNEY", "state": "OH", "street": "1500 N MAIN AVE", "postcode": "45365"}}},
{"geometry": {"type": "Point", "coordinates": [-84.1590273256, 40.2830279569]}, "type": "Feature", "properties": {"collection_times": [{"days": "Mon-Sat", "time": "9:00am"}, {"days": "Sun", "time": "Closed"}], "id": "4536500017", "name": "USPS COLLECTION BOX - BLUE BOX", "address": {"city": "SIDNEY", "state": "OH", "street": "1222 WAPAK AVE", "postcode": "45365"}}},
{"geometry": {"type": "Point", "coordinates": [-84.1854306681, 40.287873968]}, "type": "Feature", "properties": {"collection_times": [{"days": "Mon-Sat", "time": "2:00pm"}, {"days": "Sun", "time": "Closed"}], "id": "4536500023", "name": "USPS COLLECTION BOX - BLUE BOX", "address": {"city": "SIDNEY", "state": "OH", "street": "2030 MICHIGAN ST", "postcode": "45365"}}},
{"geometry": {"type": "Point", "coordinates": [-84.1660532707, 40.2766737895]}, "type": "Feature", "properties": {"collection_times": [{"days": "Mon-Sat", "time": "3:00pm"}, {"days": "Sun", "time": "Closed"}], "id": "4536500028", "name": "USPS COLLECTION BOX - BLUE BOX", "address": {"city": "SIDNEY", "state": "OH", "street": "822 FAIR RD", "postcode": "45365"}}},
{"geometry": {"type": "Point", "coordinates": [-84.1349192156, 40.2842831564]}, "type": "Feature", "properties": {"collection_times": [{"days": "Mon-Sat", "time": "9:00am"}, {"days": "Sun", "time": "Closed"}], "id": "4536500029", "name": "USPS COLLECTION BOX - BLUE BOX", "address": {"city": "SIDNEY", "state": "OH", "street": "220 DOORLEY RD", "postcode": "45365"}}},
{"geometry": {"type": "Point", "coordinates": [-84.1689873867, 40.2878784204]}, "type": "Feature", "properties": {"collection_times": [{"days": "Mon-Sat", "time": "3:00pm"}, {"days": "Sun", "time": "Closed"}], "id": "4536500030", "name": "USPS COLLECTION BOX - BLUE BOX", "address": {"city": "SIDNEY", "state": "OH", "street": "915 MICHIGAN ST", "postcode": "45365"}}},
{"geometry": {"type": "Point", "coordinates": [-84.1567240235, 40.2860625022]}, "type": "Feature", "properties": {"collection_times": [{"days": "Mon-Fri", "time": "5:00pm"}, {"days": "Sat", "time": "3:30pm"}, {"days": "Sun", "time": "Closed"}], "id": "4536500035", "name": "USPS COLLECTION BOX - PO LOBBY", "address": {"city": "SIDNEY", "state": "OH", "street": "135 N OHIO AVE", "postcode": "45365"}}},
{"geometry": {"type": "Point", "coordinates": [-84.1580990073, 40.2860010926]}, "type": "Feature", "properties": {"collection_times": [{"days": "Mon-Fri", "time": "5:00pm"}, {"days": "Sat", "time": "3:30pm"}, {"days": "Sun", "time": "Closed"}], "id": "4536500036", "name": "USPS COLLECTION BOX - BLUE BOX", "address": {"city": "SIDNEY", "state": "OH", "street": "130 N WEST ST", "postcode": "45365"}}},
{"geometry": {"type": "Point", "coordinates": [-84.158132379, 40.286033457]}, "type": "Feature", "properties": {"collection_times": [{"days": "Mon-Fri", "time": "5:00pm"}, {"days": "Sat", "time": "3:30pm"}, {"days": "Sun", "time": "Closed"}], "id": "4536500037", "name": "USPS COLLECTION BOX - BLUE BOX", "address": {"city": "SIDNEY", "state": "OH", "street": "130 N WEST ST", "postcode": "45365"}}},
{"geometry": {"type": "Point", "coordinates": [-84.1581323785, 40.2860334572]}, "type": "Feature", "properties": {"collection_times": [{"days": "Mon-Fri", "time": "5:00pm"}, {"days": "Sat", "time": "3:30pm"}, {"days": "Sun", "time": "Closed"}], "id": "4536500038", "name": "USPS COLLECTION BOX - BLUE BOX", "address": {"city": "SIDNEY", "state": "OH", "street": "130 N WEST ST", "postcode": "45365"}}},
{"geometry": {"type": "Point", "coordinates": [-83.634384542, 39.824164358]}, "type": "Feature", "properties": {"collection_times": [{"days": "Mon-Fri", "time": "4:15pm"}, {"days": "Sat", "time": "11:15am"}, {"days": "Sun", "time": "Closed"}], "id": "4536800000", "name": "USPS COLLECTION BOX - BLUE BOX", "address": {"city": "S CHARLESTON", "state": "OH", "street": "125 S CHILLICOTHE ST", "postcode": "45368"}}},
{"geometry": {"type": "Point", "coordinates": [-83.634384542, 39.824164358]}, "type": "Feature", "properties": {"collection_times": [{"days": "Mon-Fri", "time": "4:30pm"}, {"days": "Sat", "time": "11:30am"}, {"days": "Sun", "time": "Closed"}], "id": "4536800001", "name": "USPS COLLECTION BOX - PO LOBBY", "address": {"city": "S CHARLESTON", "state": "OH", "street": "125 S CHILLICOTHE ST", "postcode": "45368"}}},
{"geometry": {"type": "Point", "coordinates": [-83.6178240171, 39.927307181]}, "type": "Feature", "properties": {"collection_times": [{"days": "Mon-Fri", "time": "4:00pm"}, {"days": "Sat", "time": "11:30am"}, {"days": "Sun", "time": "Closed"}], "id": "4536900000", "name": "USPS COLLECTION BOX - PO LOBBY", "address": {"city": "SOUTH VIENNA", "state": "OH", "street": "21 1/2 W MAIN ST", "postcode": "45369"}}},
{"geometry": {"type": "Point", "coordinates": [-83.6178240171, 39.927307181]}, "type": "Feature", "properties": {"collection_times": [{"days": "Mon-Fri", "time": "4:00pm"}, {"days": "Sat", "time": "11:30am"}, {"days": "Sun", "time": "Closed"}], "id": "4536900001", "name": "USPS COLLECTION BOX - BLUE BOX", "address": {"city": "SOUTH VIENNA", "state": "OH", "street": "21 1/2 W MAIN ST", "postcode": "45369"}}},
{"geometry": {"type": "Point", "coordinates": [-84.0128698208, 39.6065253539]}, "type": "Feature", "properties": {"collection_times": [{"days": "Mon-Fri", "time": "2:00pm"}, {"days": "Sat", "time": "11:30am"}, {"days": "Sun", "time": "Closed"}], "id": "4537000000", "name": "USPS COLLECTION BOX - BLUE BOX", "address": {"city": "SPRING VALLEY", "state": "OH", "street": "9 W MAIN ST", "postcode": "45370"}}},
{"geometry": {"type": "Point", "coordinates": [-84.0128698208, 39.6065253539]}, "type": "Feature", "properties": {"collection_times": [{"days": "Mon-Fri", "time": "2:00pm"}, {"days": "Sat", "time": "11:30am"}, {"days": "Sun", "time": "Closed"}], "id": "4537000001", "name": "USPS COLLECTION BOX - PO LOBBY", "address": {"city": "SPRING VALLEY", "state": "OH", "street": "9 W MAIN ST", "postcode": "45370"}}},
{"geometry": {"type": "Point", "coordinates": [-84.1812227751, 39.96758626]}, "type": "Feature", "properties": {"collection_times": [{"days": "Mon-Fri", "time": "5:00pm"}, {"days": "Sat", "time": "3:15pm"}, {"days": "Sun", "time": "Closed"}], "id": "4537100000", "name": "USPS COLLECTION BOX - PO LOBBY", "address": {"city": "TIPP CITY", "state": "OH", "street": "520 N HYATT ST", "postcode": "45371"}}},
{"geometry": {"type": "Point", "coordinates": [-84.1812227751, 39.96758626]}, "type": "Feature", "properties": {"collection_times": [{"days": "Mon-Fri", "time": "5:00pm"}, {"days": "Sat", "time": "3:15pm"}, {"days": "Sun", "time": "Closed"}], "id": "4537100001", "name": "USPS COLLECTION BOX - BLUE BOX", "address": {"city": "TIPP CITY", "state": "OH", "street": "520 N HYATT ST", "postcode": "45371"}}},
{"geometry": {"type": "Point", "coordinates": [-84.1857284178, 39.9609371138]}, "type": "Feature", "properties": {"collection_times": [{"days": "Mon-Sat", "time": "12:00pm"}, {"days": "Sun", "time": "Closed"}], "id": "4537100015", "name": "USPS COLLECTION BOX - BLUE BOX", "address": {"city": "TIPP CITY", "state": "OH", "street": "935 W MAIN ST", "postcode": "45371"}}},
{"geometry": {"type": "Point", "coordinates": [-83.835718466, 40.0115235721]}, "type": "Feature", "properties": {"collection_times": [{"days": "Mon-Sat", "time": "10:00am"}, {"days": "Sun", "time": "Closed"}], "id": "4537200004", "name": "USPS COLLECTION BOX - BLUE BOX", "address": {"city": "TREMONT CITY", "state": "OH", "street": "3 W MAIN ST", "postcode": "45372"}}},
{"geometry": {"type": "Point", "coordinates": [-84.2055019676, 40.0365968544]}, "type": "Feature", "properties": {"collection_times": [{"days": "Mon-Fri", "time": "5:00pm"}, {"days": "Sat", "time": "4:15pm"}, {"days": "Sun", "time": "Closed"}], "id": "4537300000", "name": "USPS COLLECTION BOX - PO LOBBY", "address": {"city": "TROY", "state": "OH", "street": "305 S MARKET ST", "postcode": "45373"}}},
{"geometry": {"type": "Point", "coordinates": [-84.2055019676, 40.0365968544]}, "type": "Feature", "properties": {"collection_times": [{"days": "Mon-Fri", "time": "5:00pm"}, {"days": "Sat", "time": "4:15pm"}, {"days": "Sun", "time": "Closed"}], "id": "4537300001", "name": "USPS COLLECTION BOX - PO LOBBY", "address": {"city": "TROY", "state": "OH", "street": "305 S MARKET ST", "postcode": "45373"}}},
{"geometry": {"type": "Point", "coordinates": [-84.2045749756, 40.0360952714]}, "type": "Feature", "properties": {"collection_times": [{"days": "Mon-Fri", "time": "5:00pm"}, {"days": "Sat", "time": "4:15pm"}, {"days": "Sun", "time": "Closed"}], "id": "4537300003", "name": "USPS COLLECTION BOX - BLUE BOX", "address": {"city": "TROY", "state": "OH", "street": "311 S WALNUT ST", "postcode": "45373"}}},
{"geometry": {"type": "Point", "coordinates": [-84.2045749756, 40.0360952714]}, "type": "Feature", "properties": {"collection_times": [{"days": "Mon-Fri", "time": "5:00pm"}, {"days": "Sat", "time": "4:15pm"}, {"days": "Sun", "time": "Closed"}], "id": "4537300004", "name": "USPS COLLECTION BOX - BLUE BOX", "address": {"city": "TROY", "state": "OH", "street": "311 S WALNUT ST", "postcode": "45373"}}},
{"geometry": {"type": "Point", "coordinates": [-84.2072752974, 40.041390044]}, "type": "Feature", "properties": {"collection_times": [{"days": "Mon-Sat", "time": "3:00pm"}, {"days": "Sun", "time": "Closed"}], "id": "4537300013", "name": "USPS COLLECTION BOX - BLUE BOX", "address": {"city": "TROY", "state": "OH", "street": "419 W MAIN ST", "postcode": "45373"}}},
{"geometry": {"type": "Point", "coordinates": [-84.2368962805, 40.0542939695]}, "type": "Feature", "properties": {"collection_times": [{"days": "Mon-Sat", "time": "1:30pm"}, {"days": "Sun", "time": "Closed"}], "id": "4537300015", "name": "USPS COLLECTION BOX - BLUE BOX", "address": {"city": "TROY", "state": "OH", "street": "1801 W MAIN ST", "postcode": "45373"}}},
{"geometry": {"type": "Point", "coordinates": [-84.2195710482, 40.029798017]}, "type": "Feature", "properties": {"collection_times": [{"days": "Mon-Sat", "time": "10:00am"}, {"days": "Sun", "time": "Closed"}], "id": "4537300034", "name": "USPS COLLECTION BOX - BLUE BOX", "address": {"city": "TROY", "state": "OH", "street": "751 W MARKET ST", "postcode": "45373"}}},
{"geometry": {"type": "Point", "coordinates": [-84.2052525299, 40.0405140637]}, "type": "Feature", "properties": {"collection_times": [{"days": "Mon-Fri", "time": "3:00pm"}, {"days": "Sat", "time": "9:00am"}, {"days": "Sun", "time": "Closed"}], "id": "4537300038", "name": "USPS COLLECTION BOX - BLUE BOX", "address": {"city": "TROY", "state": "OH", "street": "201 W MAIN ST", "postcode": "45373"}}},
{"geometry": {"type": "Point", "coordinates": [-84.2055019676, 40.0365968544]}, "type": "Feature", "properties": {"collection_times": [{"days": "Mon-Fri", "time": "5:00pm"}, {"days": "Sat", "time": "4:15pm"}, {"days": "Sun", "time": "Closed"}], "id": "4537300051", "name": "USPS COLLECTION BOX - APC", "address": {"city": "TROY", "state": "OH", "street": "305 S MARKET ST", "postcode": "45373"}}},
{"geometry": {"type": "Point", "coordinates": [-84.1936506366, 40.0502803287]}, "type": "Feature", "properties": {"collection_times": [{"days": "Mon-Fri", "time": "3:00pm"}, {"days": "Sat", "time": "9:00am"}, {"days": "Sun", "time": "Closed"}], "id": "4537300052", "name": "USPS COLLECTION BOX - BLUE BOX", "address": {"city": "TROY", "state": "OH", "street": "934 N MARKET ST", "postcode": "45373"}}},
{"geometry": {"type": "Point", "coordinates": [-84.2045749756, 40.0360952714]}, "type": "Feature", "properties": {"collection_times": [{"days": "Mon-Fri", "time": "5:00pm"}, {"days": "Sat", "time": "4:15pm"}, {"days": "Sun", "time": "Closed"}], "id": "4537300054", "name": "USPS COLLECTION BOX - BLUE BOX", "address": {"city": "TROY", "state": "OH", "street": "311 S WALNUT ST", "postcode": "45373"}}},
{"geometry": {"type": "Point", "coordinates": [-84.1940211848, 39.8925563601]}, "type": "Feature", "properties": {"collection_times": [{"days": "Mon-Fri", "time": "5:00pm"}, {"days": "Sat", "time": "3:00pm"}, {"days": "Sun", "time": "Closed"}], "id": "4537700000", "name": "USPS COLLECTION BOX - PO LOBBY", "address": {"city": "VANDALIA", "state": "OH", "street": "323 JAMES BOHANAN DR", "postcode": "45377"}}},
{"geometry": {"type": "Point", "coordinates": [-84.1940211848, 39.8925563601]}, "type": "Feature", "properties": {"collection_times": [{"days": "Mon-Fri", "time": "5:00pm"}, {"days": "Sat", "time": "3:00pm"}, {"days": "Sun", "time": "Closed"}], "id": "4537700001", "name": "USPS COLLECTION BOX - BLUE BOX", "address": {"city": "VANDALIA", "state": "OH", "street": "323 JAMES BOHANAN DR", "postcode": "45377"}}},
{"geometry": {"type": "Point", "coordinates": [-84.1940211848, 39.8925563601]}, "type": "Feature", "properties": {"collection_times": [{"days": "Mon-Fri", "time": "5:00pm"}, {"days": "Sat", "time": "3:00pm"}, {"days": "Sun", "time": "Closed"}], "id": "4537700002", "name": "USPS COLLECTION BOX - BLUE BOX", "address": {"city": "VANDALIA", "state": "OH", "street": "323 JAMES BOHANAN DR", "postcode": "45377"}}},
{"geometry": {"type": "Point", "coordinates": [-84.1940211848, 39.8925563601]}, "type": "Feature", "properties": {"collection_times": [{"days": "Mon-Fri", "time": "5:00pm"}, {"days": "Sat", "time": "3:00pm"}, {"days": "Sun", "time": "Closed"}], "id": "4537700003", "name": "USPS COLLECTION BOX - BLUE BOX", "address": {"city": "VANDALIA", "state": "OH", "street": "323 JAMES BOHANAN DR", "postcode": "45377"}}},
{"geometry": {"type": "Point", "coordinates": [-84.1985471858, 39.8965275533]}, "type": "Feature", "properties": {"collection_times": [{"days": "Mon-Sat", "time": "10:30am"}, {"days": "Sun", "time": "Closed"}], "id": "4537700006", "name": "USPS COLLECTION BOX - BLUE BOX", "address": {"city": "VANDALIA", "state": "OH", "street": "336 N DIXIE DR", "postcode": "45377"}}},
{"geometry": {"type": "Point", "coordinates": [-84.1934913503, 39.8911897469]}, "type": "Feature", "properties": {"collection_times": [{"days": "Mon-Sat", "time": "8:30am"}, {"days": "Sun", "time": "Closed"}], "id": "4537700010", "name": "USPS COLLECTION BOX - BLUE BOX", "address": {"city": "VANDALIA", "state": "OH", "street": "344 E NATIONAL RD", "postcode": "45377"}}},
{"geometry": {"type": "Point", "coordinates": [-84.1993877956, 39.8854319033]}, "type": "Feature", "properties": {"collection_times": [{"days": "Mon-Sat", "time": "8:30am"}, {"days": "Sun", "time": "Closed"}], "id": "4537700012", "name": "USPS COLLECTION BOX - BLUE BOX", "address": {"city": "VANDALIA", "state": "OH", "street": "33 ELVA CT", "postcode": "45377"}}},
{"geometry": {"type": "Point", "coordinates": [-84.2191649776, 39.8848103448]}, "type": "Feature", "properties": {"collection_times": [{"days": "Mon-Sat", "time": "10:00am"}, {"days": "Sun", "time": "Closed"}], "id": "4537700019", "name": "USPS COLLECTION BOX - BLUE BOX", "address": {"city": "VANDALIA", "state": "OH", "street": "1005 POOL AVE", "postcode": "45377"}}},
{"geometry": {"type": "Point", "coordinates": [-84.2154575842, 39.8793900268]}, "type": "Feature", "properties": {"collection_times": [{"days": "Mon-Sat", "time": "9:00am"}, {"days": "Sun", "time": "Closed"}], "id": "4537700020", "name": "USPS COLLECTION BOX - BLUE BOX", "address": {"city": "VANDALIA", "state": "OH", "street": "880 W ALKALINE SPRINGS RD", "postcode": "45377"}}},
{"geometry": {"type": "Point", "coordinates": [-84.2121981609, 39.8896669075]}, "type": "Feature", "properties": {"collection_times": [{"days": "Mon-Sat", "time": "8:30am"}, {"days": "Sun", "time": "Closed"}], "id": "4537700022", "name": "USPS COLLECTION BOX - BLUE BOX", "address": {"city": "VANDALIA", "state": "OH", "street": "732 W NATIONAL RD", "postcode": "45377"}}},
{"geometry": {"type": "Point", "coordinates": [-84.2238932646, 39.8857626268]}, "type": "Feature", "properties": {"collection_times": [{"days": "Mon-Fri", "time": "9:00am"}, {"days": "Sat-Sun", "time": "Closed"}], "id": "4537700025", "name": "USPS COLLECTION BOX - BLUE BOX", "address": {"city": "VANDALIA", "state": "OH", "street": "303 CORPORATE CENTER DR", "postcode": "45377"}}},
{"geometry": {"type": "Point", "coordinates": [-84.492166055, 39.9031886567]}, "type": "Feature", "properties": {"collection_times": [{"days": "Mon-Sat", "time": "12:00pm"}, {"days": "Sun", "time": "Closed"}], "id": "4537800000", "name": "USPS COLLECTION BOX - PO LOBBY", "address": {"city": "VERONA", "state": "OH", "street": "224 E MAIN ST", "postcode": "45378"}}},
{"geometry": {"type": "Point", "coordinates": [-84.492166055, 39.9031886567]}, "type": "Feature", "properties": {"collection_times": [{"days": "Mon-Sat", "time": "12:00pm"}, {"days": "Sun", "time": "Closed"}], "id": "4537800001", "name": "USPS COLLECTION BOX - BLUE BOX", "address": {"city": "VERONA", "state": "OH", "street": "224 E MAIN ST", "postcode": "45378"}}},
{"geometry": {"type": "Point", "coordinates": [-84.4718850422, 40.2236054675]}, "type": "Feature", "properties": {"collection_times": [{"days": "Mon-Sat", "time": "1:00pm"}, {"days": "Sun", "time": "Closed"}], "id": "4538000005", "name": "USPS COLLECTION BOX - BLUE BOX", "address": {"city": "VERSAILLES", "state": "OH", "street": "10 E MAIN ST", "postcode": "45380"}}},
{"geometry": {"type": "Point", "coordinates": [-84.4842697103, 40.2208702637]}, "type": "Feature", "properties": {"collection_times": [{"days": "Mon-Fri", "time": "4:30pm"}, {"days": "Sat", "time": "12:00pm"}, {"days": "Sun", "time": "Closed"}], "id": "4538000008", "name": "USPS COLLECTION BOX - BLUE BOX", "address": {"city": "VERSAILLES", "state": "OH", "street": "6 E WARD ST", "postcode": "45380"}}},
{"geometry": {"type": "Point", "coordinates": [-84.4842697103, 40.2208702637]}, "type": "Feature", "properties": {"collection_times": [{"days": "Mon-Fri", "time": "4:30pm"}, {"days": "Sat", "time": "12:00pm"}, {"days": "Sun", "time": "Closed"}], "id": "4538000010", "name": "USPS COLLECTION BOX - PO LOBBY", "address": {"city": "VERSAILLES", "state": "OH", "street": "6 E WARD ST", "postcode": "45380"}}},
{"geometry": {"type": "Point", "coordinates": [-84.5330179544, 39.7443804438]}, "type": "Feature", "properties": {"collection_times": [{"days": "Mon-Fri", "time": "4:15pm"}, {"days": "Sat", "time": "12:00pm"}, {"days": "Sun", "time": "Closed"}], "id": "4538100004", "name": "USPS COLLECTION BOX - PO LOBBY", "address": {"city": "DAYTON", "state": "OH", "street": "15 W DAYTON ST", "postcode": "45381"}}},
{"geometry": {"type": "Point", "coordinates": [-84.5330179544, 39.7443804438]}, "type": "Feature", "properties": {"collection_times": [{"days": "Mon-Fri", "time": "4:15pm"}, {"days": "Sat", "time": "12:00pm"}, {"days": "Sun", "time": "Closed"}], "id": "4538100005", "name": "USPS COLLECTION BOX - PO LOBBY", "address": {"city": "DAYTON", "state": "OH", "street": "15 W DAYTON ST", "postcode": "45381"}}},
{"geometry": {"type": "Point", "coordinates": [-84.5330179544, 39.7443804438]}, "type": "Feature", "properties": {"collection_times": [{"days": "Mon-Fri", "time": "4:15pm"}, {"days": "Sat", "time": "12:00pm"}, {"days": "Sun", "time": "Closed"}], "id": "4538100006", "name": "USPS COLLECTION BOX - BLUE BOX", "address": {"city": "DAYTON", "state": "OH", "street": "15 DAYTON AVE", "postcode": "45381"}}},
{"geometry": {"type": "Point", "coordinates": [-84.6268569558, 39.9021676832]}, "type": "Feature", "properties": {"collection_times": [{"days": "Mon-Fri", "time": "2:00pm"}, {"days": "Sat", "time": "11:15am"}, {"days": "Sun", "time": "Closed"}], "id": "4538200000", "name": "USPS COLLECTION BOX - BLUE BOX", "address": {"city": "WEST MANCHESTER", "state": "OH", "street": "110 E SCOTT ST", "postcode": "45382"}}},
{"geometry": {"type": "Point", "coordinates": [-84.6268569558, 39.9021676832]}, "type": "Feature", "properties": {"collection_times": [{"days": "Mon-Fri", "time": "2:00pm"}, {"days": "Sat", "time": "11:15am"}, {"days": "Sun", "time": "Closed"}], "id": "4538200001", "name": "USPS COLLECTION BOX - PO LOBBY", "address": {"city": "WEST MANCHESTER", "state": "OH", "street": "110 E SCOTT ST", "postcode": "45382"}}},
{"geometry": {"type": "Point", "coordinates": [-84.3292950771, 39.9625470407]}, "type": "Feature", "properties": {"collection_times": [{"days": "Mon-Fri", "time": "4:30pm"}, {"days": "Sat", "time": "3:00pm"}, {"days": "Sun", "time": "Closed"}], "id": "4538300001", "name": "USPS COLLECTION BOX - BLUE BOX", "address": {"city": "WEST MILTON", "state": "OH", "street": "30 N MAIN ST", "postcode": "45383"}}},
{"geometry": {"type": "Point", "coordinates": [-84.3292950771, 39.9625470407]}, "type": "Feature", "properties": {"collection_times": [{"days": "Mon-Fri", "time": "4:30pm"}, {"days": "Sat", "time": "3:00pm"}, {"days": "Sun", "time": "Closed"}], "id": "4538300017", "name": "USPS COLLECTION BOX - PO LOBBY", "address": {"city": "WEST MILTON", "state": "OH", "street": "30 N MAIN ST", "postcode": "45383"}}},
{"geometry": {"type": "Point", "coordinates": [-83.8786075365, 39.7140414289]}, "type": "Feature", "properties": {"collection_times": [{"days": "Mon-Fri", "time": "2:00pm"}, {"days": "Sat", "time": "12:00pm"}, {"days": "Sun", "time": "Closed"}], "id": "4538400000", "name": "USPS COLLECTION BOX - BLUE BOX", "address": {"city": "WILBERFORCE", "state": "OH", "street": "1441 BRUSH ROW RD", "postcode": "45384"}}},
{"geometry": {"type": "Point", "coordinates": [-83.8786075365, 39.7140414289]}, "type": "Feature", "properties": {"collection_times": [{"days": "Mon-Fri", "time": "2:00pm"}, {"days": "Sat", "time": "12:00pm"}, {"days": "Sun", "time": "Closed"}], "id": "4538400001", "name": "USPS COLLECTION BOX - PO LOBBY", "address": {"city": "WILBERFORCE", "state": "OH", "street": "1441 BRUSH ROW RD", "postcode": "45384"}}},
{"geometry": {"type": "Point", "coordinates": [-83.9261472249, 39.6852664607]}, "type": "Feature", "properties": {"collection_times": [{"days": "Mon-Fri", "time": "5:00pm"}, {"days": "Sat", "time": "4:00pm"}, {"days": "Sun", "time": "Closed"}], "id": "4538500003", "name": "USPS COLLECTION BOX - BLUE BOX", "address": {"city": "XENIA", "state": "OH", "street": "189 E MAIN ST", "postcode": "45385"}}},
{"geometry": {"type": "Point", "coordinates": [-83.9261472249, 39.6852664607]}, "type": "Feature", "properties": {"collection_times": [{"days": "Mon-Fri", "time": "5:00pm"}, {"days": "Sat", "time": "4:00pm"}, {"days": "Sun", "time": "Closed"}], "id": "4538500004", "name": "USPS COLLECTION BOX - BLUE BOX", "address": {"city": "XENIA", "state": "OH", "street": "189 E MAIN ST", "postcode": "45385"}}},
{"geometry": {"type": "Point", "coordinates": [-83.9261472249, 39.6852664607]}, "type": "Feature", "properties": {"collection_times": [{"days": "Mon-Fri", "time": "5:00pm"}, {"days": "Sat", "time": "4:00pm"}, {"days": "Sun", "time": "Closed"}], "id": "4538500005", "name": "USPS COLLECTION BOX - BLUE BOX", "address": {"city": "XENIA", "state": "OH", "street": "189 E MAIN ST", "postcode": "45385"}}},
{"geometry": {"type": "Point", "coordinates": [-83.9261472249, 39.6852664607]}, "type": "Feature", "properties": {"collection_times": [{"days": "Mon-Fri", "time": "5:00pm"}, {"days": "Sat", "time": "4:00pm"}, {"days": "Sun", "time": "Closed"}], "id": "4538500006", "name": "USPS COLLECTION BOX - BLUE BOX", "address": {"city": "XENIA", "state": "OH", "street": "189 E MAIN ST", "postcode": "45385"}}},
{"geometry": {"type": "Point", "coordinates": [-83.9261472249, 39.6852664607]}, "type": "Feature", "properties": {"collection_times": [{"days": "Mon-Fri", "time": "5:00pm"}, {"days": "Sat", "time": "4:00pm"}, {"days": "Sun", "time": "Closed"}], "id": "4538500014", "name": "USPS COLLECTION BOX - PO LOBBY", "address": {"city": "XENIA", "state": "OH", "street": "189 E MAIN ST", "postcode": "45385"}}},
{"geometry": {"type": "Point", "coordinates": [-83.9429665355, 39.6675031488]}, "type": "Feature", "properties": {"collection_times": [{"days": "Mon-Sat", "time": "2:00pm"}, {"days": "Sun", "time": "Closed"}], "id": "4538500022", "name": "USPS COLLECTION BOX - BLUE BOX", "address": {"city": "XENIA", "state": "OH", "street": "541 LEDBETTER RD", "postcode": "45385"}}},
{"geometry": {"type": "Point", "coordinates": [-83.9281724507, 39.6862530484]}, "type": "Feature", "properties": {"collection_times": [{"days": "Mon-Fri", "time": "3:00pm"}, {"days": "Sat", "time": "2:45pm"}, {"days": "Sun", "time": "Closed"}], "id": "4538500042", "name": "USPS COLLECTION BOX - BLUE BOX", "address": {"city": "XENIA", "state": "OH", "street": "77 E MARKET ST", "postcode": "45385"}}},
{"geometry": {"type": "Point", "coordinates": [-83.9281724507, 39.6862530484]}, "type": "Feature", "properties": {"collection_times": [{"days": "Mon-Fri", "time": "3:00pm"}, {"days": "Sat", "time": "2:45pm"}, {"days": "Sun", "time": "Closed"}], "id": "4538500044", "name": "USPS COLLECTION BOX - BLUE BOX", "address": {"city": "XENIA", "state": "OH", "street": "77 E MARKET ST", "postcode": "45385"}}},
{"geometry": {"type": "Point", "coordinates": [-83.9261472249, 39.6852664607]}, "type": "Feature", "properties": {"collection_times": [{"days": "Mon-Fri", "time": "5:00pm"}, {"days": "Sat", "time": "4:00pm"}, {"days": "Sun", "time": "Closed"}], "id": "4538500051", "name": "USPS COLLECTION BOX - PO LOBBY", "address": {"city": "XENIA", "state": "OH", "street": "189 E MAIN ST", "postcode": "45385"}}},
{"geometry": {"type": "Point", "coordinates": [-83.9281724507, 39.6862530484]}, "type": "Feature", "properties": {"collection_times": [{"days": "Mon-Fri", "time": "3:00pm"}, {"days": "Sat", "time": "2:45pm"}, {"days": "Sun", "time": "Closed"}], "id": "4538500052", "name": "USPS COLLECTION BOX - BLUE BOX", "address": {"city": "XENIA", "state": "OH", "street": "77 E MARKET ST", "postcode": "45385"}}},
{"geometry": {"type": "Point", "coordinates": [-83.8870921463, 39.7857022408]}, "type": "Feature", "properties": {"collection_times": [{"days": "Mon-Fri", "time": "4:30pm"}, {"days": "Sat", "time": "12:00pm"}, {"days": "Sun", "time": "Closed"}], "id": "4538700003", "name": "USPS COLLECTION BOX - BLUE BOX", "address": {"city": "YELLOW SPRINGS", "state": "OH", "street": "120 CORRY ST", "postcode": "45387"}}},
{"geometry": {"type": "Point", "coordinates": [-83.8890175941, 39.8054336939]}, "type": "Feature", "properties": {"collection_times": [{"days": "Mon-Fri", "time": "4:30pm"}, {"days": "Sat", "time": "12:00pm"}, {"days": "Sun", "time": "Closed"}], "id": "4538700010", "name": "USPS COLLECTION BOX - BLUE BOX", "address": {"city": "YELLOW SPRINGS", "state": "OH", "street": "266 XENIA AVE", "postcode": "45387"}}},
{"geometry": {"type": "Point", "coordinates": [-83.8870921463, 39.7857022408]}, "type": "Feature", "properties": {"collection_times": [{"days": "Mon-Fri", "time": "4:30pm"}, {"days": "Sat", "time": "12:00pm"}, {"days": "Sun", "time": "Closed"}], "id": "4538700012", "name": "USPS COLLECTION BOX - PO LOBBY", "address": {"city": "YELLOW SPRINGS", "state": "OH", "street": "120 CORRY ST", "postcode": "45387"}}},
{"geometry": {"type": "Point", "coordinates": [-84.496446776, 40.3397665467]}, "type": "Feature", "properties": {"collection_times": [{"days": "Mon-Fri", "time": "2:00pm"}, {"days": "Sat", "time": "11:45am"}, {"days": "Sun", "time": "Closed"}], "id": "4538800000", "name": "USPS COLLECTION BOX - BLUE BOX", "address": {"city": "YORKSHIRE", "state": "OH", "street": "104 W MAIN ST", "postcode": "45388"}}},
{"geometry": {"type": "Point", "coordinates": [-84.496446776, 40.3397665467]}, "type": "Feature", "properties": {"collection_times": [{"days": "Mon-Fri", "time": "2:00pm"}, {"days": "Sat", "time": "11:45am"}, {"days": "Sun", "time": "Closed"}], "id": "4538800001", "name": "USPS COLLECTION BOX - PO LOBBY", "address": {"city": "YORKSHIRE", "state": "OH", "street": "104 W MAIN ST", "postcode": "45388"}}},
{"geometry": {"type": "Point", "coordinates": [-84.0256758283, 40.0564289937]}, "type": "Feature", "properties": {"collection_times": [{"days": "Mon-Fri", "time": "2:00pm"}, {"days": "Sat", "time": "11:45am"}, {"days": "Sun", "time": "Closed"}], "id": "4538900000", "name": "USPS COLLECTION BOX - BLUE BOX", "address": {"city": "CHRISTIANSBURG", "state": "OH", "street": "6 E 1ST ST", "postcode": "45389"}}},
{"geometry": {"type": "Point", "coordinates": [-84.0256758283, 40.0564289937]}, "type": "Feature", "properties": {"collection_times": [{"days": "Mon-Fri", "time": "2:00pm"}, {"days": "Sat", "time": "11:45am"}, {"days": "Sun", "time": "Closed"}], "id": "4538900001", "name": "USPS COLLECTION BOX - PO LOBBY", "address": {"city": "CHRISTIANSBURG", "state": "OH", "street": "6 E 1ST ST", "postcode": "45389"}}}
]}
