{"type": "FeatureCollection", "features": [
{"geometry": {"type": "Point", "coordinates": [-84.1776928022, 39.7578540057]}, "type": "Feature", "properties": {"collection_times": [{"days": "Mon-Fri", "time": "5:00pm"}, {"days": "Sat", "time": "2:00pm"}, {"days": "Sun", "time": "Closed"}], "id": "4540100000", "name": "USPS COLLECTION BOX - PO LOBBY", "address": {"city": "DAYTON", "state": "OH", "street": "1111 E 5TH ST", "postcode": "45401"}}},
{"geometry": {"type": "Point", "coordinates": [-84.1776928022, 39.7578540057]}, "type": "Feature", "properties": {"collection_times": [{"days": "Mon-Fri", "time": "5:00pm"}, {"days": "Sat", "time": "2:00pm"}, {"days": "Sun", "time": "Closed"}], "id": "4540100001", "name": "USPS COLLECTION BOX - PO LOBBY", "address": {"city": "DAYTON", "state": "OH", "street": "1111 E 5TH ST", "postcode": "45401"}}},
{"geometry": {"type": "Point", "coordinates": [-84.1778175313, 39.7578337695]}, "type": "Feature", "properties": {"collection_times": [{"days": "Mon-Fri", "time": "5:00pm"}, {"days": "Sat", "time": "2:00pm"}, {"days": "Sun", "time": "Closed"}], "id": "4540100002", "name": "USPS COLLECTION BOX - EXPRESS", "address": {"city": "DAYTON", "state": "OH", "street": "1111 E 5TH ST", "postcode": "45401"}}},
{"geometry": {"type": "Point", "coordinates": [-84.1776928022, 39.7578540057]}, "type": "Feature", "properties": {"collection_times": [{"days": "Mon-Fri", "time": "5:00pm"}, {"days": "Sat", "time": "2:00pm"}, {"days": "Sun", "time": "Closed"}], "id": "4540100003", "name": "USPS COLLECTION BOX - BLUE BOX", "address": {"city": "DAYTON", "state": "OH", "street": "1111 E 5TH ST", "postcode": "45401"}}},
{"geometry": {"type": "Point", "coordinates": [-84.1776928022, 39.7578540057]}, "type": "Feature", "properties": {"collection_times": [{"days": "Mon-Fri", "time": "5:00pm"}, {"days": "Sat", "time": "2:00pm"}, {"days": "Sun", "time": "Closed"}], "id": "4540100004", "name": "USPS COLLECTION BOX - APC", "address": {"city": "DAYTON", "state": "OH", "street": "1111 E 5TH ST", "postcode": "45401"}}},
{"geometry": {"type": "Point", "coordinates": [-84.1945104017, 39.7605556644]}, "type": "Feature", "properties": {"collection_times": [{"days": "Mon-Fri", "time": "3:15pm"}, {"days": "Sat-Sun", "time": "Closed"}], "id": "4540200000", "name": "USPS COLLECTION BOX - BLUE BOX", "address": {"city": "DAYTON", "state": "OH", "street": "130 W 2ND ST", "postcode": "45402"}}},
{"geometry": {"type": "Point", "coordinates": [-84.1911063739, 39.7566095329]}, "type": "Feature", "properties": {"collection_times": [{"days": "Mon-Fri", "time": "1:00pm"}, {"days": "Sat-Sun", "time": "Closed"}], "id": "4540200007", "name": "USPS COLLECTION BOX - BLUE BOX", "address": {"city": "DAYTON", "state": "OH", "street": "211 S MAIN ST", "postcode": "45402"}}},
{"geometry": {"type": "Point", "coordinates": [-84.1916458032, 39.7589446939]}, "type": "Feature", "properties": {"collection_times": [{"days": "Mon-Fri", "time": "4:00pm"}, {"days": "Sat-Sun", "time": "Closed"}], "id": "4540200009", "name": "USPS COLLECTION BOX - BLUE BOX", "address": {"city": "DAYTON", "state": "OH", "street": "1 S MAIN ST", "postcode": "45402"}}},
{"geometry": {"type": "Point", "coordinates": [-84.1947439727, 39.7570081901]}, "type": "Feature", "properties": {"collection_times": [{"days": "Mon-Fri", "time": "12:30pm"}, {"days": "Sat-Sun", "time": "Closed"}], "id": "4540200010", "name": "USPS COLLECTION BOX - BLUE BOX", "address": {"city": "DAYTON", "state": "OH", "street": "105 S WILKINSON ST", "postcode": "45402"}}},
{"geometry": {"type": "Point", "coordinates": [-84.1925980851, 39.7627573706]}, "type": "Feature", "properties": {"collection_times": [{"days": "Mon-Fri", "time": "12:30pm"}, {"days": "Sat-Sun", "time": "Closed"}], "id": "4540200014", "name": "USPS COLLECTION BOX - BLUE BOX", "address": {"city": "DAYTON", "state": "OH", "street": "210 N MAIN ST", "postcode": "45402"}}},
{"geometry": {"type": "Point", "coordinates": [-84.1921544755, 39.7607948417]}, "type": "Feature", "properties": {"collection_times": [{"days": "Mon-Fri", "time": "5:00pm"}, {"days": "Sat-Sun", "time": "Closed"}], "id": "4540200017", "name": "USPS COLLECTION BOX - BLUE BOX", "address": {"city": "DAYTON", "state": "OH", "street": "40 N MAIN ST", "postcode": "45402"}}},
{"geometry": {"type": "Point", "coordinates": [-84.1944091953, 39.7606280445]}, "type": "Feature", "properties": {"collection_times": [{"days": "Mon-Fri", "time": "12:00pm"}, {"days": "Sat-Sun", "time": "Closed"}], "id": "4540200022", "name": "USPS COLLECTION BOX - BLUE BOX", "address": {"city": "DAYTON", "state": "OH", "street": "100 E 2ND ST", "postcode": "45402"}}},
{"geometry": {"type": "Point", "coordinates": [-84.1899729329, 39.7599148695]}, "type": "Feature", "properties": {"collection_times": [{"days": "Mon-Fri", "time": "12:00pm"}, {"days": "Sat-Sun", "time": "Closed"}], "id": "4540200028", "name": "USPS COLLECTION BOX - BLUE BOX", "address": {"city": "DAYTON", "state": "OH", "street": "2 N JEFFERSON ST", "postcode": "45402"}}},
{"geometry": {"type": "Point", "coordinates": [-84.2070072783, 39.7583030301]}, "type": "Feature", "properties": {"collection_times": [{"days": "Mon-Fri", "time": "3:30pm"}, {"days": "Sat-Sun", "time": "Closed"}], "id": "4540200029", "name": "USPS COLLECTION BOX - BLUE BOX", "address": {"city": "DAYTON", "state": "OH", "street": "33 W 1ST ST", "postcode": "45402"}}},
{"geometry": {"type": "Point", "coordinates": [-84.1912054924, 39.7582169087]}, "type": "Feature", "properties": {"collection_times": [{"days": "Mon-Fri", "time": "3:15pm"}, {"days": "Sat-Sun", "time": "Closed"}], "id": "4540200041", "name": "USPS COLLECTION BOX - BLUE BOX", "address": {"city": "DAYTON", "state": "OH", "street": "7 E 4TH ST", "postcode": "45402"}}},
{"geometry": {"type": "Point", "coordinates": [-84.1962936489, 39.7595858576]}, "type": "Feature", "properties": {"collection_times": [{"days": "Mon-Fri", "time": "3:15pm"}, {"days": "Sat-Sun", "time": "Closed"}], "id": "4540200045", "name": "USPS COLLECTION BOX - BLUE BOX", "address": {"city": "DAYTON", "state": "OH", "street": "41 N PERRY ST", "postcode": "45402"}}},
{"geometry": {"type": "Point", "coordinates": [-84.2070072783, 39.7583030301]}, "type": "Feature", "properties": {"collection_times": [{"days": "Mon-Fri", "time": "5:00pm"}, {"days": "Sat-Sun", "time": "Closed"}], "id": "4540200060", "name": "USPS COLLECTION BOX - BLUE BOX", "address": {"city": "DAYTON", "state": "OH", "street": "110 N MAIN ST", "postcode": "45402"}}},
{"geometry": {"type": "Point", "coordinates": [-84.1900546353, 39.759663256]}, "type": "Feature", "properties": {"collection_times": [{"days": "Mon-Fri", "time": "1:30pm"}, {"days": "Sat-Sun", "time": "Closed"}], "id": "4540200068", "name": "USPS COLLECTION BOX - BLUE BOX", "address": {"city": "DAYTON", "state": "OH", "street": "5 S JEFFERSON ST", "postcode": "45402"}}},
{"geometry": {"type": "Point", "coordinates": [-84.1900546353, 39.759663256]}, "type": "Feature", "properties": {"collection_times": [{"days": "Mon-Fri", "time": "1:30pm"}, {"days": "Sat-Sun", "time": "Closed"}], "id": "4540200069", "name": "USPS COLLECTION BOX - BLUE BOX", "address": {"city": "DAYTON", "state": "OH", "street": "5 S JEFFERSON ST", "postcode": "45402"}}},
{"geometry": {"type": "Point", "coordinates": [-84.1847124807, 39.7621836355]}, "type": "Feature", "properties": {"collection_times": [{"days": "Mon-Fri", "time": "10:15am"}, {"days": "Sat-Sun", "time": "Closed"}], "id": "4540200072", "name": "USPS COLLECTION BOX - BLUE BOX", "address": {"city": "DAYTON", "state": "OH", "street": "411 E 2ND ST", "postcode": "45402"}}},
{"geometry": {"type": "Point", "coordinates": [-84.1903597183, 39.7612955517]}, "type": "Feature", "properties": {"collection_times": [{"days": "Mon-Fri", "time": "12:00pm"}, {"days": "Sat-Sun", "time": "Closed"}], "id": "4540200079", "name": "USPS COLLECTION BOX - BLUE BOX", "address": {"city": "DAYTON", "state": "OH", "street": "100 N JEFFERSON ST", "postcode": "45402"}}},
{"geometry": {"type": "Point", "coordinates": [-84.1903597183, 39.7612955517]}, "type": "Feature", "properties": {"collection_times": [{"days": "Mon-Fri", "time": "12:00pm"}, {"days": "Sat-Sun", "time": "Closed"}], "id": "4540200081", "name": "USPS COLLECTION BOX - BLUE BOX", "address": {"city": "DAYTON", "state": "OH", "street": "100 N JEFFERSON ST", "postcode": "45402"}}},
{"geometry": {"type": "Point", "coordinates": [-84.1995905556, 39.7625539017]}, "type": "Feature", "properties": {"collection_times": [{"days": "Mon-Fri", "time": "4:00pm"}, {"days": "Sat-Sun", "time": "Closed"}], "id": "4540200084", "name": "USPS COLLECTION BOX - BLUE BOX", "address": {"city": "DAYTON", "state": "OH", "street": "11 W MONUMENT AVE", "postcode": "45402"}}},
{"geometry": {"type": "Point", "coordinates": [-84.194217556, 39.7615223615]}, "type": "Feature", "properties": {"collection_times": [{"days": "Mon-Fri", "time": "10:30am"}, {"days": "Sat-Sun", "time": "Closed"}], "id": "4540200085", "name": "USPS COLLECTION BOX - BLUE BOX", "address": {"city": "DAYTON", "state": "OH", "street": "125 N LUDLOW ST", "postcode": "45402"}}},
{"geometry": {"type": "Point", "coordinates": [-84.1939206333, 39.7591836516]}, "type": "Feature", "properties": {"collection_times": [{"days": "Mon-Fri", "time": "2:45pm"}, {"days": "Sat-Sun", "time": "Closed"}], "id": "4540200091", "name": "USPS COLLECTION BOX - BLUE BOX", "address": {"city": "DAYTON", "state": "OH", "street": "101 W 3RD ST", "postcode": "45402"}}},
{"geometry": {"type": "Point", "coordinates": [-84.1922254531, 39.7542093091]}, "type": "Feature", "properties": {"collection_times": [{"days": "Mon-Fri", "time": "3:30pm"}, {"days": "Sat-Sun", "time": "Closed"}], "id": "4540200093", "name": "USPS COLLECTION BOX - BLUE BOX", "address": {"city": "DAYTON", "state": "OH", "street": "505 S LUDLOW ST", "postcode": "45402"}}},
{"geometry": {"type": "Point", "coordinates": [-84.19104486, 39.7498690327]}, "type": "Feature", "properties": {"collection_times": [{"days": "Mon-Fri", "time": "4:00pm"}, {"days": "Sat-Sun", "time": "Closed"}], "id": "4540200094", "name": "USPS COLLECTION BOX - BLUE BOX", "address": {"city": "DAYTON", "state": "OH", "street": "825 S LUDLOW ST", "postcode": "45402"}}},
{"geometry": {"type": "Point", "coordinates": [-84.1915038481, 39.7586690644]}, "type": "Feature", "properties": {"collection_times": [{"days": "Mon-Fri", "time": "4:00pm"}, {"days": "Sat-Sun", "time": "Closed"}], "id": "4540200095", "name": "USPS COLLECTION BOX - BLUE BOX", "address": {"city": "DAYTON", "state": "OH", "street": "6 N MAIN ST", "postcode": "45402"}}},
{"geometry": {"type": "Point", "coordinates": [-84.1847917389, 39.7571868169]}, "type": "Feature", "properties": {"collection_times": [{"days": "Mon-Fri", "time": "3:00pm"}, {"days": "Sat-Sun", "time": "Closed"}], "id": "4540200097", "name": "USPS COLLECTION BOX - BLUE BOX", "address": {"city": "DAYTON", "state": "OH", "street": "401 E 5TH ST", "postcode": "45402"}}},
{"geometry": {"type": "Point", "coordinates": [-84.2070072783, 39.7583030301]}, "type": "Feature", "properties": {"collection_times": [{"days": "Mon-Fri", "time": "3:30pm"}, {"days": "Sat-Sun", "time": "Closed"}], "id": "4540200098", "name": "USPS COLLECTION BOX - BLUE BOX", "address": {"city": "DAYTON", "state": "OH", "street": "33 W 1ST ST", "postcode": "45402"}}},
{"geometry": {"type": "Point", "coordinates": [-84.2070072783, 39.7583030301]}, "type": "Feature", "properties": {"collection_times": [{"days": "Mon-Fri", "time": "4:00pm"}, {"days": "Sat-Sun", "time": "Closed"}], "id": "4540200107", "name": "USPS COLLECTION BOX - BLUE BOX", "address": {"city": "DAYTON", "state": "OH", "street": "110 N MAIN ST", "postcode": "45402"}}},
{"geometry": {"type": "Point", "coordinates": [-84.1922254531, 39.7542093091]}, "type": "Feature", "properties": {"collection_times": [{"days": "Mon-Fri", "time": "3:30pm"}, {"days": "Sat-Sun", "time": "Closed"}], "id": "4540200115", "name": "USPS COLLECTION BOX - BLUE BOX", "address": {"city": "DAYTON", "state": "OH", "street": "505 S LUDLOW ST", "postcode": "45402"}}},
{"geometry": {"type": "Point", "coordinates": [-84.1925980851, 39.7627573706]}, "type": "Feature", "properties": {"collection_times": [{"days": "Mon-Fri", "time": "12:30pm"}, {"days": "Sat-Sun", "time": "Closed"}], "id": "4540200116", "name": "USPS COLLECTION BOX - BLUE BOX", "address": {"city": "DAYTON", "state": "OH", "street": "210 N MAIN ST", "postcode": "45402"}}},
{"geometry": {"type": "Point", "coordinates": [-84.1939206333, 39.7591836516]}, "type": "Feature", "properties": {"collection_times": [{"days": "Mon-Fri", "time": "2:45pm"}, {"days": "Sat-Sun", "time": "Closed"}], "id": "4540200120", "name": "USPS COLLECTION BOX - BLUE BOX", "address": {"city": "DAYTON", "state": "OH", "street": "101 W 3RD ST", "postcode": "45402"}}},
{"geometry": {"type": "Point", "coordinates": [-84.1950207851, 39.7589896463]}, "type": "Feature", "properties": {"collection_times": [{"days": "Mon-Fri", "time": "1:30pm"}, {"days": "Sat-Sun", "time": "Closed"}], "id": "4540200121", "name": "USPS COLLECTION BOX - BLUE BOX", "address": {"city": "DAYTON", "state": "OH", "street": "120 W 3RD ST", "postcode": "45402"}}},
{"geometry": {"type": "Point", "coordinates": [-84.1925625964, 39.7620286679]}, "type": "Feature", "properties": {"collection_times": [{"days": "Mon-Fri", "time": "12:45pm"}, {"days": "Sat-Sun", "time": "Closed"}], "id": "4540200123", "name": "USPS COLLECTION BOX - BLUE BOX", "address": {"city": "DAYTON", "state": "OH", "street": "137 N MAIN ST", "postcode": "45402"}}},
{"geometry": {"type": "Point", "coordinates": [-84.1921544755, 39.7607948417]}, "type": "Feature", "properties": {"collection_times": [{"days": "Mon-Fri", "time": "3:45pm"}, {"days": "Sat-Sun", "time": "Closed"}], "id": "4540200125", "name": "USPS COLLECTION BOX - BLUE BOX", "address": {"city": "DAYTON", "state": "OH", "street": "40 N MAIN ST", "postcode": "45402"}}},
{"geometry": {"type": "Point", "coordinates": [-84.1932393918, 39.7577002444]}, "type": "Feature", "properties": {"collection_times": [{"days": "Mon-Fri", "time": "3:15pm"}, {"days": "Sat-Sun", "time": "Closed"}], "id": "4540200129", "name": "USPS COLLECTION BOX - BLUE BOX", "address": {"city": "DAYTON", "state": "OH", "street": "105 S LUDLOW ST", "postcode": "45402"}}},
{"geometry": {"type": "Point", "coordinates": [-84.1945705347, 39.7620951488]}, "type": "Feature", "properties": {"collection_times": [{"days": "Mon-Fri", "time": "12:15pm"}, {"days": "Sat-Sun", "time": "Closed"}], "id": "4540200131", "name": "USPS COLLECTION BOX - BLUE BOX", "address": {"city": "DAYTON", "state": "OH", "street": "111 W 1ST ST", "postcode": "45402"}}},
{"geometry": {"type": "Point", "coordinates": [-84.1945705347, 39.7620951488]}, "type": "Feature", "properties": {"collection_times": [{"days": "Mon-Fri", "time": "12:15pm"}, {"days": "Sat-Sun", "time": "Closed"}], "id": "4540200132", "name": "USPS COLLECTION BOX - BLUE BOX", "address": {"city": "DAYTON", "state": "OH", "street": "111 W 1ST ST", "postcode": "45402"}}},
{"geometry": {"type": "Point", "coordinates": [-84.1915038481, 39.7586690644]}, "type": "Feature", "properties": {"collection_times": [{"days": "Mon-Fri", "time": "4:00pm"}, {"days": "Sat-Sun", "time": "Closed"}], "id": "4540200133", "name": "USPS COLLECTION BOX - BLUE BOX", "address": {"city": "DAYTON", "state": "OH", "street": "6 N MAIN ST", "postcode": "45402"}}},
{"geometry": {"type": "Point", "coordinates": [-84.1945104017, 39.7605556644]}, "type": "Feature", "properties": {"collection_times": [{"days": "Mon-Fri", "time": "3:30pm"}, {"days": "Sat-Sun", "time": "Closed"}], "id": "4540200135", "name": "USPS COLLECTION BOX - BLUE BOX", "address": {"city": "DAYTON", "state": "OH", "street": "130 W 2ND ST", "postcode": "45402"}}},
{"geometry": {"type": "Point", "coordinates": [-84.1945104017, 39.7605556644]}, "type": "Feature", "properties": {"collection_times": [{"days": "Mon-Fri", "time": "3:30pm"}, {"days": "Sat-Sun", "time": "Closed"}], "id": "4540200136", "name": "USPS COLLECTION BOX - BLUE BOX", "address": {"city": "DAYTON", "state": "OH", "street": "130 W 2ND ST", "postcode": "45402"}}},
{"geometry": {"type": "Point", "coordinates": [-84.1936586053, 39.7597851568]}, "type": "Feature", "properties": {"collection_times": [{"days": "Mon-Fri", "time": "4:00pm"}, {"days": "Sat-Sun", "time": "Closed"}], "id": "4540200138", "name": "USPS COLLECTION BOX - PO LOBBY", "address": {"city": "DAYTON", "state": "OH", "street": "36 N LUDLOW ST", "postcode": "45402"}}},
{"geometry": {"type": "Point", "coordinates": [-84.1936586053, 39.7597851568]}, "type": "Feature", "properties": {"collection_times": [{"days": "Mon-Fri", "time": "4:00pm"}, {"days": "Sat-Sun", "time": "Closed"}], "id": "4540200139", "name": "USPS COLLECTION BOX - PO LOBBY", "address": {"city": "DAYTON", "state": "OH", "street": "36 N LUDLOW ST", "postcode": "45402"}}},
{"geometry": {"type": "Point", "coordinates": [-84.2343009375, 39.7681812375]}, "type": "Feature", "properties": {"collection_times": [{"days": "Mon-Fri", "time": "12:45pm"}, {"days": "Sat-Sun", "time": "Closed"}], "id": "4540200142", "name": "USPS COLLECTION BOX - BLUE BOX", "address": {"city": "DAYTON", "state": "OH", "street": "1045 PHILADELPHIA DR", "postcode": "45402"}}},
{"geometry": {"type": "Point", "coordinates": [-84.2070072783, 39.7583030301]}, "type": "Feature", "properties": {"collection_times": [{"days": "Mon-Fri", "time": "12:30pm"}, {"days": "Sat-Sun", "time": "Closed"}], "id": "4540200147", "name": "USPS COLLECTION BOX - BLUE BOX", "address": {"city": "DAYTON", "state": "OH", "street": "444 N JAMES H MCGEE BLVD", "postcode": "45402"}}},
{"geometry": {"type": "Point", "coordinates": [-84.2117790337, 39.7567941563]}, "type": "Feature", "properties": {"collection_times": [{"days": "Mon-Sat", "time": "4:00pm"}, {"days": "Sun", "time": "Closed"}], "id": "4540200149", "name": "USPS COLLECTION BOX - BLUE BOX", "address": {"city": "DAYTON", "state": "OH", "street": "10 N WILLIAMS ST", "postcode": "45402"}}},
{"geometry": {"type": "Point", "coordinates": [-84.1962936489, 39.7595858576]}, "type": "Feature", "properties": {"collection_times": [{"days": "Mon-Fri", "time": "3:15pm"}, {"days": "Sat-Sun", "time": "Closed"}], "id": "4540200153", "name": "USPS COLLECTION BOX - BLUE BOX", "address": {"city": "DAYTON", "state": "OH", "street": "41 N PERRY ST", "postcode": "45402"}}},
{"geometry": {"type": "Point", "coordinates": [-84.2070072783, 39.7583030301]}, "type": "Feature", "properties": {"collection_times": [{"days": "Mon-Fri", "time": "3:30pm"}, {"days": "Sat-Sun", "time": "Closed"}], "id": "4540200154", "name": "USPS COLLECTION BOX - BLUE BOX", "address": {"city": "DAYTON", "state": "OH", "street": "33 W 1ST ST", "postcode": "45402"}}},
{"geometry": {"type": "Point", "coordinates": [-84.2070072783, 39.7583030301]}, "type": "Feature", "properties": {"collection_times": [{"days": "Mon-Fri", "time": "4:00pm"}, {"days": "Sat-Sun", "time": "Closed"}], "id": "4540200155", "name": "USPS COLLECTION BOX - BLUE BOX", "address": {"city": "DAYTON", "state": "OH", "street": "110 N MAIN ST", "postcode": "45402"}}},
{"geometry": {"type": "Point", "coordinates": [-84.1741947925, 39.7638504247]}, "type": "Feature", "properties": {"collection_times": [{"days": "Mon-Fri", "time": "10:30am"}, {"days": "Sat-Sun", "time": "Closed"}], "id": "4540300011", "name": "USPS COLLECTION BOX - BLUE BOX", "address": {"city": "DAYTON", "state": "OH", "street": "1101 E 2ND ST", "postcode": "45403"}}},
{"geometry": {"type": "Point", "coordinates": [-84.1571500359, 39.7651190741]}, "type": "Feature", "properties": {"collection_times": [{"days": "Mon-Fri", "time": "9:45am"}, {"days": "Sat-Sun", "time": "Closed"}], "id": "4540300016", "name": "USPS COLLECTION BOX - BLUE BOX", "address": {"city": "DAYTON", "state": "OH", "street": "2602 E 3RD ST", "postcode": "45403"}}},
{"geometry": {"type": "Point", "coordinates": [-84.1448514954, 39.7749347502]}, "type": "Feature", "properties": {"collection_times": [{"days": "Mon-Fri", "time": "10:30am"}, {"days": "Sat-Sun", "time": "Closed"}], "id": "4540300022", "name": "USPS COLLECTION BOX - BLUE BOX", "address": {"city": "DAYTON", "state": "OH", "street": "1500 SPRINGFIELD ST", "postcode": "45403"}}},
{"geometry": {"type": "Point", "coordinates": [-84.138943658, 39.7527036391]}, "type": "Feature", "properties": {"collection_times": [{"days": "Mon-Fri", "time": "10:15am"}, {"days": "Sat-Sun", "time": "Closed"}], "id": "4540300030", "name": "USPS COLLECTION BOX - BLUE BOX", "address": {"city": "DAYTON", "state": "OH", "street": "1054 S SMITHVILLE RD", "postcode": "45403"}}},
{"geometry": {"type": "Point", "coordinates": [-84.1824802401, 39.780599248]}, "type": "Feature", "properties": {"collection_times": [{"days": "Mon-Fri", "time": "9:45am"}, {"days": "Sat-Sun", "time": "Closed"}], "id": "4540400012", "name": "USPS COLLECTION BOX - BLUE BOX", "address": {"city": "DAYTON", "state": "OH", "street": "1404 WEBSTER ST", "postcode": "45404"}}},
{"geometry": {"type": "Point", "coordinates": [-84.1741565982, 39.7756388248]}, "type": "Feature", "properties": {"collection_times": [{"days": "Mon-Fri", "time": "10:15am"}, {"days": "Sat-Sun", "time": "Closed"}], "id": "4540400015", "name": "USPS COLLECTION BOX - BLUE BOX", "address": {"city": "DAYTON", "state": "OH", "street": "429 HART ST", "postcode": "45404"}}},
{"geometry": {"type": "Point", "coordinates": [-84.188855203, 39.782925638]}, "type": "Feature", "properties": {"collection_times": [{"days": "Mon-Fri", "time": "9:45am"}, {"days": "Sat-Sun", "time": "Closed"}], "id": "4540400020", "name": "USPS COLLECTION BOX - BLUE BOX", "address": {"city": "DAYTON", "state": "OH", "street": "1351 N KEOWEE ST", "postcode": "45404"}}},
{"geometry": {"type": "Point", "coordinates": [-84.1655982297, 39.7849544126]}, "type": "Feature", "properties": {"collection_times": [{"days": "Mon-Sat", "time": "4:00pm"}, {"days": "Sun", "time": "Closed"}], "id": "4540400022", "name": "USPS COLLECTION BOX - BLUE BOX", "address": {"city": "DAYTON", "state": "OH", "street": "1411 FARR DR", "postcode": "45404"}}},
{"geometry": {"type": "Point", "coordinates": [-84.1655982297, 39.7849544126]}, "type": "Feature", "properties": {"collection_times": [{"days": "Mon-Sat", "time": "4:00pm"}, {"days": "Sun", "time": "Closed"}], "id": "4540400023", "name": "USPS COLLECTION BOX - BLUE BOX", "address": {"city": "DAYTON", "state": "OH", "street": "1411 FARR DR", "postcode": "45404"}}},
{"geometry": {"type": "Point", "coordinates": [-84.1655982297, 39.7849544126]}, "type": "Feature", "properties": {"collection_times": [{"days": "Mon-Sat", "time": "4:00pm"}, {"days": "Sun", "time": "Closed"}], "id": "4540400024", "name": "USPS COLLECTION BOX - PO LOBBY", "address": {"city": "DAYTON", "state": "OH", "street": "1411 FARR DR", "postcode": "45404"}}},
{"geometry": {"type": "Point", "coordinates": [-84.1655982297, 39.7849544126]}, "type": "Feature", "properties": {"collection_times": [{"days": "Mon-Sat", "time": "4:00pm"}, {"days": "Sun", "time": "Closed"}], "id": "4540400026", "name": "USPS COLLECTION BOX - BLUE BOX", "address": {"city": "DAYTON", "state": "OH", "street": "1411 FARR DR", "postcode": "45404"}}},
{"geometry": {"type": "Point", "coordinates": [-84.1918859438, 39.7685195637]}, "type": "Feature", "properties": {"collection_times": [{"days": "Mon-Fri", "time": "1:15pm"}, {"days": "Sat-Sun", "time": "Closed"}], "id": "4540500004", "name": "USPS COLLECTION BOX - BLUE BOX", "address": {"city": "DAYTON", "state": "OH", "street": "225 LINWOOD ST", "postcode": "45405"}}},
{"geometry": {"type": "Point", "coordinates": [-84.2082876699, 39.7976629408]}, "type": "Feature", "properties": {"collection_times": [{"days": "Mon-Fri", "time": "11:30am"}, {"days": "Sat-Sun", "time": "Closed"}], "id": "4540500010", "name": "USPS COLLECTION BOX - BLUE BOX", "address": {"city": "DAYTON", "state": "OH", "street": "401 ASHWOOD AVE", "postcode": "45405"}}},
{"geometry": {"type": "Point", "coordinates": [-84.2156939151, 39.7924294713]}, "type": "Feature", "properties": {"collection_times": [{"days": "Mon-Sat", "time": "4:00pm"}, {"days": "Sun", "time": "Closed"}], "id": "4540500033", "name": "USPS COLLECTION BOX - BLUE BOX", "address": {"city": "DAYTON", "state": "OH", "street": "4200 FOREST PARK MALL DR", "postcode": "45405"}}},
{"geometry": {"type": "Point", "coordinates": [-84.2156939151, 39.7924294713]}, "type": "Feature", "properties": {"collection_times": [{"days": "Mon-Sat", "time": "4:00pm"}, {"days": "Sun", "time": "Closed"}], "id": "4540500034", "name": "USPS COLLECTION BOX - BLUE BOX", "address": {"city": "DAYTON", "state": "OH", "street": "4200 FOREST PARK MALL DR", "postcode": "45405"}}},
{"geometry": {"type": "Point", "coordinates": [-84.2156939151, 39.7924294713]}, "type": "Feature", "properties": {"collection_times": [{"days": "Mon-Sat", "time": "4:00pm"}, {"days": "Sun", "time": "Closed"}], "id": "4540500035", "name": "USPS COLLECTION BOX - BLUE BOX", "address": {"city": "DAYTON", "state": "OH", "street": "4200 FOREST PARK MALL DR", "postcode": "45405"}}},
{"geometry": {"type": "Point", "coordinates": [-84.2156939151, 39.7924294713]}, "type": "Feature", "properties": {"collection_times": [{"days": "Mon-Sat", "time": "4:00pm"}, {"days": "Sun", "time": "Closed"}], "id": "4540500042", "name": "USPS COLLECTION BOX - PO LOBBY", "address": {"city": "DAYTON", "state": "OH", "street": "4200 FOREST PARK MALL DR", "postcode": "45405"}}},
{"geometry": {"type": "Point", "coordinates": [-84.1961091073, 39.7685479548]}, "type": "Feature", "properties": {"collection_times": [{"days": "Mon-Fri", "time": "1:30pm"}, {"days": "Sat-Sun", "time": "Closed"}], "id": "4540500043", "name": "USPS COLLECTION BOX - BLUE BOX", "address": {"city": "DAYTON", "state": "OH", "street": "215 MCDANIEL ST", "postcode": "45405"}}},
{"geometry": {"type": "Point", "coordinates": [-84.1937156492, 39.766743743]}, "type": "Feature", "properties": {"collection_times": [{"days": "Mon-Fri", "time": "1:15pm"}, {"days": "Sat-Sun", "time": "Closed"}], "id": "4540500044", "name": "USPS COLLECTION BOX - BLUE BOX", "address": {"city": "DAYTON", "state": "OH", "street": "2 RIVERDALE ST", "postcode": "45405"}}},
{"geometry": {"type": "Point", "coordinates": [-84.2107590719, 39.7685380174]}, "type": "Feature", "properties": {"collection_times": [{"days": "Mon-Sat", "time": "4:00pm"}, {"days": "Sun", "time": "Closed"}], "id": "4540600000", "name": "USPS COLLECTION BOX - PO LOBBY", "address": {"city": "DAYTON", "state": "OH", "street": "557 SALEM AVE", "postcode": "45406"}}},
{"geometry": {"type": "Point", "coordinates": [-84.2107590719, 39.7685380174]}, "type": "Feature", "properties": {"collection_times": [{"days": "Mon-Sat", "time": "4:00pm"}, {"days": "Sun", "time": "Closed"}], "id": "4540600001", "name": "USPS COLLECTION BOX - BLUE BOX", "address": {"city": "DAYTON", "state": "OH", "street": "557 SALEM AVE", "postcode": "45406"}}},
{"geometry": {"type": "Point", "coordinates": [-84.2107590719, 39.7685380174]}, "type": "Feature", "properties": {"collection_times": [{"days": "Mon-Sat", "time": "4:00pm"}, {"days": "Sun", "time": "Closed"}], "id": "4540600002", "name": "USPS COLLECTION BOX - BLUE BOX", "address": {"city": "DAYTON", "state": "OH", "street": "557 SALEM AVE", "postcode": "45406"}}},
{"geometry": {"type": "Point", "coordinates": [-84.2348196585, 39.7818225913]}, "type": "Feature", "properties": {"collection_times": [{"days": "Mon-Fri", "time": "11:45am"}, {"days": "Sat-Sun", "time": "Closed"}], "id": "4540600005", "name": "USPS COLLECTION BOX - BLUE BOX", "address": {"city": "DAYTON", "state": "OH", "street": "161 SALEM AVE", "postcode": "45406"}}},
{"geometry": {"type": "Point", "coordinates": [-84.2275804047, 39.7794078568]}, "type": "Feature", "properties": {"collection_times": [{"days": "Mon-Fri", "time": "10:00am"}, {"days": "Sat-Sun", "time": "Closed"}], "id": "4540600025", "name": "USPS COLLECTION BOX - BLUE BOX", "address": {"city": "DAYTON", "state": "OH", "street": "1751 HARVARD BLVD", "postcode": "45406"}}},
{"geometry": {"type": "Point", "coordinates": [-84.2349551138, 39.7879200908]}, "type": "Feature", "properties": {"collection_times": [{"days": "Mon-Fri", "time": "1:30pm"}, {"days": "Sat", "time": "4:15pm"}, {"days": "Sun", "time": "Closed"}], "id": "4540600026", "name": "USPS COLLECTION BOX - BLUE BOX", "address": {"city": "DAYTON", "state": "OH", "street": "2222 PHILADELPHIA DR", "postcode": "45406"}}},
{"geometry": {"type": "Point", "coordinates": [-84.2627463688, 39.7943068862]}, "type": "Feature", "properties": {"collection_times": [{"days": "Mon-Fri", "time": "10:45am"}, {"days": "Sat-Sun", "time": "Closed"}], "id": "4540600034", "name": "USPS COLLECTION BOX - BLUE BOX", "address": {"city": "DAYTON", "state": "OH", "street": "4417 COPELAND AVE", "postcode": "45406"}}},
{"geometry": {"type": "Point", "coordinates": [-84.2350118328, 39.7895884629]}, "type": "Feature", "properties": {"collection_times": [{"days": "Mon-Fri", "time": "1:30pm"}, {"days": "Sat", "time": "4:15pm"}, {"days": "Sun", "time": "Closed"}], "id": "4540600041", "name": "USPS COLLECTION BOX - BLUE BOX", "address": {"city": "DAYTON", "state": "OH", "street": "2222 PHILADELPHIA DR", "postcode": "45406"}}},
{"geometry": {"type": "Point", "coordinates": [-84.2352218636, 39.8012343253]}, "type": "Feature", "properties": {"collection_times": [{"days": "Mon-Fri", "time": "11:15am"}, {"days": "Sat-Sun", "time": "Closed"}], "id": "4540600046", "name": "USPS COLLECTION BOX - BLUE BOX", "address": {"city": "DAYTON", "state": "OH", "street": "2917 PHILADELPHIA DR", "postcode": "45406"}}},
{"geometry": {"type": "Point", "coordinates": [-84.2536537931, 39.7822938823]}, "type": "Feature", "properties": {"collection_times": [{"days": "Mon-Fri", "time": "10:45am"}, {"days": "Sat-Sun", "time": "Closed"}], "id": "4540600047", "name": "USPS COLLECTION BOX - BLUE BOX", "address": {"city": "DAYTON", "state": "OH", "street": "2168 N GETTYSBURG AVE", "postcode": "45406"}}},
{"geometry": {"type": "Point", "coordinates": [-84.2107590719, 39.7685380174]}, "type": "Feature", "properties": {"collection_times": [{"days": "Mon-Sat", "time": "4:00pm"}, {"days": "Sun", "time": "Closed"}], "id": "4540600048", "name": "USPS COLLECTION BOX - PO LOBBY", "address": {"city": "DAYTON", "state": "OH", "street": "557 SALEM AVE", "postcode": "45406"}}},
{"geometry": {"type": "Point", "coordinates": [-84.2107590719, 39.7685380174]}, "type": "Feature", "properties": {"collection_times": [{"days": "Mon-Sat", "time": "4:00pm"}, {"days": "Sun", "time": "Closed"}], "id": "4540600049", "name": "USPS COLLECTION BOX - PO LOBBY", "address": {"city": "DAYTON", "state": "OH", "street": "557 SALEM AVE", "postcode": "45406"}}},
{"geometry": {"type": "Point", "coordinates": [-84.2380272583, 39.7826559234]}, "type": "Feature", "properties": {"collection_times": [{"days": "Mon-Fri", "time": "10:15am"}, {"days": "Sat-Sun", "time": "Closed"}], "id": "4540600050", "name": "USPS COLLECTION BOX - BLUE BOX", "address": {"city": "DAYTON", "state": "OH", "street": "1846 PARKHILL DR", "postcode": "45406"}}},
{"geometry": {"type": "Point", "coordinates": [-84.2345008576, 39.7753653473]}, "type": "Feature", "properties": {"collection_times": [{"days": "Mon-Fri", "time": "10:15am"}, {"days": "Sat-Sun", "time": "Closed"}], "id": "4540600051", "name": "USPS COLLECTION BOX - BLUE BOX", "address": {"city": "DAYTON", "state": "OH", "street": "1485 PHILADELPHIA DR", "postcode": "45406"}}},
{"geometry": {"type": "Point", "coordinates": [-84.1803118733, 39.7331514566]}, "type": "Feature", "properties": {"collection_times": [{"days": "Mon-Sat", "time": "4:00pm"}, {"days": "Sun", "time": "Closed"}], "id": "4540900002", "name": "USPS COLLECTION BOX - BLUE BOX", "address": {"city": "DAYTON", "state": "OH", "street": "1 OAKWOOD AVE", "postcode": "45409"}}},
{"geometry": {"type": "Point", "coordinates": [-84.1855192587, 39.7449727655]}, "type": "Feature", "properties": {"collection_times": [{"days": "Mon-Sat", "time": "3:00pm"}, {"days": "Sun", "time": "Closed"}], "id": "4540900008", "name": "USPS COLLECTION BOX - BLUE BOX", "address": {"city": "DAYTON", "state": "OH", "street": "1 WYOMING ST", "postcode": "45409"}}},
{"geometry": {"type": "Point", "coordinates": [-84.1972932493, 39.7081661803]}, "type": "Feature", "properties": {"collection_times": [{"days": "Mon-Fri", "time": "12:00pm"}, {"days": "Sat-Sun", "time": "Closed"}], "id": "4540900018", "name": "USPS COLLECTION BOX - BLUE BOX", "address": {"city": "DAYTON", "state": "OH", "street": "1250 W DOROTHY LN", "postcode": "45409"}}},
{"geometry": {"type": "Point", "coordinates": [-84.1735713731, 39.7343947465]}, "type": "Feature", "properties": {"collection_times": [{"days": "Mon-Fri", "time": "10:30am"}, {"days": "Sat-Sun", "time": "Closed"}], "id": "4540900024", "name": "USPS COLLECTION BOX - BLUE BOX", "address": {"city": "DAYTON", "state": "OH", "street": "508 IRVING AVE", "postcode": "45409"}}},
{"geometry": {"type": "Point", "coordinates": [-84.1995558064, 39.7137895112]}, "type": "Feature", "properties": {"collection_times": [{"days": "Mon-Fri", "time": "1:45pm"}, {"days": "Sat-Sun", "time": "Closed"}], "id": "4540900027", "name": "USPS COLLECTION BOX - BLUE BOX", "address": {"city": "DAYTON", "state": "OH", "street": "2675 S DIXIE DR", "postcode": "45409"}}},
{"geometry": {"type": "Point", "coordinates": [-84.194822048, 39.7247607287]}, "type": "Feature", "properties": {"collection_times": [{"days": "Mon-Fri", "time": "12:00pm"}, {"days": "Sat-Sun", "time": "Closed"}], "id": "4540900038", "name": "USPS COLLECTION BOX - BLUE BOX", "address": {"city": "DAYTON", "state": "OH", "street": "2200 W SCHANTZ AVE", "postcode": "45409"}}},
{"geometry": {"type": "Point", "coordinates": [-84.1803118733, 39.7331514566]}, "type": "Feature", "properties": {"collection_times": [{"days": "Mon-Fri", "time": "4:00pm"}, {"days": "Sat", "time": "3:30pm"}, {"days": "Sun", "time": "Closed"}], "id": "4540900039", "name": "USPS COLLECTION BOX - PO LOBBY", "address": {"city": "DAYTON", "state": "OH", "street": "1 OAKWOOD AVE", "postcode": "45409"}}},
{"geometry": {"type": "Point", "coordinates": [-84.1803118733, 39.7331514566]}, "type": "Feature", "properties": {"collection_times": [{"days": "Mon-Sat", "time": "4:00pm"}, {"days": "Sun", "time": "Closed"}], "id": "4540900043", "name": "USPS COLLECTION BOX - BLUE BOX", "address": {"city": "DAYTON", "state": "OH", "street": "1 OAKWOOD AVE", "postcode": "45409"}}},
{"geometry": {"type": "Point", "coordinates": [-84.1990471787, 39.7084334013]}, "type": "Feature", "properties": {"collection_times": [{"days": "Mon-Fri", "time": "3:45pm"}, {"days": "Sat-Sun", "time": "Closed"}], "id": "4540900044", "name": "USPS COLLECTION BOX - BLUE BOX", "address": {"city": "DAYTON", "state": "OH", "street": "3025 GOVERNORS PLACE BLVD", "postcode": "45409"}}},
{"geometry": {"type": "Point", "coordinates": [-84.1990471787, 39.7084334013]}, "type": "Feature", "properties": {"collection_times": [{"days": "Mon-Fri", "time": "3:45pm"}, {"days": "Sat-Sun", "time": "Closed"}], "id": "4540900045", "name": "USPS COLLECTION BOX - BLUE BOX", "address": {"city": "DAYTON", "state": "OH", "street": "3025 GOVERNORS PLACE BLVD", "postcode": "45409"}}},
{"geometry": {"type": "Point", "coordinates": [-84.1709735953, 39.7463840356]}, "type": "Feature", "properties": {"collection_times": [{"days": "Mon-Fri", "time": "10:00am"}, {"days": "Sat-Sun", "time": "Closed"}], "id": "4541000000", "name": "USPS COLLECTION BOX - BLUE BOX", "address": {"city": "DAYTON", "state": "OH", "street": "1555 WAYNE AVE", "postcode": "45410"}}},
{"geometry": {"type": "Point", "coordinates": [-84.1666948327, 39.7472866333]}, "type": "Feature", "properties": {"collection_times": [{"days": "Mon-Fri", "time": "2:00pm"}, {"days": "Sat-Sun", "time": "Closed"}], "id": "4541000002", "name": "USPS COLLECTION BOX - BLUE BOX", "address": {"city": "DAYTON", "state": "OH", "street": "930 WYOMING ST", "postcode": "45410"}}},
{"geometry": {"type": "Point", "coordinates": [-84.1776998999, 39.7473304028]}, "type": "Feature", "properties": {"collection_times": [{"days": "Mon-Fri", "time": "10:00am"}, {"days": "Sat", "time": "3:15pm"}, {"days": "Sun", "time": "Closed"}], "id": "4541000005", "name": "USPS COLLECTION BOX - BLUE BOX", "address": {"city": "DAYTON", "state": "OH", "street": "220 PARK MANOR DR", "postcode": "45410"}}},
{"geometry": {"type": "Point", "coordinates": [-84.1557631089, 39.7466478354]}, "type": "Feature", "properties": {"collection_times": [{"days": "Mon-Fri", "time": "2:00pm"}, {"days": "Sat-Sun", "time": "Closed"}], "id": "4541000012", "name": "USPS COLLECTION BOX - BLUE BOX", "address": {"city": "DAYTON", "state": "OH", "street": "1819 WYOMING ST", "postcode": "45410"}}},
{"geometry": {"type": "Point", "coordinates": [-84.1353414838, 39.7417635102]}, "type": "Feature", "properties": {"collection_times": [{"days": "Mon-Fri", "time": "1:30pm"}, {"days": "Sat-Sun", "time": "Closed"}], "id": "4541000018", "name": "USPS COLLECTION BOX - BLUE BOX", "address": {"city": "DAYTON", "state": "OH", "street": "4269 CORINTH BLVD", "postcode": "45410"}}},
{"geometry": {"type": "Point", "coordinates": [-84.1329532941, 39.7470429437]}, "type": "Feature", "properties": {"collection_times": [{"days": "Mon-Fri", "time": "1:30pm"}, {"days": "Sat-Sun", "time": "Closed"}], "id": "4541000021", "name": "USPS COLLECTION BOX - BLUE BOX", "address": {"city": "DAYTON", "state": "OH", "street": "1420 HEARTHSTONE DR", "postcode": "45410"}}},
{"geometry": {"type": "Point", "coordinates": [-84.1421070306, 39.7482815018]}, "type": "Feature", "properties": {"collection_times": [{"days": "Mon-Fri", "time": "3:30pm"}, {"days": "Sat-Sun", "time": "Closed"}], "id": "4541000026", "name": "USPS COLLECTION BOX - BLUE BOX", "address": {"city": "DAYTON", "state": "OH", "street": "2821 LINDEN AVE", "postcode": "45410"}}},
{"geometry": {"type": "Point", "coordinates": [-84.1999040397, 39.8195464987]}, "type": "Feature", "properties": {"collection_times": [{"days": "Mon-Fri", "time": "12:30pm"}, {"days": "Sat-Sun", "time": "Closed"}], "id": "4541400000", "name": "USPS COLLECTION BOX - BLUE BOX", "address": {"city": "DAYTON", "state": "OH", "street": "1934 NEEDMORE RD", "postcode": "45414"}}},
{"geometry": {"type": "Point", "coordinates": [-84.1942507959, 39.8012299979]}, "type": "Feature", "properties": {"collection_times": [{"days": "Mon-Fri", "time": "10:30am"}, {"days": "Sat-Sun", "time": "Closed"}], "id": "4541400007", "name": "USPS COLLECTION BOX - BLUE BOX", "address": {"city": "DAYTON", "state": "OH", "street": "3870 N DIXIE DR", "postcode": "45414"}}},
{"geometry": {"type": "Point", "coordinates": [-84.1991437167, 39.8630641153]}, "type": "Feature", "properties": {"collection_times": [{"days": "Mon-Fri", "time": "2:45pm"}, {"days": "Sat-Sun", "time": "Closed"}], "id": "4541400009", "name": "USPS COLLECTION BOX - BLUE BOX", "address": {"city": "DAYTON", "state": "OH", "street": "9125 N DIXIE DR", "postcode": "45414"}}},
{"geometry": {"type": "Point", "coordinates": [-84.1792566739, 39.8096983653]}, "type": "Feature", "properties": {"collection_times": [{"days": "Mon-Fri", "time": "12:00pm"}, {"days": "Sat-Sun", "time": "Closed"}], "id": "4541400013", "name": "USPS COLLECTION BOX - BLUE BOX", "address": {"city": "DAYTON", "state": "OH", "street": "4620 WEBSTER ST", "postcode": "45414"}}},
{"geometry": {"type": "Point", "coordinates": [-84.1796645291, 39.8265420585]}, "type": "Feature", "properties": {"collection_times": [{"days": "Mon-Fri", "time": "3:30pm"}, {"days": "Sat-Sun", "time": "Closed"}], "id": "4541400017", "name": "USPS COLLECTION BOX - BLUE BOX", "address": {"city": "DAYTON", "state": "OH", "street": "5703 WEBSTER ST", "postcode": "45414"}}},
{"geometry": {"type": "Point", "coordinates": [-84.1915771916, 39.8213079246]}, "type": "Feature", "properties": {"collection_times": [{"days": "Mon-Fri", "time": "4:00pm"}, {"days": "Sat", "time": "3:30pm"}, {"days": "Sun", "time": "Closed"}], "id": "4541400020", "name": "USPS COLLECTION BOX - BLUE BOX", "address": {"city": "DAYTON", "state": "OH", "street": "5150 PAYNE AVE", "postcode": "45414"}}},
{"geometry": {"type": "Point", "coordinates": [-84.1892254691, 39.851797509]}, "type": "Feature", "properties": {"collection_times": [{"days": "Mon-Fri", "time": "10:30am"}, {"days": "Sat-Sun", "time": "Closed"}], "id": "4541400024", "name": "USPS COLLECTION BOX - BLUE BOX", "address": {"city": "DAYTON", "state": "OH", "street": "7200 POE AVE", "postcode": "45414"}}},
{"geometry": {"type": "Point", "coordinates": [-84.1891024414, 39.8420037917]}, "type": "Feature", "properties": {"collection_times": [{"days": "Mon-Fri", "time": "3:15pm"}, {"days": "Sat-Sun", "time": "Closed"}], "id": "4541400028", "name": "USPS COLLECTION BOX - BLUE BOX", "address": {"city": "DAYTON", "state": "OH", "street": "6450 POE AVE", "postcode": "45414"}}},
{"geometry": {"type": "Point", "coordinates": [-84.1891024414, 39.8420037917]}, "type": "Feature", "properties": {"collection_times": [{"days": "Mon-Fri", "time": "3:15pm"}, {"days": "Sat-Sun", "time": "Closed"}], "id": "4541400029", "name": "USPS COLLECTION BOX - BLUE BOX", "address": {"city": "DAYTON", "state": "OH", "street": "6450 POE AVE", "postcode": "45414"}}},
{"geometry": {"type": "Point", "coordinates": [-84.1891332107, 39.8439808518]}, "type": "Feature", "properties": {"collection_times": [{"days": "Mon-Fri", "time": "3:15pm"}, {"days": "Sat-Sun", "time": "Closed"}], "id": "4541400031", "name": "USPS COLLECTION BOX - BLUE BOX", "address": {"city": "DAYTON", "state": "OH", "street": "6500 POE AVE", "postcode": "45414"}}},
{"geometry": {"type": "Point", "coordinates": [-84.1891332107, 39.8439808518]}, "type": "Feature", "properties": {"collection_times": [{"days": "Mon-Fri", "time": "3:15pm"}, {"days": "Sat-Sun", "time": "Closed"}], "id": "4541400032", "name": "USPS COLLECTION BOX - BLUE BOX", "address": {"city": "DAYTON", "state": "OH", "street": "6640 POE AVE", "postcode": "45414"}}},
{"geometry": {"type": "Point", "coordinates": [-84.1862278511, 39.8507541392]}, "type": "Feature", "properties": {"collection_times": [{"days": "Mon-Fri", "time": "3:00pm"}, {"days": "Sat-Sun", "time": "Closed"}], "id": "4541400033", "name": "USPS COLLECTION BOX - BLUE BOX", "address": {"city": "DAYTON", "state": "OH", "street": "3401 PARK CENTER DR", "postcode": "45414"}}},
{"geometry": {"type": "Point", "coordinates": [-84.1862278511, 39.8507541392]}, "type": "Feature", "properties": {"collection_times": [{"days": "Mon-Fri", "time": "3:00pm"}, {"days": "Sat-Sun", "time": "Closed"}], "id": "4541400034", "name": "USPS COLLECTION BOX - BLUE BOX", "address": {"city": "DAYTON", "state": "OH", "street": "3401 PARK CENTER DR", "postcode": "45414"}}},
{"geometry": {"type": "Point", "coordinates": [-84.160661742, 39.8220827627]}, "type": "Feature", "properties": {"collection_times": [{"days": "Mon-Fri", "time": "11:45am"}, {"days": "Sat-Sun", "time": "Closed"}], "id": "4541400037", "name": "USPS COLLECTION BOX - BLUE BOX", "address": {"city": "DAYTON", "state": "OH", "street": "3543 NEEDMORE RD", "postcode": "45414"}}},
{"geometry": {"type": "Point", "coordinates": [-84.1915771916, 39.8213079246]}, "type": "Feature", "properties": {"collection_times": [{"days": "Mon-Fri", "time": "4:00pm"}, {"days": "Sat", "time": "3:30pm"}, {"days": "Sun", "time": "Closed"}], "id": "4541400041", "name": "USPS COLLECTION BOX - PO LOBBY", "address": {"city": "DAYTON", "state": "OH", "street": "5150 PAYNE AVE", "postcode": "45414"}}},
{"geometry": {"type": "Point", "coordinates": [-84.1641633005, 39.8236702937]}, "type": "Feature", "properties": {"collection_times": [{"days": "Mon-Fri", "time": "11:45am"}, {"days": "Sat-Sun", "time": "Closed"}], "id": "4541400042", "name": "USPS COLLECTION BOX - BLUE BOX", "address": {"city": "DAYTON", "state": "OH", "street": "5154 SIERRA CIR W", "postcode": "45414"}}},
{"geometry": {"type": "Point", "coordinates": [-84.2659071338, 39.8465014987]}, "type": "Feature", "properties": {"collection_times": [{"days": "Mon-Fri", "time": "1:45pm"}, {"days": "Sat-Sun", "time": "Closed"}], "id": "4541500003", "name": "USPS COLLECTION BOX - BLUE BOX", "address": {"city": "DAYTON", "state": "OH", "street": "8381 N MAIN ST", "postcode": "45415"}}},
{"geometry": {"type": "Point", "coordinates": [-84.2734556963, 39.8537482083]}, "type": "Feature", "properties": {"collection_times": [{"days": "Mon-Fri", "time": "2:00pm"}, {"days": "Sat-Sun", "time": "Closed"}], "id": "4541500009", "name": "USPS COLLECTION BOX - BLUE BOX", "address": {"city": "DAYTON", "state": "OH", "street": "9000 N MAIN ST", "postcode": "45415"}}},
{"geometry": {"type": "Point", "coordinates": [-84.2557365149, 39.8335107303]}, "type": "Feature", "properties": {"collection_times": [{"days": "Mon-Fri", "time": "1:30pm"}, {"days": "Sat-Sun", "time": "Closed"}], "id": "4541500011", "name": "USPS COLLECTION BOX - BLUE BOX", "address": {"city": "DAYTON", "state": "OH", "street": "4601 MERRICK DR", "postcode": "45415"}}},
{"geometry": {"type": "Point", "coordinates": [-84.2666761585, 39.8116005633]}, "type": "Feature", "properties": {"collection_times": [{"days": "Mon-Fri", "time": "3:45pm"}, {"days": "Sat-Sun", "time": "Closed"}], "id": "4541600005", "name": "USPS COLLECTION BOX - BLUE BOX", "address": {"city": "DAYTON", "state": "OH", "street": "4604 SALEM AVE", "postcode": "45416"}}},
{"geometry": {"type": "Point", "coordinates": [-84.2682684213, 39.8078245583]}, "type": "Feature", "properties": {"collection_times": [{"days": "Mon-Fri", "time": "11:00am"}, {"days": "Sat-Sun", "time": "Closed"}], "id": "4541600007", "name": "USPS COLLECTION BOX - BLUE BOX", "address": {"city": "DAYTON", "state": "OH", "street": "4094 PARKWAY DR", "postcode": "45416"}}},
{"geometry": {"type": "Point", "coordinates": [-84.2412295282, 39.7539739003]}, "type": "Feature", "properties": {"collection_times": [{"days": "Mon-Fri", "time": "12:45pm"}, {"days": "Sat-Sun", "time": "Closed"}], "id": "4541700000", "name": "USPS COLLECTION BOX - BLUE BOX", "address": {"city": "DAYTON", "state": "OH", "street": "154 WESTWOOD AVE", "postcode": "45417"}}},
{"geometry": {"type": "Point", "coordinates": [-84.2617282775, 39.7484833177]}, "type": "Feature", "properties": {"collection_times": [{"days": "Mon-Fri", "time": "1:00pm"}, {"days": "Sat-Sun", "time": "Closed"}], "id": "4541700001", "name": "USPS COLLECTION BOX - BLUE BOX", "address": {"city": "DAYTON", "state": "OH", "street": "2805 OAKRIDGE DR", "postcode": "45417"}}},
{"geometry": {"type": "Point", "coordinates": [-84.2354393255, 39.7527603273]}, "type": "Feature", "properties": {"collection_times": [{"days": "Mon-Fri", "time": "10:00am"}, {"days": "Sat-Sun", "time": "Closed"}], "id": "4541700005", "name": "USPS COLLECTION BOX - BLUE BOX", "address": {"city": "DAYTON", "state": "OH", "street": "13 LORENZ AVE", "postcode": "45417"}}},
{"geometry": {"type": "Point", "coordinates": [-84.2583534341, 39.7485840137]}, "type": "Feature", "properties": {"collection_times": [{"days": "Mon-Sat", "time": "4:00pm"}, {"days": "Sun", "time": "Closed"}], "id": "4541700013", "name": "USPS COLLECTION BOX - BLUE BOX", "address": {"city": "DAYTON", "state": "OH", "street": "4323 W 3RD ST", "postcode": "45417"}}},
{"geometry": {"type": "Point", "coordinates": [-84.2583534341, 39.7485840137]}, "type": "Feature", "properties": {"collection_times": [{"days": "Mon-Sat", "time": "4:00pm"}, {"days": "Sun", "time": "Closed"}], "id": "4541700016", "name": "USPS COLLECTION BOX - PO LOBBY", "address": {"city": "DAYTON", "state": "OH", "street": "4323 W 3RD ST", "postcode": "45417"}}},
{"geometry": {"type": "Point", "coordinates": [-84.3553850683, 39.7495366212]}, "type": "Feature", "properties": {"collection_times": [{"days": "Mon-Fri", "time": "10:15am"}, {"days": "Sat-Sun", "time": "Closed"}], "id": "4541700018", "name": "USPS COLLECTION BOX - BLUE BOX", "address": {"city": "DAYTON", "state": "OH", "street": "50 VOYAGER BLVD", "postcode": "45417"}}},
{"geometry": {"type": "Point", "coordinates": [-84.2931779882, 39.7464207073]}, "type": "Feature", "properties": {"collection_times": [{"days": "Mon-Fri", "time": "10:15am"}, {"days": "Sat-Sun", "time": "Closed"}], "id": "4541700019", "name": "USPS COLLECTION BOX - BLUE BOX", "address": {"city": "DAYTON", "state": "OH", "street": "6122 W 3RD ST", "postcode": "45417"}}},
{"geometry": {"type": "Point", "coordinates": [-84.2617282775, 39.7484833177]}, "type": "Feature", "properties": {"collection_times": [{"days": "Mon-Fri", "time": "10:45am"}, {"days": "Sat-Sun", "time": "Closed"}], "id": "4541700020", "name": "USPS COLLECTION BOX - BLUE BOX", "address": {"city": "DAYTON", "state": "OH", "street": "4555 COLLEGE VIEW DR", "postcode": "45417"}}},
{"geometry": {"type": "Point", "coordinates": [-84.2669435072, 39.7470713347]}, "type": "Feature", "properties": {"collection_times": [{"days": "Mon-Fri", "time": "10:00am"}, {"days": "Sat-Sun", "time": "Closed"}], "id": "4541700021", "name": "USPS COLLECTION BOX - BLUE BOX", "address": {"city": "DAYTON", "state": "OH", "street": "4933 W 3RD ST", "postcode": "45417"}}},
{"geometry": {"type": "Point", "coordinates": [-84.2640038542, 39.7760975989]}, "type": "Feature", "properties": {"collection_times": [{"days": "Mon-Fri", "time": "1:15pm"}, {"days": "Sat-Sun", "time": "Closed"}], "id": "4541700022", "name": "USPS COLLECTION BOX - BLUE BOX", "address": {"city": "DAYTON", "state": "OH", "street": "4575 LITTLE RICHMOND RD", "postcode": "45417"}}},
{"geometry": {"type": "Point", "coordinates": [-84.2339470627, 39.7421184831]}, "type": "Feature", "properties": {"collection_times": [{"days": "Mon-Fri", "time": "12:15pm"}, {"days": "Sat-Sun", "time": "Closed"}], "id": "4541700023", "name": "USPS COLLECTION BOX - BLUE BOX", "address": {"city": "DAYTON", "state": "OH", "street": "2401 LAKEVIEW AVE", "postcode": "45417"}}},
{"geometry": {"type": "Point", "coordinates": [-84.2268684064, 39.7417929718]}, "type": "Feature", "properties": {"collection_times": [{"days": "Mon-Fri", "time": "12:15pm"}, {"days": "Sat-Sun", "time": "Closed"}], "id": "4541700024", "name": "USPS COLLECTION BOX - BLUE BOX", "address": {"city": "DAYTON", "state": "OH", "street": "901 CLEMENT AVE", "postcode": "45417"}}},
{"geometry": {"type": "Point", "coordinates": [-84.2089791594, 39.7323564368]}, "type": "Feature", "properties": {"collection_times": [{"days": "Mon-Fri", "time": "3:15pm"}, {"days": "Sat-Sun", "time": "Closed"}], "id": "4541700025", "name": "USPS COLLECTION BOX - BLUE BOX", "address": {"city": "DAYTON", "state": "OH", "street": "2314 S EDWIN C MOSES BLVD", "postcode": "45417"}}},
{"geometry": {"type": "Point", "coordinates": [-84.1949675519, 39.7426790081]}, "type": "Feature", "properties": {"collection_times": [{"days": "Mon-Fri", "time": "3:30pm"}, {"days": "Sat-Sun", "time": "Closed"}], "id": "4541700026", "name": "USPS COLLECTION BOX - BLUE BOX", "address": {"city": "DAYTON", "state": "OH", "street": "1133 S EDWIN C MOSES BLVD", "postcode": "45417"}}},
{"geometry": {"type": "Point", "coordinates": [-84.2853663705, 39.735556868]}, "type": "Feature", "properties": {"collection_times": [{"days": "Mon-Fri", "time": "3:45pm"}, {"days": "Sat", "time": "3:30pm"}, {"days": "Sun", "time": "Closed"}], "id": "4541700027", "name": "USPS COLLECTION BOX - BLUE BOX", "address": {"city": "DAYTON", "state": "OH", "street": "1 ELIZABETH PL", "postcode": "45417"}}},
{"geometry": {"type": "Point", "coordinates": [-84.2853663705, 39.735556868]}, "type": "Feature", "properties": {"collection_times": [{"days": "Mon-Fri", "time": "3:45pm"}, {"days": "Sat", "time": "3:30pm"}, {"days": "Sun", "time": "Closed"}], "id": "4541700029", "name": "USPS COLLECTION BOX - BLUE BOX", "address": {"city": "DAYTON", "state": "OH", "street": "1 ELIZABETH PL", "postcode": "45417"}}},
{"geometry": {"type": "Point", "coordinates": [-84.1974862649, 39.7473490766]}, "type": "Feature", "properties": {"collection_times": [{"days": "Mon-Sat", "time": "3:45pm"}, {"days": "Sun", "time": "Closed"}], "id": "4541700030", "name": "USPS COLLECTION BOX - BLUE BOX", "address": {"city": "DAYTON", "state": "OH", "street": "627 S EDWIN C MOSES BLVD", "postcode": "45417"}}},
{"geometry": {"type": "Point", "coordinates": [-84.2515283689, 39.7301905103]}, "type": "Feature", "properties": {"collection_times": [{"days": "Mon-Fri", "time": "12:00pm"}, {"days": "Sat-Sun", "time": "Closed"}], "id": "4541700031", "name": "USPS COLLECTION BOX - BLUE BOX", "address": {"city": "DAYTON", "state": "OH", "street": "1601 ACE PL", "postcode": "45417"}}},
{"geometry": {"type": "Point", "coordinates": [-84.2725980511, 39.7313770182]}, "type": "Feature", "properties": {"collection_times": [{"days": "Mon-Fri", "time": "10:45am"}, {"days": "Sat-Sun", "time": "Closed"}], "id": "4541800001", "name": "USPS COLLECTION BOX - BLUE BOX", "address": {"city": "DAYTON", "state": "OH", "street": "1042 LIBERTY MEADOWS RD", "postcode": "45418"}}},
{"geometry": {"type": "Point", "coordinates": [-84.2343423411, 39.732389631]}, "type": "Feature", "properties": {"collection_times": [{"days": "Mon-Fri", "time": "12:00pm"}, {"days": "Sat-Sun", "time": "Closed"}], "id": "4541800003", "name": "USPS COLLECTION BOX - BLUE BOX", "address": {"city": "DAYTON", "state": "OH", "street": "2505 NICHOLAS RD", "postcode": "45418"}}},
{"geometry": {"type": "Point", "coordinates": [-84.2675681095, 39.725385331]}, "type": "Feature", "properties": {"collection_times": [{"days": "Mon-Fri", "time": "11:00am"}, {"days": "Sat-Sun", "time": "Closed"}], "id": "4541800004", "name": "USPS COLLECTION BOX - BLUE BOX", "address": {"city": "DAYTON", "state": "OH", "street": "1453 LISCUM DR", "postcode": "45418"}}},
{"geometry": {"type": "Point", "coordinates": [-84.2616214584, 39.7294465906]}, "type": "Feature", "properties": {"collection_times": [{"days": "Mon-Fri", "time": "11:00am"}, {"days": "Sat-Sun", "time": "Closed"}], "id": "4541800005", "name": "USPS COLLECTION BOX - BLUE BOX", "address": {"city": "DAYTON", "state": "OH", "street": "4160 GERMANTOWN PIKE", "postcode": "45418"}}},
{"geometry": {"type": "Point", "coordinates": [-84.1735436497, 39.7246106947]}, "type": "Feature", "properties": {"collection_times": [{"days": "Mon-Fri", "time": "3:45pm"}, {"days": "Sat", "time": "2:45pm"}, {"days": "Sun", "time": "Closed"}], "id": "4541900002", "name": "USPS COLLECTION BOX - BLUE BOX", "address": {"city": "DAYTON", "state": "OH", "street": "1 E DIXON AVE", "postcode": "45419"}}},
{"geometry": {"type": "Point", "coordinates": [-84.1710126329, 39.7104362786]}, "type": "Feature", "properties": {"collection_times": [{"days": "Mon-Fri", "time": "3:30pm"}, {"days": "Sat", "time": "2:30pm"}, {"days": "Sun", "time": "Closed"}], "id": "4541900004", "name": "USPS COLLECTION BOX - BLUE BOX", "address": {"city": "DAYTON", "state": "OH", "street": "2300 FAR HILLS AVE", "postcode": "45419"}}},
{"geometry": {"type": "Point", "coordinates": [-84.1663482257, 39.712124361]}, "type": "Feature", "properties": {"collection_times": [{"days": "Mon-Fri", "time": "10:15am"}, {"days": "Sat-Sun", "time": "Closed"}], "id": "4541900017", "name": "USPS COLLECTION BOX - BLUE BOX", "address": {"city": "DAYTON", "state": "OH", "street": "300 HADLEY AVE", "postcode": "45419"}}},
{"geometry": {"type": "Point", "coordinates": [-84.1618932022, 39.7067844842]}, "type": "Feature", "properties": {"collection_times": [{"days": "Mon-Fri", "time": "10:30am"}, {"days": "Sat-Sun", "time": "Closed"}], "id": "4541900020", "name": "USPS COLLECTION BOX - BLUE BOX", "address": {"city": "DAYTON", "state": "OH", "street": "500 BROAD BLVD", "postcode": "45419"}}},
{"geometry": {"type": "Point", "coordinates": [-84.1740847773, 39.7232654685]}, "type": "Feature", "properties": {"collection_times": [{"days": "Mon-Fri", "time": "3:45pm"}, {"days": "Sat", "time": "2:30pm"}, {"days": "Sun", "time": "Closed"}], "id": "4541900024", "name": "USPS COLLECTION BOX - BLUE BOX", "address": {"city": "DAYTON", "state": "OH", "street": "31 PARK AVE", "postcode": "45419"}}},
{"geometry": {"type": "Point", "coordinates": [-84.1703537248, 39.7055553899]}, "type": "Feature", "properties": {"collection_times": [{"days": "Mon-Fri", "time": "3:30pm"}, {"days": "Sat", "time": "2:30pm"}, {"days": "Sun", "time": "Closed"}], "id": "4541900027", "name": "USPS COLLECTION BOX - BLUE BOX", "address": {"city": "DAYTON", "state": "OH", "street": "2800 FAR HILLS AVE", "postcode": "45419"}}},
{"geometry": {"type": "Point", "coordinates": [-84.1673395453, 39.7281167833]}, "type": "Feature", "properties": {"collection_times": [{"days": "Mon-Fri", "time": "4:00pm"}, {"days": "Sat-Sun", "time": "Closed"}], "id": "4541900030", "name": "USPS COLLECTION BOX - BLUE BOX", "address": {"city": "DAYTON", "state": "OH", "street": "200 THRUSTON BLVD E", "postcode": "45419"}}},
{"geometry": {"type": "Point", "coordinates": [-84.1710126329, 39.7104362786]}, "type": "Feature", "properties": {"collection_times": [{"days": "Mon-Fri", "time": "3:30pm"}, {"days": "Sat", "time": "2:30pm"}, {"days": "Sun", "time": "Closed"}], "id": "4541900031", "name": "USPS COLLECTION BOX - BLUE BOX", "address": {"city": "DAYTON", "state": "OH", "street": "2300 FAR HILLS AVE", "postcode": "45419"}}},
{"geometry": {"type": "Point", "coordinates": [-84.1705867677, 39.7072718633]}, "type": "Feature", "properties": {"collection_times": [{"days": "Mon-Fri", "time": "3:30pm"}, {"days": "Sat-Sun", "time": "Closed"}], "id": "4541900032", "name": "USPS COLLECTION BOX - BLUE BOX", "address": {"city": "DAYTON", "state": "OH", "street": "2600 FAR HILLS AVE", "postcode": "45419"}}},
{"geometry": {"type": "Point", "coordinates": [-84.1608405467, 39.724234621]}, "type": "Feature", "properties": {"collection_times": [{"days": "Mon-Fri", "time": "10:15am"}, {"days": "Sat-Sun", "time": "Closed"}], "id": "4541900034", "name": "USPS COLLECTION BOX - BLUE BOX", "address": {"city": "DAYTON", "state": "OH", "street": "711 SHROYER RD", "postcode": "45419"}}},
{"geometry": {"type": "Point", "coordinates": [-84.170900612, 39.707493452]}, "type": "Feature", "properties": {"collection_times": [{"days": "Mon-Fri", "time": "10:30am"}, {"days": "Sat-Sun", "time": "Closed"}], "id": "4541900035", "name": "USPS COLLECTION BOX - BLUE BOX", "address": {"city": "DAYTON", "state": "OH", "street": "2545 FAR HILLS AVE", "postcode": "45419"}}},
{"geometry": {"type": "Point", "coordinates": [-84.1394673072, 39.7159910873]}, "type": "Feature", "properties": {"collection_times": [{"days": "Mon-Fri", "time": "5:00pm"}, {"days": "Sat", "time": "4:00pm"}, {"days": "Sun", "time": "Closed"}], "id": "4542000000", "name": "USPS COLLECTION BOX - BLUE BOX", "address": {"city": "DAYTON", "state": "OH", "street": "1490 FORRER BLVD", "postcode": "45420"}}},
{"geometry": {"type": "Point", "coordinates": [-84.1394673072, 39.7159910873]}, "type": "Feature", "properties": {"collection_times": [{"days": "Mon-Fri", "time": "5:00pm"}, {"days": "Sat", "time": "4:00pm"}, {"days": "Sun", "time": "Closed"}], "id": "4542000001", "name": "USPS COLLECTION BOX - BLUE BOX", "address": {"city": "DAYTON", "state": "OH", "street": "1490 FORRER BLVD", "postcode": "45420"}}},
{"geometry": {"type": "Point", "coordinates": [-84.1394673072, 39.7159910873]}, "type": "Feature", "properties": {"collection_times": [{"days": "Mon-Fri", "time": "5:00pm"}, {"days": "Sat", "time": "4:00pm"}, {"days": "Sun", "time": "Closed"}], "id": "4542000002", "name": "USPS COLLECTION BOX - BLUE BOX", "address": {"city": "DAYTON", "state": "OH", "street": "1490 FORRER BLVD", "postcode": "45420"}}},
{"geometry": {"type": "Point", "coordinates": [-84.1304466093, 39.7229280219]}, "type": "Feature", "properties": {"collection_times": [{"days": "Mon-Fri", "time": "12:45pm"}, {"days": "Sat-Sun", "time": "Closed"}], "id": "4542000005", "name": "USPS COLLECTION BOX - BLUE BOX", "address": {"city": "DAYTON", "state": "OH", "street": "2274 PATTERSON RD", "postcode": "45420"}}},
{"geometry": {"type": "Point", "coordinates": [-84.1265120826, 39.702870073]}, "type": "Feature", "properties": {"collection_times": [{"days": "Mon-Fri", "time": "11:00am"}, {"days": "Sat", "time": "12:00pm"}, {"days": "Sun", "time": "Closed"}], "id": "4542000013", "name": "USPS COLLECTION BOX - BLUE BOX", "address": {"city": "DAYTON", "state": "OH", "street": "2050 E DOROTHY LN", "postcode": "45420"}}},
{"geometry": {"type": "Point", "coordinates": [-84.1260436308, 39.6962727109]}, "type": "Feature", "properties": {"collection_times": [{"days": "Mon-Fri", "time": "11:15am"}, {"days": "Sat-Sun", "time": "Closed"}], "id": "4542000014", "name": "USPS COLLECTION BOX - BLUE BOX", "address": {"city": "DAYTON", "state": "OH", "street": "3085 WOODMAN DR", "postcode": "45420"}}},
{"geometry": {"type": "Point", "coordinates": [-84.122636709, 39.7214626391]}, "type": "Feature", "properties": {"collection_times": [{"days": "Mon-Fri", "time": "12:45pm"}, {"days": "Sat-Sun", "time": "Closed"}], "id": "4542000015", "name": "USPS COLLECTION BOX - BLUE BOX", "address": {"city": "DAYTON", "state": "OH", "street": "1856 E BATAAN DR", "postcode": "45420"}}},
{"geometry": {"type": "Point", "coordinates": [-84.1412298821, 39.7282784492]}, "type": "Feature", "properties": {"collection_times": [{"days": "Mon-Fri", "time": "1:00pm"}, {"days": "Sat-Sun", "time": "Closed"}], "id": "4542000018", "name": "USPS COLLECTION BOX - BLUE BOX", "address": {"city": "DAYTON", "state": "OH", "street": "2702 S SMITHVILLE RD", "postcode": "45420"}}},
{"geometry": {"type": "Point", "coordinates": [-84.1436992934, 39.7385646768]}, "type": "Feature", "properties": {"collection_times": [{"days": "Mon-Fri", "time": "1:45pm"}, {"days": "Sat-Sun", "time": "Closed"}], "id": "4542000019", "name": "USPS COLLECTION BOX - BLUE BOX", "address": {"city": "DAYTON", "state": "OH", "street": "3701 WAYNE AVE", "postcode": "45420"}}},
{"geometry": {"type": "Point", "coordinates": [-84.1376614708, 39.7189476683]}, "type": "Feature", "properties": {"collection_times": [{"days": "Mon-Fri", "time": "12:45pm"}, {"days": "Sat-Sun", "time": "Closed"}], "id": "4542000025", "name": "USPS COLLECTION BOX - BLUE BOX", "address": {"city": "DAYTON", "state": "OH", "street": "2027 LAKEWOOD DR", "postcode": "45420"}}},
{"geometry": {"type": "Point", "coordinates": [-84.154082589, 39.740011157]}, "type": "Feature", "properties": {"collection_times": [{"days": "Mon-Fri", "time": "2:00pm"}, {"days": "Sat-Sun", "time": "Closed"}], "id": "4542000027", "name": "USPS COLLECTION BOX - BLUE BOX", "address": {"city": "DAYTON", "state": "OH", "street": "1425 CREIGHTON AVE", "postcode": "45420"}}},
{"geometry": {"type": "Point", "coordinates": [-84.1118646847, 39.6960266554]}, "type": "Feature", "properties": {"collection_times": [{"days": "Mon-Fri", "time": "11:45am"}, {"days": "Sat-Sun", "time": "Closed"}], "id": "4542000028", "name": "USPS COLLECTION BOX - BLUE BOX", "address": {"city": "DAYTON", "state": "OH", "street": "3249 POWHATTAN PL", "postcode": "45420"}}},
{"geometry": {"type": "Point", "coordinates": [-84.1517410484, 39.7294972964]}, "type": "Feature", "properties": {"collection_times": [{"days": "Mon-Fri", "time": "10:15am"}, {"days": "Sat-Sun", "time": "Closed"}], "id": "4542000029", "name": "USPS COLLECTION BOX - BLUE BOX", "address": {"city": "DAYTON", "state": "OH", "street": "300 BELLAIRE AVE", "postcode": "45420"}}},
{"geometry": {"type": "Point", "coordinates": [-84.1514500405, 39.7230371575]}, "type": "Feature", "properties": {"collection_times": [{"days": "Mon-Fri", "time": "10:30am"}, {"days": "Sat-Sun", "time": "Closed"}], "id": "4542000030", "name": "USPS COLLECTION BOX - BLUE BOX", "address": {"city": "DAYTON", "state": "OH", "street": "1219 WILMINGTON AVE", "postcode": "45420"}}},
{"geometry": {"type": "Point", "coordinates": [-84.150297771, 39.7240279798]}, "type": "Feature", "properties": {"collection_times": [{"days": "Mon-Fri", "time": "10:30am"}, {"days": "Sat-Sun", "time": "Closed"}], "id": "4542000031", "name": "USPS COLLECTION BOX - BLUE BOX", "address": {"city": "DAYTON", "state": "OH", "street": "1040 PATTERSON RD", "postcode": "45420"}}},
{"geometry": {"type": "Point", "coordinates": [-82.7112131521, 40.4130547318]}, "type": "Feature", "properties": {"collection_times": [{"days": "Mon-Fri", "time": "10:15am"}, {"days": "Sat-Sun", "time": "Closed"}], "id": "4542000035", "name": "USPS COLLECTION BOX - BLUE BOX", "address": {"city": "DAYTON", "state": "OH", "street": "10 WILMINGTON AVE", "postcode": "45420"}}},
{"geometry": {"type": "Point", "coordinates": [-84.1220145961, 39.7022171029]}, "type": "Feature", "properties": {"collection_times": [{"days": "Mon-Fri", "time": "11:30am"}, {"days": "Sat-Sun", "time": "Closed"}], "id": "4542000036", "name": "USPS COLLECTION BOX - BLUE BOX", "address": {"city": "DAYTON", "state": "OH", "street": "2300 E DOROTHY LN", "postcode": "45420"}}},
{"geometry": {"type": "Point", "coordinates": [-84.1544819643, 39.7269977041]}, "type": "Feature", "properties": {"collection_times": [{"days": "Mon-Fri", "time": "10:30am"}, {"days": "Sat-Sun", "time": "Closed"}], "id": "4542000038", "name": "USPS COLLECTION BOX - BLUE BOX", "address": {"city": "DAYTON", "state": "OH", "street": "980 WILMINGTON AVE", "postcode": "45420"}}},
{"geometry": {"type": "Point", "coordinates": [-84.1535320483, 39.7251357267]}, "type": "Feature", "properties": {"collection_times": [{"days": "Mon-Fri", "time": "10:30am"}, {"days": "Sat-Sun", "time": "Closed"}], "id": "4542000039", "name": "USPS COLLECTION BOX - BLUE BOX", "address": {"city": "DAYTON", "state": "OH", "street": "945 DANBURY RD", "postcode": "45420"}}},
{"geometry": {"type": "Point", "coordinates": [-84.1504232321, 39.7328959375]}, "type": "Feature", "properties": {"collection_times": [{"days": "Mon-Fri", "time": "10:15am"}, {"days": "Sat-Sun", "time": "Closed"}], "id": "4542000043", "name": "USPS COLLECTION BOX - BLUE BOX", "address": {"city": "DAYTON", "state": "OH", "street": "2500 REVERE AVE", "postcode": "45420"}}},
{"geometry": {"type": "Point", "coordinates": [-84.1363815092, 39.727201173]}, "type": "Feature", "properties": {"collection_times": [{"days": "Mon-Fri", "time": "1:00pm"}, {"days": "Sat-Sun", "time": "Closed"}], "id": "4542000050", "name": "USPS COLLECTION BOX - BLUE BOX", "address": {"city": "DAYTON", "state": "OH", "street": "1201 WATERVLIET AVE", "postcode": "45420"}}},
{"geometry": {"type": "Point", "coordinates": [-84.1394673072, 39.7159910873]}, "type": "Feature", "properties": {"collection_times": [{"days": "Mon-Fri", "time": "5:00pm"}, {"days": "Sat", "time": "4:00pm"}, {"days": "Sun", "time": "Closed"}], "id": "4542000051", "name": "USPS COLLECTION BOX - PO LOBBY", "address": {"city": "DAYTON", "state": "OH", "street": "1490 FORRER BLVD", "postcode": "45420"}}},
{"geometry": {"type": "Point", "coordinates": [-84.1099033387, 39.7207919013]}, "type": "Feature", "properties": {"collection_times": [{"days": "Mon-Fri", "time": "12:45pm"}, {"days": "Sat-Sun", "time": "Closed"}], "id": "4542000054", "name": "USPS COLLECTION BOX - BLUE BOX", "address": {"city": "DAYTON", "state": "OH", "street": "1900 FOUNDERS DR", "postcode": "45420"}}},
{"geometry": {"type": "Point", "coordinates": [-84.1185850745, 39.8398720996]}, "type": "Feature", "properties": {"collection_times": [{"days": "Mon-Fri", "time": "5:00pm"}, {"days": "Sat", "time": "4:00pm"}, {"days": "Sun", "time": "Closed"}], "id": "4542400001", "name": "USPS COLLECTION BOX - BLUE BOX", "address": {"city": "DAYTON", "state": "OH", "street": "5425 FISHBURG RD", "postcode": "45424"}}},
{"geometry": {"type": "Point", "coordinates": [-84.1185850745, 39.8398720996]}, "type": "Feature", "properties": {"collection_times": [{"days": "Mon-Fri", "time": "5:00pm"}, {"days": "Sat", "time": "4:00pm"}, {"days": "Sun", "time": "Closed"}], "id": "4542400002", "name": "USPS COLLECTION BOX - PO LOBBY", "address": {"city": "DAYTON", "state": "OH", "street": "5425 FISHBURG RD", "postcode": "45424"}}},
{"geometry": {"type": "Point", "coordinates": [-84.1406167552, 39.8347573426]}, "type": "Feature", "properties": {"collection_times": [{"days": "Mon-Fri", "time": "11:30am"}, {"days": "Sat-Sun", "time": "Closed"}], "id": "4542400003", "name": "USPS COLLECTION BOX - BLUE BOX", "address": {"city": "DAYTON", "state": "OH", "street": "5588 TROY PIKE", "postcode": "45424"}}},
{"geometry": {"type": "Point", "coordinates": [-84.1105255751, 39.8093777834]}, "type": "Feature", "properties": {"collection_times": [{"days": "Mon-Fri", "time": "10:30am"}, {"days": "Sat-Sun", "time": "Closed"}], "id": "4542400008", "name": "USPS COLLECTION BOX - BLUE BOX", "address": {"city": "DAYTON", "state": "OH", "street": "3951 FOREST RIDGE BLVD", "postcode": "45424"}}},
{"geometry": {"type": "Point", "coordinates": [-84.1094112278, 39.8609772705]}, "type": "Feature", "properties": {"collection_times": [{"days": "Mon-Fri", "time": "11:00am"}, {"days": "Sat-Sun", "time": "Closed"}], "id": "4542400012", "name": "USPS COLLECTION BOX - BLUE BOX", "address": {"city": "DAYTON", "state": "OH", "street": "7009 TAYLORSVILLE RD", "postcode": "45424"}}},
{"geometry": {"type": "Point", "coordinates": [-84.1162382344, 39.8469770139]}, "type": "Feature", "properties": {"collection_times": [{"days": "Mon-Fri", "time": "10:45am"}, {"days": "Sat-Sun", "time": "Closed"}], "id": "4542400015", "name": "USPS COLLECTION BOX - BLUE BOX", "address": {"city": "DAYTON", "state": "OH", "street": "6114 CHAMBERSBURG RD", "postcode": "45424"}}},
{"geometry": {"type": "Point", "coordinates": [-84.1057842756, 39.8589780699]}, "type": "Feature", "properties": {"collection_times": [{"days": "Mon-Fri", "time": "10:45am"}, {"days": "Sat-Sun", "time": "Closed"}], "id": "4542400018", "name": "USPS COLLECTION BOX - BLUE BOX", "address": {"city": "DAYTON", "state": "OH", "street": "7381 BRANDT PIKE", "postcode": "45424"}}},
{"geometry": {"type": "Point", "coordinates": [-84.1372778888, 39.8749373919]}, "type": "Feature", "properties": {"collection_times": [{"days": "Mon-Fri", "time": "11:15am"}, {"days": "Sat-Sun", "time": "Closed"}], "id": "4542400022", "name": "USPS COLLECTION BOX - BLUE BOX", "address": {"city": "DAYTON", "state": "OH", "street": "8261 TROY PIKE", "postcode": "45424"}}},
{"geometry": {"type": "Point", "coordinates": [-84.1381282577, 39.8650308512]}, "type": "Feature", "properties": {"collection_times": [{"days": "Mon-Fri", "time": "11:15am"}, {"days": "Sat-Sun", "time": "Closed"}], "id": "4542400023", "name": "USPS COLLECTION BOX - BLUE BOX", "address": {"city": "DAYTON", "state": "OH", "street": "7651 TROY PIKE", "postcode": "45424"}}},
{"geometry": {"type": "Point", "coordinates": [-84.1258437107, 39.8002039367]}, "type": "Feature", "properties": {"collection_times": [{"days": "Mon-Fri", "time": "10:30am"}, {"days": "Sat-Sun", "time": "Closed"}], "id": "4542400029", "name": "USPS COLLECTION BOX - BLUE BOX", "address": {"city": "DAYTON", "state": "OH", "street": "3324 VALLEY ST", "postcode": "45424"}}},
{"geometry": {"type": "Point", "coordinates": [-84.1185850745, 39.8398720996]}, "type": "Feature", "properties": {"collection_times": [{"days": "Mon-Fri", "time": "5:00pm"}, {"days": "Sat", "time": "4:00pm"}, {"days": "Sun", "time": "Closed"}], "id": "4542400032", "name": "USPS COLLECTION BOX - PO LOBBY", "address": {"city": "DAYTON", "state": "OH", "street": "5425 FISHBURG RD", "postcode": "45424"}}},
{"geometry": {"type": "Point", "coordinates": [-84.1185850745, 39.8398720996]}, "type": "Feature", "properties": {"collection_times": [{"days": "Mon-Fri", "time": "5:00pm"}, {"days": "Sat", "time": "4:00pm"}, {"days": "Sun", "time": "Closed"}], "id": "4542400033", "name": "USPS COLLECTION BOX - APC", "address": {"city": "DAYTON", "state": "OH", "street": "5425 FISHBURG RD", "postcode": "45424"}}},
{"geometry": {"type": "Point", "coordinates": [-84.2993596731, 39.7981308173]}, "type": "Feature", "properties": {"collection_times": [{"days": "Mon-Fri", "time": "5:00pm"}, {"days": "Sat", "time": "4:00pm"}, {"days": "Sun", "time": "Closed"}], "id": "4542600001", "name": "USPS COLLECTION BOX - BLUE BOX", "address": {"city": "DAYTON", "state": "OH", "street": "34A BEARDSLEY RD", "postcode": "45426"}}},
{"geometry": {"type": "Point", "coordinates": [-84.2993596731, 39.7981308173]}, "type": "Feature", "properties": {"collection_times": [{"days": "Mon-Fri", "time": "5:00pm"}, {"days": "Sat", "time": "4:00pm"}, {"days": "Sun", "time": "Closed"}], "id": "4542600002", "name": "USPS COLLECTION BOX - BLUE BOX", "address": {"city": "DAYTON", "state": "OH", "street": "34B BEARDSLEY RD", "postcode": "45426"}}},
{"geometry": {"type": "Point", "coordinates": [-84.2993596731, 39.7981308173]}, "type": "Feature", "properties": {"collection_times": [{"days": "Mon-Fri", "time": "5:00pm"}, {"days": "Sat", "time": "4:00pm"}, {"days": "Sun", "time": "Closed"}], "id": "4542600003", "name": "USPS COLLECTION BOX - BLUE BOX", "address": {"city": "DAYTON", "state": "OH", "street": "34C BEARDSLEY RD", "postcode": "45426"}}},
{"geometry": {"type": "Point", "coordinates": [-84.2927201831, 39.7984141197]}, "type": "Feature", "properties": {"collection_times": [{"days": "Mon-Fri", "time": "2:15pm"}, {"days": "Sat-Sun", "time": "Closed"}], "id": "4542600008", "name": "USPS COLLECTION BOX - BLUE BOX", "address": {"city": "DAYTON", "state": "OH", "street": "3035 OLIVE RD", "postcode": "45426"}}},
{"geometry": {"type": "Point", "coordinates": [-84.2687262264, 39.8198091156]}, "type": "Feature", "properties": {"collection_times": [{"days": "Mon-Fri", "time": "11:15am"}, {"days": "Sat-Sun", "time": "Closed"}], "id": "4542600009", "name": "USPS COLLECTION BOX - BLUE BOX", "address": {"city": "DAYTON", "state": "OH", "street": "5001 WEDDINGTON DR", "postcode": "45426"}}},
{"geometry": {"type": "Point", "coordinates": [-84.3016588781, 39.8066716314]}, "type": "Feature", "properties": {"collection_times": [{"days": "Mon-Fri", "time": "11:00am"}, {"days": "Sat-Sun", "time": "Closed"}], "id": "4542600011", "name": "USPS COLLECTION BOX - BLUE BOX", "address": {"city": "DAYTON", "state": "OH", "street": "4911 COVENANT HOUSE DR", "postcode": "45426"}}},
{"geometry": {"type": "Point", "coordinates": [-84.2735160272, 39.8023025059]}, "type": "Feature", "properties": {"collection_times": [{"days": "Mon-Fri", "time": "11:00am"}, {"days": "Sat-Sun", "time": "Closed"}], "id": "4542600012", "name": "USPS COLLECTION BOX - BLUE BOX", "address": {"city": "DAYTON", "state": "OH", "street": "3802 DENLINGER RD", "postcode": "45426"}}},
{"geometry": {"type": "Point", "coordinates": [-84.2947252985, 39.8252921304]}, "type": "Feature", "properties": {"collection_times": [{"days": "Mon-Fri", "time": "2:30pm"}, {"days": "Sat-Sun", "time": "Closed"}], "id": "4542600015", "name": "USPS COLLECTION BOX - BLUE BOX", "address": {"city": "DAYTON", "state": "OH", "street": "6110 WESTFORD RD", "postcode": "45426"}}},
{"geometry": {"type": "Point", "coordinates": [-84.2952233242, 39.818470006]}, "type": "Feature", "properties": {"collection_times": [{"days": "Mon-Fri", "time": "2:15pm"}, {"days": "Sat-Sun", "time": "Closed"}], "id": "4542600018", "name": "USPS COLLECTION BOX - BLUE BOX", "address": {"city": "DAYTON", "state": "OH", "street": "3100 SHILOH SPRINGS RD", "postcode": "45426"}}},
{"geometry": {"type": "Point", "coordinates": [-84.3016588781, 39.8066716314]}, "type": "Feature", "properties": {"collection_times": [{"days": "Mon-Fri", "time": "2:30pm"}, {"days": "Sat-Sun", "time": "Closed"}], "id": "4542600019", "name": "USPS COLLECTION BOX - BLUE BOX", "address": {"city": "DAYTON", "state": "OH", "street": "5495 SALEM AVE", "postcode": "45426"}}},
{"geometry": {"type": "Point", "coordinates": [-84.2994405729, 39.7986471627]}, "type": "Feature", "properties": {"collection_times": [{"days": "Mon-Fri", "time": "5:00pm"}, {"days": "Sat", "time": "4:00pm"}, {"days": "Sun", "time": "Closed"}], "id": "4542600030", "name": "USPS COLLECTION BOX - PO LOBBY", "address": {"city": "DAYTON", "state": "OH", "street": "34 BEARDSLEY RD", "postcode": "45426"}}},
{"geometry": {"type": "Point", "coordinates": [-84.2612203517, 39.7406289402]}, "type": "Feature", "properties": {"collection_times": [{"days": "Mon-Fri", "time": "11:15am"}, {"days": "Sat-Sun", "time": "Closed"}], "id": "4542800001", "name": "USPS COLLECTION BOX - BLUE BOX", "address": {"city": "DAYTON", "state": "OH", "street": "4100 W 3RD ST", "postcode": "45428"}}},
{"geometry": {"type": "Point", "coordinates": [-84.2612203517, 39.7406289402]}, "type": "Feature", "properties": {"collection_times": [{"days": "Mon-Fri", "time": "11:15am"}, {"days": "Sat-Sun", "time": "Closed"}], "id": "4542800002", "name": "USPS COLLECTION BOX - BLUE BOX", "address": {"city": "DAYTON", "state": "OH", "street": "4100 W 3RD ST", "postcode": "45428"}}},
{"geometry": {"type": "Point", "coordinates": [-84.2612203517, 39.7406289402]}, "type": "Feature", "properties": {"collection_times": [{"days": "Mon-Fri", "time": "11:15am"}, {"days": "Sat-Sun", "time": "Closed"}], "id": "4542800003", "name": "USPS COLLECTION BOX - BLUE BOX", "address": {"city": "DAYTON", "state": "OH", "street": "4100 W 3RD ST", "postcode": "45428"}}},
{"geometry": {"type": "Point", "coordinates": [-84.15235737, 39.7029919178]}, "type": "Feature", "properties": {"collection_times": [{"days": "Mon-Fri", "time": "10:30am"}, {"days": "Sat-Sun", "time": "Closed"}], "id": "4542900002", "name": "USPS COLLECTION BOX - BLUE BOX", "address": {"city": "DAYTON", "state": "OH", "street": "3080 ACKERMAN BLVD", "postcode": "45429"}}},
{"geometry": {"type": "Point", "coordinates": [-84.1417024586, 39.7017722871]}, "type": "Feature", "properties": {"collection_times": [{"days": "Mon-Fri", "time": "10:45am"}, {"days": "Sat-Sun", "time": "Closed"}], "id": "4542900008", "name": "USPS COLLECTION BOX - BLUE BOX", "address": {"city": "DAYTON", "state": "OH", "street": "3048 WILMINGTON PIKE", "postcode": "45429"}}},
{"geometry": {"type": "Point", "coordinates": [-84.1376863129, 39.7034934924]}, "type": "Feature", "properties": {"collection_times": [{"days": "Mon-Fri", "time": "10:45am"}, {"days": "Sat-Sun", "time": "Closed"}], "id": "4542900013", "name": "USPS COLLECTION BOX - BLUE BOX", "address": {"city": "DAYTON", "state": "OH", "street": "1563 E DOROTHY LN", "postcode": "45429"}}},
{"geometry": {"type": "Point", "coordinates": [-84.1632808131, 39.6701624406]}, "type": "Feature", "properties": {"collection_times": [{"days": "Mon-Fri", "time": "2:30pm"}, {"days": "Sat-Sun", "time": "Closed"}], "id": "4542900017", "name": "USPS COLLECTION BOX - BLUE BOX", "address": {"city": "DAYTON", "state": "OH", "street": "5250 FAR HILLS AVE", "postcode": "45429"}}},
{"geometry": {"type": "Point", "coordinates": [-84.1635777358, 39.6709219003]}, "type": "Feature", "properties": {"collection_times": [{"days": "Mon-Fri", "time": "2:45pm"}, {"days": "Sat-Sun", "time": "Closed"}], "id": "4542900018", "name": "USPS COLLECTION BOX - BLUE BOX", "address": {"city": "DAYTON", "state": "OH", "street": "5335 FAR HILLS AVE", "postcode": "45429"}}},
{"geometry": {"type": "Point", "coordinates": [-84.1596905327, 39.6966772828]}, "type": "Feature", "properties": {"collection_times": [{"days": "Mon-Fri", "time": "10:30am"}, {"days": "Sat-Sun", "time": "Closed"}], "id": "4542900024", "name": "USPS COLLECTION BOX - BLUE BOX", "address": {"city": "DAYTON", "state": "OH", "street": "500 LINCOLN PARK BLVD", "postcode": "45429"}}},
{"geometry": {"type": "Point", "coordinates": [-84.1906107141, 39.6970925014]}, "type": "Feature", "properties": {"collection_times": [{"days": "Mon-Fri", "time": "11:45am"}, {"days": "Sat-Sun", "time": "Closed"}], "id": "4542900027", "name": "USPS COLLECTION BOX - BLUE BOX", "address": {"city": "DAYTON", "state": "OH", "street": "3535 SOUTHERN BLVD", "postcode": "45429"}}},
{"geometry": {"type": "Point", "coordinates": [-84.1688304611, 39.690477869]}, "type": "Feature", "properties": {"collection_times": [{"days": "Mon-Fri", "time": "3:00pm"}, {"days": "Sat-Sun", "time": "Closed"}], "id": "4542900028", "name": "USPS COLLECTION BOX - BLUE BOX", "address": {"city": "DAYTON", "state": "OH", "street": "10 SOUTHMOOR CIR NW", "postcode": "45429"}}},
{"geometry": {"type": "Point", "coordinates": [-84.1627709457, 39.6893063512]}, "type": "Feature", "properties": {"collection_times": [{"days": "Mon-Fri", "time": "4:00pm"}, {"days": "Sat", "time": "2:15pm"}, {"days": "Sun", "time": "Closed"}], "id": "4542900029", "name": "USPS COLLECTION BOX - BLUE BOX", "address": {"city": "DAYTON", "state": "OH", "street": "524 E STROOP RD", "postcode": "45429"}}},
{"geometry": {"type": "Point", "coordinates": [-84.1613915119, 39.6846643489]}, "type": "Feature", "properties": {"collection_times": [{"days": "Mon-Fri", "time": "3:00pm"}, {"days": "Sat", "time": "2:15pm"}, {"days": "Sun", "time": "Closed"}], "id": "4542900031", "name": "USPS COLLECTION BOX - BLUE BOX", "address": {"city": "DAYTON", "state": "OH", "street": "4093 E TOWN AND COUNTRY RD", "postcode": "45429"}}},
{"geometry": {"type": "Point", "coordinates": [-84.1613915119, 39.6846643489]}, "type": "Feature", "properties": {"collection_times": [{"days": "Mon-Fri", "time": "3:00pm"}, {"days": "Sat", "time": "2:15pm"}, {"days": "Sun", "time": "Closed"}], "id": "4542900032", "name": "USPS COLLECTION BOX - BLUE BOX", "address": {"city": "DAYTON", "state": "OH", "street": "4093 E TOWN AND COUNTRY RD", "postcode": "45429"}}},
{"geometry": {"type": "Point", "coordinates": [-84.1611633166, 39.6689475417]}, "type": "Feature", "properties": {"collection_times": [{"days": "Mon-Fri", "time": "2:30pm"}, {"days": "Sat-Sun", "time": "Closed"}], "id": "4542900040", "name": "USPS COLLECTION BOX - BLUE BOX", "address": {"city": "DAYTON", "state": "OH", "street": "42 E RAHN RD", "postcode": "45429"}}},
{"geometry": {"type": "Point", "coordinates": [-84.1356528065, 39.6881860034]}, "type": "Feature", "properties": {"collection_times": [{"days": "Mon-Fri", "time": "5:00pm"}, {"days": "Sat", "time": "4:00pm"}, {"days": "Sun", "time": "Closed"}], "id": "4542900042", "name": "USPS COLLECTION BOX - BLUE BOX", "address": {"city": "DAYTON", "state": "OH", "street": "1740 E STROOP RD", "postcode": "45429"}}},
{"geometry": {"type": "Point", "coordinates": [-84.1356528065, 39.6881860034]}, "type": "Feature", "properties": {"collection_times": [{"days": "Mon-Fri", "time": "5:00pm"}, {"days": "Sat", "time": "4:00pm"}, {"days": "Sun", "time": "Closed"}], "id": "4542900045", "name": "USPS COLLECTION BOX - BLUE BOX", "address": {"city": "DAYTON", "state": "OH", "street": "1740 E STROOP RD", "postcode": "45429"}}},
{"geometry": {"type": "Point", "coordinates": [-84.1356528065, 39.6881860034]}, "type": "Feature", "properties": {"collection_times": [{"days": "Mon-Fri", "time": "5:00pm"}, {"days": "Sat", "time": "4:00pm"}, {"days": "Sun", "time": "Closed"}], "id": "4542900046", "name": "USPS COLLECTION BOX - BLUE BOX", "address": {"city": "DAYTON", "state": "OH", "street": "1740 E STROOP RD", "postcode": "45429"}}},
{"geometry": {"type": "Point", "coordinates": [-84.1356528065, 39.6881860034]}, "type": "Feature", "properties": {"collection_times": [{"days": "Mon-Fri", "time": "5:00pm"}, {"days": "Sat", "time": "4:00pm"}, {"days": "Sun", "time": "Closed"}], "id": "4542900060", "name": "USPS COLLECTION BOX - PO LOBBY", "address": {"city": "DAYTON", "state": "OH", "street": "1740 E STROOP RD", "postcode": "45429"}}},
{"geometry": {"type": "Point", "coordinates": [-84.1356528065, 39.6881860034]}, "type": "Feature", "properties": {"collection_times": [{"days": "Mon-Fri", "time": "5:00pm"}, {"days": "Sat", "time": "4:00pm"}, {"days": "Sun", "time": "Closed"}], "id": "4542900061", "name": "USPS COLLECTION BOX - PO LOBBY", "address": {"city": "DAYTON", "state": "OH", "street": "1740 E STROOP RD", "postcode": "45429"}}},
{"geometry": {"type": "Point", "coordinates": [-84.1910727189, 39.6955695719]}, "type": "Feature", "properties": {"collection_times": [{"days": "Mon-Fri", "time": "11:45am"}, {"days": "Sat-Sun", "time": "Closed"}], "id": "4542900062", "name": "USPS COLLECTION BOX - BLUE BOX", "address": {"city": "DAYTON", "state": "OH", "street": "3533 SOUTHERN BLVD", "postcode": "45429"}}},
{"geometry": {"type": "Point", "coordinates": [-84.1356528065, 39.6881860034]}, "type": "Feature", "properties": {"collection_times": [{"days": "Mon-Fri", "time": "5:00pm"}, {"days": "Sat", "time": "4:00pm"}, {"days": "Sun", "time": "Closed"}], "id": "4542900063", "name": "USPS COLLECTION BOX - APC", "address": {"city": "DAYTON", "state": "OH", "street": "1740 E STROOP RD", "postcode": "45429"}}},
{"geometry": {"type": "Point", "coordinates": [-84.0849653808, 39.7319850591]}, "type": "Feature", "properties": {"collection_times": [{"days": "Mon-Fri", "time": "2:45pm"}, {"days": "Sat-Sun", "time": "Closed"}], "id": "4543000000", "name": "USPS COLLECTION BOX - BLUE BOX", "address": {"city": "BEAVERCREEK", "state": "OH", "street": "4020 EXECUTIVE DR", "postcode": "45430"}}},
{"geometry": {"type": "Point", "coordinates": [-84.0623007899, 39.7218939667]}, "type": "Feature", "properties": {"collection_times": [{"days": "Mon-Fri", "time": "10:30am"}, {"days": "Sat", "time": "11:45am"}, {"days": "Sun", "time": "Closed"}], "id": "4543000001", "name": "USPS COLLECTION BOX - BLUE BOX", "address": {"city": "BEAVERCREEK", "state": "OH", "street": "3245 SEAJAY DR", "postcode": "45430"}}},
{"geometry": {"type": "Point", "coordinates": [-84.0558120651, 39.770857383]}, "type": "Feature", "properties": {"collection_times": [{"days": "Mon-Fri", "time": "12:15pm"}, {"days": "Sat", "time": "11:30am"}, {"days": "Sun", "time": "Closed"}], "id": "4543100000", "name": "USPS COLLECTION BOX - BLUE BOX", "address": {"city": "DAYTON", "state": "OH", "street": "3360 PENTAGON PARK BLVD", "postcode": "45431"}}},
{"geometry": {"type": "Point", "coordinates": [-84.0551276781, 39.7588737192]}, "type": "Feature", "properties": {"collection_times": [{"days": "Mon-Fri", "time": "11:00am"}, {"days": "Sat-Sun", "time": "Closed"}], "id": "4543100004", "name": "USPS COLLECTION BOX - BLUE BOX", "address": {"city": "DAYTON", "state": "OH", "street": "2372 LAKEVIEW DR", "postcode": "45431"}}},
{"geometry": {"type": "Point", "coordinates": [-84.1194876722, 39.7823436222]}, "type": "Feature", "properties": {"collection_times": [{"days": "Mon-Fri", "time": "10:30am"}, {"days": "Sat-Sun", "time": "Closed"}], "id": "4543100008", "name": "USPS COLLECTION BOX - BLUE BOX", "address": {"city": "DAYTON", "state": "OH", "street": "5200 SPRINGFIELD ST", "postcode": "45431"}}},
{"geometry": {"type": "Point", "coordinates": [-84.1206268092, 39.7817462142]}, "type": "Feature", "properties": {"collection_times": [{"days": "Mon-Fri", "time": "12:45pm"}, {"days": "Sat-Sun", "time": "Closed"}], "id": "4543100011", "name": "USPS COLLECTION BOX - BLUE BOX", "address": {"city": "DAYTON", "state": "OH", "street": "5100 SPRINGFIELD ST", "postcode": "45431"}}},
{"geometry": {"type": "Point", "coordinates": [-84.1206268092, 39.7817462142]}, "type": "Feature", "properties": {"collection_times": [{"days": "Mon-Fri", "time": "12:45pm"}, {"days": "Sat-Sun", "time": "Closed"}], "id": "4543100012", "name": "USPS COLLECTION BOX - BLUE BOX", "address": {"city": "DAYTON", "state": "OH", "street": "5100 SPRINGFIELD ST", "postcode": "45431"}}},
{"geometry": {"type": "Point", "coordinates": [-84.1082008804, 39.7713732099]}, "type": "Feature", "properties": {"collection_times": [{"days": "Mon-Fri", "time": "12:30pm"}, {"days": "Sat", "time": "11:00am"}, {"days": "Sun", "time": "Closed"}], "id": "4543100016", "name": "USPS COLLECTION BOX - BLUE BOX", "address": {"city": "DAYTON", "state": "OH", "street": "5526 AIRWAY RD", "postcode": "45431"}}},
{"geometry": {"type": "Point", "coordinates": [-84.0831963465, 39.7648814144]}, "type": "Feature", "properties": {"collection_times": [{"days": "Mon-Fri", "time": "10:30am"}, {"days": "Sat-Sun", "time": "Closed"}], "id": "4543100019", "name": "USPS COLLECTION BOX - BLUE BOX", "address": {"city": "DAYTON", "state": "OH", "street": "4031 COLONEL GLENN HWY", "postcode": "45431"}}},
{"geometry": {"type": "Point", "coordinates": [-84.0831963465, 39.7648814144]}, "type": "Feature", "properties": {"collection_times": [{"days": "Mon-Fri", "time": "10:30am"}, {"days": "Sat-Sun", "time": "Closed"}], "id": "4543100020", "name": "USPS COLLECTION BOX - BLUE BOX", "address": {"city": "DAYTON", "state": "OH", "street": "4200 COLONEL GLENN HWY", "postcode": "45431"}}},
{"geometry": {"type": "Point", "coordinates": [-84.1235274771, 39.7665960725]}, "type": "Feature", "properties": {"collection_times": [{"days": "Mon-Fri", "time": "2:30pm"}, {"days": "Sat-Sun", "time": "Closed"}], "id": "4543100023", "name": "USPS COLLECTION BOX - BLUE BOX", "address": {"city": "DAYTON", "state": "OH", "street": "175 WOODMAN DR", "postcode": "45431"}}},
{"geometry": {"type": "Point", "coordinates": [-84.1217949224, 39.7698324593]}, "type": "Feature", "properties": {"collection_times": [{"days": "Mon-Fri", "time": "2:15pm"}, {"days": "Sat", "time": "11:00am"}, {"days": "Sun", "time": "Closed"}], "id": "4543100025", "name": "USPS COLLECTION BOX - BLUE BOX", "address": {"city": "DAYTON", "state": "OH", "street": "4924 AIRWAY RD", "postcode": "45431"}}},
{"geometry": {"type": "Point", "coordinates": [-84.1217949224, 39.7698324593]}, "type": "Feature", "properties": {"collection_times": [{"days": "Mon-Fri", "time": "2:15pm"}, {"days": "Sat", "time": "11:00am"}, {"days": "Sun", "time": "Closed"}], "id": "4543100026", "name": "USPS COLLECTION BOX - BLUE BOX", "address": {"city": "DAYTON", "state": "OH", "street": "4924 AIRWAY RD", "postcode": "45431"}}},
{"geometry": {"type": "Point", "coordinates": [-84.1099873288, 39.7579238003]}, "type": "Feature", "properties": {"collection_times": [{"days": "Mon-Fri", "time": "2:30pm"}, {"days": "Sat", "time": "11:15am"}, {"days": "Sun", "time": "Closed"}], "id": "4543100028", "name": "USPS COLLECTION BOX - BLUE BOX", "address": {"city": "DAYTON", "state": "OH", "street": "601 SPINNING RD", "postcode": "45431"}}},
{"geometry": {"type": "Point", "coordinates": [-84.1099873288, 39.7579238003]}, "type": "Feature", "properties": {"collection_times": [{"days": "Mon-Fri", "time": "2:30pm"}, {"days": "Sat", "time": "11:15am"}, {"days": "Sun", "time": "Closed"}], "id": "4543100029", "name": "USPS COLLECTION BOX - BLUE BOX", "address": {"city": "DAYTON", "state": "OH", "street": "601 SPINNING RD", "postcode": "45431"}}},
{"geometry": {"type": "Point", "coordinates": [-84.1217949224, 39.7698324593]}, "type": "Feature", "properties": {"collection_times": [{"days": "Mon-Fri", "time": "5:00pm"}, {"days": "Sat", "time": "12:00pm"}, {"days": "Sun", "time": "Closed"}], "id": "4543100048", "name": "USPS COLLECTION BOX - PO LOBBY", "address": {"city": "DAYTON", "state": "OH", "street": "4924 AIRWAY RD", "postcode": "45431"}}},
{"geometry": {"type": "Point", "coordinates": [-84.0534107187, 39.7594671297]}, "type": "Feature", "properties": {"collection_times": [{"days": "Mon-Fri", "time": "11:15am"}, {"days": "Sat-Sun", "time": "Closed"}], "id": "4543100050", "name": "USPS COLLECTION BOX - BLUE BOX", "address": {"city": "DAYTON", "state": "OH", "street": "2490 N FAIRFIELD RD", "postcode": "45431"}}},
{"geometry": {"type": "Point", "coordinates": [-84.1355567242, 39.7681470787]}, "type": "Feature", "properties": {"collection_times": [{"days": "Mon-Fri", "time": "10:00am"}, {"days": "Sat-Sun", "time": "Closed"}], "id": "4543100051", "name": "USPS COLLECTION BOX - BLUE BOX", "address": {"city": "DAYTON", "state": "OH", "street": "61 COLIN KELLY DR", "postcode": "45431"}}},
{"geometry": {"type": "Point", "coordinates": [-84.0924772783, 39.7405015426]}, "type": "Feature", "properties": {"collection_times": [{"days": "Mon-Fri", "time": "2:30pm"}, {"days": "Sat-Sun", "time": "Closed"}], "id": "4543200002", "name": "USPS COLLECTION BOX - BLUE BOX", "address": {"city": "DAYTON", "state": "OH", "street": "4401 DAYTON XENIA RD", "postcode": "45432"}}},
{"geometry": {"type": "Point", "coordinates": [-84.1197692165, 39.7515571151]}, "type": "Feature", "properties": {"collection_times": [{"days": "Mon-Fri", "time": "2:30pm"}, {"days": "Sat-Sun", "time": "Closed"}], "id": "4543200004", "name": "USPS COLLECTION BOX - BLUE BOX", "address": {"city": "DAYTON", "state": "OH", "street": "1010 WOODMAN DR", "postcode": "45432"}}},
{"geometry": {"type": "Point", "coordinates": [-84.1228330802, 39.745592636]}, "type": "Feature", "properties": {"collection_times": [{"days": "Mon-Fri", "time": "3:15pm"}, {"days": "Sat-Sun", "time": "Closed"}], "id": "4543200008", "name": "USPS COLLECTION BOX - BLUE BOX", "address": {"city": "DAYTON", "state": "OH", "street": "4126 LINDEN AVE", "postcode": "45432"}}},
{"geometry": {"type": "Point", "coordinates": [-84.1216442064, 39.7443801031]}, "type": "Feature", "properties": {"collection_times": [{"days": "Mon-Fri", "time": "3:15pm"}, {"days": "Sat-Sun", "time": "Closed"}], "id": "4543200011", "name": "USPS COLLECTION BOX - BLUE BOX", "address": {"city": "DAYTON", "state": "OH", "street": "4140 LINDEN AVE", "postcode": "45432"}}},
{"geometry": {"type": "Point", "coordinates": [-84.1219955452, 39.7446557325]}, "type": "Feature", "properties": {"collection_times": [{"days": "Mon-Fri", "time": "3:15pm"}, {"days": "Sat-Sun", "time": "Closed"}], "id": "4543200012", "name": "USPS COLLECTION BOX - BLUE BOX", "address": {"city": "DAYTON", "state": "OH", "street": "4130 LINDEN AVE", "postcode": "45432"}}},
{"geometry": {"type": "Point", "coordinates": [-84.1171490284, 39.7356241967]}, "type": "Feature", "properties": {"collection_times": [{"days": "Mon-Fri", "time": "1:15pm"}, {"days": "Sat-Sun", "time": "Closed"}], "id": "4543200013", "name": "USPS COLLECTION BOX - BLUE BOX", "address": {"city": "DAYTON", "state": "OH", "street": "5270 WOODBINE AVE", "postcode": "45432"}}},
{"geometry": {"type": "Point", "coordinates": [-84.1211308022, 39.748794906]}, "type": "Feature", "properties": {"collection_times": [{"days": "Mon-Fri", "time": "10:30am"}, {"days": "Sat-Sun", "time": "Closed"}], "id": "4543200017", "name": "USPS COLLECTION BOX - BLUE BOX", "address": {"city": "DAYTON", "state": "OH", "street": "4996 WOODMAN PARK DR", "postcode": "45432"}}},
{"geometry": {"type": "Point", "coordinates": [-84.1210349826, 39.7417456535]}, "type": "Feature", "properties": {"collection_times": [{"days": "Mon-Fri", "time": "2:45pm"}, {"days": "Sat-Sun", "time": "Closed"}], "id": "4543200018", "name": "USPS COLLECTION BOX - BLUE BOX", "address": {"city": "DAYTON", "state": "OH", "street": "1336 WOODMAN DR", "postcode": "45432"}}},
{"geometry": {"type": "Point", "coordinates": [-84.1259988737, 39.7467133096]}, "type": "Feature", "properties": {"collection_times": [{"days": "Mon-Fri", "time": "1:30pm"}, {"days": "Sat-Sun", "time": "Closed"}], "id": "4543200019", "name": "USPS COLLECTION BOX - BLUE BOX", "address": {"city": "DAYTON", "state": "OH", "street": "3898 LINDEN AVE", "postcode": "45432"}}},
{"geometry": {"type": "Point", "coordinates": [-84.1219695201, 39.7446308904]}, "type": "Feature", "properties": {"collection_times": [{"days": "Mon-Fri", "time": "3:15pm"}, {"days": "Sat-Sun", "time": "Closed"}], "id": "4543200020", "name": "USPS COLLECTION BOX - BLUE BOX", "address": {"city": "DAYTON", "state": "OH", "street": "4134 LINDEN AVE", "postcode": "45432"}}},
{"geometry": {"type": "Point", "coordinates": [-84.0656036071, 39.8061911949]}, "type": "Feature", "properties": {"collection_times": [{"days": "Mon-Fri", "time": "3:45pm"}, {"days": "Sat-Sun", "time": "Closed"}], "id": "4543300007", "name": "USPS COLLECTION BOX - BLUE BOX", "address": {"city": "DAYTON", "state": "OH", "street": "2275 D ST", "postcode": "45433"}}},
{"geometry": {"type": "Point", "coordinates": [-84.0656036071, 39.8061911949]}, "type": "Feature", "properties": {"collection_times": [{"days": "Mon-Sat", "time": "9:30am"}, {"days": "Sun", "time": "Closed"}], "id": "4543300008", "name": "USPS COLLECTION BOX - BLUE BOX", "address": {"city": "DAYTON", "state": "OH", "street": "4440 CHIDLAW RD", "postcode": "45433"}}},
{"geometry": {"type": "Point", "coordinates": [-84.0656036071, 39.8061911949]}, "type": "Feature", "properties": {"collection_times": [{"days": "Mon-Fri", "time": "4:00pm"}, {"days": "Sat", "time": "9:45am"}, {"days": "Sun", "time": "Closed"}], "id": "4543300011", "name": "USPS COLLECTION BOX - BLUE BOX", "address": {"city": "DAYTON", "state": "OH", "street": "5435 HEMLOCK ST", "postcode": "45433"}}},
{"geometry": {"type": "Point", "coordinates": [-84.0656036071, 39.8061911949]}, "type": "Feature", "properties": {"collection_times": [{"days": "Mon-Sat", "time": "9:45am"}, {"days": "Sun", "time": "Closed"}], "id": "4543300015", "name": "USPS COLLECTION BOX - BLUE BOX", "address": {"city": "DAYTON", "state": "OH", "street": "1250 BIRCH ST", "postcode": "45433"}}},
{"geometry": {"type": "Point", "coordinates": [-84.0336788832, 39.8179010497]}, "type": "Feature", "properties": {"collection_times": [{"days": "Mon-Fri", "time": "9:30am"}, {"days": "Sat-Sun", "time": "Closed"}], "id": "4543300016", "name": "USPS COLLECTION BOX - BLUE BOX", "address": {"city": "DAYTON", "state": "OH", "street": "1940 ALLBROOK DR", "postcode": "45433"}}},
{"geometry": {"type": "Point", "coordinates": [-84.1480524559, 39.6472131933]}, "type": "Feature", "properties": {"collection_times": [{"days": "Mon-Fri", "time": "11:45am"}, {"days": "Sat-Sun", "time": "Closed"}], "id": "4543300017", "name": "USPS COLLECTION BOX - BLUE BOX", "address": {"city": "DAYTON", "state": "OH", "street": "5640 LOOP RD", "postcode": "45433"}}},
{"geometry": {"type": "Point", "coordinates": [-84.037379787, 39.8036765177]}, "type": "Feature", "properties": {"collection_times": [{"days": "Mon-Sat", "time": "9:30am"}, {"days": "Sun", "time": "Closed"}], "id": "4543300021", "name": "USPS COLLECTION BOX - BLUE BOX", "address": {"city": "DAYTON", "state": "OH", "street": "2439 SCHLATTER DR", "postcode": "45433"}}},
{"geometry": {"type": "Point", "coordinates": [-84.0328274404, 39.8143287126]}, "type": "Feature", "properties": {"collection_times": [{"days": "Mon-Fri", "time": "4:45pm"}, {"days": "Sat", "time": "1:30pm"}, {"days": "Sun", "time": "Closed"}], "id": "4543300024", "name": "USPS COLLECTION BOX - BLUE BOX", "address": {"city": "DAYTON", "state": "OH", "street": "5237 COOPER ST", "postcode": "45433"}}},
{"geometry": {"type": "Point", "coordinates": [-84.0966486258, 39.7844334453]}, "type": "Feature", "properties": {"collection_times": [{"days": "Mon-Fri", "time": "11:45am"}, {"days": "Sat-Sun", "time": "Closed"}], "id": "4543300026", "name": "USPS COLLECTION BOX - BLUE BOX", "address": {"city": "DAYTON", "state": "OH", "street": "2388 10TH ST", "postcode": "45433"}}},
{"geometry": {"type": "Point", "coordinates": [-84.037581762, 39.81004207]}, "type": "Feature", "properties": {"collection_times": [{"days": "Mon-Fri", "time": "11:00am"}, {"days": "Sat-Sun", "time": "Closed"}], "id": "4543300028", "name": "USPS COLLECTION BOX - BLUE BOX", "address": {"city": "DAYTON", "state": "OH", "street": "4375 CHIDLAW RD", "postcode": "45433"}}},
{"geometry": {"type": "Point", "coordinates": [-84.06565, 39.732605]}, "type": "Feature", "properties": {"collection_times": [{"days": "Mon-Sat", "time": "5:00pm"}, {"days": "Sun", "time": "Closed"}], "id": "4543400000", "name": "USPS COLLECTION BOX - BLUE BOX", "address": {"city": "BEAVERCREEK", "state": "OH", "street": "3541 DAYTON XENIA RD", "postcode": "45434"}}},
{"geometry": {"type": "Point", "coordinates": [-84.06565, 39.732605]}, "type": "Feature", "properties": {"collection_times": [{"days": "Mon-Sat", "time": "5:00pm"}, {"days": "Sun", "time": "Closed"}], "id": "4543400001", "name": "USPS COLLECTION BOX - BLUE BOX", "address": {"city": "BEAVERCREEK", "state": "OH", "street": "3541 DAYTON XENIA RD", "postcode": "45434"}}},
{"geometry": {"type": "Point", "coordinates": [-84.0037871362, 39.7115514633]}, "type": "Feature", "properties": {"collection_times": [{"days": "Mon-Sat", "time": "5:00pm"}, {"days": "Sun", "time": "Closed"}], "id": "4543400002", "name": "USPS COLLECTION BOX - BLUE BOX", "address": {"city": "BEAVERCREEK", "state": "OH", "street": "3541 DAYTON XENIA RD", "postcode": "45434"}}},
{"geometry": {"type": "Point", "coordinates": [-84.06565, 39.732605]}, "type": "Feature", "properties": {"collection_times": [{"days": "Mon-Sat", "time": "5:00pm"}, {"days": "Sun", "time": "Closed"}], "id": "4543400003", "name": "USPS COLLECTION BOX - BLUE BOX", "address": {"city": "BEAVERCREEK", "state": "OH", "street": "3541 DAYTON XENIA RD", "postcode": "45434"}}},
{"geometry": {"type": "Point", "coordinates": [-84.06565, 39.732605]}, "type": "Feature", "properties": {"collection_times": [{"days": "Mon-Sat", "time": "5:00pm"}, {"days": "Sun", "time": "Closed"}], "id": "4543400005", "name": "USPS COLLECTION BOX - PO LOBBY", "address": {"city": "BEAVERCREEK", "state": "OH", "street": "3541 DAYTON XENIA RD", "postcode": "45434"}}},
{"geometry": {"type": "Point", "coordinates": [-84.06565, 39.732605]}, "type": "Feature", "properties": {"collection_times": [{"days": "Mon-Sat", "time": "5:00pm"}, {"days": "Sun", "time": "Closed"}], "id": "4543400006", "name": "USPS COLLECTION BOX - PO LOBBY", "address": {"city": "BEAVERCREEK", "state": "OH", "street": "3541 DAYTON XENIA RD", "postcode": "45434"}}},
{"geometry": {"type": "Point", "coordinates": [-84.0662359652, 39.7328993414]}, "type": "Feature", "properties": {"collection_times": [{"days": "Mon-Sat", "time": "5:00pm"}, {"days": "Sun", "time": "Closed"}], "id": "4543400008", "name": "USPS COLLECTION BOX - APC", "address": {"city": "BEAVERCREEK", "state": "OH", "street": "3541 DAYTON XENIA RD", "postcode": "45434"}}},
{"geometry": {"type": "Point", "coordinates": [-84.2174727307, 39.7247053597]}, "type": "Feature", "properties": {"collection_times": [{"days": "Mon-Fri", "time": "3:00pm"}, {"days": "Sat-Sun", "time": "Closed"}], "id": "4543900000", "name": "USPS COLLECTION BOX - BLUE BOX", "address": {"city": "MORAINE", "state": "OH", "street": "2205 DRYDEN RD", "postcode": "45439"}}},
{"geometry": {"type": "Point", "coordinates": [-84.2180807084, 39.7187018242]}, "type": "Feature", "properties": {"collection_times": [{"days": "Mon-Fri", "time": "3:00pm"}, {"days": "Sat-Sun", "time": "Closed"}], "id": "4543900004", "name": "USPS COLLECTION BOX - BLUE BOX", "address": {"city": "MORAINE", "state": "OH", "street": "2501 DRYDEN RD", "postcode": "45439"}}},
{"geometry": {"type": "Point", "coordinates": [-84.2034552825, 39.701775836]}, "type": "Feature", "properties": {"collection_times": [{"days": "Mon-Fri", "time": "3:30pm"}, {"days": "Sat-Sun", "time": "Closed"}], "id": "4543900009", "name": "USPS COLLECTION BOX - BLUE BOX", "address": {"city": "MORAINE", "state": "OH", "street": "3490 S DIXIE DR", "postcode": "45439"}}},
{"geometry": {"type": "Point", "coordinates": [-84.2021812357, 39.7015972092]}, "type": "Feature", "properties": {"collection_times": [{"days": "Mon-Fri", "time": "2:45pm"}, {"days": "Sat-Sun", "time": "Closed"}], "id": "4543900013", "name": "USPS COLLECTION BOX - BLUE BOX", "address": {"city": "MORAINE", "state": "OH", "street": "3481 OFFICE PARK DR", "postcode": "45439"}}},
{"geometry": {"type": "Point", "coordinates": [-84.2011946479, 39.7025352956]}, "type": "Feature", "properties": {"collection_times": [{"days": "Mon-Fri", "time": "3:00pm"}, {"days": "Sat", "time": "2:00pm"}, {"days": "Sun", "time": "Closed"}], "id": "4543900016", "name": "USPS COLLECTION BOX - BLUE BOX", "address": {"city": "MORAINE", "state": "OH", "street": "3400 OFFICE PARK DR", "postcode": "45439"}}},
{"geometry": {"type": "Point", "coordinates": [-84.2017188437, 39.7035864443]}, "type": "Feature", "properties": {"collection_times": [{"days": "Mon-Fri", "time": "4:00pm"}, {"days": "Sat-Sun", "time": "Closed"}], "id": "4543900017", "name": "USPS COLLECTION BOX - BLUE BOX", "address": {"city": "MORAINE", "state": "OH", "street": "3300 OFFICE PARK DR", "postcode": "45439"}}},
{"geometry": {"type": "Point", "coordinates": [-84.2259705405, 39.6874998872]}, "type": "Feature", "properties": {"collection_times": [{"days": "Mon-Fri", "time": "11:15am"}, {"days": "Sat-Sun", "time": "Closed"}], "id": "4543900023", "name": "USPS COLLECTION BOX - BLUE BOX", "address": {"city": "MORAINE", "state": "OH", "street": "4200 DRYDEN RD", "postcode": "45439"}}},
{"geometry": {"type": "Point", "coordinates": [-84.2116543711, 39.6854036839]}, "type": "Feature", "properties": {"collection_times": [{"days": "Mon-Fri", "time": "11:30am"}, {"days": "Sat-Sun", "time": "Closed"}], "id": "4543900029", "name": "USPS COLLECTION BOX - BLUE BOX", "address": {"city": "MORAINE", "state": "OH", "street": "2298 LEHIGH PL", "postcode": "45439"}}},
{"geometry": {"type": "Point", "coordinates": [-84.2035096986, 39.705206417]}, "type": "Feature", "properties": {"collection_times": [{"days": "Mon-Fri", "time": "2:15pm"}, {"days": "Sat-Sun", "time": "Closed"}], "id": "4543900030", "name": "USPS COLLECTION BOX - BLUE BOX", "address": {"city": "MORAINE", "state": "OH", "street": "3100 KETTERING BLVD", "postcode": "45439"}}},
{"geometry": {"type": "Point", "coordinates": [-84.2116815792, 39.698027039]}, "type": "Feature", "properties": {"collection_times": [{"days": "Mon-Fri", "time": "2:15pm"}, {"days": "Sat-Sun", "time": "Closed"}], "id": "4543900031", "name": "USPS COLLECTION BOX - BLUE BOX", "address": {"city": "MORAINE", "state": "OH", "street": "3864 KETTERING BLVD", "postcode": "45439"}}},
{"geometry": {"type": "Point", "coordinates": [-84.20277863, 39.706388193]}, "type": "Feature", "properties": {"collection_times": [{"days": "Mon-Fri", "time": "2:00pm"}, {"days": "Sat-Sun", "time": "Closed"}], "id": "4543900033", "name": "USPS COLLECTION BOX - BLUE BOX", "address": {"city": "MORAINE", "state": "OH", "street": "3033 KETTERING BLVD", "postcode": "45439"}}},
{"geometry": {"type": "Point", "coordinates": [-84.2026414068, 39.7067418977]}, "type": "Feature", "properties": {"collection_times": [{"days": "Mon-Fri", "time": "2:00pm"}, {"days": "Sat-Sun", "time": "Closed"}], "id": "4543900034", "name": "USPS COLLECTION BOX - BLUE BOX", "address": {"city": "MORAINE", "state": "OH", "street": "3055 KETTERING BLVD", "postcode": "45439"}}},
{"geometry": {"type": "Point", "coordinates": [-84.2026414068, 39.7067418977]}, "type": "Feature", "properties": {"collection_times": [{"days": "Mon-Fri", "time": "2:00pm"}, {"days": "Sat-Sun", "time": "Closed"}], "id": "4543900036", "name": "USPS COLLECTION BOX - BLUE BOX", "address": {"city": "MORAINE", "state": "OH", "street": "3055 KETTERING BLVD", "postcode": "45439"}}},
{"geometry": {"type": "Point", "coordinates": [-84.2023385693, 39.7072671315]}, "type": "Feature", "properties": {"collection_times": [{"days": "Mon-Fri", "time": "2:00pm"}, {"days": "Sat-Sun", "time": "Closed"}], "id": "4543900037", "name": "USPS COLLECTION BOX - BLUE BOX", "address": {"city": "MORAINE", "state": "OH", "street": "3033 KETTERING BLVD", "postcode": "45439"}}},
{"geometry": {"type": "Point", "coordinates": [-84.2035096986, 39.705206417]}, "type": "Feature", "properties": {"collection_times": [{"days": "Mon-Fri", "time": "10:00am"}, {"days": "Sat-Sun", "time": "Closed"}], "id": "4543900039", "name": "USPS COLLECTION BOX - BLUE BOX", "address": {"city": "MORAINE", "state": "OH", "street": "3100 KETTERING BLVD", "postcode": "45439"}}},
{"geometry": {"type": "Point", "coordinates": [-84.2198404471, 39.7139839725]}, "type": "Feature", "properties": {"collection_times": [{"days": "Mon-Fri", "time": "3:15pm"}, {"days": "Sat-Sun", "time": "Closed"}], "id": "4543900040", "name": "USPS COLLECTION BOX - BLUE BOX", "address": {"city": "MORAINE", "state": "OH", "street": "2621 DRYDEN RD", "postcode": "45439"}}},
{"geometry": {"type": "Point", "coordinates": [-84.2198404471, 39.7139839725]}, "type": "Feature", "properties": {"collection_times": [{"days": "Mon-Fri", "time": "3:15pm"}, {"days": "Sat-Sun", "time": "Closed"}], "id": "4543900041", "name": "USPS COLLECTION BOX - BLUE BOX", "address": {"city": "MORAINE", "state": "OH", "street": "2621 DRYDEN RD", "postcode": "45439"}}},
{"geometry": {"type": "Point", "coordinates": [-84.2160904672, 39.7298616477]}, "type": "Feature", "properties": {"collection_times": [{"days": "Mon-Fri", "time": "3:00pm"}, {"days": "Sat-Sun", "time": "Closed"}], "id": "4543900044", "name": "USPS COLLECTION BOX - BLUE BOX", "address": {"city": "MORAINE", "state": "OH", "street": "1900 DRYDEN RD", "postcode": "45439"}}},
{"geometry": {"type": "Point", "coordinates": [-84.2061749052, 39.6993377576]}, "type": "Feature", "properties": {"collection_times": [{"days": "Mon-Fri", "time": "2:30pm"}, {"days": "Sat-Sun", "time": "Closed"}], "id": "4543900049", "name": "USPS COLLECTION BOX - BLUE BOX", "address": {"city": "MORAINE", "state": "OH", "street": "3445 S DIXIE DR", "postcode": "45439"}}},
{"geometry": {"type": "Point", "coordinates": [-84.2061749052, 39.6993377576]}, "type": "Feature", "properties": {"collection_times": [{"days": "Mon-Fri", "time": "2:30pm"}, {"days": "Sat-Sun", "time": "Closed"}], "id": "4543900050", "name": "USPS COLLECTION BOX - BLUE BOX", "address": {"city": "MORAINE", "state": "OH", "street": "3445 S DIXIE DR", "postcode": "45439"}}},
{"geometry": {"type": "Point", "coordinates": [-84.2118921459, 39.7096224028]}, "type": "Feature", "properties": {"collection_times": [{"days": "Mon-Fri", "time": "2:00pm"}, {"days": "Sat-Sun", "time": "Closed"}], "id": "4543900051", "name": "USPS COLLECTION BOX - BLUE BOX", "address": {"city": "MORAINE", "state": "OH", "street": "2360 W DOROTHY LN", "postcode": "45439"}}},
{"geometry": {"type": "Point", "coordinates": [-84.2023799728, 39.7028594264]}, "type": "Feature", "properties": {"collection_times": [{"days": "Mon-Fri", "time": "2:30pm"}, {"days": "Sat-Sun", "time": "Closed"}], "id": "4543900084", "name": "USPS COLLECTION BOX - BLUE BOX", "address": {"city": "MORAINE", "state": "OH", "street": "3400 S DIXIE DR", "postcode": "45439"}}},
{"geometry": {"type": "Point", "coordinates": [-84.2011946479, 39.7025352956]}, "type": "Feature", "properties": {"collection_times": [{"days": "Mon-Fri", "time": "3:00pm"}, {"days": "Sat", "time": "2:00pm"}, {"days": "Sun", "time": "Closed"}], "id": "4543900090", "name": "USPS COLLECTION BOX - BLUE BOX", "address": {"city": "MORAINE", "state": "OH", "street": "3400 OFFICE PARK DR", "postcode": "45439"}}},
{"geometry": {"type": "Point", "coordinates": [-84.2054178114, 39.7094745329]}, "type": "Feature", "properties": {"collection_times": [{"days": "Mon-Fri", "time": "3:30pm"}, {"days": "Sat-Sun", "time": "Closed"}], "id": "4543900095", "name": "USPS COLLECTION BOX - BLUE BOX", "address": {"city": "MORAINE", "state": "OH", "street": "2000 W DOROTHY LN", "postcode": "45439"}}},
{"geometry": {"type": "Point", "coordinates": [-84.103017943, 39.6903512611]}, "type": "Feature", "properties": {"collection_times": [{"days": "Mon-Fri", "time": "11:45am"}, {"days": "Sat-Sun", "time": "Closed"}], "id": "4544000005", "name": "USPS COLLECTION BOX - BLUE BOX", "address": {"city": "BEAVERCREEK", "state": "OH", "street": "4481 STONECASTLE DR", "postcode": "45440"}}},
{"geometry": {"type": "Point", "coordinates": [-84.1267902432, 39.6623768443]}, "type": "Feature", "properties": {"collection_times": [{"days": "Mon-Fri", "time": "11:15am"}, {"days": "Sat-Sun", "time": "Closed"}], "id": "4544000007", "name": "USPS COLLECTION BOX - BLUE BOX", "address": {"city": "BEAVERCREEK", "state": "OH", "street": "5513 BIGGER RD", "postcode": "45440"}}},
{"geometry": {"type": "Point", "coordinates": [-84.0572689378, 39.7267942049]}, "type": "Feature", "properties": {"collection_times": [{"days": "Mon-Fri", "time": "12:00pm"}, {"days": "Sat", "time": "1:00pm"}, {"days": "Sun", "time": "Closed"}], "id": "4544000010", "name": "USPS COLLECTION BOX - BLUE BOX", "address": {"city": "BEAVERCREEK", "state": "OH", "street": "39 S MAPLE AVE", "postcode": "45440"}}},
{"geometry": {"type": "Point", "coordinates": [-84.0572689378, 39.7267942049]}, "type": "Feature", "properties": {"collection_times": [{"days": "Mon-Fri", "time": "12:00pm"}, {"days": "Sat", "time": "1:00pm"}, {"days": "Sun", "time": "Closed"}], "id": "4544000011", "name": "USPS COLLECTION BOX - BLUE BOX", "address": {"city": "BEAVERCREEK", "state": "OH", "street": "39 S MAPLE AVE", "postcode": "45440"}}},
{"geometry": {"type": "Point", "coordinates": [-84.0572689378, 39.7267942049]}, "type": "Feature", "properties": {"collection_times": [{"days": "Mon-Fri", "time": "12:00pm"}, {"days": "Sat", "time": "1:00pm"}, {"days": "Sun", "time": "Closed"}], "id": "4544000012", "name": "USPS COLLECTION BOX - BLUE BOX", "address": {"city": "BEAVERCREEK", "state": "OH", "street": "39 S MAPLE AVE", "postcode": "45440"}}},
{"geometry": {"type": "Point", "coordinates": [-84.1312551679, 39.661259468]}, "type": "Feature", "properties": {"collection_times": [{"days": "Mon-Fri", "time": "11:15am"}, {"days": "Sat-Sun", "time": "Closed"}], "id": "4544000015", "name": "USPS COLLECTION BOX - BLUE BOX", "address": {"city": "BEAVERCREEK", "state": "OH", "street": "2000 E WHIPP RD", "postcode": "45440"}}},
{"geometry": {"type": "Point", "coordinates": [-84.2547495662, 39.6706261605]}, "type": "Feature", "properties": {"collection_times": [{"days": "Mon-Fri", "time": "11:30am"}, {"days": "Sat", "time": "1:45pm"}, {"days": "Sun", "time": "Closed"}], "id": "4544900006", "name": "USPS COLLECTION BOX - BLUE BOX", "address": {"city": "DAYTON", "state": "OH", "street": "300 E CENTRAL AVE", "postcode": "45449"}}},
{"geometry": {"type": "Point", "coordinates": [-84.2353939916, 39.6445643916]}, "type": "Feature", "properties": {"collection_times": [{"days": "Mon-Fri", "time": "10:30am"}, {"days": "Sat-Sun", "time": "Closed"}], "id": "4544900015", "name": "USPS COLLECTION BOX - BLUE BOX", "address": {"city": "DAYTON", "state": "OH", "street": "2050 SIDNEYWOOD DR", "postcode": "45449"}}},
{"geometry": {"type": "Point", "coordinates": [-84.2432102535, 39.6462026928]}, "type": "Feature", "properties": {"collection_times": [{"days": "Mon-Fri", "time": "10:15am"}, {"days": "Sat-Sun", "time": "Closed"}], "id": "4544900018", "name": "USPS COLLECTION BOX - BLUE BOX", "address": {"city": "DAYTON", "state": "OH", "street": "1955 S ALEX RD", "postcode": "45449"}}},
{"geometry": {"type": "Point", "coordinates": [-84.2216172239, 39.6756306892]}, "type": "Feature", "properties": {"collection_times": [{"days": "Mon-Fri", "time": "11:15am"}, {"days": "Sat", "time": "1:45pm"}, {"days": "Sun", "time": "Closed"}], "id": "4544900020", "name": "USPS COLLECTION BOX - BLUE BOX", "address": {"city": "DAYTON", "state": "OH", "street": "5760 SPRINGBORO PIKE", "postcode": "45449"}}},
{"geometry": {"type": "Point", "coordinates": [-84.2175171157, 39.6686908396]}, "type": "Feature", "properties": {"collection_times": [{"days": "Mon-Fri", "time": "10:45am"}, {"days": "Sat", "time": "1:45pm"}, {"days": "Sun", "time": "Closed"}], "id": "4544900021", "name": "USPS COLLECTION BOX - BLUE BOX", "address": {"city": "DAYTON", "state": "OH", "street": "5900 SPRINGBORO PIKE", "postcode": "45449"}}},
{"geometry": {"type": "Point", "coordinates": [-84.2389688936, 39.677702621]}, "type": "Feature", "properties": {"collection_times": [{"days": "Mon-Fri", "time": "5:00pm"}, {"days": "Sat", "time": "4:00pm"}, {"days": "Sun", "time": "Closed"}], "id": "4544900029", "name": "USPS COLLECTION BOX - BLUE BOX", "address": {"city": "DAYTON", "state": "OH", "street": "901 E CENTRAL AVE", "postcode": "45449"}}},
{"geometry": {"type": "Point", "coordinates": [-84.2404830811, 39.6544148909]}, "type": "Feature", "properties": {"collection_times": [{"days": "Mon-Fri", "time": "10:15am"}, {"days": "Sat-Sun", "time": "Closed"}], "id": "4544900031", "name": "USPS COLLECTION BOX - BLUE BOX", "address": {"city": "DAYTON", "state": "OH", "street": "330 PROGRESS RD", "postcode": "45449"}}},
{"geometry": {"type": "Point", "coordinates": [-84.2389688936, 39.677702621]}, "type": "Feature", "properties": {"collection_times": [{"days": "Mon-Fri", "time": "5:00pm"}, {"days": "Sat", "time": "4:00pm"}, {"days": "Sun", "time": "Closed"}], "id": "4544900033", "name": "USPS COLLECTION BOX - PO LOBBY", "address": {"city": "DAYTON", "state": "OH", "street": "901 E CENTRAL AVE", "postcode": "45449"}}},
{"geometry": {"type": "Point", "coordinates": [-84.2389688936, 39.677702621]}, "type": "Feature", "properties": {"collection_times": [{"days": "Mon-Fri", "time": "5:00pm"}, {"days": "Sat", "time": "4:00pm"}, {"days": "Sun", "time": "Closed"}], "id": "4544900034", "name": "USPS COLLECTION BOX - BLUE BOX", "address": {"city": "DAYTON", "state": "OH", "street": "901 E CENTRAL AVE", "postcode": "45449"}}},
{"geometry": {"type": "Point", "coordinates": [-84.2547495662, 39.6706261605]}, "type": "Feature", "properties": {"collection_times": [{"days": "Mon-Fri", "time": "11:30am"}, {"days": "Sat", "time": "1:45pm"}, {"days": "Sun", "time": "Closed"}], "id": "4544900040", "name": "USPS COLLECTION BOX - BLUE BOX", "address": {"city": "DAYTON", "state": "OH", "street": "300 E CENTRAL AVE", "postcode": "45449"}}},
{"geometry": {"type": "Point", "coordinates": [-84.2366550259, 39.6631676042]}, "type": "Feature", "properties": {"collection_times": [{"days": "Mon-Fri", "time": "8:30am"}, {"days": "Sat-Sun", "time": "Closed"}], "id": "4544900041", "name": "USPS COLLECTION BOX - BLUE BOX", "address": {"city": "DAYTON", "state": "OH", "street": "765 LIBERTY LN", "postcode": "45449"}}},
{"geometry": {"type": "Point", "coordinates": [-84.2407721913, 39.6645474539]}, "type": "Feature", "properties": {"collection_times": [{"days": "Mon-Fri", "time": "10:45am"}, {"days": "Sat", "time": "1:30pm"}, {"days": "Sun", "time": "Closed"}], "id": "4544900042", "name": "USPS COLLECTION BOX - BLUE BOX", "address": {"city": "DAYTON", "state": "OH", "street": "1000 HABITAT BLVD", "postcode": "45449"}}},
{"geometry": {"type": "Point", "coordinates": [-84.1600652825, 39.6136969594]}, "type": "Feature", "properties": {"collection_times": [{"days": "Mon-Fri", "time": "12:00pm"}, {"days": "Sat", "time": "1:15pm"}, {"days": "Sun", "time": "Closed"}], "id": "4545800001", "name": "USPS COLLECTION BOX - BLUE BOX", "address": {"city": "CENTERVILLE", "state": "OH", "street": "1073 S MAIN ST", "postcode": "45458"}}},
{"geometry": {"type": "Point", "coordinates": [-84.1574409953, 39.6568110081]}, "type": "Feature", "properties": {"collection_times": [{"days": "Mon-Fri", "time": "2:00pm"}, {"days": "Sat", "time": "12:15pm"}, {"days": "Sun", "time": "Closed"}], "id": "4545900002", "name": "USPS COLLECTION BOX - BLUE BOX", "address": {"city": "DAYTON", "state": "OH", "street": "6123 FAR HILLS AVE", "postcode": "45459"}}},
{"geometry": {"type": "Point", "coordinates": [-84.1533032389, 39.6437705509]}, "type": "Feature", "properties": {"collection_times": [{"days": "Mon-Fri", "time": "11:45am"}, {"days": "Sat-Sun", "time": "Closed"}], "id": "4545900004", "name": "USPS COLLECTION BOX - BLUE BOX", "address": {"city": "DAYTON", "state": "OH", "street": "114 E ALEX BELL RD STE 114", "postcode": "45459"}}},
{"geometry": {"type": "Point", "coordinates": [-84.1480285551, 39.646683394]}, "type": "Feature", "properties": {"collection_times": [{"days": "Mon-Fri", "time": "11:30am"}, {"days": "Sat-Sun", "time": "Closed"}], "id": "4545900005", "name": "USPS COLLECTION BOX - BLUE BOX", "address": {"city": "DAYTON", "state": "OH", "street": "6712 LOOP RD", "postcode": "45459"}}},
{"geometry": {"type": "Point", "coordinates": [-84.1367269332, 39.6485545121]}, "type": "Feature", "properties": {"collection_times": [{"days": "Mon-Fri", "time": "11:30am"}, {"days": "Sat", "time": "12:15pm"}, {"days": "Sun", "time": "Closed"}], "id": "4545900007", "name": "USPS COLLECTION BOX - BLUE BOX", "address": {"city": "DAYTON", "state": "OH", "street": "6681 CENTERVILLE BUSINESS PKWY", "postcode": "45459"}}},
{"geometry": {"type": "Point", "coordinates": [-84.1410269469, 39.6285480376]}, "type": "Feature", "properties": {"collection_times": [{"days": "Mon-Fri", "time": "12:00pm"}, {"days": "Sat-Sun", "time": "Closed"}], "id": "4545900009", "name": "USPS COLLECTION BOX - BLUE BOX", "address": {"city": "DAYTON", "state": "OH", "street": "923 E FRANKLIN ST", "postcode": "45459"}}},
{"geometry": {"type": "Point", "coordinates": [-84.1948374265, 39.6325254182]}, "type": "Feature", "properties": {"collection_times": [{"days": "Mon-Fri", "time": "1:15pm"}, {"days": "Sat-Sun", "time": "Closed"}], "id": "4545900014", "name": "USPS COLLECTION BOX - BLUE BOX", "address": {"city": "DAYTON", "state": "OH", "street": "7887 WASHINGTON VILLAGE DR", "postcode": "45459"}}},
{"geometry": {"type": "Point", "coordinates": [-84.1640482089, 39.6456023233]}, "type": "Feature", "properties": {"collection_times": [{"days": "Mon-Fri", "time": "12:45pm"}, {"days": "Sat-Sun", "time": "Closed"}], "id": "4545900015", "name": "USPS COLLECTION BOX - BLUE BOX", "address": {"city": "DAYTON", "state": "OH", "street": "7640 MCEWEN RD", "postcode": "45459"}}},
{"geometry": {"type": "Point", "coordinates": [-84.1946650861, 39.6269921819]}, "type": "Feature", "properties": {"collection_times": [{"days": "Mon-Fri", "time": "1:00pm"}, {"days": "Sat", "time": "1:15pm"}, {"days": "Sun", "time": "Closed"}], "id": "4545900016", "name": "USPS COLLECTION BOX - BLUE BOX", "address": {"city": "DAYTON", "state": "OH", "street": "1225 LYONS RD", "postcode": "45459"}}},
{"geometry": {"type": "Point", "coordinates": [-84.1978421422, 39.6255483262]}, "type": "Feature", "properties": {"collection_times": [{"days": "Mon-Fri", "time": "1:00pm"}, {"days": "Sat", "time": "1:15pm"}, {"days": "Sun", "time": "Closed"}], "id": "4545900021", "name": "USPS COLLECTION BOX - BLUE BOX", "address": {"city": "DAYTON", "state": "OH", "street": "1440 YANKEE PARK PL", "postcode": "45459"}}},
{"geometry": {"type": "Point", "coordinates": [-84.1750617923, 39.634751825]}, "type": "Feature", "properties": {"collection_times": [{"days": "Mon-Sat", "time": "5:00pm"}, {"days": "Sun", "time": "Closed"}], "id": "4545900027", "name": "USPS COLLECTION BOX - BLUE BOX", "address": {"city": "DAYTON", "state": "OH", "street": "7525 PARAGON RD", "postcode": "45459"}}},
{"geometry": {"type": "Point", "coordinates": [-84.159306071, 39.6414756857]}, "type": "Feature", "properties": {"collection_times": [{"days": "Mon-Fri", "time": "11:45am"}, {"days": "Sat-Sun", "time": "Closed"}], "id": "4545900029", "name": "USPS COLLECTION BOX - BLUE BOX", "address": {"city": "DAYTON", "state": "OH", "street": "77 E ELMWOOD DR", "postcode": "45459"}}},
{"geometry": {"type": "Point", "coordinates": [-84.219007644, 39.6367734238]}, "type": "Feature", "properties": {"collection_times": [{"days": "Mon-Fri", "time": "1:15pm"}, {"days": "Sat", "time": "1:30pm"}, {"days": "Sun", "time": "Closed"}], "id": "4545900033", "name": "USPS COLLECTION BOX - BLUE BOX", "address": {"city": "DAYTON", "state": "OH", "street": "2707 MIAMISBURG CENTERVILLE RD", "postcode": "45459"}}},
{"geometry": {"type": "Point", "coordinates": [-84.159306071, 39.6414756857]}, "type": "Feature", "properties": {"collection_times": [{"days": "Mon-Fri", "time": "11:45am"}, {"days": "Sat-Sun", "time": "Closed"}], "id": "4545900038", "name": "USPS COLLECTION BOX - BLUE BOX", "address": {"city": "DAYTON", "state": "OH", "street": "77 E ELMWOOD DR", "postcode": "45459"}}},
{"geometry": {"type": "Point", "coordinates": [-84.1948374265, 39.6325254182]}, "type": "Feature", "properties": {"collection_times": [{"days": "Mon-Fri", "time": "1:15pm"}, {"days": "Sat-Sun", "time": "Closed"}], "id": "4545900039", "name": "USPS COLLECTION BOX - BLUE BOX", "address": {"city": "DAYTON", "state": "OH", "street": "7887 WASHINGTON VILLAGE DR", "postcode": "45459"}}},
{"geometry": {"type": "Point", "coordinates": [-84.1750617923, 39.634751825]}, "type": "Feature", "properties": {"collection_times": [{"days": "Mon-Fri", "time": "6:00pm"}, {"days": "Sat", "time": "5:00pm"}, {"days": "Sun", "time": "Closed"}], "id": "4545900041", "name": "USPS COLLECTION BOX - PO LOBBY", "address": {"city": "DAYTON", "state": "OH", "street": "7525 PARAGON RD", "postcode": "45459"}}},
{"geometry": {"type": "Point", "coordinates": [-84.1480285551, 39.646683394]}, "type": "Feature", "properties": {"collection_times": [{"days": "Mon-Fri", "time": "11:30am"}, {"days": "Sat-Sun", "time": "Closed"}], "id": "4545900043", "name": "USPS COLLECTION BOX - BLUE BOX", "address": {"city": "DAYTON", "state": "OH", "street": "6712 LOOP RD", "postcode": "45459"}}},
{"geometry": {"type": "Point", "coordinates": [-84.1367269332, 39.6485545121]}, "type": "Feature", "properties": {"collection_times": [{"days": "Mon-Fri", "time": "11:30am"}, {"days": "Sat", "time": "12:15pm"}, {"days": "Sun", "time": "Closed"}], "id": "4545900044", "name": "USPS COLLECTION BOX - BLUE BOX", "address": {"city": "DAYTON", "state": "OH", "street": "6681 CENTERVILLE BUSINESS PKWY", "postcode": "45459"}}},
{"geometry": {"type": "Point", "coordinates": [-84.1750617923, 39.634751825]}, "type": "Feature", "properties": {"collection_times": [{"days": "Mon-Fri", "time": "6:00pm"}, {"days": "Sat", "time": "5:00pm"}, {"days": "Sun", "time": "Closed"}], "id": "4545900045", "name": "USPS COLLECTION BOX - APC", "address": {"city": "DAYTON", "state": "OH", "street": "7525 PARAGON RD", "postcode": "45459"}}},
{"geometry": {"type": "Point", "coordinates": [-84.1103203945, 39.6338467271]}, "type": "Feature", "properties": {"collection_times": [{"days": "Mon-Fri", "time": "11:15am"}, {"days": "Sat-Sun", "time": "Closed"}], "id": "4545900049", "name": "USPS COLLECTION BOX - BLUE BOX", "address": {"city": "DAYTON", "state": "OH", "street": "6222 WILMINGTON PIKE", "postcode": "45459"}}},
{"geometry": {"type": "Point", "coordinates": [-84.221458735, 39.6371638003]}, "type": "Feature", "properties": {"collection_times": [{"days": "Mon-Sat", "time": "1:30pm"}, {"days": "Sun", "time": "Closed"}], "id": "4545900051", "name": "USPS COLLECTION BOX - BLUE BOX", "address": {"city": "DAYTON", "state": "OH", "street": "2700 MIAMISBURG CENTERVILLE RD", "postcode": "45459"}}},
{"geometry": {"type": "Point", "coordinates": [-84.1716680499, 39.7372561269]}, "type": "Feature", "properties": {"collection_times": [{"days": "Mon-Fri", "time": "4:00pm"}, {"days": "Sat-Sun", "time": "Closed"}], "id": "4546900006", "name": "USPS COLLECTION BOX - BLUE BOX", "address": {"city": "UNIV DAYTON", "state": "OH", "street": "300 COLLEGE PARK AVE", "postcode": "45469"}}}
]}
