{"type": "FeatureCollection", "features": [
{"geometry": {"type": "Point", "coordinates": [-83.8082310582, 39.9266113828]}, "type": "Feature", "properties": {"collection_times": [{"days": "Mon-Sat", "time": "5:00pm"}, {"days": "Sun", "time": "Closed"}], "id": "4550100000", "name": "USPS COLLECTION BOX - BLUE BOX", "address": {"city": "SPRINGFIELD", "state": "OH", "street": "150 N LIMESTONE ST", "postcode": "45501"}}},
{"geometry": {"type": "Point", "coordinates": [-83.8082310582, 39.9266113828]}, "type": "Feature", "properties": {"collection_times": [{"days": "Mon-Sat", "time": "5:00pm"}, {"days": "Sun", "time": "Closed"}], "id": "4550100005", "name": "USPS COLLECTION BOX - BLUE BOX", "address": {"city": "SPRINGFIELD", "state": "OH", "street": "150 N LIMESTONE ST", "postcode": "45501"}}},
{"geometry": {"type": "Point", "coordinates": [-83.8082310582, 39.9266113828]}, "type": "Feature", "properties": {"collection_times": [{"days": "Mon-Sat", "time": "5:00pm"}, {"days": "Sun", "time": "Closed"}], "id": "4550100007", "name": "USPS COLLECTION BOX - PO LOBBY", "address": {"city": "SPRINGFIELD", "state": "OH", "street": "150 N LIMESTONE ST", "postcode": "45501"}}},
{"geometry": {"type": "Point", "coordinates": [-83.8082310582, 39.9266113828]}, "type": "Feature", "properties": {"collection_times": [{"days": "Mon-Sat", "time": "5:00pm"}, {"days": "Sun", "time": "Closed"}], "id": "4550100008", "name": "USPS COLLECTION BOX - APC", "address": {"city": "SPRINGFIELD", "state": "OH", "street": "150 N LIMESTONE ST", "postcode": "45501"}}},
{"geometry": {"type": "Point", "coordinates": [-83.8099995819, 39.9260222692]}, "type": "Feature", "properties": {"collection_times": [{"days": "Mon-Sat", "time": "3:00pm"}, {"days": "Sun", "time": "Closed"}], "id": "4550200015", "name": "USPS COLLECTION BOX - BLUE BOX", "address": {"city": "SPRINGFIELD", "state": "OH", "street": "101 S FOUNTAIN AVE", "postcode": "45502"}}},
{"geometry": {"type": "Point", "coordinates": [-83.8084463568, 39.9241756703]}, "type": "Feature", "properties": {"collection_times": [{"days": "Mon-Sat", "time": "3:00pm"}, {"days": "Sun", "time": "Closed"}], "id": "4550200020", "name": "USPS COLLECTION BOX - BLUE BOX", "address": {"city": "SPRINGFIELD", "state": "OH", "street": "1 S LIMESTONE ST", "postcode": "45502"}}},
{"geometry": {"type": "Point", "coordinates": [-83.8007376781, 39.997211763]}, "type": "Feature", "properties": {"collection_times": [{"days": "Mon-Sat", "time": "2:30pm"}, {"days": "Sun", "time": "Closed"}], "id": "4550200023", "name": "USPS COLLECTION BOX - BLUE BOX", "address": {"city": "SPRINGFIELD", "state": "OH", "street": "5000 URBANA RD", "postcode": "45502"}}},
{"geometry": {"type": "Point", "coordinates": [-83.728973916, 39.907267868]}, "type": "Feature", "properties": {"collection_times": [{"days": "Mon-Sat", "time": "2:30pm"}, {"days": "Sun", "time": "Closed"}], "id": "4550200027", "name": "USPS COLLECTION BOX - BLUE BOX", "address": {"city": "SPRINGFIELD", "state": "OH", "street": "4300 GATEWAY BLVD", "postcode": "45502"}}},
{"geometry": {"type": "Point", "coordinates": [-83.8105011565, 39.9246003525]}, "type": "Feature", "properties": {"collection_times": [{"days": "Mon-Sat", "time": "3:00pm"}, {"days": "Sun", "time": "Closed"}], "id": "4550200031", "name": "USPS COLLECTION BOX - BLUE BOX", "address": {"city": "SPRINGFIELD", "state": "OH", "street": "4 W MAIN ST", "postcode": "45502"}}},
{"geometry": {"type": "Point", "coordinates": [-83.8800981565, 39.9861742449]}, "type": "Feature", "properties": {"collection_times": [{"days": "Mon-Sat", "time": "9:00am"}, {"days": "Sun", "time": "Closed"}], "id": "4550200033", "name": "USPS COLLECTION BOX - BLUE BOX", "address": {"city": "SPRINGFIELD", "state": "OH", "street": "4100 TROY RD", "postcode": "45502"}}},
{"geometry": {"type": "Point", "coordinates": [-83.728973916, 39.907267868]}, "type": "Feature", "properties": {"collection_times": [{"days": "Mon-Sat", "time": "2:30pm"}, {"days": "Sun", "time": "Closed"}], "id": "4550200034", "name": "USPS COLLECTION BOX - BLUE BOX", "address": {"city": "SPRINGFIELD", "state": "OH", "street": "4300 GATEWAY BLVD", "postcode": "45502"}}},
{"geometry": {"type": "Point", "coordinates": [-83.8033785794, 39.9582799262]}, "type": "Feature", "properties": {"collection_times": [{"days": "Mon-Sat", "time": "2:30pm"}, {"days": "Sun", "time": "Closed"}], "id": "4550300013", "name": "USPS COLLECTION BOX - BLUE BOX", "address": {"city": "SPRINGFIELD", "state": "OH", "street": "2525 N LIMESTONE ST", "postcode": "45503"}}},
{"geometry": {"type": "Point", "coordinates": [-83.7892800556, 39.9515351452]}, "type": "Feature", "properties": {"collection_times": [{"days": "Mon-Sat", "time": "2:30pm"}, {"days": "Sun", "time": "Closed"}], "id": "4550300022", "name": "USPS COLLECTION BOX - BLUE BOX", "address": {"city": "SPRINGFIELD", "state": "OH", "street": "2254 OLYMPIC ST", "postcode": "45503"}}},
{"geometry": {"type": "Point", "coordinates": [-83.8080630922, 39.9286369462]}, "type": "Feature", "properties": {"collection_times": [{"days": "Mon-Sat", "time": "3:00pm"}, {"days": "Sun", "time": "Closed"}], "id": "4550300025", "name": "USPS COLLECTION BOX - BLUE BOX", "address": {"city": "SPRINGFIELD", "state": "OH", "street": "333 N LIMESTONE ST", "postcode": "45503"}}},
{"geometry": {"type": "Point", "coordinates": [-83.7846487713, 39.9330454966]}, "type": "Feature", "properties": {"collection_times": [{"days": "Mon-Sat", "time": "3:00pm"}, {"days": "Sun", "time": "Closed"}], "id": "4550300039", "name": "USPS COLLECTION BOX - BLUE BOX", "address": {"city": "SPRINGFIELD", "state": "OH", "street": "1574 LAGONDA AVE", "postcode": "45503"}}},
{"geometry": {"type": "Point", "coordinates": [-83.7852426167, 39.9659778912]}, "type": "Feature", "properties": {"collection_times": [{"days": "Mon-Sat", "time": "2:30pm"}, {"days": "Sun", "time": "Closed"}], "id": "4550300047", "name": "USPS COLLECTION BOX - BLUE BOX", "address": {"city": "SPRINGFIELD", "state": "OH", "street": "2982 DERR RD", "postcode": "45503"}}},
{"geometry": {"type": "Point", "coordinates": [-83.7758523278, 39.9955985395]}, "type": "Feature", "properties": {"collection_times": [{"days": "Mon-Sat", "time": "2:30pm"}, {"days": "Sun", "time": "Closed"}], "id": "4550300058", "name": "USPS COLLECTION BOX - BLUE BOX", "address": {"city": "SPRINGFIELD", "state": "OH", "street": "1333 MOOREFIELD RD", "postcode": "45503"}}},
{"geometry": {"type": "Point", "coordinates": [-83.768598384, 39.9233819048]}, "type": "Feature", "properties": {"collection_times": [{"days": "Mon-Sat", "time": "9:00am"}, {"days": "Sun", "time": "Closed"}], "id": "4550300067", "name": "USPS COLLECTION BOX - BLUE BOX", "address": {"city": "SPRINGFIELD", "state": "OH", "street": "2609 E MAIN ST", "postcode": "45503"}}},
{"geometry": {"type": "Point", "coordinates": [-83.772960738, 39.958018274]}, "type": "Feature", "properties": {"collection_times": [{"days": "Mon-Sat", "time": "3:00pm"}, {"days": "Sun", "time": "Closed"}], "id": "4550300072", "name": "USPS COLLECTION BOX - BLUE BOX", "address": {"city": "SPRINGFIELD", "state": "OH", "street": "200 MEDICAL CENTER DR", "postcode": "45503"}}},
{"geometry": {"type": "Point", "coordinates": [-83.8521945556, 39.9475208455]}, "type": "Feature", "properties": {"collection_times": [{"days": "Mon-Sat", "time": "2:30pm"}, {"days": "Sun", "time": "Closed"}], "id": "4550400018", "name": "USPS COLLECTION BOX - BLUE BOX", "address": {"city": "SPRINGFIELD", "state": "OH", "street": "1475 UPPER VALLEY PIKE", "postcode": "45504"}}},
{"geometry": {"type": "Point", "coordinates": [-83.8436427966, 39.9357333104]}, "type": "Feature", "properties": {"collection_times": [{"days": "Mon-Sat", "time": "2:30pm"}, {"days": "Sun", "time": "Closed"}], "id": "4550400029", "name": "USPS COLLECTION BOX - BLUE BOX", "address": {"city": "SPRINGFIELD", "state": "OH", "street": "1941 COMMERCE CIR", "postcode": "45504"}}},
{"geometry": {"type": "Point", "coordinates": [-83.8158836198, 39.9460130928]}, "type": "Feature", "properties": {"collection_times": [{"days": "Mon-Sat", "time": "9:00am"}, {"days": "Sun", "time": "Closed"}], "id": "4550400037", "name": "USPS COLLECTION BOX - BLUE BOX", "address": {"city": "SPRINGFIELD", "state": "OH", "street": "400 W HARDING RD", "postcode": "45504"}}},
{"geometry": {"type": "Point", "coordinates": [-83.8087917808, 39.9297154671]}, "type": "Feature", "properties": {"collection_times": [{"days": "Mon-Sat", "time": "3:00pm"}, {"days": "Sun", "time": "Closed"}], "id": "4550400065", "name": "USPS COLLECTION BOX - BLUE BOX", "address": {"city": "SPRINGFIELD", "state": "OH", "street": "30 WARDER ST", "postcode": "45504"}}},
{"geometry": {"type": "Point", "coordinates": [-83.7957745003, 39.904119784]}, "type": "Feature", "properties": {"collection_times": [{"days": "Mon-Sat", "time": "10:00am"}, {"days": "Sun", "time": "Closed"}], "id": "4550500012", "name": "USPS COLLECTION BOX - BLUE BOX", "address": {"city": "SPRINGFIELD", "state": "OH", "street": "1129 SUNSET AVE", "postcode": "45505"}}},
{"geometry": {"type": "Point", "coordinates": [-83.8106762344, 39.9029746797]}, "type": "Feature", "properties": {"collection_times": [{"days": "Mon-Sat", "time": "11:30am"}, {"days": "Sun", "time": "Closed"}], "id": "4550500023", "name": "USPS COLLECTION BOX - BLUE BOX", "address": {"city": "SPRINGFIELD", "state": "OH", "street": "1822 S LIMESTONE ST", "postcode": "45505"}}},
{"geometry": {"type": "Point", "coordinates": [-83.7703408826, 39.9156974034]}, "type": "Feature", "properties": {"collection_times": [{"days": "Mon-Sat", "time": "9:00am"}, {"days": "Sun", "time": "Closed"}], "id": "4550500051", "name": "USPS COLLECTION BOX - BLUE BOX", "address": {"city": "SPRINGFIELD", "state": "OH", "street": "432 S BURNETT RD", "postcode": "45505"}}},
{"geometry": {"type": "Point", "coordinates": [-83.7782111086, 39.9215080978]}, "type": "Feature", "properties": {"collection_times": [{"days": "Mon-Sat", "time": "9:00am"}, {"days": "Sun", "time": "Closed"}], "id": "4550500058", "name": "USPS COLLECTION BOX - BLUE BOX", "address": {"city": "SPRINGFIELD", "state": "OH", "street": "2100 E HIGH ST", "postcode": "45505"}}}
]}
