{"type": "FeatureCollection", "features": [
{"geometry": {"type": "Point", "coordinates": [-82.9850664267, 39.3319787447]}, "type": "Feature", "properties": {"collection_times": [{"days": "Mon-Fri", "time": "5:00pm"}, {"days": "Sat", "time": "1:00pm"}, {"days": "Sun", "time": "Closed"}], "id": "4560100000", "name": "USPS COLLECTION BOX - BLUE BOX", "address": {"city": "CHILLICOTHE", "state": "OH", "street": "40 S WALNUT ST", "postcode": "45601"}}},
{"geometry": {"type": "Point", "coordinates": [-82.9850664267, 39.3319787447]}, "type": "Feature", "properties": {"collection_times": [{"days": "Mon-Fri", "time": "5:00pm"}, {"days": "Sat", "time": "1:00pm"}, {"days": "Sun", "time": "Closed"}], "id": "4560100003", "name": "USPS COLLECTION BOX - PO LOBBY", "address": {"city": "CHILLICOTHE", "state": "OH", "street": "40 S WALNUT ST", "postcode": "45601"}}},
{"geometry": {"type": "Point", "coordinates": [-82.9850664267, 39.3319787447]}, "type": "Feature", "properties": {"collection_times": [{"days": "Mon-Fri", "time": "5:00pm"}, {"days": "Sat", "time": "1:00pm"}, {"days": "Sun", "time": "Closed"}], "id": "4560100004", "name": "USPS COLLECTION BOX - PO LOBBY", "address": {"city": "CHILLICOTHE", "state": "OH", "street": "40 S WALNUT ST", "postcode": "45601"}}},
{"geometry": {"type": "Point", "coordinates": [-82.9850664267, 39.3319787447]}, "type": "Feature", "properties": {"collection_times": [{"days": "Mon-Fri", "time": "5:00pm"}, {"days": "Sat", "time": "1:00pm"}, {"days": "Sun", "time": "Closed"}], "id": "4560100005", "name": "USPS COLLECTION BOX - PO LOBBY", "address": {"city": "CHILLICOTHE", "state": "OH", "street": "40 S WALNUT ST", "postcode": "45601"}}},
{"geometry": {"type": "Point", "coordinates": [-82.9763277721, 39.3586779322]}, "type": "Feature", "properties": {"collection_times": [{"days": "Mon-Fri", "time": "10:00am"}, {"days": "Sat", "time": "9:30am"}, {"days": "Sun", "time": "Closed"}], "id": "4560100008", "name": "USPS COLLECTION BOX - BLUE BOX", "address": {"city": "CHILLICOTHE", "state": "OH", "street": "1080 N BRIDGE ST", "postcode": "45601"}}},
{"geometry": {"type": "Point", "coordinates": [-83.0031546569, 39.3373910608]}, "type": "Feature", "properties": {"collection_times": [{"days": "Mon-Sat", "time": "12:00pm"}, {"days": "Sun", "time": "Closed"}], "id": "4560100011", "name": "USPS COLLECTION BOX - BLUE BOX", "address": {"city": "CHILLICOTHE", "state": "OH", "street": "629 CENTRAL CTR", "postcode": "45601"}}},
{"geometry": {"type": "Point", "coordinates": [-82.9820177111, 39.3327625672]}, "type": "Feature", "properties": {"collection_times": [{"days": "Mon-Sat", "time": "12:00pm"}, {"days": "Sun", "time": "Closed"}], "id": "4560100012", "name": "USPS COLLECTION BOX - BLUE BOX", "address": {"city": "CHILLICOTHE", "state": "OH", "street": "22 S PAINT ST", "postcode": "45601"}}},
{"geometry": {"type": "Point", "coordinates": [-82.9821096787, 39.333234234]}, "type": "Feature", "properties": {"collection_times": [{"days": "Mon-Fri", "time": "12:00pm"}, {"days": "Sat-Sun", "time": "Closed"}], "id": "4560100014", "name": "USPS COLLECTION BOX - BLUE BOX", "address": {"city": "CHILLICOTHE", "state": "OH", "street": "2 N PAINT ST", "postcode": "45601"}}},
{"geometry": {"type": "Point", "coordinates": [-82.9761913459, 39.3585253098]}, "type": "Feature", "properties": {"collection_times": [{"days": "Mon-Fri", "time": "10:00am"}, {"days": "Sat", "time": "9:30am"}, {"days": "Sun", "time": "Closed"}], "id": "4560100020", "name": "USPS COLLECTION BOX - BLUE BOX", "address": {"city": "CHILLICOTHE", "state": "OH", "street": "1075 N BRIDGE ST", "postcode": "45601"}}},
{"geometry": {"type": "Point", "coordinates": [-82.975773384, 39.3341148034]}, "type": "Feature", "properties": {"collection_times": [{"days": "Mon-Sat", "time": "12:00pm"}, {"days": "Sun", "time": "Closed"}], "id": "4560100029", "name": "USPS COLLECTION BOX - BLUE BOX", "address": {"city": "CHILLICOTHE", "state": "OH", "street": "198 E MAIN ST", "postcode": "45601"}}},
{"geometry": {"type": "Point", "coordinates": [-82.9763285655, 39.3548462643]}, "type": "Feature", "properties": {"collection_times": [{"days": "Mon-Fri", "time": "9:00am"}, {"days": "Sat", "time": "8:30am"}, {"days": "Sun", "time": "Closed"}], "id": "4560100032", "name": "USPS COLLECTION BOX - BLUE BOX", "address": {"city": "CHILLICOTHE", "state": "OH", "street": "869 N BRIDGE ST", "postcode": "45601"}}},
{"geometry": {"type": "Point", "coordinates": [-83.0120680905, 39.3330705502]}, "type": "Feature", "properties": {"collection_times": [{"days": "Mon-Sat", "time": "10:00am"}, {"days": "Sun", "time": "Closed"}], "id": "4560100034", "name": "USPS COLLECTION BOX - BLUE BOX", "address": {"city": "CHILLICOTHE", "state": "OH", "street": "1165 WESTERN AVE", "postcode": "45601"}}},
{"geometry": {"type": "Point", "coordinates": [-82.9586209201, 39.3368763869]}, "type": "Feature", "properties": {"collection_times": [{"days": "Mon-Sat", "time": "9:00am"}, {"days": "Sun", "time": "Closed"}], "id": "4560100040", "name": "USPS COLLECTION BOX - BLUE BOX", "address": {"city": "CHILLICOTHE", "state": "OH", "street": "841 E MAIN ST", "postcode": "45601"}}},
{"geometry": {"type": "Point", "coordinates": [-82.9771469719, 39.3510916601]}, "type": "Feature", "properties": {"collection_times": [{"days": "Mon-Sat", "time": "10:00am"}, {"days": "Sun", "time": "Closed"}], "id": "4560100042", "name": "USPS COLLECTION BOX - BLUE BOX", "address": {"city": "CHILLICOTHE", "state": "OH", "street": "33 N PLAZA BLVD", "postcode": "45601"}}},
{"geometry": {"type": "Point", "coordinates": [-82.973004662, 39.3475647816]}, "type": "Feature", "properties": {"collection_times": [{"days": "Mon-Sat", "time": "8:30am"}, {"days": "Sun", "time": "Closed"}], "id": "4560100056", "name": "USPS COLLECTION BOX - BLUE BOX", "address": {"city": "CHILLICOTHE", "state": "OH", "street": "85 RIVER TRCE", "postcode": "45601"}}},
{"geometry": {"type": "Point", "coordinates": [-83.003276603, 39.3372272129]}, "type": "Feature", "properties": {"collection_times": [{"days": "Mon-Sat", "time": "12:00pm"}, {"days": "Sun", "time": "Closed"}], "id": "4560100057", "name": "USPS COLLECTION BOX - BLUE BOX", "address": {"city": "CHILLICOTHE", "state": "OH", "street": "600 CENTRAL CTR", "postcode": "45601"}}},
{"geometry": {"type": "Point", "coordinates": [-82.9822383692, 39.3344228752]}, "type": "Feature", "properties": {"collection_times": [{"days": "Mon-Sat", "time": "12:00pm"}, {"days": "Sun", "time": "Closed"}], "id": "4560100058", "name": "USPS COLLECTION BOX - BLUE BOX", "address": {"city": "CHILLICOTHE", "state": "OH", "street": "49 N PAINT ST", "postcode": "45601"}}},
{"geometry": {"type": "Point", "coordinates": [-83.2697782401, 39.2277728231]}, "type": "Feature", "properties": {"collection_times": [{"days": "Mon-Fri", "time": "4:00pm"}, {"days": "Sat", "time": "11:00am"}, {"days": "Sun", "time": "Closed"}], "id": "4561200000", "name": "USPS COLLECTION BOX - BLUE BOX", "address": {"city": "BAINBRIDGE", "state": "OH", "street": "122 E MAIN ST", "postcode": "45612"}}},
{"geometry": {"type": "Point", "coordinates": [-83.2697861305, 39.2276598739]}, "type": "Feature", "properties": {"collection_times": [{"days": "Mon-Fri", "time": "4:00pm"}, {"days": "Sat", "time": "11:00am"}, {"days": "Sun", "time": "Closed"}], "id": "4561200001", "name": "USPS COLLECTION BOX - PO LOBBY", "address": {"city": "BAINBRIDGE", "state": "OH", "street": "121 E MAIN ST", "postcode": "45612"}}},
{"geometry": {"type": "Point", "coordinates": [-82.8279684677, 39.0314466738]}, "type": "Feature", "properties": {"collection_times": [{"days": "Mon-Fri", "time": "4:00pm"}, {"days": "Sat", "time": "10:45am"}, {"days": "Sun", "time": "Closed"}], "id": "4561300000", "name": "USPS COLLECTION BOX - PO LOBBY", "address": {"city": "BEAVER", "state": "OH", "street": "5610 BEAVER PIKE", "postcode": "45613"}}},
{"geometry": {"type": "Point", "coordinates": [-82.8279684677, 39.0314466738]}, "type": "Feature", "properties": {"collection_times": [{"days": "Mon-Fri", "time": "4:00pm"}, {"days": "Sat", "time": "10:45am"}, {"days": "Sun", "time": "Closed"}], "id": "4561300001", "name": "USPS COLLECTION BOX - BLUE BOX", "address": {"city": "BEAVER", "state": "OH", "street": "5610 BEAVER PIKE", "postcode": "45613"}}},
{"geometry": {"type": "Point", "coordinates": [-82.8606787031, 38.9514776834]}, "type": "Feature", "properties": {"collection_times": [{"days": "Mon-Sat", "time": "10:00am"}, {"days": "Sun", "time": "Closed"}], "id": "4561300002", "name": "USPS COLLECTION BOX - BLUE BOX", "address": {"city": "BEAVER", "state": "OH", "street": "56 STATE ROUTE 335", "postcode": "45613"}}},
{"geometry": {"type": "Point", "coordinates": [-82.2966494871, 38.9199020252]}, "type": "Feature", "properties": {"collection_times": [{"days": "Mon-Fri", "time": "3:45pm"}, {"days": "Sat", "time": "10:15am"}, {"days": "Sun", "time": "Closed"}], "id": "4561400000", "name": "USPS COLLECTION BOX - BLUE BOX", "address": {"city": "BIDWELL", "state": "OH", "street": "15070 STATE ROUTE 554", "postcode": "45614"}}},
{"geometry": {"type": "Point", "coordinates": [-82.2966494871, 38.9199020252]}, "type": "Feature", "properties": {"collection_times": [{"days": "Mon-Fri", "time": "3:45pm"}, {"days": "Sat", "time": "10:15am"}, {"days": "Sun", "time": "Closed"}], "id": "4561400001", "name": "USPS COLLECTION BOX - PO LOBBY", "address": {"city": "BIDWELL", "state": "OH", "street": "15070 STATE ROUTE 554", "postcode": "45614"}}},
{"geometry": {"type": "Point", "coordinates": [-83.3343090475, 38.7774285963]}, "type": "Feature", "properties": {"collection_times": [{"days": "Mon-Fri", "time": "3:45pm"}, {"days": "Sat", "time": "10:00am"}, {"days": "Sun", "time": "Closed"}], "id": "4561600000", "name": "USPS COLLECTION BOX - BLUE BOX", "address": {"city": "BLUE CREEK", "state": "OH", "street": "20805 STATE ROUTE 125", "postcode": "45616"}}},
{"geometry": {"type": "Point", "coordinates": [-83.3343090475, 38.7774285963]}, "type": "Feature", "properties": {"collection_times": [{"days": "Mon-Fri", "time": "3:45pm"}, {"days": "Sat", "time": "10:00am"}, {"days": "Sun", "time": "Closed"}], "id": "4561600001", "name": "USPS COLLECTION BOX - PO LOBBY", "address": {"city": "BLUE CREEK", "state": "OH", "street": "20805 STATE ROUTE 125", "postcode": "45616"}}},
{"geometry": {"type": "Point", "coordinates": [-83.3375287861, 38.7770434224]}, "type": "Feature", "properties": {"collection_times": [{"days": "Mon-Fri", "time": "3:00pm"}, {"days": "Sat", "time": "9:00am"}, {"days": "Sun", "time": "Closed"}], "id": "4561600005", "name": "USPS COLLECTION BOX - BLUE BOX", "address": {"city": "BLUE CREEK", "state": "OH", "street": "21309 STATE ROUTE 125", "postcode": "45616"}}},
{"geometry": {"type": "Point", "coordinates": [-83.156598473, 39.281898285]}, "type": "Feature", "properties": {"collection_times": [{"days": "Mon-Fri", "time": "4:15pm"}, {"days": "Sat", "time": "9:00am"}, {"days": "Sun", "time": "Closed"}], "id": "4561700000", "name": "USPS COLLECTION BOX - BLUE BOX", "address": {"city": "BOURNEVILLE", "state": "OH", "street": "11684 US HIGHWAY 50 W", "postcode": "45617"}}},
{"geometry": {"type": "Point", "coordinates": [-83.156598473, 39.281898285]}, "type": "Feature", "properties": {"collection_times": [{"days": "Mon-Fri", "time": "4:15pm"}, {"days": "Sat", "time": "9:00am"}, {"days": "Sun", "time": "Closed"}], "id": "4561700001", "name": "USPS COLLECTION BOX - PO LOBBY", "address": {"city": "BOURNEVILLE", "state": "OH", "street": "11684 US HIGHWAY 50 W", "postcode": "45617"}}},
{"geometry": {"type": "Point", "coordinates": [-83.6145640386, 38.8879122672]}, "type": "Feature", "properties": {"collection_times": [{"days": "Mon-Fri", "time": "4:15pm"}, {"days": "Sat", "time": "10:15am"}, {"days": "Sun", "time": "Closed"}], "id": "4561800000", "name": "USPS COLLECTION BOX - BLUE BOX", "address": {"city": "CHERRY FORK", "state": "OH", "street": "14536 STATE ROUTE 136", "postcode": "45618"}}},
{"geometry": {"type": "Point", "coordinates": [-83.6145640386, 38.8879122672]}, "type": "Feature", "properties": {"collection_times": [{"days": "Mon-Fri", "time": "4:15pm"}, {"days": "Sat", "time": "10:15am"}, {"days": "Sun", "time": "Closed"}], "id": "4561800001", "name": "USPS COLLECTION BOX - PO LOBBY", "address": {"city": "CHERRY FORK", "state": "OH", "street": "14536 STATE ROUTE 136", "postcode": "45618"}}},
{"geometry": {"type": "Point", "coordinates": [-82.459527105, 38.4272739212]}, "type": "Feature", "properties": {"collection_times": [{"days": "Mon-Fri", "time": "3:45pm"}, {"days": "Sat", "time": "12:00pm"}, {"days": "Sun", "time": "Closed"}], "id": "4561900000", "name": "USPS COLLECTION BOX - BLUE BOX", "address": {"city": "CHESAPEAKE", "state": "OH", "street": "607 3RD AVE", "postcode": "45619"}}},
{"geometry": {"type": "Point", "coordinates": [-82.4548962522, 38.4281962121]}, "type": "Feature", "properties": {"collection_times": [{"days": "Mon-Sat", "time": "1:00pm"}, {"days": "Sun", "time": "Closed"}], "id": "4561900002", "name": "USPS COLLECTION BOX - BLUE BOX", "address": {"city": "CHESAPEAKE", "state": "OH", "street": "353 3RD AVE", "postcode": "45619"}}},
{"geometry": {"type": "Point", "coordinates": [-82.459527105, 38.4272739212]}, "type": "Feature", "properties": {"collection_times": [{"days": "Mon-Fri", "time": "3:45pm"}, {"days": "Sat", "time": "12:00pm"}, {"days": "Sun", "time": "Closed"}], "id": "4561900004", "name": "USPS COLLECTION BOX - PO LOBBY", "address": {"city": "CHESAPEAKE", "state": "OH", "street": "607 3RD AVE", "postcode": "45619"}}},
{"geometry": {"type": "Point", "coordinates": [-82.459527105, 38.4272739212]}, "type": "Feature", "properties": {"collection_times": [{"days": "Mon-Fri", "time": "3:45pm"}, {"days": "Sat-Sun", "time": "Closed"}], "id": "4561900005", "name": "USPS COLLECTION BOX - BLUE BOX", "address": {"city": "CHESAPEAKE", "state": "OH", "street": "607 3RD AVE", "postcode": "45619"}}},
{"geometry": {"type": "Point", "coordinates": [-82.111273357, 38.9443909335]}, "type": "Feature", "properties": {"collection_times": [{"days": "Mon-Fri", "time": "3:30pm"}, {"days": "Sat", "time": "9:45am"}, {"days": "Sun", "time": "Closed"}], "id": "4562000000", "name": "USPS COLLECTION BOX - BLUE BOX", "address": {"city": "CHESHIRE", "state": "OH", "street": "7976 STATE ROUTE 7 N", "postcode": "45620"}}},
{"geometry": {"type": "Point", "coordinates": [-82.111273357, 38.9443909335]}, "type": "Feature", "properties": {"collection_times": [{"days": "Mon-Fri", "time": "3:30pm"}, {"days": "Sat", "time": "9:45am"}, {"days": "Sun", "time": "Closed"}], "id": "4562000001", "name": "USPS COLLECTION BOX - PO LOBBY", "address": {"city": "CHESHIRE", "state": "OH", "street": "7976 STATE ROUTE 7 N", "postcode": "45620"}}},
{"geometry": {"type": "Point", "coordinates": [-82.6101797368, 39.1141707782]}, "type": "Feature", "properties": {"collection_times": [{"days": "Mon-Fri", "time": "4:15pm"}, {"days": "Sat", "time": "10:15am"}, {"days": "Sun", "time": "Closed"}], "id": "4562100000", "name": "USPS COLLECTION BOX - BLUE BOX", "address": {"city": "COALTON", "state": "OH", "street": "11 S 2ND ST", "postcode": "45621"}}},
{"geometry": {"type": "Point", "coordinates": [-82.6101797368, 39.1141707782]}, "type": "Feature", "properties": {"collection_times": [{"days": "Mon-Fri", "time": "4:15pm"}, {"days": "Sat", "time": "10:15am"}, {"days": "Sun", "time": "Closed"}], "id": "4562100001", "name": "USPS COLLECTION BOX - PO LOBBY", "address": {"city": "COALTON", "state": "OH", "street": "11 S 2ND ST", "postcode": "45621"}}},
{"geometry": {"type": "Point", "coordinates": [-82.2829441429, 38.5908006128]}, "type": "Feature", "properties": {"collection_times": [{"days": "Mon-Fri", "time": "3:45pm"}, {"days": "Sat", "time": "10:15am"}, {"days": "Sun", "time": "Closed"}], "id": "4562300000", "name": "USPS COLLECTION BOX - BLUE BOX", "address": {"city": "CROWN CITY", "state": "OH", "street": "54 CHARLES ST", "postcode": "45623"}}},
{"geometry": {"type": "Point", "coordinates": [-82.2829441429, 38.5908006128]}, "type": "Feature", "properties": {"collection_times": [{"days": "Mon-Fri", "time": "3:45pm"}, {"days": "Sat", "time": "10:15am"}, {"days": "Sun", "time": "Closed"}], "id": "4562300001", "name": "USPS COLLECTION BOX - PO LOBBY", "address": {"city": "CROWN CITY", "state": "OH", "street": "54 CHARLES ST", "postcode": "45623"}}},
{"geometry": {"type": "Point", "coordinates": [-83.1780903231, 39.4039200328]}, "type": "Feature", "properties": {"collection_times": [{"days": "Mon-Fri", "time": "3:00pm"}, {"days": "Sat", "time": "10:45am"}, {"days": "Sun", "time": "Closed"}], "id": "4562800000", "name": "USPS COLLECTION BOX - BLUE BOX", "address": {"city": "FRANKFORT", "state": "OH", "street": "32 MAIN ST", "postcode": "45628"}}},
{"geometry": {"type": "Point", "coordinates": [-83.1780903231, 39.4039200328]}, "type": "Feature", "properties": {"collection_times": [{"days": "Mon-Fri", "time": "3:00pm"}, {"days": "Sat", "time": "10:45am"}, {"days": "Sun", "time": "Closed"}], "id": "4562800001", "name": "USPS COLLECTION BOX - PO LOBBY", "address": {"city": "FRANKFORT", "state": "OH", "street": "32 MAIN ST", "postcode": "45628"}}},
{"geometry": {"type": "Point", "coordinates": [-82.8431549893, 38.6197023762]}, "type": "Feature", "properties": {"collection_times": [{"days": "Mon-Fri", "time": "4:15pm"}, {"days": "Sat", "time": "10:30am"}, {"days": "Sun", "time": "Closed"}], "id": "4562900000", "name": "USPS COLLECTION BOX - BLUE BOX", "address": {"city": "FRANKLN FRNCE", "state": "OH", "street": "4202 GALLIA PIKE", "postcode": "45629"}}},
{"geometry": {"type": "Point", "coordinates": [-82.8431549893, 38.6197023762]}, "type": "Feature", "properties": {"collection_times": [{"days": "Mon-Fri", "time": "4:15pm"}, {"days": "Sat", "time": "10:30am"}, {"days": "Sun", "time": "Closed"}], "id": "4562900001", "name": "USPS COLLECTION BOX - PO LOBBY", "address": {"city": "FRANKLN FRNCE", "state": "OH", "street": "4202 GALLIA PIKE", "postcode": "45629"}}},
{"geometry": {"type": "Point", "coordinates": [-83.0944416405, 38.6989180241]}, "type": "Feature", "properties": {"collection_times": [{"days": "Mon-Fri", "time": "11:30am"}, {"days": "Sat", "time": "10:45am"}, {"days": "Sun", "time": "Closed"}], "id": "4563000000", "name": "USPS COLLECTION BOX - BLUE BOX", "address": {"city": "FRIENDSHIP", "state": "OH", "street": "13066 US HIGHWAY 52", "postcode": "45630"}}},
{"geometry": {"type": "Point", "coordinates": [-83.0944416405, 38.6989180241]}, "type": "Feature", "properties": {"collection_times": [{"days": "Mon-Fri", "time": "11:30am"}, {"days": "Sat", "time": "10:45am"}, {"days": "Sun", "time": "Closed"}], "id": "4563000001", "name": "USPS COLLECTION BOX - PO LOBBY", "address": {"city": "FRIENDSHIP", "state": "OH", "street": "13066 US HIGHWAY 52", "postcode": "45630"}}},
{"geometry": {"type": "Point", "coordinates": [-82.2043543841, 38.8085253874]}, "type": "Feature", "properties": {"collection_times": [{"days": "Mon-Fri", "time": "4:00pm"}, {"days": "Sat", "time": "12:00pm"}, {"days": "Sun", "time": "Closed"}], "id": "4563100000", "name": "USPS COLLECTION BOX - PO LOBBY", "address": {"city": "GALLIPOLIS", "state": "OH", "street": "440 2ND AVE", "postcode": "45631"}}},
{"geometry": {"type": "Point", "coordinates": [-82.2043543841, 38.8085253874]}, "type": "Feature", "properties": {"collection_times": [{"days": "Mon-Fri", "time": "4:00pm"}, {"days": "Sat", "time": "12:00pm"}, {"days": "Sun", "time": "Closed"}], "id": "4563100001", "name": "USPS COLLECTION BOX - PO LOBBY", "address": {"city": "GALLIPOLIS", "state": "OH", "street": "440 2ND AVE", "postcode": "45631"}}},
{"geometry": {"type": "Point", "coordinates": [-82.2043543841, 38.8085253874]}, "type": "Feature", "properties": {"collection_times": [{"days": "Mon-Fri", "time": "4:00pm"}, {"days": "Sat", "time": "12:00pm"}, {"days": "Sun", "time": "Closed"}], "id": "4563100002", "name": "USPS COLLECTION BOX - BLUE BOX", "address": {"city": "GALLIPOLIS", "state": "OH", "street": "440 2ND AVE", "postcode": "45631"}}},
{"geometry": {"type": "Point", "coordinates": [-82.2043543841, 38.8085253874]}, "type": "Feature", "properties": {"collection_times": [{"days": "Mon-Fri", "time": "4:00pm"}, {"days": "Sat", "time": "12:00pm"}, {"days": "Sun", "time": "Closed"}], "id": "4563100003", "name": "USPS COLLECTION BOX - BLUE BOX", "address": {"city": "GALLIPOLIS", "state": "OH", "street": "440 2ND AVE", "postcode": "45631"}}},
{"geometry": {"type": "Point", "coordinates": [-82.2043543841, 38.8085253874]}, "type": "Feature", "properties": {"collection_times": [{"days": "Mon-Fri", "time": "4:00pm"}, {"days": "Sat", "time": "12:00pm"}, {"days": "Sun", "time": "Closed"}], "id": "4563100004", "name": "USPS COLLECTION BOX - BLUE BOX", "address": {"city": "GALLIPOLIS", "state": "OH", "street": "440 2ND AVE", "postcode": "45631"}}},
{"geometry": {"type": "Point", "coordinates": [-82.2026884639, 38.8096158056]}, "type": "Feature", "properties": {"collection_times": [{"days": "Mon-Sat", "time": "12:00pm"}, {"days": "Sun", "time": "Closed"}], "id": "4563100005", "name": "USPS COLLECTION BOX - BLUE BOX", "address": {"city": "GALLIPOLIS", "state": "OH", "street": "518 2ND AVE", "postcode": "45631"}}},
{"geometry": {"type": "Point", "coordinates": [-82.2548001396, 38.8425894961]}, "type": "Feature", "properties": {"collection_times": [{"days": "Mon-Sat", "time": "10:30am"}, {"days": "Sun", "time": "Closed"}], "id": "4563100011", "name": "USPS COLLECTION BOX - BLUE BOX", "address": {"city": "GALLIPOLIS", "state": "OH", "street": "1070 JACKSON PIKE", "postcode": "45631"}}},
{"geometry": {"type": "Point", "coordinates": [-82.1495554362, 38.838851045]}, "type": "Feature", "properties": {"collection_times": [{"days": "Mon-Sat", "time": "9:00am"}, {"days": "Sun", "time": "Closed"}], "id": "4563100014", "name": "USPS COLLECTION BOX - BLUE BOX", "address": {"city": "GALLIPOLIS", "state": "OH", "street": "23 OHIO RIVER PLZ", "postcode": "45631"}}},
{"geometry": {"type": "Point", "coordinates": [-82.2090261145, 38.805452662]}, "type": "Feature", "properties": {"collection_times": [{"days": "Mon-Sat", "time": "10:30am"}, {"days": "Sun", "time": "Closed"}], "id": "4563100023", "name": "USPS COLLECTION BOX - BLUE BOX", "address": {"city": "GALLIPOLIS", "state": "OH", "street": "210 2ND AVE", "postcode": "45631"}}},
{"geometry": {"type": "Point", "coordinates": [-82.1732672036, 38.8232354574]}, "type": "Feature", "properties": {"collection_times": [{"days": "Mon-Sat", "time": "9:00am"}, {"days": "Sun", "time": "Closed"}], "id": "4563100025", "name": "USPS COLLECTION BOX - BLUE BOX", "address": {"city": "GALLIPOLIS", "state": "OH", "street": "2145 EASTERN AVE", "postcode": "45631"}}},
{"geometry": {"type": "Point", "coordinates": [-82.258730213, 38.8128109922]}, "type": "Feature", "properties": {"collection_times": [{"days": "Mon-Sat", "time": "10:00am"}, {"days": "Sun", "time": "Closed"}], "id": "4563100026", "name": "USPS COLLECTION BOX - BLUE BOX", "address": {"city": "GALLIPOLIS", "state": "OH", "street": "2991 STATE ROUTE 160", "postcode": "45631"}}},
{"geometry": {"type": "Point", "coordinates": [-82.5271339207, 39.1591680475]}, "type": "Feature", "properties": {"collection_times": [{"days": "Mon-Fri", "time": "3:30pm"}, {"days": "Sat", "time": "10:30am"}, {"days": "Sun", "time": "Closed"}], "id": "4563400000", "name": "USPS COLLECTION BOX - BLUE BOX", "address": {"city": "HAMDEN", "state": "OH", "street": "30 N MAIN ST", "postcode": "45634"}}},
{"geometry": {"type": "Point", "coordinates": [-82.5271339207, 39.1591680475]}, "type": "Feature", "properties": {"collection_times": [{"days": "Mon-Fri", "time": "3:30pm"}, {"days": "Sat", "time": "10:30am"}, {"days": "Sun", "time": "Closed"}], "id": "4563400001", "name": "USPS COLLECTION BOX - PO LOBBY", "address": {"city": "HAMDEN", "state": "OH", "street": "30 N MAIN ST", "postcode": "45634"}}},
{"geometry": {"type": "Point", "coordinates": [-82.8321419946, 38.5843828611]}, "type": "Feature", "properties": {"collection_times": [{"days": "Mon-Fri", "time": "11:45am"}, {"days": "Sat", "time": "11:30am"}, {"days": "Sun", "time": "Closed"}], "id": "4563600000", "name": "USPS COLLECTION BOX - BLUE BOX", "address": {"city": "HAVERHILL", "state": "OH", "street": "1540 GALLIA PIKE", "postcode": "45636"}}},
{"geometry": {"type": "Point", "coordinates": [-82.7112131521, 40.4130547318]}, "type": "Feature", "properties": {"collection_times": [{"days": "Mon-Sat", "time": "5:00pm"}, {"days": "Sun", "time": "Closed"}], "id": "4563800000", "name": "USPS COLLECTION BOX - BLUE BOX", "address": {"city": "IRONTON", "state": "OH", "street": "214 N 4TH ST", "postcode": "45638"}}},
{"geometry": {"type": "Point", "coordinates": [-82.7112131521, 40.4130547318]}, "type": "Feature", "properties": {"collection_times": [{"days": "Mon-Sat", "time": "12:00pm"}, {"days": "Sun", "time": "Closed"}], "id": "4563800024", "name": "USPS COLLECTION BOX - BLUE BOX", "address": {"city": "IRONTON", "state": "OH", "street": "700 HIGH ST", "postcode": "45638"}}},
{"geometry": {"type": "Point", "coordinates": [-82.6704091185, 38.540754325]}, "type": "Feature", "properties": {"collection_times": [{"days": "Mon-Fri", "time": "12:00pm"}, {"days": "Sat", "time": "10:00am"}, {"days": "Sun", "time": "Closed"}], "id": "4563800025", "name": "USPS COLLECTION BOX - BLUE BOX", "address": {"city": "IRONTON", "state": "OH", "street": "105 S 5TH ST", "postcode": "45638"}}},
{"geometry": {"type": "Point", "coordinates": [-82.6704091185, 38.540754325]}, "type": "Feature", "properties": {"collection_times": [{"days": "Mon-Sat", "time": "12:00pm"}, {"days": "Sun", "time": "Closed"}], "id": "4563800029", "name": "USPS COLLECTION BOX - BLUE BOX", "address": {"city": "IRONTON", "state": "OH", "street": "111 S 4TH ST", "postcode": "45638"}}},
{"geometry": {"type": "Point", "coordinates": [-82.7112131521, 40.4130547318]}, "type": "Feature", "properties": {"collection_times": [{"days": "Mon-Sat", "time": "5:15pm"}, {"days": "Sun", "time": "Closed"}], "id": "4563800037", "name": "USPS COLLECTION BOX - PO LOBBY", "address": {"city": "IRONTON", "state": "OH", "street": "214 N 4TH ST", "postcode": "45638"}}},
{"geometry": {"type": "Point", "coordinates": [-82.6344289772, 39.0501724517]}, "type": "Feature", "properties": {"collection_times": [{"days": "Mon-Sat", "time": "4:30pm"}, {"days": "Sun", "time": "Closed"}], "id": "4564000013", "name": "USPS COLLECTION BOX - BLUE BOX", "address": {"city": "JACKSON", "state": "OH", "street": "360 E MAIN ST", "postcode": "45640"}}},
{"geometry": {"type": "Point", "coordinates": [-82.6344289772, 39.0501724517]}, "type": "Feature", "properties": {"collection_times": [{"days": "Mon-Sat", "time": "4:30pm"}, {"days": "Sun", "time": "Closed"}], "id": "4564000014", "name": "USPS COLLECTION BOX - BLUE BOX", "address": {"city": "JACKSON", "state": "OH", "street": "360 E MAIN ST", "postcode": "45640"}}},
{"geometry": {"type": "Point", "coordinates": [-82.6344289772, 39.0501724517]}, "type": "Feature", "properties": {"collection_times": [{"days": "Mon-Sat", "time": "4:30pm"}, {"days": "Sun", "time": "Closed"}], "id": "4564000015", "name": "USPS COLLECTION BOX - BLUE BOX", "address": {"city": "JACKSON", "state": "OH", "street": "360 E MAIN ST", "postcode": "45640"}}},
{"geometry": {"type": "Point", "coordinates": [-82.6386921441, 39.0507594503]}, "type": "Feature", "properties": {"collection_times": [{"days": "Mon-Sat", "time": "9:00am"}, {"days": "Sun", "time": "Closed"}], "id": "4564000020", "name": "USPS COLLECTION BOX - BLUE BOX", "address": {"city": "JACKSON", "state": "OH", "street": "145 BROADWAY ST", "postcode": "45640"}}},
{"geometry": {"type": "Point", "coordinates": [-82.6235531029, 39.0328080442]}, "type": "Feature", "properties": {"collection_times": [{"days": "Mon-Sat", "time": "10:30am"}, {"days": "Sun", "time": "Closed"}], "id": "4564000022", "name": "USPS COLLECTION BOX - BLUE BOX", "address": {"city": "JACKSON", "state": "OH", "street": "100 WALMART DR", "postcode": "45640"}}},
{"geometry": {"type": "Point", "coordinates": [-82.6373372666, 39.0523694241]}, "type": "Feature", "properties": {"collection_times": [{"days": "Mon-Sat", "time": "11:00am"}, {"days": "Sun", "time": "Closed"}], "id": "4564000024", "name": "USPS COLLECTION BOX - BLUE BOX", "address": {"city": "JACKSON", "state": "OH", "street": "226 E MAIN ST", "postcode": "45640"}}},
{"geometry": {"type": "Point", "coordinates": [-82.6344289772, 39.0501724517]}, "type": "Feature", "properties": {"collection_times": [{"days": "Mon-Sat", "time": "4:30pm"}, {"days": "Sun", "time": "Closed"}], "id": "4564000026", "name": "USPS COLLECTION BOX - PO LOBBY", "address": {"city": "JACKSON", "state": "OH", "street": "360 E MAIN ST", "postcode": "45640"}}},
{"geometry": {"type": "Point", "coordinates": [-82.6536814516, 39.0225955825]}, "type": "Feature", "properties": {"collection_times": [{"days": "Mon-Sat", "time": "11:30am"}, {"days": "Sun", "time": "Closed"}], "id": "4564000027", "name": "USPS COLLECTION BOX - BLUE BOX", "address": {"city": "JACKSON", "state": "OH", "street": "1 ACY AVE", "postcode": "45640"}}},
{"geometry": {"type": "Point", "coordinates": [-83.0520340494, 39.034891056]}, "type": "Feature", "properties": {"collection_times": [{"days": "Mon-Fri", "time": "2:30pm"}, {"days": "Sat", "time": "9:45am"}, {"days": "Sun", "time": "Closed"}], "id": "4564200000", "name": "USPS COLLECTION BOX - BLUE BOX", "address": {"city": "JASPER", "state": "OH", "street": "6618 STATE ROUTE 104", "postcode": "45642"}}},
{"geometry": {"type": "Point", "coordinates": [-83.0520340494, 39.034891056]}, "type": "Feature", "properties": {"collection_times": [{"days": "Mon-Fri", "time": "2:30pm"}, {"days": "Sat", "time": "9:45am"}, {"days": "Sun", "time": "Closed"}], "id": "4564200001", "name": "USPS COLLECTION BOX - PO LOBBY", "address": {"city": "JASPER", "state": "OH", "street": "6618 STATE ROUTE 104", "postcode": "45642"}}},
{"geometry": {"type": "Point", "coordinates": [-81.1346460299, 39.7759308062]}, "type": "Feature", "properties": {"collection_times": [{"days": "Mon-Fri", "time": "10:30am"}, {"days": "Sat", "time": "11:00am"}, {"days": "Sun", "time": "Closed"}], "id": "4564300000", "name": "USPS COLLECTION BOX - PO LOBBY", "address": {"city": "KERR", "state": "OH", "street": "178 AMBLESIDE DR", "postcode": "45643"}}},
{"geometry": {"type": "Point", "coordinates": [-82.2608670737, 38.8730750093]}, "type": "Feature", "properties": {"collection_times": [{"days": "Mon-Fri", "time": "10:30am"}, {"days": "Sat", "time": "11:00am"}, {"days": "Sun", "time": "Closed"}], "id": "4564300001", "name": "USPS COLLECTION BOX - BLUE BOX", "address": {"city": "KERR", "state": "OH", "street": "178 AMBLESIDE DR", "postcode": "45643"}}},
{"geometry": {"type": "Point", "coordinates": [-82.9110869067, 39.4728674223]}, "type": "Feature", "properties": {"collection_times": [{"days": "Mon-Fri", "time": "3:30pm"}, {"days": "Sat", "time": "10:15am"}, {"days": "Sun", "time": "Closed"}], "id": "4564400000", "name": "USPS COLLECTION BOX - BLUE BOX", "address": {"city": "KINGSTON", "state": "OH", "street": "4 W PICKAWAY ST", "postcode": "45644"}}},
{"geometry": {"type": "Point", "coordinates": [-82.9090813282, 39.4735736911]}, "type": "Feature", "properties": {"collection_times": [{"days": "Mon-Sat", "time": "9:30am"}, {"days": "Sun", "time": "Closed"}], "id": "4564400001", "name": "USPS COLLECTION BOX - BLUE BOX", "address": {"city": "KINGSTON", "state": "OH", "street": "8 E ING ST", "postcode": "45644"}}},
{"geometry": {"type": "Point", "coordinates": [-82.9110869067, 39.4728674223]}, "type": "Feature", "properties": {"collection_times": [{"days": "Mon-Fri", "time": "4:00pm"}, {"days": "Sat", "time": "10:15am"}, {"days": "Sun", "time": "Closed"}], "id": "4564400002", "name": "USPS COLLECTION BOX - PO LOBBY", "address": {"city": "KINGSTON", "state": "OH", "street": "4 W PICKAWAY ST", "postcode": "45644"}}},
{"geometry": {"type": "Point", "coordinates": [-82.5765081847, 38.5611979882]}, "type": "Feature", "properties": {"collection_times": [{"days": "Mon-Fri", "time": "11:00am"}, {"days": "Sat", "time": "9:45am"}, {"days": "Sun", "time": "Closed"}], "id": "4564500000", "name": "USPS COLLECTION BOX - BLUE BOX", "address": {"city": "KITTS HILL", "state": "OH", "street": "7480 STATE ROUTE 141", "postcode": "45645"}}},
{"geometry": {"type": "Point", "coordinates": [-82.5437565524, 38.5622403769]}, "type": "Feature", "properties": {"collection_times": [{"days": "Mon-Fri", "time": "11:00am"}, {"days": "Sat", "time": "9:45am"}, {"days": "Sun", "time": "Closed"}], "id": "4564500001", "name": "USPS COLLECTION BOX - PO LOBBY", "address": {"city": "KITTS HILL", "state": "OH", "street": "7480 STATE ROUTE 141", "postcode": "45645"}}},
{"geometry": {"type": "Point", "coordinates": [-83.3508478701, 39.0762628948]}, "type": "Feature", "properties": {"collection_times": [{"days": "Mon-Fri", "time": "2:00pm"}, {"days": "Sat", "time": "9:45am"}, {"days": "Sun", "time": "Closed"}], "id": "4564600000", "name": "USPS COLLECTION BOX - BLUE BOX", "address": {"city": "LATHAM", "state": "OH", "street": "8502 STATE ROUTE 124", "postcode": "45646"}}},
{"geometry": {"type": "Point", "coordinates": [-83.3508478701, 39.0762628948]}, "type": "Feature", "properties": {"collection_times": [{"days": "Mon-Fri", "time": "2:00pm"}, {"days": "Sat", "time": "9:45am"}, {"days": "Sun", "time": "Closed"}], "id": "4564600001", "name": "USPS COLLECTION BOX - PO LOBBY", "address": {"city": "LATHAM", "state": "OH", "street": "8502 STATE ROUTE 124", "postcode": "45646"}}},
{"geometry": {"type": "Point", "coordinates": [-82.7909180601, 39.2635118684]}, "type": "Feature", "properties": {"collection_times": [{"days": "Mon-Fri", "time": "4:00pm"}, {"days": "Sat", "time": "10:45am"}, {"days": "Sun", "time": "Closed"}], "id": "4564700000", "name": "USPS COLLECTION BOX - BLUE BOX", "address": {"city": "LONDONDERRY", "state": "OH", "street": "5055 VIGO RD", "postcode": "45647"}}},
{"geometry": {"type": "Point", "coordinates": [-82.7909180601, 39.2635118684]}, "type": "Feature", "properties": {"collection_times": [{"days": "Mon-Fri", "time": "4:00pm"}, {"days": "Sat", "time": "10:45am"}, {"days": "Sun", "time": "Closed"}], "id": "4564700001", "name": "USPS COLLECTION BOX - PO LOBBY", "address": {"city": "LONDONDERRY", "state": "OH", "street": "5055 VIGO RD", "postcode": "45647"}}},
{"geometry": {"type": "Point", "coordinates": [-83.0152314553, 38.9202607004]}, "type": "Feature", "properties": {"collection_times": [{"days": "Mon-Fri", "time": "4:00pm"}, {"days": "Sat", "time": "11:30am"}, {"days": "Sun", "time": "Closed"}], "id": "4564800000", "name": "USPS COLLECTION BOX - BLUE BOX", "address": {"city": "LUCASVILLE", "state": "OH", "street": "38 ROBERT LUCAS RD", "postcode": "45648"}}},
{"geometry": {"type": "Point", "coordinates": [-83.0152314553, 38.9202607004]}, "type": "Feature", "properties": {"collection_times": [{"days": "Mon-Fri", "time": "4:00pm"}, {"days": "Sat", "time": "11:30am"}, {"days": "Sun", "time": "Closed"}], "id": "4564800002", "name": "USPS COLLECTION BOX - PO LOBBY", "address": {"city": "LUCASVILLE", "state": "OH", "street": "38 ROBERT LUCAS RD", "postcode": "45648"}}},
{"geometry": {"type": "Point", "coordinates": [-82.4789650537, 39.2463941658]}, "type": "Feature", "properties": {"collection_times": [{"days": "Mon-Fri", "time": "4:00pm"}, {"days": "Sat", "time": "12:00pm"}, {"days": "Sun", "time": "Closed"}], "id": "4565100001", "name": "USPS COLLECTION BOX - BLUE BOX", "address": {"city": "MCARTHUR", "state": "OH", "street": "117 S MARKET ST", "postcode": "45651"}}},
{"geometry": {"type": "Point", "coordinates": [-82.478964402, 39.2466817173]}, "type": "Feature", "properties": {"collection_times": [{"days": "Mon-Sat", "time": "10:30am"}, {"days": "Sun", "time": "Closed"}], "id": "4565100005", "name": "USPS COLLECTION BOX - BLUE BOX", "address": {"city": "MCARTHUR", "state": "OH", "street": "100 E MAIN ST", "postcode": "45651"}}},
{"geometry": {"type": "Point", "coordinates": [-82.4789650537, 39.2463941658]}, "type": "Feature", "properties": {"collection_times": [{"days": "Mon-Fri", "time": "4:00pm"}, {"days": "Sat", "time": "12:00pm"}, {"days": "Sun", "time": "Closed"}], "id": "4565100010", "name": "USPS COLLECTION BOX - BLUE BOX", "address": {"city": "MCARTHUR", "state": "OH", "street": "117 S MARKET ST", "postcode": "45651"}}},
{"geometry": {"type": "Point", "coordinates": [-82.4789650537, 39.2463941658]}, "type": "Feature", "properties": {"collection_times": [{"days": "Mon-Fri", "time": "4:00pm"}, {"days": "Sat", "time": "12:00pm"}, {"days": "Sun", "time": "Closed"}], "id": "4565100011", "name": "USPS COLLECTION BOX - PO LOBBY", "address": {"city": "MCARTHUR", "state": "OH", "street": "117 S MARKET ST", "postcode": "45651"}}},
{"geometry": {"type": "Point", "coordinates": [-83.0655361802, 38.8350165801]}, "type": "Feature", "properties": {"collection_times": [{"days": "Mon-Fri", "time": "4:00pm"}, {"days": "Sat", "time": "10:30am"}, {"days": "Sun", "time": "Closed"}], "id": "4565200000", "name": "USPS COLLECTION BOX - BLUE BOX", "address": {"city": "MC DERMOTT", "state": "OH", "street": "100 BARKER ST", "postcode": "45652"}}},
{"geometry": {"type": "Point", "coordinates": [-83.0655361802, 38.8350165801]}, "type": "Feature", "properties": {"collection_times": [{"days": "Mon-Fri", "time": "4:00pm"}, {"days": "Sat", "time": "10:30am"}, {"days": "Sun", "time": "Closed"}], "id": "4565200001", "name": "USPS COLLECTION BOX - PO LOBBY", "address": {"city": "MC DERMOTT", "state": "OH", "street": "100 BARKER ST", "postcode": "45652"}}},
{"geometry": {"type": "Point", "coordinates": [-82.8558116184, 38.8632648204]}, "type": "Feature", "properties": {"collection_times": [{"days": "Mon-Fri", "time": "4:00pm"}, {"days": "Sat", "time": "10:15am"}, {"days": "Sun", "time": "Closed"}], "id": "4565300000", "name": "USPS COLLECTION BOX - BLUE BOX", "address": {"city": "MINFORD", "state": "OH", "street": "10623 STATE ROUTE 139", "postcode": "45653"}}},
{"geometry": {"type": "Point", "coordinates": [-82.8558116184, 38.8632648204]}, "type": "Feature", "properties": {"collection_times": [{"days": "Mon-Fri", "time": "4:00pm"}, {"days": "Sat", "time": "10:15am"}, {"days": "Sun", "time": "Closed"}], "id": "4565300001", "name": "USPS COLLECTION BOX - PO LOBBY", "address": {"city": "MINFORD", "state": "OH", "street": "10623 STATE ROUTE 139", "postcode": "45653"}}},
{"geometry": {"type": "Point", "coordinates": [-82.3991072887, 39.3849474448]}, "type": "Feature", "properties": {"collection_times": [{"days": "Mon-Fri", "time": "3:45pm"}, {"days": "Sat", "time": "9:45am"}, {"days": "Sun", "time": "Closed"}], "id": "4565400000", "name": "USPS COLLECTION BOX - BLUE BOX", "address": {"city": "NEW PLYMOUTH", "state": "OH", "street": "68197 STATE ROUTE 56", "postcode": "45654"}}},
{"geometry": {"type": "Point", "coordinates": [-82.3991072887, 39.3849474448]}, "type": "Feature", "properties": {"collection_times": [{"days": "Mon-Fri", "time": "3:45pm"}, {"days": "Sat", "time": "9:45am"}, {"days": "Sun", "time": "Closed"}], "id": "4565400001", "name": "USPS COLLECTION BOX - PO LOBBY", "address": {"city": "NEW PLYMOUTH", "state": "OH", "street": "68197 STATE ROUTE 56", "postcode": "45654"}}},
{"geometry": {"type": "Point", "coordinates": [-82.5720267521, 38.8963302249]}, "type": "Feature", "properties": {"collection_times": [{"days": "Mon-Fri", "time": "3:50pm"}, {"days": "Sat", "time": "11:45am"}, {"days": "Sun", "time": "Closed"}], "id": "4565600001", "name": "USPS COLLECTION BOX - BLUE BOX", "address": {"city": "OAK HILL", "state": "OH", "street": "109 RAILROAD ST", "postcode": "45656"}}},
{"geometry": {"type": "Point", "coordinates": [-82.5720267521, 38.8963302249]}, "type": "Feature", "properties": {"collection_times": [{"days": "Mon-Fri", "time": "3:50pm"}, {"days": "Sat", "time": "11:45am"}, {"days": "Sun", "time": "Closed"}], "id": "4565600007", "name": "USPS COLLECTION BOX - PO LOBBY", "address": {"city": "OAK HILL", "state": "OH", "street": "109 RAILROAD ST", "postcode": "45656"}}},
{"geometry": {"type": "Point", "coordinates": [-83.184807093, 38.86186258]}, "type": "Feature", "properties": {"collection_times": [{"days": "Mon-Fri", "time": "11:00am"}, {"days": "Sat", "time": "10:00am"}, {"days": "Sun", "time": "Closed"}], "id": "4565700000", "name": "USPS COLLECTION BOX - BLUE BOX", "address": {"city": "OTWAY", "state": "OH", "street": "6969 STATE ROUTE 73", "postcode": "45657"}}},
{"geometry": {"type": "Point", "coordinates": [-83.184807093, 38.86186258]}, "type": "Feature", "properties": {"collection_times": [{"days": "Mon-Fri", "time": "11:00am"}, {"days": "Sat", "time": "10:00am"}, {"days": "Sun", "time": "Closed"}], "id": "4565700001", "name": "USPS COLLECTION BOX - PO LOBBY", "address": {"city": "OTWAY", "state": "OH", "street": "6969 STATE ROUTE 73", "postcode": "45657"}}},
{"geometry": {"type": "Point", "coordinates": [-82.3839749048, 38.7744274321]}, "type": "Feature", "properties": {"collection_times": [{"days": "Mon-Fri", "time": "3:15pm"}, {"days": "Sat", "time": "9:45am"}, {"days": "Sun", "time": "Closed"}], "id": "4565800000", "name": "USPS COLLECTION BOX - BLUE BOX", "address": {"city": "PATRIOT", "state": "OH", "street": "1584 PATRIOT RD", "postcode": "45658"}}},
{"geometry": {"type": "Point", "coordinates": [-82.6665053249, 38.6301004849]}, "type": "Feature", "properties": {"collection_times": [{"days": "Mon-Fri", "time": "3:30pm"}, {"days": "Sat", "time": "9:30am"}, {"days": "Sun", "time": "Closed"}], "id": "4565900000", "name": "USPS COLLECTION BOX - BLUE BOX", "address": {"city": "PEDRO", "state": "OH", "street": "8284 STATE ROUTE 93", "postcode": "45659"}}},
{"geometry": {"type": "Point", "coordinates": [-82.6665053249, 38.6301004849]}, "type": "Feature", "properties": {"collection_times": [{"days": "Mon-Fri", "time": "3:30pm"}, {"days": "Sat", "time": "9:30am"}, {"days": "Sun", "time": "Closed"}], "id": "4565900001", "name": "USPS COLLECTION BOX - PO LOBBY", "address": {"city": "PEDRO", "state": "OH", "street": "8284 STATE ROUTE 93", "postcode": "45659"}}},
{"geometry": {"type": "Point", "coordinates": [-83.4044796869, 38.9509528391]}, "type": "Feature", "properties": {"collection_times": [{"days": "Mon-Fri", "time": "4:15pm"}, {"days": "Sat", "time": "12:15pm"}, {"days": "Sun", "time": "Closed"}], "id": "4566000000", "name": "USPS COLLECTION BOX - BLUE BOX", "address": {"city": "PEEBLES", "state": "OH", "street": "184 N MAIN ST", "postcode": "45660"}}},
{"geometry": {"type": "Point", "coordinates": [-83.3999257438, 38.9487987473]}, "type": "Feature", "properties": {"collection_times": [{"days": "Mon-Sat", "time": "1:00pm"}, {"days": "Sun", "time": "Closed"}], "id": "4566000001", "name": "USPS COLLECTION BOX - BLUE BOX", "address": {"city": "PEEBLES", "state": "OH", "street": "129 N NIXON AVE", "postcode": "45660"}}},
{"geometry": {"type": "Point", "coordinates": [-83.4097439534, 38.9445768608]}, "type": "Feature", "properties": {"collection_times": [{"days": "Mon-Sat", "time": "1:00pm"}, {"days": "Sun", "time": "Closed"}], "id": "4566000002", "name": "USPS COLLECTION BOX - BLUE BOX", "address": {"city": "PEEBLES", "state": "OH", "street": "103 S MAIN ST", "postcode": "45660"}}},
{"geometry": {"type": "Point", "coordinates": [-83.4082842154, 38.9493021566]}, "type": "Feature", "properties": {"collection_times": [{"days": "Mon-Sat", "time": "1:00pm"}, {"days": "Sun", "time": "Closed"}], "id": "4566000003", "name": "USPS COLLECTION BOX - BLUE BOX", "address": {"city": "PEEBLES", "state": "OH", "street": "90 VINE ST", "postcode": "45660"}}},
{"geometry": {"type": "Point", "coordinates": [-83.4063107673, 38.9488136414]}, "type": "Feature", "properties": {"collection_times": [{"days": "Mon-Sat", "time": "1:00pm"}, {"days": "Sun", "time": "Closed"}], "id": "4566000004", "name": "USPS COLLECTION BOX - BLUE BOX", "address": {"city": "PEEBLES", "state": "OH", "street": "86 N MAIN ST", "postcode": "45660"}}},
{"geometry": {"type": "Point", "coordinates": [-83.4010288243, 38.9496334909]}, "type": "Feature", "properties": {"collection_times": [{"days": "Mon-Sat", "time": "1:00pm"}, {"days": "Sun", "time": "Closed"}], "id": "4566000005", "name": "USPS COLLECTION BOX - BLUE BOX", "address": {"city": "PEEBLES", "state": "OH", "street": "155 SHOEMAKER ST", "postcode": "45660"}}},
{"geometry": {"type": "Point", "coordinates": [-83.4044796869, 38.9509528391]}, "type": "Feature", "properties": {"collection_times": [{"days": "Mon-Fri", "time": "4:15pm"}, {"days": "Sat", "time": "12:15pm"}, {"days": "Sun", "time": "Closed"}], "id": "4566000006", "name": "USPS COLLECTION BOX - PO LOBBY", "address": {"city": "PEEBLES", "state": "OH", "street": "184 N MAIN ST", "postcode": "45660"}}},
{"geometry": {"type": "Point", "coordinates": [-83.0144257796, 39.067944127]}, "type": "Feature", "properties": {"collection_times": [{"days": "Mon-Fri", "time": "4:30pm"}, {"days": "Sat", "time": "11:00am"}, {"days": "Sun", "time": "Closed"}], "id": "4566100000", "name": "USPS COLLECTION BOX - PO LOBBY", "address": {"city": "PIKETON", "state": "OH", "street": "114 S FORSYTHE ST", "postcode": "45661"}}},
{"geometry": {"type": "Point", "coordinates": [-83.0144257796, 39.067944127]}, "type": "Feature", "properties": {"collection_times": [{"days": "Mon-Fri", "time": "4:30pm"}, {"days": "Sat", "time": "11:00am"}, {"days": "Sun", "time": "Closed"}], "id": "4566100002", "name": "USPS COLLECTION BOX - BLUE BOX", "address": {"city": "PIKETON", "state": "OH", "street": "114 S FORSYTHE ST", "postcode": "45661"}}},
{"geometry": {"type": "Point", "coordinates": [-83.0144257796, 39.067944127]}, "type": "Feature", "properties": {"collection_times": [{"days": "Mon-Fri", "time": "4:30pm"}, {"days": "Sat", "time": "11:00am"}, {"days": "Sun", "time": "Closed"}], "id": "4566100003", "name": "USPS COLLECTION BOX - BLUE BOX", "address": {"city": "PIKETON", "state": "OH", "street": "114 S FORSYTHE ST", "postcode": "45661"}}},
{"geometry": {"type": "Point", "coordinates": [-83.01986081, 39.0479225907]}, "type": "Feature", "properties": {"collection_times": [{"days": "Mon-Sat", "time": "10:15am"}, {"days": "Sun", "time": "Closed"}], "id": "4566100005", "name": "USPS COLLECTION BOX - BLUE BOX", "address": {"city": "PIKETON", "state": "OH", "street": "14460 STATE ROUTE 124", "postcode": "45661"}}},
{"geometry": {"type": "Point", "coordinates": [-82.9943405241, 38.7348019077]}, "type": "Feature", "properties": {"collection_times": [{"days": "Mon-Fri", "time": "5:30pm"}, {"days": "Sat", "time": "4:15pm"}, {"days": "Sun", "time": "Closed"}], "id": "4566200002", "name": "USPS COLLECTION BOX - BLUE BOX", "address": {"city": "WEST PORTSMOUTH", "state": "OH", "street": "610 GAY ST", "postcode": "45662"}}},
{"geometry": {"type": "Point", "coordinates": [-82.9964365759, 38.7342090201]}, "type": "Feature", "properties": {"collection_times": [{"days": "Mon-Sat", "time": "11:30am"}, {"days": "Sun", "time": "Closed"}], "id": "4566200012", "name": "USPS COLLECTION BOX - BLUE BOX", "address": {"city": "WEST PORTSMOUTH", "state": "OH", "street": "800 GALLIA ST", "postcode": "45662"}}},
{"geometry": {"type": "Point", "coordinates": [-82.9303864367, 38.7868163097]}, "type": "Feature", "properties": {"collection_times": [{"days": "Mon-Sat", "time": "11:30am"}, {"days": "Sun", "time": "Closed"}], "id": "4566200026", "name": "USPS COLLECTION BOX - BLUE BOX", "address": {"city": "WEST PORTSMOUTH", "state": "OH", "street": "4003 CENTER ST", "postcode": "45662"}}},
{"geometry": {"type": "Point", "coordinates": [-82.9337939575, 38.7532711122]}, "type": "Feature", "properties": {"collection_times": [{"days": "Mon-Sat", "time": "11:30am"}, {"days": "Sun", "time": "Closed"}], "id": "4566200027", "name": "USPS COLLECTION BOX - BLUE BOX", "address": {"city": "WEST PORTSMOUTH", "state": "OH", "street": "4050 RHODES AVE", "postcode": "45662"}}},
{"geometry": {"type": "Point", "coordinates": [-82.9829116883, 38.7847837623]}, "type": "Feature", "properties": {"collection_times": [{"days": "Mon-Sat", "time": "11:30am"}, {"days": "Sun", "time": "Closed"}], "id": "4566200029", "name": "USPS COLLECTION BOX - BLUE BOX", "address": {"city": "WEST PORTSMOUTH", "state": "OH", "street": "4455 OLD SCIOTO TRL", "postcode": "45662"}}},
{"geometry": {"type": "Point", "coordinates": [-82.945558001, 38.7465622468]}, "type": "Feature", "properties": {"collection_times": [{"days": "Mon-Sat", "time": "11:30am"}, {"days": "Sun", "time": "Closed"}], "id": "4566200035", "name": "USPS COLLECTION BOX - BLUE BOX", "address": {"city": "WEST PORTSMOUTH", "state": "OH", "street": "3520 RHODES AVE", "postcode": "45662"}}},
{"geometry": {"type": "Point", "coordinates": [-83.020631163, 38.7616051814]}, "type": "Feature", "properties": {"collection_times": [{"days": "Mon-Sat", "time": "11:15am"}, {"days": "Sun", "time": "Closed"}], "id": "4566200038", "name": "USPS COLLECTION BOX - BLUE BOX", "address": {"city": "WEST PORTSMOUTH", "state": "OH", "street": "2331 GALENA PIKE", "postcode": "45662"}}},
{"geometry": {"type": "Point", "coordinates": [-82.9747956574, 38.7470019481]}, "type": "Feature", "properties": {"collection_times": [{"days": "Mon-Sat", "time": "11:30am"}, {"days": "Sun", "time": "Closed"}], "id": "4566200046", "name": "USPS COLLECTION BOX - BLUE BOX", "address": {"city": "WEST PORTSMOUTH", "state": "OH", "street": "2020 GRANDVIEW AVE", "postcode": "45662"}}},
{"geometry": {"type": "Point", "coordinates": [-82.9807196813, 38.7565974681]}, "type": "Feature", "properties": {"collection_times": [{"days": "Mon-Sat", "time": "11:30am"}, {"days": "Sun", "time": "Closed"}], "id": "4566200047", "name": "USPS COLLECTION BOX - BLUE BOX", "address": {"city": "WEST PORTSMOUTH", "state": "OH", "street": "1610 28TH ST", "postcode": "45662"}}},
{"geometry": {"type": "Point", "coordinates": [-82.9782974992, 38.7531788237]}, "type": "Feature", "properties": {"collection_times": [{"days": "Mon-Sat", "time": "11:30am"}, {"days": "Sun", "time": "Closed"}], "id": "4566200049", "name": "USPS COLLECTION BOX - BLUE BOX", "address": {"city": "WEST PORTSMOUTH", "state": "OH", "street": "1805 27TH ST", "postcode": "45662"}}},
{"geometry": {"type": "Point", "coordinates": [-82.8922058969, 38.7599260784]}, "type": "Feature", "properties": {"collection_times": [{"days": "Mon-Sat", "time": "2:00pm"}, {"days": "Sun", "time": "Closed"}], "id": "4566200050", "name": "USPS COLLECTION BOX - BLUE BOX", "address": {"city": "WEST PORTSMOUTH", "state": "OH", "street": "423 HARDING AVE", "postcode": "45662"}}},
{"geometry": {"type": "Point", "coordinates": [-83.0006158792, 38.7349209069]}, "type": "Feature", "properties": {"collection_times": [{"days": "Mon-Fri", "time": "11:30am"}, {"days": "Sat-Sun", "time": "Closed"}], "id": "4566200073", "name": "USPS COLLECTION BOX - BLUE BOX", "address": {"city": "WEST PORTSMOUTH", "state": "OH", "street": "601 6TH ST", "postcode": "45662"}}},
{"geometry": {"type": "Point", "coordinates": [-82.9880818588, 38.745992052]}, "type": "Feature", "properties": {"collection_times": [{"days": "Mon-Sat", "time": "11:30am"}, {"days": "Sun", "time": "Closed"}], "id": "4566200081", "name": "USPS COLLECTION BOX - BLUE BOX", "address": {"city": "WEST PORTSMOUTH", "state": "OH", "street": "1241 18TH ST", "postcode": "45662"}}},
{"geometry": {"type": "Point", "coordinates": [-82.9943405241, 38.7348019077]}, "type": "Feature", "properties": {"collection_times": [{"days": "Mon-Fri", "time": "5:00pm"}, {"days": "Sat", "time": "4:00pm"}, {"days": "Sun", "time": "Closed"}], "id": "4566200082", "name": "USPS COLLECTION BOX - PO LOBBY", "address": {"city": "WEST PORTSMOUTH", "state": "OH", "street": "610 GAY ST", "postcode": "45662"}}},
{"geometry": {"type": "Point", "coordinates": [-82.9340766834, 38.7542862734]}, "type": "Feature", "properties": {"collection_times": [{"days": "Mon-Sat", "time": "11:30am"}, {"days": "Sun", "time": "Closed"}], "id": "4566200085", "name": "USPS COLLECTION BOX - BLUE BOX", "address": {"city": "WEST PORTSMOUTH", "state": "OH", "street": "4102 GALLIA ST", "postcode": "45662"}}},
{"geometry": {"type": "Point", "coordinates": [-82.9963990617, 38.7348317099]}, "type": "Feature", "properties": {"collection_times": [{"days": "Mon-Sat", "time": "11:30am"}, {"days": "Sun", "time": "Closed"}], "id": "4566200088", "name": "USPS COLLECTION BOX - BLUE BOX", "address": {"city": "WEST PORTSMOUTH", "state": "OH", "street": "602 CHILLICOTHE ST", "postcode": "45662"}}},
{"geometry": {"type": "Point", "coordinates": [-82.3579606798, 38.4940507708]}, "type": "Feature", "properties": {"collection_times": [{"days": "Mon-Fri", "time": "3:45pm"}, {"days": "Sat", "time": "12:00pm"}, {"days": "Sun", "time": "Closed"}], "id": "4566900000", "name": "USPS COLLECTION BOX - BLUE BOX", "address": {"city": "PROCTORVILLE", "state": "OH", "street": "6200 COUNTY ROAD 107", "postcode": "45669"}}},
{"geometry": {"type": "Point", "coordinates": [-82.3579606798, 38.4940507708]}, "type": "Feature", "properties": {"collection_times": [{"days": "Mon-Fri", "time": "4:00pm"}, {"days": "Sat", "time": "12:00pm"}, {"days": "Sun", "time": "Closed"}], "id": "4566900001", "name": "USPS COLLECTION BOX - PO LOBBY", "address": {"city": "PROCTORVILLE", "state": "OH", "street": "6200 COUNTY ROAD 107", "postcode": "45669"}}},
{"geometry": {"type": "Point", "coordinates": [-83.2417362093, 38.9218711542]}, "type": "Feature", "properties": {"collection_times": [{"days": "Mon-Fri", "time": "4:00pm"}, {"days": "Sat", "time": "9:45am"}, {"days": "Sun", "time": "Closed"}], "id": "4567100000", "name": "USPS COLLECTION BOX - BLUE BOX", "address": {"city": "RARDEN", "state": "OH", "street": "1586 MAIN ST", "postcode": "45671"}}},
{"geometry": {"type": "Point", "coordinates": [-83.2417362093, 38.9218711542]}, "type": "Feature", "properties": {"collection_times": [{"days": "Mon-Fri", "time": "4:00pm"}, {"days": "Sat", "time": "9:45am"}, {"days": "Sun", "time": "Closed"}], "id": "4567100001", "name": "USPS COLLECTION BOX - PO LOBBY", "address": {"city": "RARDEN", "state": "OH", "street": "1586 MAIN ST", "postcode": "45671"}}},
{"geometry": {"type": "Point", "coordinates": [-82.6744888481, 39.2055983752]}, "type": "Feature", "properties": {"collection_times": [{"days": "Mon-Fri", "time": "3:45pm"}, {"days": "Sat", "time": "9:45am"}, {"days": "Sun", "time": "Closed"}], "id": "4567200000", "name": "USPS COLLECTION BOX - BLUE BOX", "address": {"city": "RAY", "state": "OH", "street": "36977 STATE ROUTE 327", "postcode": "45672"}}},
{"geometry": {"type": "Point", "coordinates": [-82.6744888481, 39.2055983752]}, "type": "Feature", "properties": {"collection_times": [{"days": "Mon-Fri", "time": "3:45pm"}, {"days": "Sat", "time": "9:45am"}, {"days": "Sun", "time": "Closed"}], "id": "4567200001", "name": "USPS COLLECTION BOX - PO LOBBY", "address": {"city": "RAY", "state": "OH", "street": "36977 STATE ROUTE 327", "postcode": "45672"}}},
{"geometry": {"type": "Point", "coordinates": [-82.8156670379, 39.2016001055]}, "type": "Feature", "properties": {"collection_times": [{"days": "Mon-Fri", "time": "11:30am"}, {"days": "Sat", "time": "9:45am"}, {"days": "Sun", "time": "Closed"}], "id": "4567300001", "name": "USPS COLLECTION BOX - PO LOBBY", "address": {"city": "RICHMOND DALE", "state": "OH", "street": "1024 MAIN ST", "postcode": "45673"}}},
{"geometry": {"type": "Point", "coordinates": [-82.3815571102, 38.8847967867]}, "type": "Feature", "properties": {"collection_times": [{"days": "Mon-Fri", "time": "3:30pm"}, {"days": "Sat", "time": "10:45am"}, {"days": "Sun", "time": "Closed"}], "id": "4567400000", "name": "USPS COLLECTION BOX - BLUE BOX", "address": {"city": "RIO GRANDE", "state": "OH", "street": "283 STATE ROUTE 325 S", "postcode": "45674"}}},
{"geometry": {"type": "Point", "coordinates": [-82.3815571102, 38.8847967867]}, "type": "Feature", "properties": {"collection_times": [{"days": "Mon-Fri", "time": "3:30pm"}, {"days": "Sat", "time": "10:45am"}, {"days": "Sun", "time": "Closed"}], "id": "4567400001", "name": "USPS COLLECTION BOX - PO LOBBY", "address": {"city": "RIO GRANDE", "state": "OH", "street": "283 STATE ROUTE 325 S", "postcode": "45674"}}},
{"geometry": {"type": "Point", "coordinates": [-82.765140615, 38.7980831348]}, "type": "Feature", "properties": {"collection_times": [{"days": "Mon-Fri", "time": "10:30am"}, {"days": "Sat", "time": "9:45am"}, {"days": "Sun", "time": "Closed"}], "id": "4567700000", "name": "USPS COLLECTION BOX - BLUE BOX", "address": {"city": "SCIOTO FURNACE", "state": "OH", "street": "8276 STATE ROUTE 140", "postcode": "45677"}}},
{"geometry": {"type": "Point", "coordinates": [-82.765140615, 38.7980831348]}, "type": "Feature", "properties": {"collection_times": [{"days": "Mon-Fri", "time": "10:30am"}, {"days": "Sat", "time": "9:45am"}, {"days": "Sun", "time": "Closed"}], "id": "4567700001", "name": "USPS COLLECTION BOX - PO LOBBY", "address": {"city": "SCIOTO FURNACE", "state": "OH", "street": "8276 STATE ROUTE 140", "postcode": "45677"}}},
{"geometry": {"type": "Point", "coordinates": [-82.3857588797, 38.5508780074]}, "type": "Feature", "properties": {"collection_times": [{"days": "Mon-Fri", "time": "11:30am"}, {"days": "Sat", "time": "9:45am"}, {"days": "Sun", "time": "Closed"}], "id": "4567800000", "name": "USPS COLLECTION BOX - BLUE BOX", "address": {"city": "SCOTTOWN", "state": "OH", "street": "11168 STATE ROUTE 217", "postcode": "45678"}}},
{"geometry": {"type": "Point", "coordinates": [-83.6397170644, 38.9543157569]}, "type": "Feature", "properties": {"collection_times": [{"days": "Mon-Fri", "time": "4:00pm"}, {"days": "Sat", "time": "10:15am"}, {"days": "Sun", "time": "Closed"}], "id": "4567900000", "name": "USPS COLLECTION BOX - BLUE BOX", "address": {"city": "SEAMAN", "state": "OH", "street": "6886 TRI COUNTY RD", "postcode": "45679"}}},
{"geometry": {"type": "Point", "coordinates": [-83.5706618907, 38.9609074341]}, "type": "Feature", "properties": {"collection_times": [{"days": "Mon-Sat", "time": "9:30am"}, {"days": "Sun", "time": "Closed"}], "id": "4567900001", "name": "USPS COLLECTION BOX - BLUE BOX", "address": {"city": "SEAMAN", "state": "OH", "street": "17286 STATE ROUTE 247", "postcode": "45679"}}},
{"geometry": {"type": "Point", "coordinates": [-83.6397170644, 38.9543157569]}, "type": "Feature", "properties": {"collection_times": [{"days": "Mon-Fri", "time": "4:15pm"}, {"days": "Sat", "time": "10:15am"}, {"days": "Sun", "time": "Closed"}], "id": "4567900002", "name": "USPS COLLECTION BOX - PO LOBBY", "address": {"city": "SEAMAN", "state": "OH", "street": "6886 TRI COUNTY RD", "postcode": "45679"}}},
{"geometry": {"type": "Point", "coordinates": [-82.522098803, 38.4108083141]}, "type": "Feature", "properties": {"collection_times": [{"days": "Mon-Sat", "time": "10:00am"}, {"days": "Sun", "time": "Closed"}], "id": "4568000001", "name": "USPS COLLECTION BOX - BLUE BOX", "address": {"city": "SOUTH POINT", "state": "OH", "street": "248 COUNTY ROAD 410", "postcode": "45680"}}},
{"geometry": {"type": "Point", "coordinates": [-82.5454900936, 38.4560447717]}, "type": "Feature", "properties": {"collection_times": [{"days": "Mon-Sat", "time": "10:00am"}, {"days": "Sun", "time": "Closed"}], "id": "4568000003", "name": "USPS COLLECTION BOX - BLUE BOX", "address": {"city": "SOUTH POINT", "state": "OH", "street": "2354 PRIVATE DR 288", "postcode": "45680"}}},
{"geometry": {"type": "Point", "coordinates": [-82.5748983884, 38.4235075191]}, "type": "Feature", "properties": {"collection_times": [{"days": "Mon-Fri", "time": "4:00pm"}, {"days": "Sat", "time": "12:00pm"}, {"days": "Sun", "time": "Closed"}], "id": "4568000004", "name": "USPS COLLECTION BOX - BLUE BOX", "address": {"city": "SOUTH POINT", "state": "OH", "street": "108 COLLINS AVE", "postcode": "45680"}}},
{"geometry": {"type": "Point", "coordinates": [-82.5748983884, 38.4235075191]}, "type": "Feature", "properties": {"collection_times": [{"days": "Mon-Fri", "time": "4:00pm"}, {"days": "Sat", "time": "12:00pm"}, {"days": "Sun", "time": "Closed"}], "id": "4568000005", "name": "USPS COLLECTION BOX - PO LOBBY", "address": {"city": "SOUTH POINT", "state": "OH", "street": "108 COLLINS AVE", "postcode": "45680"}}},
{"geometry": {"type": "Point", "coordinates": [-82.5771901386, 38.4203767266]}, "type": "Feature", "properties": {"collection_times": [{"days": "Mon-Sat", "time": "10:00am"}, {"days": "Sun", "time": "Closed"}], "id": "4568000006", "name": "USPS COLLECTION BOX - BLUE BOX", "address": {"city": "SOUTH POINT", "state": "OH", "street": "403 SOLIDA RD", "postcode": "45680"}}},
{"geometry": {"type": "Point", "coordinates": [-83.30414828, 39.3375523012]}, "type": "Feature", "properties": {"collection_times": [{"days": "Mon-Fri", "time": "3:45pm"}, {"days": "Sat", "time": "9:45am"}, {"days": "Sun", "time": "Closed"}], "id": "4568100000", "name": "USPS COLLECTION BOX - BLUE BOX", "address": {"city": "SOUTH SALEM", "state": "OH", "street": "3067 STEWART ST", "postcode": "45681"}}},
{"geometry": {"type": "Point", "coordinates": [-83.30414828, 39.3375523012]}, "type": "Feature", "properties": {"collection_times": [{"days": "Mon-Fri", "time": "3:45pm"}, {"days": "Sat", "time": "9:45am"}, {"days": "Sun", "time": "Closed"}], "id": "4568100001", "name": "USPS COLLECTION BOX - PO LOBBY", "address": {"city": "SOUTH SALEM", "state": "OH", "street": "3067 STEWART ST", "postcode": "45681"}}},
{"geometry": {"type": "Point", "coordinates": [-82.7267204319, 38.8130257758]}, "type": "Feature", "properties": {"collection_times": [{"days": "Mon-Fri", "time": "3:30pm"}, {"days": "Sat", "time": "10:45am"}, {"days": "Sun", "time": "Closed"}], "id": "4568200000", "name": "USPS COLLECTION BOX - BLUE BOX", "address": {"city": "SOUTH WEBSTER", "state": "OH", "street": "141 JACKSON ST", "postcode": "45682"}}},
{"geometry": {"type": "Point", "coordinates": [-82.7267204319, 38.8130257758]}, "type": "Feature", "properties": {"collection_times": [{"days": "Mon-Fri", "time": "3:45pm"}, {"days": "Sat", "time": "11:00am"}, {"days": "Sun", "time": "Closed"}], "id": "4568200001", "name": "USPS COLLECTION BOX - PO LOBBY", "address": {"city": "SOUTH WEBSTER", "state": "OH", "street": "141 JACKSON ST", "postcode": "45682"}}},
{"geometry": {"type": "Point", "coordinates": [-83.3843370824, 38.6649076083]}, "type": "Feature", "properties": {"collection_times": [{"days": "Mon-Fri", "time": "11:30am"}, {"days": "Sat", "time": "9:30am"}, {"days": "Sun", "time": "Closed"}], "id": "4568400000", "name": "USPS COLLECTION BOX - BLUE BOX", "address": {"city": "STOUT", "state": "OH", "street": "14 2ND ST", "postcode": "45684"}}},
{"geometry": {"type": "Point", "coordinates": [-82.4396509687, 38.8956707739]}, "type": "Feature", "properties": {"collection_times": [{"days": "Mon-Fri", "time": "11:30am"}, {"days": "Sat", "time": "9:30am"}, {"days": "Sun", "time": "Closed"}], "id": "4568500000", "name": "USPS COLLECTION BOX - BLUE BOX", "address": {"city": "THURMAN", "state": "OH", "street": "315 STATE ROUTE 279", "postcode": "45685"}}},
{"geometry": {"type": "Point", "coordinates": [-82.4396509687, 38.8956707739]}, "type": "Feature", "properties": {"collection_times": [{"days": "Mon-Fri", "time": "11:30am"}, {"days": "Sat", "time": "9:30am"}, {"days": "Sun", "time": "Closed"}], "id": "4568500001", "name": "USPS COLLECTION BOX - PO LOBBY", "address": {"city": "THURMAN", "state": "OH", "street": "315 STATE ROUTE 279", "postcode": "45685"}}},
{"geometry": {"type": "Point", "coordinates": [-82.3710063278, 39.0043725939]}, "type": "Feature", "properties": {"collection_times": [{"days": "Mon-Fri", "time": "2:00pm"}, {"days": "Sat", "time": "10:15am"}, {"days": "Sun", "time": "Closed"}], "id": "4568600000", "name": "USPS COLLECTION BOX - BLUE BOX", "address": {"city": "VINTON", "state": "OH", "street": "137 MAIN ST", "postcode": "45686"}}},
{"geometry": {"type": "Point", "coordinates": [-82.3710063278, 39.0043725939]}, "type": "Feature", "properties": {"collection_times": [{"days": "Mon-Fri", "time": "2:00pm"}, {"days": "Sat", "time": "10:15am"}, {"days": "Sun", "time": "Closed"}], "id": "4568600001", "name": "USPS COLLECTION BOX - PO LOBBY", "address": {"city": "VINTON", "state": "OH", "street": "137 MAIN ST", "postcode": "45686"}}},
{"geometry": {"type": "Point", "coordinates": [-82.471508277, 38.7034445518]}, "type": "Feature", "properties": {"collection_times": [{"days": "Mon-Sat", "time": "12:00pm"}, {"days": "Sun", "time": "Closed"}], "id": "4568800001", "name": "USPS COLLECTION BOX - PO LOBBY", "address": {"city": "WATERLOO", "state": "OH", "street": "23461 STATE ROUTE 141", "postcode": "45688"}}},
{"geometry": {"type": "Point", "coordinates": [-82.9841330029, 39.1263946047]}, "type": "Feature", "properties": {"collection_times": [{"days": "Mon-Fri", "time": "4:15pm"}, {"days": "Sat", "time": "3:45pm"}, {"days": "Sun", "time": "Closed"}], "id": "4569000000", "name": "USPS COLLECTION BOX - BLUE BOX", "address": {"city": "WAVERLY", "state": "OH", "street": "125 E 2ND ST", "postcode": "45690"}}},
{"geometry": {"type": "Point", "coordinates": [-83.0277940363, 39.1578074298]}, "type": "Feature", "properties": {"collection_times": [{"days": "Mon-Sat", "time": "1:00pm"}, {"days": "Sun", "time": "Closed"}], "id": "4569000024", "name": "USPS COLLECTION BOX - BLUE BOX", "address": {"city": "WAVERLY", "state": "OH", "street": "210 WAVERLY PLZ", "postcode": "45690"}}},
{"geometry": {"type": "Point", "coordinates": [-82.9925217389, 39.1218996451]}, "type": "Feature", "properties": {"collection_times": [{"days": "Mon-Sat", "time": "10:00am"}, {"days": "Sun", "time": "Closed"}], "id": "4569000026", "name": "USPS COLLECTION BOX - BLUE BOX", "address": {"city": "WAVERLY", "state": "OH", "street": "990 W EMMITT AVE", "postcode": "45690"}}},
{"geometry": {"type": "Point", "coordinates": [-82.9841330029, 39.1263946047]}, "type": "Feature", "properties": {"collection_times": [{"days": "Mon-Fri", "time": "4:15pm"}, {"days": "Sat", "time": "3:45pm"}, {"days": "Sun", "time": "Closed"}], "id": "4569000028", "name": "USPS COLLECTION BOX - PO LOBBY", "address": {"city": "WAVERLY", "state": "OH", "street": "125 E 2ND ST", "postcode": "45690"}}},
{"geometry": {"type": "Point", "coordinates": [-82.9731065308, 39.1310615944]}, "type": "Feature", "properties": {"collection_times": [{"days": "Mon-Sat", "time": "1:00pm"}, {"days": "Sun", "time": "Closed"}], "id": "4569000029", "name": "USPS COLLECTION BOX - BLUE BOX", "address": {"city": "WAVERLY", "state": "OH", "street": "660 E 5TH ST", "postcode": "45690"}}},
{"geometry": {"type": "Point", "coordinates": [-82.5340465933, 39.1237493205]}, "type": "Feature", "properties": {"collection_times": [{"days": "Mon-Fri", "time": "4:00pm"}, {"days": "Sat", "time": "12:00pm"}, {"days": "Sun", "time": "Closed"}], "id": "4569200002", "name": "USPS COLLECTION BOX - BLUE BOX", "address": {"city": "WELLSTON", "state": "OH", "street": "14 N OHIO AVE", "postcode": "45692"}}},
{"geometry": {"type": "Point", "coordinates": [-82.5335246451, 39.1178187629]}, "type": "Feature", "properties": {"collection_times": [{"days": "Mon-Sat", "time": "9:30am"}, {"days": "Sun", "time": "Closed"}], "id": "4569200017", "name": "USPS COLLECTION BOX - BLUE BOX", "address": {"city": "WELLSTON", "state": "OH", "street": "702 S PENNSYLVANIA AVE", "postcode": "45692"}}},
{"geometry": {"type": "Point", "coordinates": [-82.5341177471, 39.1234528471]}, "type": "Feature", "properties": {"collection_times": [{"days": "Mon-Fri", "time": "4:00pm"}, {"days": "Sat", "time": "12:00pm"}, {"days": "Sun", "time": "Closed"}], "id": "4569200020", "name": "USPS COLLECTION BOX - PO LOBBY", "address": {"city": "WELLSTON", "state": "OH", "street": "101 E BROADWAY ST", "postcode": "45692"}}},
{"geometry": {"type": "Point", "coordinates": [-82.5341177471, 39.1234528471]}, "type": "Feature", "properties": {"collection_times": [{"days": "Mon-Fri", "time": "4:00pm"}, {"days": "Sat", "time": "12:00pm"}, {"days": "Sun", "time": "Closed"}], "id": "4569200021", "name": "USPS COLLECTION BOX - BLUE BOX", "address": {"city": "WELLSTON", "state": "OH", "street": "101 E BROADWAY ST", "postcode": "45692"}}},
{"geometry": {"type": "Point", "coordinates": [-83.5452823723, 38.796711804]}, "type": "Feature", "properties": {"collection_times": [{"days": "Mon-Fri", "time": "4:00pm"}, {"days": "Sat", "time": "12:00pm"}, {"days": "Sun", "time": "Closed"}], "id": "4569300000", "name": "USPS COLLECTION BOX - BLUE BOX", "address": {"city": "WEST UNION", "state": "OH", "street": "117 E NORTH ST", "postcode": "45693"}}},
{"geometry": {"type": "Point", "coordinates": [-83.5452823723, 38.796711804]}, "type": "Feature", "properties": {"collection_times": [{"days": "Mon-Fri", "time": "4:00pm"}, {"days": "Sat", "time": "12:00pm"}, {"days": "Sun", "time": "Closed"}], "id": "4569300001", "name": "USPS COLLECTION BOX - BLUE BOX", "address": {"city": "WEST UNION", "state": "OH", "street": "117 E NORTH ST", "postcode": "45693"}}},
{"geometry": {"type": "Point", "coordinates": [-83.5452823723, 38.796711804]}, "type": "Feature", "properties": {"collection_times": [{"days": "Mon-Fri", "time": "4:00pm"}, {"days": "Sat", "time": "12:00pm"}, {"days": "Sun", "time": "Closed"}], "id": "4569300008", "name": "USPS COLLECTION BOX - PO LOBBY", "address": {"city": "WEST UNION", "state": "OH", "street": "117 E NORTH ST", "postcode": "45693"}}},
{"geometry": {"type": "Point", "coordinates": [-82.8545073537, 38.7285543974]}, "type": "Feature", "properties": {"collection_times": [{"days": "Mon-Fri", "time": "4:15pm"}, {"days": "Sat", "time": "12:15pm"}, {"days": "Sun", "time": "Closed"}], "id": "4569400001", "name": "USPS COLLECTION BOX - PO LOBBY", "address": {"city": "WHEELERSBURG", "state": "OH", "street": "11687 GALLIA PIKE RD", "postcode": "45694"}}},
{"geometry": {"type": "Point", "coordinates": [-82.8545073537, 38.7285543974]}, "type": "Feature", "properties": {"collection_times": [{"days": "Mon-Fri", "time": "4:15pm"}, {"days": "Sat", "time": "12:15pm"}, {"days": "Sun", "time": "Closed"}], "id": "4569400005", "name": "USPS COLLECTION BOX - BLUE BOX", "address": {"city": "WHEELERSBURG", "state": "OH", "street": "11687 GALLIA PIKE RD", "postcode": "45694"}}},
{"geometry": {"type": "Point", "coordinates": [-82.325030225, 39.074589717]}, "type": "Feature", "properties": {"collection_times": [{"days": "Mon-Fri", "time": "11:30am"}, {"days": "Sat", "time": "10:15am"}, {"days": "Sun", "time": "Closed"}], "id": "4569500000", "name": "USPS COLLECTION BOX - BLUE BOX", "address": {"city": "WILKESVILLE", "state": "OH", "street": "154 MAIN ST", "postcode": "45695"}}},
{"geometry": {"type": "Point", "coordinates": [-82.325030225, 39.074589717]}, "type": "Feature", "properties": {"collection_times": [{"days": "Mon-Fri", "time": "11:30am"}, {"days": "Sat", "time": "10:15am"}, {"days": "Sun", "time": "Closed"}], "id": "4569500001", "name": "USPS COLLECTION BOX - PO LOBBY", "address": {"city": "WILKESVILLE", "state": "OH", "street": "154 MAIN ST", "postcode": "45695"}}},
{"geometry": {"type": "Point", "coordinates": [-82.475801786, 38.5563070551]}, "type": "Feature", "properties": {"collection_times": [{"days": "Mon-Fri", "time": "11:00am"}, {"days": "Sat", "time": "9:45am"}, {"days": "Sun", "time": "Closed"}], "id": "4569600000", "name": "USPS COLLECTION BOX - BLUE BOX", "address": {"city": "WILLOW WOOD", "state": "OH", "street": "5491 STATE ROUTE 217", "postcode": "45696"}}},
{"geometry": {"type": "Point", "coordinates": [-82.475801786, 38.5563070551]}, "type": "Feature", "properties": {"collection_times": [{"days": "Mon-Fri", "time": "11:00am"}, {"days": "Sat", "time": "9:45am"}, {"days": "Sun", "time": "Closed"}], "id": "4569600001", "name": "USPS COLLECTION BOX - PO LOBBY", "address": {"city": "WILLOW WOOD", "state": "OH", "street": "5491 STATE ROUTE 217", "postcode": "45696"}}},
{"geometry": {"type": "Point", "coordinates": [-83.6794625315, 38.9350338979]}, "type": "Feature", "properties": {"collection_times": [{"days": "Mon-Sat", "time": "9:00am"}, {"days": "Sun", "time": "Closed"}], "id": "4569700001", "name": "USPS COLLECTION BOX - BLUE BOX", "address": {"city": "WINCHESTER", "state": "OH", "street": "1520 DORSEY RD", "postcode": "45697"}}},
{"geometry": {"type": "Point", "coordinates": [-83.6523554261, 38.9335672242]}, "type": "Feature", "properties": {"collection_times": [{"days": "Mon-Fri", "time": "4:00pm"}, {"days": "Sat", "time": "11:00am"}, {"days": "Sun", "time": "Closed"}], "id": "4569700002", "name": "USPS COLLECTION BOX - BLUE BOX", "address": {"city": "WINCHESTER", "state": "OH", "street": "19138 STATE ROUTE 136", "postcode": "45697"}}},
{"geometry": {"type": "Point", "coordinates": [-83.6523554261, 38.9335672242]}, "type": "Feature", "properties": {"collection_times": [{"days": "Mon-Fri", "time": "4:00pm"}, {"days": "Sat", "time": "11:00am"}, {"days": "Sun", "time": "Closed"}], "id": "4569700003", "name": "USPS COLLECTION BOX - PO LOBBY", "address": {"city": "WINCHESTER", "state": "OH", "street": "19138 STATE ROUTE 136", "postcode": "45697"}}},
{"geometry": {"type": "Point", "coordinates": [-82.3933041278, 39.2819030551]}, "type": "Feature", "properties": {"collection_times": [{"days": "Mon-Fri", "time": "3:30pm"}, {"days": "Sat", "time": "9:45am"}, {"days": "Sun", "time": "Closed"}], "id": "4569800000", "name": "USPS COLLECTION BOX - BLUE BOX", "address": {"city": "ZALESKI", "state": "OH", "street": "101 S 1ST ST", "postcode": "45698"}}},
{"geometry": {"type": "Point", "coordinates": [-82.3933041278, 39.2819030551]}, "type": "Feature", "properties": {"collection_times": [{"days": "Mon-Fri", "time": "3:30pm"}, {"days": "Sat", "time": "9:45am"}, {"days": "Sun", "time": "Closed"}], "id": "4569800001", "name": "USPS COLLECTION BOX - PO LOBBY", "address": {"city": "ZALESKI", "state": "OH", "street": "101 S 1ST ST", "postcode": "45698"}}}
]}
