{"type": "FeatureCollection", "features": [
{"geometry": {"type": "Point", "coordinates": [-82.097336861, 39.3320460772]}, "type": "Feature", "properties": {"collection_times": [{"days": "Mon-Fri", "time": "5:15pm"}, {"days": "Sat", "time": "4:00pm"}, {"days": "Sun", "time": "Closed"}], "id": "4570100001", "name": "USPS COLLECTION BOX - BLUE BOX", "address": {"city": "ATHENS", "state": "OH", "street": "5 W STIMSON AVE", "postcode": "45701"}}},
{"geometry": {"type": "Point", "coordinates": [-82.0686077479, 39.336898231]}, "type": "Feature", "properties": {"collection_times": [{"days": "Mon-Fri", "time": "1:00pm"}, {"days": "Sat", "time": "9:30am"}, {"days": "Sun", "time": "Closed"}], "id": "4570100004", "name": "USPS COLLECTION BOX - BLUE BOX", "address": {"city": "ATHENS", "state": "OH", "street": "918 E STATE ST", "postcode": "45701"}}},
{"geometry": {"type": "Point", "coordinates": [-82.101001034, 39.329248553]}, "type": "Feature", "properties": {"collection_times": [{"days": "Mon-Sat", "time": "1:00pm"}, {"days": "Sun", "time": "Closed"}], "id": "4570100006", "name": "USPS COLLECTION BOX - BLUE BOX", "address": {"city": "ATHENS", "state": "OH", "street": "10 E WASHINGTON ST", "postcode": "45701"}}},
{"geometry": {"type": "Point", "coordinates": [-82.1012591058, 39.3269740647]}, "type": "Feature", "properties": {"collection_times": [{"days": "Mon-Sat", "time": "1:00pm"}, {"days": "Sun", "time": "Closed"}], "id": "4570100008", "name": "USPS COLLECTION BOX - BLUE BOX", "address": {"city": "ATHENS", "state": "OH", "street": "80 S COURT ST", "postcode": "45701"}}},
{"geometry": {"type": "Point", "coordinates": [-82.0990790055, 39.3231838281]}, "type": "Feature", "properties": {"collection_times": [{"days": "Mon-Fri", "time": "1:00pm"}, {"days": "Sat", "time": "10:00am"}, {"days": "Sun", "time": "Closed"}], "id": "4570100011", "name": "USPS COLLECTION BOX - BLUE BOX", "address": {"city": "ATHENS", "state": "OH", "street": "70 UNIVERSITY TER", "postcode": "45701"}}},
{"geometry": {"type": "Point", "coordinates": [-82.1013207242, 39.3251389153]}, "type": "Feature", "properties": {"collection_times": [{"days": "Mon-Fri", "time": "1:00pm"}, {"days": "Sat", "time": "10:00am"}, {"days": "Sun", "time": "Closed"}], "id": "4570100012", "name": "USPS COLLECTION BOX - BLUE BOX", "address": {"city": "ATHENS", "state": "OH", "street": "1 PARK PL", "postcode": "45701"}}},
{"geometry": {"type": "Point", "coordinates": [-82.1043296095, 39.323685333]}, "type": "Feature", "properties": {"collection_times": [{"days": "Mon-Sat", "time": "1:00pm"}, {"days": "Sun", "time": "Closed"}], "id": "4570100014", "name": "USPS COLLECTION BOX - BLUE BOX", "address": {"city": "ATHENS", "state": "OH", "street": "95 RICHLAND AVE", "postcode": "45701"}}},
{"geometry": {"type": "Point", "coordinates": [-82.1051840664, 39.3199887847]}, "type": "Feature", "properties": {"collection_times": [{"days": "Mon-Fri", "time": "1:00pm"}, {"days": "Sat", "time": "12:30pm"}, {"days": "Sun", "time": "Closed"}], "id": "4570100018", "name": "USPS COLLECTION BOX - BLUE BOX", "address": {"city": "ATHENS", "state": "OH", "street": "412 RICHLAND AVE", "postcode": "45701"}}},
{"geometry": {"type": "Point", "coordinates": [-82.1130246884, 39.3259698437]}, "type": "Feature", "properties": {"collection_times": [{"days": "Mon-Fri", "time": "1:00pm"}, {"days": "Sat", "time": "11:00am"}, {"days": "Sun", "time": "Closed"}], "id": "4570100020", "name": "USPS COLLECTION BOX - BLUE BOX", "address": {"city": "ATHENS", "state": "OH", "street": "55 HOSPITAL DR", "postcode": "45701"}}},
{"geometry": {"type": "Point", "coordinates": [-82.1075693945, 39.3294855372]}, "type": "Feature", "properties": {"collection_times": [{"days": "Mon-Fri", "time": "1:00pm"}, {"days": "Sat", "time": "10:00am"}, {"days": "Sun", "time": "Closed"}], "id": "4570100025", "name": "USPS COLLECTION BOX - BLUE BOX", "address": {"city": "ATHENS", "state": "OH", "street": "160 W UNION ST", "postcode": "45701"}}},
{"geometry": {"type": "Point", "coordinates": [-82.1182860582, 39.3301173561]}, "type": "Feature", "properties": {"collection_times": [{"days": "Mon-Fri", "time": "1:00pm"}, {"days": "Sat", "time": "10:00am"}, {"days": "Sun", "time": "Closed"}], "id": "4570100026", "name": "USPS COLLECTION BOX - BLUE BOX", "address": {"city": "ATHENS", "state": "OH", "street": "444 W UNION ST", "postcode": "45701"}}},
{"geometry": {"type": "Point", "coordinates": [-82.1210122757, 39.2879038449]}, "type": "Feature", "properties": {"collection_times": [{"days": "Mon-Sat", "time": "10:00am"}, {"days": "Sun", "time": "Closed"}], "id": "4570100030", "name": "USPS COLLECTION BOX - BLUE BOX", "address": {"city": "ATHENS", "state": "OH", "street": "8978 UNITED LN", "postcode": "45701"}}},
{"geometry": {"type": "Point", "coordinates": [-82.1053679665, 39.319869548]}, "type": "Feature", "properties": {"collection_times": [{"days": "Mon-Fri", "time": "1:00pm"}, {"days": "Sat", "time": "10:30am"}, {"days": "Sun", "time": "Closed"}], "id": "4570100032", "name": "USPS COLLECTION BOX - BLUE BOX", "address": {"city": "ATHENS", "state": "OH", "street": "507 RICHLAND AVE", "postcode": "45701"}}},
{"geometry": {"type": "Point", "coordinates": [-82.1036261042, 39.3121366271]}, "type": "Feature", "properties": {"collection_times": [{"days": "Mon-Fri", "time": "10:00am"}, {"days": "Sat", "time": "9:00am"}, {"days": "Sun", "time": "Closed"}], "id": "4570100034", "name": "USPS COLLECTION BOX - BLUE BOX", "address": {"city": "ATHENS", "state": "OH", "street": "115 CARRIAGE HILL DR", "postcode": "45701"}}},
{"geometry": {"type": "Point", "coordinates": [-82.1012363809, 39.3291557751]}, "type": "Feature", "properties": {"collection_times": [{"days": "Mon-Sat", "time": "1:00pm"}, {"days": "Sun", "time": "Closed"}], "id": "4570100036", "name": "USPS COLLECTION BOX - BLUE BOX", "address": {"city": "ATHENS", "state": "OH", "street": "1 S COURT ST", "postcode": "45701"}}},
{"geometry": {"type": "Point", "coordinates": [-82.1029235431, 39.3324134421]}, "type": "Feature", "properties": {"collection_times": [{"days": "Mon-Fri", "time": "10:00am"}, {"days": "Sat", "time": "9:00am"}, {"days": "Sun", "time": "Closed"}], "id": "4570100039", "name": "USPS COLLECTION BOX - BLUE BOX", "address": {"city": "ATHENS", "state": "OH", "street": "19 E CARPENTER ST", "postcode": "45701"}}},
{"geometry": {"type": "Point", "coordinates": [-82.0844381015, 39.3369833123]}, "type": "Feature", "properties": {"collection_times": [{"days": "Mon-Fri", "time": "1:00pm"}, {"days": "Sat", "time": "10:00am"}, {"days": "Sun", "time": "Closed"}], "id": "4570100043", "name": "USPS COLLECTION BOX - BLUE BOX", "address": {"city": "ATHENS", "state": "OH", "street": "16 HOME ST", "postcode": "45701"}}},
{"geometry": {"type": "Point", "coordinates": [-82.0691971885, 39.336926268]}, "type": "Feature", "properties": {"collection_times": [{"days": "Mon-Fri", "time": "1:00pm"}, {"days": "Sat", "time": "10:00am"}, {"days": "Sun", "time": "Closed"}], "id": "4570100045", "name": "USPS COLLECTION BOX - BLUE BOX", "address": {"city": "ATHENS", "state": "OH", "street": "919 E STATE ST", "postcode": "45701"}}},
{"geometry": {"type": "Point", "coordinates": [-82.1018924682, 39.3309093532]}, "type": "Feature", "properties": {"collection_times": [{"days": "Mon-Fri", "time": "1:00pm"}, {"days": "Sat", "time": "12:00pm"}, {"days": "Sun", "time": "Closed"}], "id": "4570100047", "name": "USPS COLLECTION BOX - BLUE BOX", "address": {"city": "ATHENS", "state": "OH", "street": "18 W STATE ST", "postcode": "45701"}}},
{"geometry": {"type": "Point", "coordinates": [-82.0947933264, 39.3251747624]}, "type": "Feature", "properties": {"collection_times": [{"days": "Mon-Fri", "time": "1:00pm"}, {"days": "Sat", "time": "12:00pm"}, {"days": "Sun", "time": "Closed"}], "id": "4570100050", "name": "USPS COLLECTION BOX - BLUE BOX", "address": {"city": "ATHENS", "state": "OH", "street": "38 N MCKINLEY AVE", "postcode": "45701"}}},
{"geometry": {"type": "Point", "coordinates": [-82.1034498142, 39.357053575]}, "type": "Feature", "properties": {"collection_times": [{"days": "Mon-Fri", "time": "10:00am"}, {"days": "Sat", "time": "9:00am"}, {"days": "Sun", "time": "Closed"}], "id": "4570100055", "name": "USPS COLLECTION BOX - BLUE BOX", "address": {"city": "ATHENS", "state": "OH", "street": "223 COLUMBUS RD", "postcode": "45701"}}},
{"geometry": {"type": "Point", "coordinates": [-82.1393208892, 39.3209118142]}, "type": "Feature", "properties": {"collection_times": [{"days": "Mon-Sat", "time": "12:00pm"}, {"days": "Sun", "time": "Closed"}], "id": "4570100056", "name": "USPS COLLECTION BOX - BLUE BOX", "address": {"city": "ATHENS", "state": "OH", "street": "793 W UNION ST", "postcode": "45701"}}},
{"geometry": {"type": "Point", "coordinates": [-82.1113511006, 39.3366139667]}, "type": "Feature", "properties": {"collection_times": [{"days": "Mon-Sat", "time": "1:00pm"}, {"days": "Sun", "time": "Closed"}], "id": "4570100057", "name": "USPS COLLECTION BOX - BLUE BOX", "address": {"city": "ATHENS", "state": "OH", "street": "95 CENTRAL AVE", "postcode": "45701"}}},
{"geometry": {"type": "Point", "coordinates": [-82.097336861, 39.3320460772]}, "type": "Feature", "properties": {"collection_times": [{"days": "Mon-Fri", "time": "5:15pm"}, {"days": "Sat", "time": "4:00pm"}, {"days": "Sun", "time": "Closed"}], "id": "4570100058", "name": "USPS COLLECTION BOX - PO LOBBY", "address": {"city": "ATHENS", "state": "OH", "street": "5 W STIMSON AVE", "postcode": "45701"}}},
{"geometry": {"type": "Point", "coordinates": [-82.0663168415, 39.3367808319]}, "type": "Feature", "properties": {"collection_times": [{"days": "Mon-Fri", "time": "1:00pm"}, {"days": "Sat", "time": "10:00am"}, {"days": "Sun", "time": "Closed"}], "id": "4570100059", "name": "USPS COLLECTION BOX - BLUE BOX", "address": {"city": "ATHENS", "state": "OH", "street": "1006 E STATE ST", "postcode": "45701"}}},
{"geometry": {"type": "Point", "coordinates": [-82.0648023243, 39.3365229331]}, "type": "Feature", "properties": {"collection_times": [{"days": "Mon-Fri", "time": "1:00pm"}, {"days": "Sat", "time": "10:00am"}, {"days": "Sun", "time": "Closed"}], "id": "4570100061", "name": "USPS COLLECTION BOX - BLUE BOX", "address": {"city": "ATHENS", "state": "OH", "street": "929 E STATE ST", "postcode": "45701"}}},
{"geometry": {"type": "Point", "coordinates": [-82.1212160175, 39.3341662824]}, "type": "Feature", "properties": {"collection_times": [{"days": "Mon-Fri", "time": "1:00pm"}, {"days": "Sat", "time": "11:00am"}, {"days": "Sun", "time": "Closed"}], "id": "4570100062", "name": "USPS COLLECTION BOX - BLUE BOX", "address": {"city": "ATHENS", "state": "OH", "street": "340 W STATE ST", "postcode": "45701"}}},
{"geometry": {"type": "Point", "coordinates": [-82.0400173969, 39.2287048193]}, "type": "Feature", "properties": {"collection_times": [{"days": "Mon-Sat", "time": "11:00am"}, {"days": "Sun", "time": "Closed"}], "id": "4570100063", "name": "USPS COLLECTION BOX - BLUE BOX", "address": {"city": "ATHENS", "state": "OH", "street": "2280 STATE ROUTE 33", "postcode": "45701"}}},
{"geometry": {"type": "Point", "coordinates": [-82.0738988052, 39.3373351004]}, "type": "Feature", "properties": {"collection_times": [{"days": "Mon-Fri", "time": "1:00pm"}, {"days": "Sat", "time": "9:45am"}, {"days": "Sun", "time": "Closed"}], "id": "4570100064", "name": "USPS COLLECTION BOX - BLUE BOX", "address": {"city": "ATHENS", "state": "OH", "street": "743 E STATE ST", "postcode": "45701"}}},
{"geometry": {"type": "Point", "coordinates": [-82.2029808277, 39.2279781389]}, "type": "Feature", "properties": {"collection_times": [{"days": "Mon-Fri", "time": "4:30pm"}, {"days": "Sat", "time": "11:30am"}, {"days": "Sun", "time": "Closed"}], "id": "4571000000", "name": "USPS COLLECTION BOX - BLUE BOX", "address": {"city": "ALBANY", "state": "OH", "street": "5303 WASHINGTON RD", "postcode": "45710"}}},
{"geometry": {"type": "Point", "coordinates": [-82.2029808277, 39.2279781389]}, "type": "Feature", "properties": {"collection_times": [{"days": "Mon-Fri", "time": "4:30pm"}, {"days": "Sat", "time": "11:30am"}, {"days": "Sun", "time": "Closed"}], "id": "4571000001", "name": "USPS COLLECTION BOX - PO LOBBY", "address": {"city": "ALBANY", "state": "OH", "street": "5303 WASHINGTON RD", "postcode": "45710"}}},
{"geometry": {"type": "Point", "coordinates": [-81.9550647621, 39.4004722337]}, "type": "Feature", "properties": {"collection_times": [{"days": "Mon-Fri", "time": "4:00pm"}, {"days": "Sat", "time": "10:00am"}, {"days": "Sun", "time": "Closed"}], "id": "4571100000", "name": "USPS COLLECTION BOX - BLUE BOX", "address": {"city": "AMESVILLE", "state": "OH", "street": "20 STATE ST", "postcode": "45711"}}},
{"geometry": {"type": "Point", "coordinates": [-81.9550647621, 39.4004722337]}, "type": "Feature", "properties": {"collection_times": [{"days": "Mon-Fri", "time": "4:00pm"}, {"days": "Sat", "time": "10:00am"}, {"days": "Sun", "time": "Closed"}], "id": "4571100001", "name": "USPS COLLECTION BOX - PO LOBBY", "address": {"city": "AMESVILLE", "state": "OH", "street": "20 STATE ST", "postcode": "45711"}}},
{"geometry": {"type": "Point", "coordinates": [-81.8176757188, 39.4193708761]}, "type": "Feature", "properties": {"collection_times": [{"days": "Mon-Fri", "time": "11:30am"}, {"days": "Sat", "time": "10:15am"}, {"days": "Sun", "time": "Closed"}], "id": "4571300000", "name": "USPS COLLECTION BOX - BLUE BOX", "address": {"city": "BARTLETT", "state": "OH", "street": "1 MAIN ST", "postcode": "45713"}}},
{"geometry": {"type": "Point", "coordinates": [-81.8176757188, 39.4193708761]}, "type": "Feature", "properties": {"collection_times": [{"days": "Mon-Fri", "time": "11:30am"}, {"days": "Sat", "time": "10:15am"}, {"days": "Sun", "time": "Closed"}], "id": "4571300001", "name": "USPS COLLECTION BOX - PO LOBBY", "address": {"city": "BARTLETT", "state": "OH", "street": "1 MAIN ST", "postcode": "45713"}}},
{"geometry": {"type": "Point", "coordinates": [-81.5818688998, 39.2738523803]}, "type": "Feature", "properties": {"collection_times": [{"days": "Mon-Sat", "time": "4:00pm"}, {"days": "Sun", "time": "Closed"}], "id": "4571400001", "name": "USPS COLLECTION BOX - BLUE BOX", "address": {"city": "BELPRE", "state": "OH", "street": "1105 WASHINGTON BLVD", "postcode": "45714"}}},
{"geometry": {"type": "Point", "coordinates": [-81.5775618449, 39.2730111948]}, "type": "Feature", "properties": {"collection_times": [{"days": "Mon-Sat", "time": "10:00am"}, {"days": "Sun", "time": "Closed"}], "id": "4571400002", "name": "USPS COLLECTION BOX - BLUE BOX", "address": {"city": "BELPRE", "state": "OH", "street": "712 WASHINGTON BLVD", "postcode": "45714"}}},
{"geometry": {"type": "Point", "coordinates": [-81.6000929158, 39.2765380006]}, "type": "Feature", "properties": {"collection_times": [{"days": "Mon-Sat", "time": "11:00am"}, {"days": "Sun", "time": "Closed"}], "id": "4571400003", "name": "USPS COLLECTION BOX - BLUE BOX", "address": {"city": "BELPRE", "state": "OH", "street": "1902 WASHINGTON BLVD", "postcode": "45714"}}},
{"geometry": {"type": "Point", "coordinates": [-81.5692321814, 39.2767615687]}, "type": "Feature", "properties": {"collection_times": [{"days": "Mon-Sat", "time": "11:00am"}, {"days": "Sun", "time": "Closed"}], "id": "4571400007", "name": "USPS COLLECTION BOX - BLUE BOX", "address": {"city": "BELPRE", "state": "OH", "street": "501 MAIN ST", "postcode": "45714"}}},
{"geometry": {"type": "Point", "coordinates": [-81.5818688998, 39.2738523803]}, "type": "Feature", "properties": {"collection_times": [{"days": "Mon-Sat", "time": "4:00pm"}, {"days": "Sun", "time": "Closed"}], "id": "4571400014", "name": "USPS COLLECTION BOX - PO LOBBY", "address": {"city": "BELPRE", "state": "OH", "street": "1105 WASHINGTON BLVD", "postcode": "45714"}}},
{"geometry": {"type": "Point", "coordinates": [-81.6418857422, 39.5478022791]}, "type": "Feature", "properties": {"collection_times": [{"days": "Mon-Fri", "time": "4:00pm"}, {"days": "Sat", "time": "11:15am"}, {"days": "Sun", "time": "Closed"}], "id": "4571500001", "name": "USPS COLLECTION BOX - PO LOBBY", "address": {"city": "BEVERLY", "state": "OH", "street": "409 5TH ST", "postcode": "45715"}}},
{"geometry": {"type": "Point", "coordinates": [-81.6418857422, 39.5478022791]}, "type": "Feature", "properties": {"collection_times": [{"days": "Mon-Fri", "time": "4:00pm"}, {"days": "Sat", "time": "11:15am"}, {"days": "Sun", "time": "Closed"}], "id": "4571500004", "name": "USPS COLLECTION BOX - BLUE BOX", "address": {"city": "BEVERLY", "state": "OH", "street": "409 5TH ST", "postcode": "45715"}}},
{"geometry": {"type": "Point", "coordinates": [-82.1816085817, 39.4619250409]}, "type": "Feature", "properties": {"collection_times": [{"days": "Mon-Fri", "time": "3:45pm"}, {"days": "Sat", "time": "10:15am"}, {"days": "Sun", "time": "Closed"}], "id": "4571600000", "name": "USPS COLLECTION BOX - BLUE BOX", "address": {"city": "BUCHTEL", "state": "OH", "street": "17505 2ND ST", "postcode": "45716"}}},
{"geometry": {"type": "Point", "coordinates": [-82.1816085817, 39.4619250409]}, "type": "Feature", "properties": {"collection_times": [{"days": "Mon-Fri", "time": "3:45pm"}, {"days": "Sat", "time": "10:15am"}, {"days": "Sun", "time": "Closed"}], "id": "4571600001", "name": "USPS COLLECTION BOX - PO LOBBY", "address": {"city": "BUCHTEL", "state": "OH", "street": "17505 2ND ST", "postcode": "45716"}}},
{"geometry": {"type": "Point", "coordinates": [-82.1278736843, 39.3992663551]}, "type": "Feature", "properties": {"collection_times": [{"days": "Mon-Fri", "time": "3:30pm"}, {"days": "Sat", "time": "10:15am"}, {"days": "Sun", "time": "Closed"}], "id": "4571900000", "name": "USPS COLLECTION BOX - BLUE BOX", "address": {"city": "CHAUNCEY", "state": "OH", "street": "23 SYCAMORE ST", "postcode": "45719"}}},
{"geometry": {"type": "Point", "coordinates": [-82.1278736843, 39.3992663551]}, "type": "Feature", "properties": {"collection_times": [{"days": "Mon-Fri", "time": "3:30pm"}, {"days": "Sat", "time": "10:15am"}, {"days": "Sun", "time": "Closed"}], "id": "4571900001", "name": "USPS COLLECTION BOX - PO LOBBY", "address": {"city": "CHAUNCEY", "state": "OH", "street": "23 SYCAMORE ST", "postcode": "45719"}}},
{"geometry": {"type": "Point", "coordinates": [-81.9253458514, 39.0872043601]}, "type": "Feature", "properties": {"collection_times": [{"days": "Mon-Fri", "time": "3:30pm"}, {"days": "Sat", "time": "10:15am"}, {"days": "Sun", "time": "Closed"}], "id": "4572000000", "name": "USPS COLLECTION BOX - BLUE BOX", "address": {"city": "CHESTER", "state": "OH", "street": "46416 STATE ROUTE 248", "postcode": "45720"}}},
{"geometry": {"type": "Point", "coordinates": [-81.9253458514, 39.0872043601]}, "type": "Feature", "properties": {"collection_times": [{"days": "Mon-Fri", "time": "3:30pm"}, {"days": "Sat", "time": "10:15am"}, {"days": "Sun", "time": "Closed"}], "id": "4572000001", "name": "USPS COLLECTION BOX - PO LOBBY", "address": {"city": "CHESTER", "state": "OH", "street": "46416 STATE ROUTE 248", "postcode": "45720"}}},
{"geometry": {"type": "Point", "coordinates": [-81.8002565088, 39.2202505661]}, "type": "Feature", "properties": {"collection_times": [{"days": "Mon-Fri", "time": "4:00pm"}, {"days": "Sat", "time": "10:45am"}, {"days": "Sun", "time": "Closed"}], "id": "4572300000", "name": "USPS COLLECTION BOX - BLUE BOX", "address": {"city": "COOLVILLE", "state": "OH", "street": "26141 MAIN ST", "postcode": "45723"}}},
{"geometry": {"type": "Point", "coordinates": [-81.8095127461, 39.2222507498]}, "type": "Feature", "properties": {"collection_times": [{"days": "Mon-Sat", "time": "10:00am"}, {"days": "Sun", "time": "Closed"}], "id": "4572300001", "name": "USPS COLLECTION BOX - BLUE BOX", "address": {"city": "COOLVILLE", "state": "OH", "street": "25780 BRIMSTONE RD", "postcode": "45723"}}},
{"geometry": {"type": "Point", "coordinates": [-81.8002565088, 39.2202505661]}, "type": "Feature", "properties": {"collection_times": [{"days": "Mon-Fri", "time": "4:00pm"}, {"days": "Sat", "time": "10:45am"}, {"days": "Sun", "time": "Closed"}], "id": "4572300002", "name": "USPS COLLECTION BOX - PO LOBBY", "address": {"city": "COOLVILLE", "state": "OH", "street": "26141 MAIN ST", "postcode": "45723"}}},
{"geometry": {"type": "Point", "coordinates": [-81.7552819412, 39.3310248941]}, "type": "Feature", "properties": {"collection_times": [{"days": "Mon-Fri", "time": "4:00pm"}, {"days": "Sat", "time": "10:15am"}, {"days": "Sun", "time": "Closed"}], "id": "4572400000", "name": "USPS COLLECTION BOX - BLUE BOX", "address": {"city": "CUTLER", "state": "OH", "street": "9722 STATE ROUTE 555", "postcode": "45724"}}},
{"geometry": {"type": "Point", "coordinates": [-81.7552819412, 39.3310248941]}, "type": "Feature", "properties": {"collection_times": [{"days": "Mon-Fri", "time": "4:00pm"}, {"days": "Sat", "time": "10:15am"}, {"days": "Sun", "time": "Closed"}], "id": "4572400001", "name": "USPS COLLECTION BOX - PO LOBBY", "address": {"city": "CUTLER", "state": "OH", "street": "9722 STATE ROUTE 555", "postcode": "45724"}}},
{"geometry": {"type": "Point", "coordinates": [-81.4733443019, 39.657373192]}, "type": "Feature", "properties": {"collection_times": [{"days": "Mon-Fri", "time": "11:30am"}, {"days": "Sat", "time": "10:15am"}, {"days": "Sun", "time": "Closed"}], "id": "4572700000", "name": "USPS COLLECTION BOX - BLUE BOX", "address": {"city": "DEXTER CITY", "state": "OH", "street": "115 MAIN ST", "postcode": "45727"}}},
{"geometry": {"type": "Point", "coordinates": [-81.4733443019, 39.657373192]}, "type": "Feature", "properties": {"collection_times": [{"days": "Mon-Fri", "time": "11:30am"}, {"days": "Sat", "time": "10:15am"}, {"days": "Sun", "time": "Closed"}], "id": "4572700001", "name": "USPS COLLECTION BOX - PO LOBBY", "address": {"city": "DEXTER CITY", "state": "OH", "street": "115 MAIN ST", "postcode": "45727"}}},
{"geometry": {"type": "Point", "coordinates": [-82.0816145646, 39.476697358]}, "type": "Feature", "properties": {"collection_times": [{"days": "Mon-Fri", "time": "4:00pm"}, {"days": "Sat", "time": "12:00pm"}, {"days": "Sun", "time": "Closed"}], "id": "4573200000", "name": "USPS COLLECTION BOX - BLUE BOX", "address": {"city": "GLOUSTER", "state": "OH", "street": "55 HIGH ST", "postcode": "45732"}}},
{"geometry": {"type": "Point", "coordinates": [-82.0859511904, 39.5002400667]}, "type": "Feature", "properties": {"collection_times": [{"days": "Mon-Sat", "time": "1:00pm"}, {"days": "Sun", "time": "Closed"}], "id": "4573200014", "name": "USPS COLLECTION BOX - BLUE BOX", "address": {"city": "GLOUSTER", "state": "OH", "street": "16 TOLEDO ST", "postcode": "45732"}}},
{"geometry": {"type": "Point", "coordinates": [-82.0831581377, 39.4770649005]}, "type": "Feature", "properties": {"collection_times": [{"days": "Mon-Fri", "time": "4:00pm"}, {"days": "Sat", "time": "12:00pm"}, {"days": "Sun", "time": "Closed"}], "id": "4573200015", "name": "USPS COLLECTION BOX - PO LOBBY", "address": {"city": "GLOUSTER", "state": "OH", "street": "76 HIGH ST", "postcode": "45732"}}},
{"geometry": {"type": "Point", "coordinates": [-81.9301694165, 39.2504838153]}, "type": "Feature", "properties": {"collection_times": [{"days": "Mon-Fri", "time": "10:30am"}, {"days": "Sat", "time": "10:15am"}, {"days": "Sun", "time": "Closed"}], "id": "4573500000", "name": "USPS COLLECTION BOX - BLUE BOX", "address": {"city": "GUYSVILLE", "state": "OH", "street": "6930 SAVANNAH ST", "postcode": "45735"}}},
{"geometry": {"type": "Point", "coordinates": [-81.9301694165, 39.2504838153]}, "type": "Feature", "properties": {"collection_times": [{"days": "Mon-Fri", "time": "10:30am"}, {"days": "Sat", "time": "10:15am"}, {"days": "Sun", "time": "Closed"}], "id": "4573500001", "name": "USPS COLLECTION BOX - PO LOBBY", "address": {"city": "GUYSVILLE", "state": "OH", "street": "6930 SAVANNAH ST", "postcode": "45735"}}},
{"geometry": {"type": "Point", "coordinates": [-81.7945776691, 39.2229270725]}, "type": "Feature", "properties": {"collection_times": [{"days": "Mon-Fri", "time": "12:45pm"}, {"days": "Sat", "time": "1:30pm"}, {"days": "Sun", "time": "Closed"}], "id": "4573900000", "name": "USPS COLLECTION BOX - BLUE BOX", "address": {"city": "HOCKINGPORT", "state": "OH", "street": "699 RIVERFRONT RD", "postcode": "45739"}}},
{"geometry": {"type": "Point", "coordinates": [-81.7945776691, 39.2229270725]}, "type": "Feature", "properties": {"collection_times": [{"days": "Mon-Fri", "time": "12:45pm"}, {"days": "Sat", "time": "1:30pm"}, {"days": "Sun", "time": "Closed"}], "id": "4573900001", "name": "USPS COLLECTION BOX - PO LOBBY", "address": {"city": "HOCKINGPORT", "state": "OH", "street": "699 RIVERFRONT RD", "postcode": "45739"}}},
{"geometry": {"type": "Point", "coordinates": [-82.081002795, 39.4732970041]}, "type": "Feature", "properties": {"collection_times": [{"days": "Mon-Fri", "time": "11:30am"}, {"days": "Sat", "time": "10:30am"}, {"days": "Sun", "time": "Closed"}], "id": "4574000000", "name": "USPS COLLECTION BOX - BLUE BOX", "address": {"city": "JACKSONVILLE", "state": "OH", "street": "35 S 6TH ST", "postcode": "45740"}}},
{"geometry": {"type": "Point", "coordinates": [-82.081002795, 39.4732970041]}, "type": "Feature", "properties": {"collection_times": [{"days": "Mon-Fri", "time": "11:30am"}, {"days": "Sat", "time": "10:30am"}, {"days": "Sun", "time": "Closed"}], "id": "4574000001", "name": "USPS COLLECTION BOX - PO LOBBY", "address": {"city": "JACKSONVILLE", "state": "OH", "street": "35 S 6TH ST", "postcode": "45740"}}},
{"geometry": {"type": "Point", "coordinates": [-81.713982769, 39.2766092102]}, "type": "Feature", "properties": {"collection_times": [{"days": "Mon-Fri", "time": "3:45pm"}, {"days": "Sat", "time": "10:45am"}, {"days": "Sun", "time": "Closed"}], "id": "4574200000", "name": "USPS COLLECTION BOX - BLUE BOX", "address": {"city": "LITTLE HOCKING", "state": "OH", "street": "3985 NEWBURY RD", "postcode": "45742"}}},
{"geometry": {"type": "Point", "coordinates": [-81.713982769, 39.2766092102]}, "type": "Feature", "properties": {"collection_times": [{"days": "Mon-Fri", "time": "3:45pm"}, {"days": "Sat", "time": "10:45am"}, {"days": "Sun", "time": "Closed"}], "id": "4574200001", "name": "USPS COLLECTION BOX - PO LOBBY", "address": {"city": "LITTLE HOCKING", "state": "OH", "street": "3985 NEWBURY RD", "postcode": "45742"}}},
{"geometry": {"type": "Point", "coordinates": [-81.8111108979, 39.0836450607]}, "type": "Feature", "properties": {"collection_times": [{"days": "Mon-Fri", "time": "3:30pm"}, {"days": "Sat", "time": "10:15am"}, {"days": "Sun", "time": "Closed"}], "id": "4574300000", "name": "USPS COLLECTION BOX - BLUE BOX", "address": {"city": "LONG BOTTOM", "state": "OH", "street": "61462 STATE ROUTE 124", "postcode": "45743"}}},
{"geometry": {"type": "Point", "coordinates": [-81.8111108979, 39.0836450607]}, "type": "Feature", "properties": {"collection_times": [{"days": "Mon-Fri", "time": "3:30pm"}, {"days": "Sat", "time": "10:15am"}, {"days": "Sun", "time": "Closed"}], "id": "4574300001", "name": "USPS COLLECTION BOX - PO LOBBY", "address": {"city": "LONG BOTTOM", "state": "OH", "street": "61462 STATE ROUTE 124", "postcode": "45743"}}},
{"geometry": {"type": "Point", "coordinates": [-81.5042481278, 39.528288989]}, "type": "Feature", "properties": {"collection_times": [{"days": "Mon-Fri", "time": "3:45pm"}, {"days": "Sat", "time": "10:45am"}, {"days": "Sun", "time": "Closed"}], "id": "4574400000", "name": "USPS COLLECTION BOX - BLUE BOX", "address": {"city": "LOWELL", "state": "OH", "street": "203 3RD ST", "postcode": "45744"}}},
{"geometry": {"type": "Point", "coordinates": [-81.5042481278, 39.528288989]}, "type": "Feature", "properties": {"collection_times": [{"days": "Mon-Fri", "time": "3:45pm"}, {"days": "Sat", "time": "10:45am"}, {"days": "Sun", "time": "Closed"}], "id": "4574400001", "name": "USPS COLLECTION BOX - PO LOBBY", "address": {"city": "LOWELL", "state": "OH", "street": "203 3RD ST", "postcode": "45744"}}},
{"geometry": {"type": "Point", "coordinates": [-81.3960427039, 39.5611805269]}, "type": "Feature", "properties": {"collection_times": [{"days": "Mon-Fri", "time": "11:30am"}, {"days": "Sat", "time": "10:15am"}, {"days": "Sun", "time": "Closed"}], "id": "4574500000", "name": "USPS COLLECTION BOX - BLUE BOX", "address": {"city": "LOWER SALEM", "state": "OH", "street": "103 MAIN ST", "postcode": "45745"}}},
{"geometry": {"type": "Point", "coordinates": [-81.3960427039, 39.5611805269]}, "type": "Feature", "properties": {"collection_times": [{"days": "Mon-Fri", "time": "11:30am"}, {"days": "Sat", "time": "10:15am"}, {"days": "Sun", "time": "Closed"}], "id": "4574500001", "name": "USPS COLLECTION BOX - PO LOBBY", "address": {"city": "LOWER SALEM", "state": "OH", "street": "103 MAIN ST", "postcode": "45745"}}},
{"geometry": {"type": "Point", "coordinates": [-81.4554234803, 39.6330959441]}, "type": "Feature", "properties": {"collection_times": [{"days": "Mon-Sat", "time": "11:00am"}, {"days": "Sun", "time": "Closed"}], "id": "4574600000", "name": "USPS COLLECTION BOX - BLUE BOX", "address": {"city": "MACKSBURG", "state": "OH", "street": "330 SCHOOL ST", "postcode": "45746"}}},
{"geometry": {"type": "Point", "coordinates": [-81.454965983, 39.41344189]}, "type": "Feature", "properties": {"collection_times": [{"days": "Mon-Fri", "time": "5:00pm"}, {"days": "Sat", "time": "4:30pm"}, {"days": "Sun", "time": "Closed"}], "id": "4575000000", "name": "USPS COLLECTION BOX - BLUE BOX", "address": {"city": "MARIETTA", "state": "OH", "street": "231 FRONT ST", "postcode": "45750"}}},
{"geometry": {"type": "Point", "coordinates": [-81.454965983, 39.41344189]}, "type": "Feature", "properties": {"collection_times": [{"days": "Mon-Fri", "time": "5:00pm"}, {"days": "Sat", "time": "4:30pm"}, {"days": "Sun", "time": "Closed"}], "id": "4575000001", "name": "USPS COLLECTION BOX - BLUE BOX", "address": {"city": "MARIETTA", "state": "OH", "street": "231 FRONT ST", "postcode": "45750"}}},
{"geometry": {"type": "Point", "coordinates": [-81.4552603699, 39.4137362769]}, "type": "Feature", "properties": {"collection_times": [{"days": "Mon-Fri", "time": "5:30pm"}, {"days": "Sat", "time": "4:30pm"}, {"days": "Sun", "time": "Closed"}], "id": "4575000005", "name": "USPS COLLECTION BOX - BLUE BOX", "address": {"city": "MARIETTA", "state": "OH", "street": "275 FRONT ST", "postcode": "45750"}}},
{"geometry": {"type": "Point", "coordinates": [-81.4528296334, 39.4163408503]}, "type": "Feature", "properties": {"collection_times": [{"days": "Mon-Fri", "time": "1:00pm"}, {"days": "Sat", "time": "12:00pm"}, {"days": "Sun", "time": "Closed"}], "id": "4575000015", "name": "USPS COLLECTION BOX - BLUE BOX", "address": {"city": "MARIETTA", "state": "OH", "street": "301 PUTNAM ST", "postcode": "45750"}}},
{"geometry": {"type": "Point", "coordinates": [-81.458316581, 39.4427503014]}, "type": "Feature", "properties": {"collection_times": [{"days": "Mon-Sat", "time": "10:00am"}, {"days": "Sun", "time": "Closed"}], "id": "4575000019", "name": "USPS COLLECTION BOX - BLUE BOX", "address": {"city": "MARIETTA", "state": "OH", "street": "1689 COLEGATE DR", "postcode": "45750"}}},
{"geometry": {"type": "Point", "coordinates": [-81.4536978807, 39.4145168258]}, "type": "Feature", "properties": {"collection_times": [{"days": "Mon-Fri", "time": "1:00pm"}, {"days": "Sat", "time": "12:00pm"}, {"days": "Sun", "time": "Closed"}], "id": "4575000021", "name": "USPS COLLECTION BOX - BLUE BOX", "address": {"city": "MARIETTA", "state": "OH", "street": "260 2ND ST", "postcode": "45750"}}},
{"geometry": {"type": "Point", "coordinates": [-81.4475892671, 39.4208657263]}, "type": "Feature", "properties": {"collection_times": [{"days": "Mon-Sat", "time": "12:00pm"}, {"days": "Sun", "time": "Closed"}], "id": "4575000024", "name": "USPS COLLECTION BOX - BLUE BOX", "address": {"city": "MARIETTA", "state": "OH", "street": "148 GROSS ST", "postcode": "45750"}}},
{"geometry": {"type": "Point", "coordinates": [-81.4293408002, 39.4125080632]}, "type": "Feature", "properties": {"collection_times": [{"days": "Mon-Sat", "time": "10:30am"}, {"days": "Sun", "time": "Closed"}], "id": "4575000032", "name": "USPS COLLECTION BOX - BLUE BOX", "address": {"city": "MARIETTA", "state": "OH", "street": "40 ACME ST", "postcode": "45750"}}},
{"geometry": {"type": "Point", "coordinates": [-81.458316581, 39.4427503014]}, "type": "Feature", "properties": {"collection_times": [{"days": "Mon-Sat", "time": "10:00am"}, {"days": "Sun", "time": "Closed"}], "id": "4575000041", "name": "USPS COLLECTION BOX - BLUE BOX", "address": {"city": "MARIETTA", "state": "OH", "street": "1689 COLEGATE DR", "postcode": "45750"}}},
{"geometry": {"type": "Point", "coordinates": [-81.4703286444, 39.5133559083]}, "type": "Feature", "properties": {"collection_times": [{"days": "Mon-Sat", "time": "12:30pm"}, {"days": "Sun", "time": "Closed"}], "id": "4575000053", "name": "USPS COLLECTION BOX - BLUE BOX", "address": {"city": "MARIETTA", "state": "OH", "street": "4796 STATE ROUTE 60", "postcode": "45750"}}},
{"geometry": {"type": "Point", "coordinates": [-81.4650868019, 39.4303756002]}, "type": "Feature", "properties": {"collection_times": [{"days": "Mon-Sat", "time": "10:00am"}, {"days": "Sun", "time": "Closed"}], "id": "4575000056", "name": "USPS COLLECTION BOX - BLUE BOX", "address": {"city": "MARIETTA", "state": "OH", "street": "400 MATTHEW ST", "postcode": "45750"}}},
{"geometry": {"type": "Point", "coordinates": [-81.4543071901, 39.415371773]}, "type": "Feature", "properties": {"collection_times": [{"days": "Mon-Fri", "time": "1:00pm"}, {"days": "Sat", "time": "12:00pm"}, {"days": "Sun", "time": "Closed"}], "id": "4575000059", "name": "USPS COLLECTION BOX - BLUE BOX", "address": {"city": "MARIETTA", "state": "OH", "street": "215 PUTNAM ST", "postcode": "45750"}}},
{"geometry": {"type": "Point", "coordinates": [-81.43391756, 39.4116824014]}, "type": "Feature", "properties": {"collection_times": [{"days": "Mon-Sat", "time": "9:30am"}, {"days": "Sun", "time": "Closed"}], "id": "4575000064", "name": "USPS COLLECTION BOX - BLUE BOX", "address": {"city": "MARIETTA", "state": "OH", "street": "450 PIKE ST", "postcode": "45750"}}},
{"geometry": {"type": "Point", "coordinates": [-81.4695826983, 39.4159469249]}, "type": "Feature", "properties": {"collection_times": [{"days": "Mon-Sat", "time": "12:00pm"}, {"days": "Sun", "time": "Closed"}], "id": "4575000071", "name": "USPS COLLECTION BOX - BLUE BOX", "address": {"city": "MARIETTA", "state": "OH", "street": "106 ALTA ST", "postcode": "45750"}}},
{"geometry": {"type": "Point", "coordinates": [-82.0493437844, 39.0001998642]}, "type": "Feature", "properties": {"collection_times": [{"days": "Mon-Sat", "time": "11:00am"}, {"days": "Sun", "time": "Closed"}], "id": "4576000001", "name": "USPS COLLECTION BOX - BLUE BOX", "address": {"city": "MIDDLEPORT", "state": "OH", "street": "97 N 2ND AVE", "postcode": "45760"}}},
{"geometry": {"type": "Point", "coordinates": [-82.0504218819, 39.0023061315]}, "type": "Feature", "properties": {"collection_times": [{"days": "Mon-Fri", "time": "3:45pm"}, {"days": "Sat", "time": "11:00am"}, {"days": "Sun", "time": "Closed"}], "id": "4576000008", "name": "USPS COLLECTION BOX - BLUE BOX", "address": {"city": "MIDDLEPORT", "state": "OH", "street": "299 MILL ST", "postcode": "45760"}}},
{"geometry": {"type": "Point", "coordinates": [-82.0472102536, 39.0046128897]}, "type": "Feature", "properties": {"collection_times": [{"days": "Mon-Sat", "time": "11:00am"}, {"days": "Sun", "time": "Closed"}], "id": "4576000009", "name": "USPS COLLECTION BOX - BLUE BOX", "address": {"city": "MIDDLEPORT", "state": "OH", "street": "786 N 2ND AVE", "postcode": "45760"}}},
{"geometry": {"type": "Point", "coordinates": [-82.0505702079, 39.0022215977]}, "type": "Feature", "properties": {"collection_times": [{"days": "Mon-Fri", "time": "3:45pm"}, {"days": "Sat", "time": "11:00am"}, {"days": "Sun", "time": "Closed"}], "id": "4576000011", "name": "USPS COLLECTION BOX - BLUE BOX", "address": {"city": "MIDDLEPORT", "state": "OH", "street": "320 MILL ST", "postcode": "45760"}}},
{"geometry": {"type": "Point", "coordinates": [-82.0505702079, 39.0022215977]}, "type": "Feature", "properties": {"collection_times": [{"days": "Mon-Fri", "time": "3:45pm"}, {"days": "Sat", "time": "11:00am"}, {"days": "Sun", "time": "Closed"}], "id": "4576000012", "name": "USPS COLLECTION BOX - BLUE BOX", "address": {"city": "MIDDLEPORT", "state": "OH", "street": "320 MILL ST", "postcode": "45760"}}},
{"geometry": {"type": "Point", "coordinates": [-82.1275727125, 39.3972430867]}, "type": "Feature", "properties": {"collection_times": [{"days": "Mon-Fri", "time": "3:30pm"}, {"days": "Sat", "time": "12:30pm"}, {"days": "Sun", "time": "Closed"}], "id": "4576100000", "name": "USPS COLLECTION BOX - BLUE BOX", "address": {"city": "MILLFIELD", "state": "OH", "street": "16099 MAIN ST", "postcode": "45761"}}},
{"geometry": {"type": "Point", "coordinates": [-82.1275727125, 39.3972430867]}, "type": "Feature", "properties": {"collection_times": [{"days": "Mon-Fri", "time": "3:30pm"}, {"days": "Sat", "time": "12:30pm"}, {"days": "Sun", "time": "Closed"}], "id": "4576100001", "name": "USPS COLLECTION BOX - PO LOBBY", "address": {"city": "MILLFIELD", "state": "OH", "street": "16099 MAIN ST", "postcode": "45761"}}},
{"geometry": {"type": "Point", "coordinates": [-82.2332840822, 39.4611234344]}, "type": "Feature", "properties": {"collection_times": [{"days": "Mon-Fri", "time": "4:30pm"}, {"days": "Sat", "time": "12:00pm"}, {"days": "Sun", "time": "Closed"}], "id": "4576400000", "name": "USPS COLLECTION BOX - BLUE BOX", "address": {"city": "NELSONVILLE", "state": "OH", "street": "110 W WASHINGTON ST", "postcode": "45764"}}},
{"geometry": {"type": "Point", "coordinates": [-82.2332840822, 39.4611234344]}, "type": "Feature", "properties": {"collection_times": [{"days": "Mon-Fri", "time": "4:30pm"}, {"days": "Sat", "time": "12:00pm"}, {"days": "Sun", "time": "Closed"}], "id": "4576400001", "name": "USPS COLLECTION BOX - BLUE BOX", "address": {"city": "NELSONVILLE", "state": "OH", "street": "110 W WASHINGTON ST", "postcode": "45764"}}},
{"geometry": {"type": "Point", "coordinates": [-82.2432965182, 39.4634031344]}, "type": "Feature", "properties": {"collection_times": [{"days": "Mon-Sat", "time": "11:00am"}, {"days": "Sun", "time": "Closed"}], "id": "4576400002", "name": "USPS COLLECTION BOX - BLUE BOX", "address": {"city": "NELSONVILLE", "state": "OH", "street": "1950 MOUNT SAINT MARYS DR", "postcode": "45764"}}},
{"geometry": {"type": "Point", "coordinates": [-82.2322939763, 39.4601310979]}, "type": "Feature", "properties": {"collection_times": [{"days": "Mon-Sat", "time": "10:00am"}, {"days": "Sun", "time": "Closed"}], "id": "4576400006", "name": "USPS COLLECTION BOX - BLUE BOX", "address": {"city": "NELSONVILLE", "state": "OH", "street": "6 PUBLIC SQ", "postcode": "45764"}}},
{"geometry": {"type": "Point", "coordinates": [-82.2279095678, 39.4571047772]}, "type": "Feature", "properties": {"collection_times": [{"days": "Mon-Sat", "time": "8:45am"}, {"days": "Sun", "time": "Closed"}], "id": "4576400008", "name": "USPS COLLECTION BOX - BLUE BOX", "address": {"city": "NELSONVILLE", "state": "OH", "street": "40 WATKINS ST", "postcode": "45764"}}},
{"geometry": {"type": "Point", "coordinates": [-82.2198688327, 39.4512743151]}, "type": "Feature", "properties": {"collection_times": [{"days": "Mon-Sat", "time": "1:00pm"}, {"days": "Sun", "time": "Closed"}], "id": "4576400012", "name": "USPS COLLECTION BOX - BLUE BOX", "address": {"city": "NELSONVILLE", "state": "OH", "street": "965 POPLAR ST", "postcode": "45764"}}},
{"geometry": {"type": "Point", "coordinates": [-82.2215794253, 39.4511396274]}, "type": "Feature", "properties": {"collection_times": [{"days": "Mon-Sat", "time": "10:00am"}, {"days": "Sun", "time": "Closed"}], "id": "4576400015", "name": "USPS COLLECTION BOX - BLUE BOX", "address": {"city": "NELSONVILLE", "state": "OH", "street": "900 E CANAL ST", "postcode": "45764"}}},
{"geometry": {"type": "Point", "coordinates": [-82.2332840822, 39.4611234344]}, "type": "Feature", "properties": {"collection_times": [{"days": "Mon-Fri", "time": "4:30pm"}, {"days": "Sat", "time": "12:00pm"}, {"days": "Sun", "time": "Closed"}], "id": "4576400016", "name": "USPS COLLECTION BOX - BLUE BOX", "address": {"city": "NELSONVILLE", "state": "OH", "street": "110 W WASHINGTON ST", "postcode": "45764"}}},
{"geometry": {"type": "Point", "coordinates": [-82.2200596617, 39.3240350949]}, "type": "Feature", "properties": {"collection_times": [{"days": "Mon-Fri", "time": "4:00pm"}, {"days": "Sat", "time": "10:15am"}, {"days": "Sun", "time": "Closed"}], "id": "4576600000", "name": "USPS COLLECTION BOX - BLUE BOX", "address": {"city": "NEW MARSHFIELD", "state": "OH", "street": "3996 OLD STATE ROUTE 56", "postcode": "45766"}}},
{"geometry": {"type": "Point", "coordinates": [-82.2200596617, 39.3240350949]}, "type": "Feature", "properties": {"collection_times": [{"days": "Mon-Fri", "time": "4:00pm"}, {"days": "Sat", "time": "10:15am"}, {"days": "Sun", "time": "Closed"}], "id": "4576600001", "name": "USPS COLLECTION BOX - PO LOBBY", "address": {"city": "NEW MARSHFIELD", "state": "OH", "street": "3996 OLD STATE ROUTE 56", "postcode": "45766"}}},
{"geometry": {"type": "Point", "coordinates": [-81.0615902205, 39.5241190549]}, "type": "Feature", "properties": {"collection_times": [{"days": "Mon-Fri", "time": "4:15pm"}, {"days": "Sat", "time": "10:45am"}, {"days": "Sun", "time": "Closed"}], "id": "4576700000", "name": "USPS COLLECTION BOX - BLUE BOX", "address": {"city": "GRAYSVILLE", "state": "OH", "street": "515 2ND ST", "postcode": "45767"}}},
{"geometry": {"type": "Point", "coordinates": [-81.0615902205, 39.5241190549]}, "type": "Feature", "properties": {"collection_times": [{"days": "Mon-Fri", "time": "4:15pm"}, {"days": "Sat", "time": "10:45am"}, {"days": "Sun", "time": "Closed"}], "id": "4576700001", "name": "USPS COLLECTION BOX - PO LOBBY", "address": {"city": "GRAYSVILLE", "state": "OH", "street": "515 2ND ST", "postcode": "45767"}}},
{"geometry": {"type": "Point", "coordinates": [-81.1766810483, 39.6813849715]}, "type": "Feature", "properties": {"collection_times": [{"days": "Mon-Sat", "time": "2:00pm"}, {"days": "Sun", "time": "Closed"}], "id": "4576700002", "name": "USPS COLLECTION BOX - BLUE BOX", "address": {"city": "GRAYSVILLE", "state": "OH", "street": "39051 STATE ROUTE 26", "postcode": "45767"}}},
{"geometry": {"type": "Point", "coordinates": [-81.229193607, 39.3881935247]}, "type": "Feature", "properties": {"collection_times": [{"days": "Mon-Fri", "time": "4:00pm"}, {"days": "Sat", "time": "10:15am"}, {"days": "Sun", "time": "Closed"}], "id": "4576800000", "name": "USPS COLLECTION BOX - BLUE BOX", "address": {"city": "NEWPORT", "state": "OH", "street": "19 GREENE ST", "postcode": "45768"}}},
{"geometry": {"type": "Point", "coordinates": [-81.229193607, 39.3881935247]}, "type": "Feature", "properties": {"collection_times": [{"days": "Mon-Fri", "time": "4:00pm"}, {"days": "Sat", "time": "10:15am"}, {"days": "Sun", "time": "Closed"}], "id": "4576800001", "name": "USPS COLLECTION BOX - PO LOBBY", "address": {"city": "NEWPORT", "state": "OH", "street": "19 GREENE ST", "postcode": "45768"}}},
{"geometry": {"type": "Point", "coordinates": [-82.03219593, 39.0282270219]}, "type": "Feature", "properties": {"collection_times": [{"days": "Mon-Sat", "time": "4:30pm"}, {"days": "Sun", "time": "Closed"}], "id": "4576900001", "name": "USPS COLLECTION BOX - BLUE BOX", "address": {"city": "POMEROY", "state": "OH", "street": "211 E 2ND ST", "postcode": "45769"}}},
{"geometry": {"type": "Point", "coordinates": [-82.0443722843, 39.01158122]}, "type": "Feature", "properties": {"collection_times": [{"days": "Mon-Sat", "time": "10:00am"}, {"days": "Sun", "time": "Closed"}], "id": "4576900002", "name": "USPS COLLECTION BOX - BLUE BOX", "address": {"city": "POMEROY", "state": "OH", "street": "706 W MAIN ST", "postcode": "45769"}}},
{"geometry": {"type": "Point", "coordinates": [-82.0172757574, 39.0307084107]}, "type": "Feature", "properties": {"collection_times": [{"days": "Mon-Sat", "time": "10:00am"}, {"days": "Sun", "time": "Closed"}], "id": "4576900010", "name": "USPS COLLECTION BOX - BLUE BOX", "address": {"city": "POMEROY", "state": "OH", "street": "700 E MAIN ST", "postcode": "45769"}}},
{"geometry": {"type": "Point", "coordinates": [-82.0338345371, 39.0277471007]}, "type": "Feature", "properties": {"collection_times": [{"days": "Mon-Sat", "time": "1:00pm"}, {"days": "Sun", "time": "Closed"}], "id": "4576900016", "name": "USPS COLLECTION BOX - BLUE BOX", "address": {"city": "POMEROY", "state": "OH", "street": "100 E 2ND ST", "postcode": "45769"}}},
{"geometry": {"type": "Point", "coordinates": [-82.0321817265, 39.0283547077]}, "type": "Feature", "properties": {"collection_times": [{"days": "Mon-Sat", "time": "4:30pm"}, {"days": "Sun", "time": "Closed"}], "id": "4576900017", "name": "USPS COLLECTION BOX - PO LOBBY", "address": {"city": "POMEROY", "state": "OH", "street": "212 E 2ND ST", "postcode": "45769"}}},
{"geometry": {"type": "Point", "coordinates": [-82.0393795006, 39.031292873]}, "type": "Feature", "properties": {"collection_times": [{"days": "Mon-Sat", "time": "12:00pm"}, {"days": "Sun", "time": "Closed"}], "id": "4576900018", "name": "USPS COLLECTION BOX - BLUE BOX", "address": {"city": "POMEROY", "state": "OH", "street": "300 MULBERRY AVE", "postcode": "45769"}}},
{"geometry": {"type": "Point", "coordinates": [-81.7694274706, 39.0034366661]}, "type": "Feature", "properties": {"collection_times": [{"days": "Mon-Fri", "time": "1:45pm"}, {"days": "Sat", "time": "10:00am"}, {"days": "Sun", "time": "Closed"}], "id": "4577000000", "name": "USPS COLLECTION BOX - BLUE BOX", "address": {"city": "PORTLAND", "state": "OH", "street": "30935 HIGH ST", "postcode": "45770"}}},
{"geometry": {"type": "Point", "coordinates": [-81.7694274706, 39.0034366661]}, "type": "Feature", "properties": {"collection_times": [{"days": "Mon-Fri", "time": "1:45pm"}, {"days": "Sat", "time": "10:00am"}, {"days": "Sun", "time": "Closed"}], "id": "4577000001", "name": "USPS COLLECTION BOX - PO LOBBY", "address": {"city": "PORTLAND", "state": "OH", "street": "30935 HIGH ST", "postcode": "45770"}}},
{"geometry": {"type": "Point", "coordinates": [-81.9173925493, 38.9744735701]}, "type": "Feature", "properties": {"collection_times": [{"days": "Mon-Fri", "time": "3:00pm"}, {"days": "Sat", "time": "10:45am"}, {"days": "Sun", "time": "Closed"}], "id": "4577100000", "name": "USPS COLLECTION BOX - BLUE BOX", "address": {"city": "RACINE", "state": "OH", "street": "208 S 3RD ST", "postcode": "45771"}}},
{"geometry": {"type": "Point", "coordinates": [-81.9173925493, 38.9744735701]}, "type": "Feature", "properties": {"collection_times": [{"days": "Mon-Fri", "time": "3:00pm"}, {"days": "Sat", "time": "10:45am"}, {"days": "Sun", "time": "Closed"}], "id": "4577100001", "name": "USPS COLLECTION BOX - PO LOBBY", "address": {"city": "RACINE", "state": "OH", "street": "208 S 3RD ST", "postcode": "45771"}}},
{"geometry": {"type": "Point", "coordinates": [-81.8202461216, 39.1405605205]}, "type": "Feature", "properties": {"collection_times": [{"days": "Mon-Fri", "time": "3:45pm"}, {"days": "Sat", "time": "10:15am"}, {"days": "Sun", "time": "Closed"}], "id": "4577200000", "name": "USPS COLLECTION BOX - BLUE BOX", "address": {"city": "REEDSVILLE", "state": "OH", "street": "55420 TOWNSHIP ROAD 1016", "postcode": "45772"}}},
{"geometry": {"type": "Point", "coordinates": [-81.8202461216, 39.1405605205]}, "type": "Feature", "properties": {"collection_times": [{"days": "Mon-Fri", "time": "3:45pm"}, {"days": "Sat", "time": "10:15am"}, {"days": "Sun", "time": "Closed"}], "id": "4577200002", "name": "USPS COLLECTION BOX - PO LOBBY", "address": {"city": "REEDSVILLE", "state": "OH", "street": "55420 TOWNSHIP ROAD 1016", "postcode": "45772"}}},
{"geometry": {"type": "Point", "coordinates": [-81.2838457896, 39.4267307754]}, "type": "Feature", "properties": {"collection_times": [{"days": "Mon-Fri", "time": "4:00pm"}, {"days": "Sat", "time": "10:15am"}, {"days": "Sun", "time": "Closed"}], "id": "4577300000", "name": "USPS COLLECTION BOX - BLUE BOX", "address": {"city": "RENO", "state": "OH", "street": "27055 STATE ROUTE 7", "postcode": "45773"}}},
{"geometry": {"type": "Point", "coordinates": [-81.2838457896, 39.4267307754]}, "type": "Feature", "properties": {"collection_times": [{"days": "Mon-Fri", "time": "4:00pm"}, {"days": "Sat", "time": "10:15am"}, {"days": "Sun", "time": "Closed"}], "id": "4577300001", "name": "USPS COLLECTION BOX - PO LOBBY", "address": {"city": "RENO", "state": "OH", "street": "27055 STATE ROUTE 7", "postcode": "45773"}}},
{"geometry": {"type": "Point", "coordinates": [-82.1323249679, 39.0455974765]}, "type": "Feature", "properties": {"collection_times": [{"days": "Mon-Fri", "time": "3:45pm"}, {"days": "Sat", "time": "10:45am"}, {"days": "Sun", "time": "Closed"}], "id": "4577500001", "name": "USPS COLLECTION BOX - PO LOBBY", "address": {"city": "RUTLAND", "state": "OH", "street": "108 SALEM ST", "postcode": "45775"}}},
{"geometry": {"type": "Point", "coordinates": [-82.1323249679, 39.0455974765]}, "type": "Feature", "properties": {"collection_times": [{"days": "Mon-Fri", "time": "4:15pm"}, {"days": "Sat", "time": "10:45am"}, {"days": "Sun", "time": "Closed"}], "id": "4577500002", "name": "USPS COLLECTION BOX - BLUE BOX", "address": {"city": "RUTLAND", "state": "OH", "street": "108 SALEM ST", "postcode": "45775"}}},
{"geometry": {"type": "Point", "coordinates": [-82.1524768058, 39.0636136458]}, "type": "Feature", "properties": {"collection_times": [{"days": "Mon-Sat", "time": "9:30am"}, {"days": "Sun", "time": "Closed"}], "id": "4577500003", "name": "USPS COLLECTION BOX - BLUE BOX", "address": {"city": "RUTLAND", "state": "OH", "street": "33186 ST RT 124", "postcode": "45775"}}},
{"geometry": {"type": "Point", "coordinates": [-81.8960400763, 39.3064649407]}, "type": "Feature", "properties": {"collection_times": [{"days": "Mon-Fri", "time": "4:00pm"}, {"days": "Sat", "time": "10:15am"}, {"days": "Sun", "time": "Closed"}], "id": "4577800000", "name": "USPS COLLECTION BOX - BLUE BOX", "address": {"city": "STEWART", "state": "OH", "street": "8125 STATE ROUTE 329", "postcode": "45778"}}},
{"geometry": {"type": "Point", "coordinates": [-81.8960400763, 39.3064649407]}, "type": "Feature", "properties": {"collection_times": [{"days": "Mon-Fri", "time": "4:00pm"}, {"days": "Sat", "time": "10:15am"}, {"days": "Sun", "time": "Closed"}], "id": "4577800001", "name": "USPS COLLECTION BOX - PO LOBBY", "address": {"city": "STEWART", "state": "OH", "street": "8125 STATE ROUTE 329", "postcode": "45778"}}},
{"geometry": {"type": "Point", "coordinates": [-81.9782489468, 38.9988099542]}, "type": "Feature", "properties": {"collection_times": [{"days": "Mon-Fri", "time": "3:00pm"}, {"days": "Sat", "time": "10:15am"}, {"days": "Sun", "time": "Closed"}], "id": "4577900000", "name": "USPS COLLECTION BOX - BLUE BOX", "address": {"city": "SYRACUSE", "state": "OH", "street": "2391 3RD ST", "postcode": "45779"}}},
{"geometry": {"type": "Point", "coordinates": [-81.9782489468, 38.9988099542]}, "type": "Feature", "properties": {"collection_times": [{"days": "Mon-Fri", "time": "3:00pm"}, {"days": "Sat", "time": "10:15am"}, {"days": "Sun", "time": "Closed"}], "id": "4577900001", "name": "USPS COLLECTION BOX - PO LOBBY", "address": {"city": "SYRACUSE", "state": "OH", "street": "2391 3RD ST", "postcode": "45779"}}},
{"geometry": {"type": "Point", "coordinates": [-82.1328958134, 39.371014172]}, "type": "Feature", "properties": {"collection_times": [{"days": "Mon-Fri", "time": "4:00pm"}, {"days": "Sat", "time": "11:00am"}, {"days": "Sun", "time": "Closed"}], "id": "4578000002", "name": "USPS COLLECTION BOX - PO LOBBY", "address": {"city": "THE PLAINS", "state": "OH", "street": "40 N PLAINS RD", "postcode": "45780"}}},
{"geometry": {"type": "Point", "coordinates": [-82.1328958134, 39.371014172]}, "type": "Feature", "properties": {"collection_times": [{"days": "Mon-Fri", "time": "4:00pm"}, {"days": "Sat", "time": "11:00am"}, {"days": "Sun", "time": "Closed"}], "id": "4578000003", "name": "USPS COLLECTION BOX - BLUE BOX", "address": {"city": "THE PLAINS", "state": "OH", "street": "40 N PLAINS RD", "postcode": "45780"}}},
{"geometry": {"type": "Point", "coordinates": [-82.1332759143, 39.3721873145]}, "type": "Feature", "properties": {"collection_times": [{"days": "Mon-Sat", "time": "9:00am"}, {"days": "Sun", "time": "Closed"}], "id": "4578000004", "name": "USPS COLLECTION BOX - BLUE BOX", "address": {"city": "THE PLAINS", "state": "OH", "street": "70 N PLAINS RD", "postcode": "45780"}}},
{"geometry": {"type": "Point", "coordinates": [-82.0794157781, 39.4848351992]}, "type": "Feature", "properties": {"collection_times": [{"days": "Mon-Fri", "time": "11:00am"}, {"days": "Sat", "time": "10:30am"}, {"days": "Sun", "time": "Closed"}], "id": "4578200000", "name": "USPS COLLECTION BOX - BLUE BOX", "address": {"city": "TRIMBLE", "state": "OH", "street": "3 CONGRESS ST", "postcode": "45782"}}},
{"geometry": {"type": "Point", "coordinates": [-81.8460220033, 39.1694678124]}, "type": "Feature", "properties": {"collection_times": [{"days": "Mon-Fri", "time": "11:30am"}, {"days": "Sat", "time": "10:30am"}, {"days": "Sun", "time": "Closed"}], "id": "4578300000", "name": "USPS COLLECTION BOX - BLUE BOX", "address": {"city": "TUPPERS PLAINS", "state": "OH", "street": "42160 STATE ROUTE 7", "postcode": "45783"}}},
{"geometry": {"type": "Point", "coordinates": [-81.8460220033, 39.1694678124]}, "type": "Feature", "properties": {"collection_times": [{"days": "Mon-Fri", "time": "11:30am"}, {"days": "Sat", "time": "10:30am"}, {"days": "Sun", "time": "Closed"}], "id": "4578300001", "name": "USPS COLLECTION BOX - PO LOBBY", "address": {"city": "TUPPERS PLAINS", "state": "OH", "street": "42160 STATE ROUTE 7", "postcode": "45783"}}},
{"geometry": {"type": "Point", "coordinates": [-81.6657149288, 39.3862061536]}, "type": "Feature", "properties": {"collection_times": [{"days": "Mon-Fri", "time": "4:15pm"}, {"days": "Sat", "time": "10:45am"}, {"days": "Sun", "time": "Closed"}], "id": "4578400000", "name": "USPS COLLECTION BOX - BLUE BOX", "address": {"city": "VINCENT", "state": "OH", "street": "45 WARRIOR DR", "postcode": "45784"}}},
{"geometry": {"type": "Point", "coordinates": [-81.6657149288, 39.3862061536]}, "type": "Feature", "properties": {"collection_times": [{"days": "Mon-Fri", "time": "4:15pm"}, {"days": "Sat", "time": "10:45am"}, {"days": "Sun", "time": "Closed"}], "id": "4578400002", "name": "USPS COLLECTION BOX - PO LOBBY", "address": {"city": "VINCENT", "state": "OH", "street": "45 WARRIOR DR", "postcode": "45784"}}},
{"geometry": {"type": "Point", "coordinates": [-81.6650313765, 39.3994710016]}, "type": "Feature", "properties": {"collection_times": [{"days": "Mon-Sat", "time": "12:00pm"}, {"days": "Sun", "time": "Closed"}], "id": "4578400004", "name": "USPS COLLECTION BOX - BLUE BOX", "address": {"city": "VINCENT", "state": "OH", "street": "925 WARRIOR DR", "postcode": "45784"}}},
{"geometry": {"type": "Point", "coordinates": [-81.6503642785, 39.4964003892]}, "type": "Feature", "properties": {"collection_times": [{"days": "Mon-Fri", "time": "3:45pm"}, {"days": "Sat", "time": "10:15am"}, {"days": "Sun", "time": "Closed"}], "id": "4578600000", "name": "USPS COLLECTION BOX - BLUE BOX", "address": {"city": "WATERFORD", "state": "OH", "street": "635 MAIN ST", "postcode": "45786"}}},
{"geometry": {"type": "Point", "coordinates": [-81.6503642785, 39.4964003892]}, "type": "Feature", "properties": {"collection_times": [{"days": "Mon-Fri", "time": "3:45pm"}, {"days": "Sat", "time": "10:15am"}, {"days": "Sun", "time": "Closed"}], "id": "4578600002", "name": "USPS COLLECTION BOX - PO LOBBY", "address": {"city": "WATERFORD", "state": "OH", "street": "635 MAIN ST", "postcode": "45786"}}},
{"geometry": {"type": "Point", "coordinates": [-81.6503642785, 39.4964003892]}, "type": "Feature", "properties": {"collection_times": [{"days": "Mon-Fri", "time": "12:15pm"}, {"days": "Sat-Sun", "time": "Closed"}], "id": "4578600003", "name": "USPS COLLECTION BOX - BLUE BOX", "address": {"city": "WATERFORD", "state": "OH", "street": "75 WATERTOWN RD", "postcode": "45786"}}}
]}
