{"type": "FeatureCollection", "features": [
{"geometry": {"type": "Point", "coordinates": [-84.1045197237, 40.7406412407]}, "type": "Feature", "properties": {"collection_times": [{"days": "Mon-Fri", "time": "9:15am"}, {"days": "Sat", "time": "2:00pm"}, {"days": "Sun", "time": "Closed"}], "id": "4580100006", "name": "USPS COLLECTION BOX - BLUE BOX", "address": {"city": "LIMA", "state": "OH", "street": "50 TOWN SQ", "postcode": "45801"}}},
{"geometry": {"type": "Point", "coordinates": [-84.1032377526, 40.7402636182]}, "type": "Feature", "properties": {"collection_times": [{"days": "Mon-Fri", "time": "9:10am"}, {"days": "Sat", "time": "2:00pm"}, {"days": "Sun", "time": "Closed"}], "id": "4580100008", "name": "USPS COLLECTION BOX - BLUE BOX", "address": {"city": "LIMA", "state": "OH", "street": "109 N UNION ST", "postcode": "45801"}}},
{"geometry": {"type": "Point", "coordinates": [-84.1050718025, 40.7388568197]}, "type": "Feature", "properties": {"collection_times": [{"days": "Mon-Fri", "time": "11:10am"}, {"days": "Sat", "time": "2:15pm"}, {"days": "Sun", "time": "Closed"}], "id": "4580100013", "name": "USPS COLLECTION BOX - BLUE BOX", "address": {"city": "LIMA", "state": "OH", "street": "144 S MAIN ST", "postcode": "45801"}}},
{"geometry": {"type": "Point", "coordinates": [-84.1051857775, 40.7412914329]}, "type": "Feature", "properties": {"collection_times": [{"days": "Mon-Fri", "time": "11:20am"}, {"days": "Sat", "time": "2:15pm"}, {"days": "Sun", "time": "Closed"}], "id": "4580100014", "name": "USPS COLLECTION BOX - BLUE BOX", "address": {"city": "LIMA", "state": "OH", "street": "109 W HIGH ST", "postcode": "45801"}}},
{"geometry": {"type": "Point", "coordinates": [-84.1374769292, 40.6563846831]}, "type": "Feature", "properties": {"collection_times": [{"days": "Mon-Fri", "time": "10:50am"}, {"days": "Sat", "time": "2:15pm"}, {"days": "Sun", "time": "Closed"}], "id": "4580100015", "name": "USPS COLLECTION BOX - BLUE BOX", "address": {"city": "LIMA", "state": "OH", "street": "212 N ELIZABETH ST", "postcode": "45801"}}},
{"geometry": {"type": "Point", "coordinates": [-84.1048653051, 40.7499676081]}, "type": "Feature", "properties": {"collection_times": [{"days": "Mon-Sat", "time": "9:00am"}, {"days": "Sun", "time": "Closed"}], "id": "4580100019", "name": "USPS COLLECTION BOX - BLUE BOX", "address": {"city": "LIMA", "state": "OH", "street": "768 N MAIN ST", "postcode": "45801"}}},
{"geometry": {"type": "Point", "coordinates": [-84.1154521536, 40.7414192005]}, "type": "Feature", "properties": {"collection_times": [{"days": "Mon-Fri", "time": "9:45am"}, {"days": "Sat", "time": "2:00pm"}, {"days": "Sun", "time": "Closed"}], "id": "4580100020", "name": "USPS COLLECTION BOX - BLUE BOX", "address": {"city": "LIMA", "state": "OH", "street": "830 W HIGH ST", "postcode": "45801"}}},
{"geometry": {"type": "Point", "coordinates": [-84.1115974022, 40.7399324379]}, "type": "Feature", "properties": {"collection_times": [{"days": "Mon-Fri", "time": "9:30am"}, {"days": "Sat", "time": "2:00pm"}, {"days": "Sun", "time": "Closed"}], "id": "4580100037", "name": "USPS COLLECTION BOX - BLUE BOX", "address": {"city": "LIMA", "state": "OH", "street": "545 W MARKET ST", "postcode": "45801"}}},
{"geometry": {"type": "Point", "coordinates": [-84.1134438409, 40.7628574856]}, "type": "Feature", "properties": {"collection_times": [{"days": "Mon-Fri", "time": "12:00pm"}, {"days": "Sat", "time": "9:15am"}, {"days": "Sun", "time": "Closed"}], "id": "4580100052", "name": "USPS COLLECTION BOX - BLUE BOX", "address": {"city": "LIMA", "state": "OH", "street": "2100 N METCALF ST", "postcode": "45801"}}},
{"geometry": {"type": "Point", "coordinates": [-84.120574087, 40.7589802022]}, "type": "Feature", "properties": {"collection_times": [{"days": "Mon-Sat", "time": "8:30am"}, {"days": "Sun", "time": "Closed"}], "id": "4580100053", "name": "USPS COLLECTION BOX - BLUE BOX", "address": {"city": "LIMA", "state": "OH", "street": "936 W ROBB AVE", "postcode": "45801"}}},
{"geometry": {"type": "Point", "coordinates": [-84.0558072139, 40.7659190699]}, "type": "Feature", "properties": {"collection_times": [{"days": "Mon-Sat", "time": "9:00am"}, {"days": "Sun", "time": "Closed"}], "id": "4580100057", "name": "USPS COLLECTION BOX - BLUE BOX", "address": {"city": "LIMA", "state": "OH", "street": "2145 N DIXIE HWY", "postcode": "45801"}}},
{"geometry": {"type": "Point", "coordinates": [-84.1053354128, 40.7648605951]}, "type": "Feature", "properties": {"collection_times": [{"days": "Mon-Fri", "time": "8:50am"}, {"days": "Sat", "time": "1:45pm"}, {"days": "Sun", "time": "Closed"}], "id": "4580100060", "name": "USPS COLLECTION BOX - BLUE BOX", "address": {"city": "LIMA", "state": "OH", "street": "120 W NORTHERN AVE", "postcode": "45801"}}},
{"geometry": {"type": "Point", "coordinates": [-84.1279042297, 40.7702589932]}, "type": "Feature", "properties": {"collection_times": [{"days": "Mon-Fri", "time": "1:00pm"}, {"days": "Sat", "time": "9:00am"}, {"days": "Sun", "time": "Closed"}], "id": "4580100066", "name": "USPS COLLECTION BOX - BLUE BOX", "address": {"city": "LIMA", "state": "OH", "street": "2350 N COLE ST", "postcode": "45801"}}},
{"geometry": {"type": "Point", "coordinates": [-84.1374769292, 40.6563846831]}, "type": "Feature", "properties": {"collection_times": [{"days": "Mon-Fri", "time": "10:50am"}, {"days": "Sat", "time": "2:15pm"}, {"days": "Sun", "time": "Closed"}], "id": "4580100076", "name": "USPS COLLECTION BOX - BLUE BOX", "address": {"city": "LIMA", "state": "OH", "street": "212 N ELIZABETH ST", "postcode": "45801"}}},
{"geometry": {"type": "Point", "coordinates": [-84.1145350588, 40.7414179303]}, "type": "Feature", "properties": {"collection_times": [{"days": "Mon-Fri", "time": "9:40am"}, {"days": "Sat", "time": "2:00pm"}, {"days": "Sun", "time": "Closed"}], "id": "4580100079", "name": "USPS COLLECTION BOX - BLUE BOX", "address": {"city": "LIMA", "state": "OH", "street": "770 W HIGH ST", "postcode": "45801"}}},
{"geometry": {"type": "Point", "coordinates": [-84.1214128857, 40.7688324892]}, "type": "Feature", "properties": {"collection_times": [{"days": "Mon-Fri", "time": "10:00am"}, {"days": "Sat", "time": "9:00am"}, {"days": "Sun", "time": "Closed"}], "id": "4580100080", "name": "USPS COLLECTION BOX - BLUE BOX", "address": {"city": "LIMA", "state": "OH", "street": "2260 LAKE CIRCLE DR", "postcode": "45801"}}},
{"geometry": {"type": "Point", "coordinates": [-84.1142293606, 40.7414175068]}, "type": "Feature", "properties": {"collection_times": [{"days": "Mon-Fri", "time": "9:30am"}, {"days": "Sat", "time": "2:00pm"}, {"days": "Sun", "time": "Closed"}], "id": "4580100082", "name": "USPS COLLECTION BOX - BLUE BOX", "address": {"city": "LIMA", "state": "OH", "street": "750 W HIGH ST", "postcode": "45801"}}},
{"geometry": {"type": "Point", "coordinates": [-84.1068347244, 40.7399242975]}, "type": "Feature", "properties": {"collection_times": [{"days": "Mon-Fri", "time": "10:50am"}, {"days": "Sat", "time": "12:00pm"}, {"days": "Sun", "time": "Closed"}], "id": "4580100085", "name": "USPS COLLECTION BOX - BLUE BOX", "address": {"city": "LIMA", "state": "OH", "street": "201 W MARKET ST", "postcode": "45801"}}},
{"geometry": {"type": "Point", "coordinates": [-84.1086120272, 40.7414119394]}, "type": "Feature", "properties": {"collection_times": [{"days": "Mon-Fri", "time": "5:30pm"}, {"days": "Sat", "time": "3:00pm"}, {"days": "Sun", "time": "Closed"}], "id": "4580200000", "name": "USPS COLLECTION BOX - BLUE BOX", "address": {"city": "LIMA", "state": "OH", "street": "350 W HIGH ST", "postcode": "45802"}}},
{"geometry": {"type": "Point", "coordinates": [-84.1086189737, 40.7414039746]}, "type": "Feature", "properties": {"collection_times": [{"days": "Mon-Fri", "time": "5:30pm"}, {"days": "Sat", "time": "3:00pm"}, {"days": "Sun", "time": "Closed"}], "id": "4580200002", "name": "USPS COLLECTION BOX - EXPRESS", "address": {"city": "LIMA", "state": "OH", "street": "350 W HIGH ST", "postcode": "45802"}}},
{"geometry": {"type": "Point", "coordinates": [-84.1086120272, 40.7414119394]}, "type": "Feature", "properties": {"collection_times": [{"days": "Mon-Fri", "time": "5:30pm"}, {"days": "Sat", "time": "3:00pm"}, {"days": "Sun", "time": "Closed"}], "id": "4580200003", "name": "USPS COLLECTION BOX - BLUE BOX", "address": {"city": "LIMA", "state": "OH", "street": "350 W HIGH ST", "postcode": "45802"}}},
{"geometry": {"type": "Point", "coordinates": [-84.1086120272, 40.7414119394]}, "type": "Feature", "properties": {"collection_times": [{"days": "Mon-Fri", "time": "5:30pm"}, {"days": "Sat", "time": "3:00pm"}, {"days": "Sun", "time": "Closed"}], "id": "4580200006", "name": "USPS COLLECTION BOX - PO LOBBY", "address": {"city": "LIMA", "state": "OH", "street": "350 W HIGH ST", "postcode": "45802"}}},
{"geometry": {"type": "Point", "coordinates": [-84.1086120272, 40.7414119394]}, "type": "Feature", "properties": {"collection_times": [{"days": "Mon-Fri", "time": "5:30pm"}, {"days": "Sat", "time": "3:00pm"}, {"days": "Sun", "time": "Closed"}], "id": "4580200007", "name": "USPS COLLECTION BOX - APC", "address": {"city": "LIMA", "state": "OH", "street": "350 W HIGH ST", "postcode": "45802"}}},
{"geometry": {"type": "Point", "coordinates": [-84.0940371407, 40.7304558288]}, "type": "Feature", "properties": {"collection_times": [{"days": "Mon-Fri", "time": "11:00am"}, {"days": "Sat", "time": "3:00pm"}, {"days": "Sun", "time": "Closed"}], "id": "4580400011", "name": "USPS COLLECTION BOX - BLUE BOX", "address": {"city": "LIMA", "state": "OH", "street": "801 E KIBBY ST", "postcode": "45804"}}},
{"geometry": {"type": "Point", "coordinates": [-84.0322493153, 40.7363237204]}, "type": "Feature", "properties": {"collection_times": [{"days": "Mon-Fri", "time": "2:00pm"}, {"days": "Sat", "time": "9:00am"}, {"days": "Sun", "time": "Closed"}], "id": "4580400013", "name": "USPS COLLECTION BOX - BLUE BOX", "address": {"city": "LIMA", "state": "OH", "street": "400 S MUMAUGH RD", "postcode": "45804"}}},
{"geometry": {"type": "Point", "coordinates": [-84.0804611436, 40.7310012929]}, "type": "Feature", "properties": {"collection_times": [{"days": "Mon-Fri", "time": "8:30am"}, {"days": "Sat", "time": "11:00am"}, {"days": "Sun", "time": "Closed"}], "id": "4580400019", "name": "USPS COLLECTION BOX - BLUE BOX", "address": {"city": "LIMA", "state": "OH", "street": "1378 BELLEFONTAINE AVE", "postcode": "45804"}}},
{"geometry": {"type": "Point", "coordinates": [-84.0574861737, 40.7309732136]}, "type": "Feature", "properties": {"collection_times": [{"days": "Mon-Fri", "time": "11:00am"}, {"days": "Sat", "time": "8:30am"}, {"days": "Sun", "time": "Closed"}], "id": "4580400022", "name": "USPS COLLECTION BOX - BLUE BOX", "address": {"city": "LIMA", "state": "OH", "street": "109 DEVONSHIRE DR", "postcode": "45804"}}},
{"geometry": {"type": "Point", "coordinates": [-84.0882892324, 40.7360363075]}, "type": "Feature", "properties": {"collection_times": [{"days": "Mon-Sat", "time": "9:15am"}, {"days": "Sun", "time": "Closed"}], "id": "4580400024", "name": "USPS COLLECTION BOX - BLUE BOX", "address": {"city": "LIMA", "state": "OH", "street": "1005 BELLEFONTAINE AVE", "postcode": "45804"}}},
{"geometry": {"type": "Point", "coordinates": [-84.0734346446, 40.742434012]}, "type": "Feature", "properties": {"collection_times": [{"days": "Mon-Fri", "time": "10:00am"}, {"days": "Sat", "time": "9:00am"}, {"days": "Sun", "time": "Closed"}], "id": "4580400025", "name": "USPS COLLECTION BOX - BLUE BOX", "address": {"city": "LIMA", "state": "OH", "street": "1800 RESERVOIR RD", "postcode": "45804"}}},
{"geometry": {"type": "Point", "coordinates": [-84.0667341147, 40.7306665381]}, "type": "Feature", "properties": {"collection_times": [{"days": "Mon-Fri", "time": "8:40am"}, {"days": "Sat", "time": "12:30pm"}, {"days": "Sun", "time": "Closed"}], "id": "4580400027", "name": "USPS COLLECTION BOX - BLUE BOX", "address": {"city": "LIMA", "state": "OH", "street": "2100 HARDING HWY", "postcode": "45804"}}},
{"geometry": {"type": "Point", "coordinates": [-84.0667341147, 40.7306665381]}, "type": "Feature", "properties": {"collection_times": [{"days": "Mon-Fri", "time": "8:40am"}, {"days": "Sat", "time": "12:30pm"}, {"days": "Sun", "time": "Closed"}], "id": "4580400028", "name": "USPS COLLECTION BOX - BLUE BOX", "address": {"city": "LIMA", "state": "OH", "street": "2100 HARDING HWY", "postcode": "45804"}}},
{"geometry": {"type": "Point", "coordinates": [-84.0424170143, 40.7309382509]}, "type": "Feature", "properties": {"collection_times": [{"days": "Mon-Sat", "time": "9:00am"}, {"days": "Sun", "time": "Closed"}], "id": "4580400029", "name": "USPS COLLECTION BOX - BLUE BOX", "address": {"city": "LIMA", "state": "OH", "street": "3298 HARDING HWY", "postcode": "45804"}}},
{"geometry": {"type": "Point", "coordinates": [-84.1317497456, 40.7694867811]}, "type": "Feature", "properties": {"collection_times": [{"days": "Mon-Fri", "time": "2:00pm"}, {"days": "Sat", "time": "9:00am"}, {"days": "Sun", "time": "Closed"}], "id": "4580500001", "name": "USPS COLLECTION BOX - BLUE BOX", "address": {"city": "LIMA", "state": "OH", "street": "1475 EDGEWOOD DR", "postcode": "45805"}}},
{"geometry": {"type": "Point", "coordinates": [-84.1471412329, 40.7523164047]}, "type": "Feature", "properties": {"collection_times": [{"days": "Mon-Fri", "time": "10:25am"}, {"days": "Sat", "time": "3:00pm"}, {"days": "Sun", "time": "Closed"}], "id": "4580500006", "name": "USPS COLLECTION BOX - BLUE BOX", "address": {"city": "LIMA", "state": "OH", "street": "927 N CABLE RD", "postcode": "45805"}}},
{"geometry": {"type": "Point", "coordinates": [-84.160230769, 40.7369329316]}, "type": "Feature", "properties": {"collection_times": [{"days": "Mon-Fri", "time": "10:40am"}, {"days": "Sat", "time": "2:00pm"}, {"days": "Sun", "time": "Closed"}], "id": "4580500014", "name": "USPS COLLECTION BOX - BLUE BOX", "address": {"city": "LIMA", "state": "OH", "street": "3063 W ELM ST", "postcode": "45805"}}},
{"geometry": {"type": "Point", "coordinates": [-84.1454722997, 40.7700570759]}, "type": "Feature", "properties": {"collection_times": [{"days": "Mon-Fri", "time": "10:45am"}, {"days": "Sat", "time": "3:00pm"}, {"days": "Sun", "time": "Closed"}], "id": "4580500021", "name": "USPS COLLECTION BOX - BLUE BOX", "address": {"city": "LIMA", "state": "OH", "street": "2301 BATON ROUGE", "postcode": "45805"}}},
{"geometry": {"type": "Point", "coordinates": [-84.1651085784, 40.7703937337]}, "type": "Feature", "properties": {"collection_times": [{"days": "Mon-Fri", "time": "10:50am"}, {"days": "Sat", "time": "2:00pm"}, {"days": "Sun", "time": "Closed"}], "id": "4580500026", "name": "USPS COLLECTION BOX - BLUE BOX", "address": {"city": "LIMA", "state": "OH", "street": "3298 ELIDA RD", "postcode": "45805"}}},
{"geometry": {"type": "Point", "coordinates": [-84.1191868627, 40.7331140037]}, "type": "Feature", "properties": {"collection_times": [{"days": "Mon-Fri", "time": "9:55am"}, {"days": "Sat", "time": "2:00pm"}, {"days": "Sun", "time": "Closed"}], "id": "4580500037", "name": "USPS COLLECTION BOX - BLUE BOX", "address": {"city": "LIMA", "state": "OH", "street": "610 S COLLETT ST", "postcode": "45805"}}},
{"geometry": {"type": "Point", "coordinates": [-84.145526813, 40.7520550314]}, "type": "Feature", "properties": {"collection_times": [{"days": "Mon-Fri", "time": "10:00am"}, {"days": "Sat", "time": "8:30am"}, {"days": "Sun", "time": "Closed"}], "id": "4580500041", "name": "USPS COLLECTION BOX - BLUE BOX", "address": {"city": "LIMA", "state": "OH", "street": "900 MACKENZIE DR", "postcode": "45805"}}},
{"geometry": {"type": "Point", "coordinates": [-84.1438433065, 40.7603780007]}, "type": "Feature", "properties": {"collection_times": [{"days": "Mon-Fri", "time": "10:30am"}, {"days": "Sat", "time": "3:00pm"}, {"days": "Sun", "time": "Closed"}], "id": "4580500042", "name": "USPS COLLECTION BOX - BLUE BOX", "address": {"city": "LIMA", "state": "OH", "street": "2184 ELIDA RD", "postcode": "45805"}}},
{"geometry": {"type": "Point", "coordinates": [-84.1451715745, 40.7290962078]}, "type": "Feature", "properties": {"collection_times": [{"days": "Mon-Fri", "time": "10:00am"}, {"days": "Sat", "time": "2:00pm"}, {"days": "Sun", "time": "Closed"}], "id": "4580500043", "name": "USPS COLLECTION BOX - BLUE BOX", "address": {"city": "LIMA", "state": "OH", "street": "775 SHAWNEE RD", "postcode": "45805"}}},
{"geometry": {"type": "Point", "coordinates": [-84.1514622649, 40.7066259236]}, "type": "Feature", "properties": {"collection_times": [{"days": "Mon-Fri", "time": "11:30am"}, {"days": "Sat", "time": "12:00pm"}, {"days": "Sun", "time": "Closed"}], "id": "4580500048", "name": "USPS COLLECTION BOX - BLUE BOX", "address": {"city": "LIMA", "state": "OH", "street": "2344 SHAWNEE RD", "postcode": "45805"}}},
{"geometry": {"type": "Point", "coordinates": [-84.1219981454, 40.6862036689]}, "type": "Feature", "properties": {"collection_times": [{"days": "Mon-Fri", "time": "10:00am"}, {"days": "Sat", "time": "9:00am"}, {"days": "Sun", "time": "Closed"}], "id": "4580600001", "name": "USPS COLLECTION BOX - BLUE BOX", "address": {"city": "CRIDERSVILLE", "state": "OH", "street": "3850 DELONG RD", "postcode": "45806"}}},
{"geometry": {"type": "Point", "coordinates": [-84.1437344006, 40.654322925]}, "type": "Feature", "properties": {"collection_times": [{"days": "Mon-Fri", "time": "12:15pm"}, {"days": "Sat-Sun", "time": "Closed"}], "id": "4580600003", "name": "USPS COLLECTION BOX - BLUE BOX", "address": {"city": "CRIDERSVILLE", "state": "OH", "street": "111 E MAIN ST", "postcode": "45806"}}},
{"geometry": {"type": "Point", "coordinates": [-84.1437344006, 40.654322925]}, "type": "Feature", "properties": {"collection_times": [{"days": "Mon-Fri", "time": "12:15pm"}, {"days": "Sat", "time": "12:00pm"}, {"days": "Sun", "time": "Closed"}], "id": "4580600004", "name": "USPS COLLECTION BOX - PO LOBBY", "address": {"city": "CRIDERSVILLE", "state": "OH", "street": "111 E MAIN ST", "postcode": "45806"}}},
{"geometry": {"type": "Point", "coordinates": [-84.1440939525, 40.6543145972]}, "type": "Feature", "properties": {"collection_times": [{"days": "Mon-Fri", "time": "11:00am"}, {"days": "Sat", "time": "2:00pm"}, {"days": "Sun", "time": "Closed"}], "id": "4580600005", "name": "USPS COLLECTION BOX - BLUE BOX", "address": {"city": "CRIDERSVILLE", "state": "OH", "street": "110 W MAIN ST", "postcode": "45806"}}},
{"geometry": {"type": "Point", "coordinates": [-84.1509942752, 40.6861241773]}, "type": "Feature", "properties": {"collection_times": [{"days": "Mon-Fri", "time": "11:15am"}, {"days": "Sat", "time": "12:00pm"}, {"days": "Sun", "time": "Closed"}], "id": "4580600007", "name": "USPS COLLECTION BOX - BLUE BOX", "address": {"city": "CRIDERSVILLE", "state": "OH", "street": "3715 SHAWNEE RD", "postcode": "45806"}}},
{"geometry": {"type": "Point", "coordinates": [-84.1654716476, 40.6816662979]}, "type": "Feature", "properties": {"collection_times": [{"days": "Mon-Sat", "time": "9:00am"}, {"days": "Sun", "time": "Closed"}], "id": "4580600012", "name": "USPS COLLECTION BOX - BLUE BOX", "address": {"city": "CRIDERSVILLE", "state": "OH", "street": "3700 BEELER RD", "postcode": "45806"}}},
{"geometry": {"type": "Point", "coordinates": [-84.1329770746, 40.6773933535]}, "type": "Feature", "properties": {"collection_times": [{"days": "Mon-Fri", "time": "4:30pm"}, {"days": "Sat", "time": "12:00pm"}, {"days": "Sun", "time": "Closed"}], "id": "4580600015", "name": "USPS COLLECTION BOX - BLUE BOX", "address": {"city": "CRIDERSVILLE", "state": "OH", "street": "3820 S DIXIE HWY", "postcode": "45806"}}},
{"geometry": {"type": "Point", "coordinates": [-84.1986381783, 40.7862556]}, "type": "Feature", "properties": {"collection_times": [{"days": "Mon-Fri", "time": "11:00am"}, {"days": "Sat-Sun", "time": "Closed"}], "id": "4580700001", "name": "USPS COLLECTION BOX - PO LOBBY", "address": {"city": "ELIDA", "state": "OH", "street": "304 E MAIN ST", "postcode": "45807"}}},
{"geometry": {"type": "Point", "coordinates": [-84.1986381783, 40.7862556]}, "type": "Feature", "properties": {"collection_times": [{"days": "Mon-Fri", "time": "4:30pm"}, {"days": "Sat-Sun", "time": "Closed"}], "id": "4580700002", "name": "USPS COLLECTION BOX - BLUE BOX", "address": {"city": "ELIDA", "state": "OH", "street": "304 E MAIN ST", "postcode": "45807"}}},
{"geometry": {"type": "Point", "coordinates": [-84.1986381783, 40.7862556]}, "type": "Feature", "properties": {"collection_times": [{"days": "Mon-Fri", "time": "4:30pm"}, {"days": "Sat", "time": "12:00pm"}, {"days": "Sun", "time": "Closed"}], "id": "4580700003", "name": "USPS COLLECTION BOX - BLUE BOX", "address": {"city": "ELIDA", "state": "OH", "street": "304 E MAIN ST", "postcode": "45807"}}},
{"geometry": {"type": "Point", "coordinates": [-84.2037636198, 40.7723131885]}, "type": "Feature", "properties": {"collection_times": [{"days": "Mon-Sat", "time": "9:00am"}, {"days": "Sun", "time": "Closed"}], "id": "4580700005", "name": "USPS COLLECTION BOX - BLUE BOX", "address": {"city": "ELIDA", "state": "OH", "street": "5309 NESBITT ST", "postcode": "45807"}}},
{"geometry": {"type": "Point", "coordinates": [-84.2036652359, 40.7885708385]}, "type": "Feature", "properties": {"collection_times": [{"days": "Mon-Fri", "time": "11:00am"}, {"days": "Sat", "time": "9:00am"}, {"days": "Sun", "time": "Closed"}], "id": "4580700006", "name": "USPS COLLECTION BOX - BLUE BOX", "address": {"city": "ELIDA", "state": "OH", "street": "100 E MAIN ST", "postcode": "45807"}}},
{"geometry": {"type": "Point", "coordinates": [-84.1478616138, 40.7687189867]}, "type": "Feature", "properties": {"collection_times": [{"days": "Mon-Fri", "time": "1:00pm"}, {"days": "Sat", "time": "9:00am"}, {"days": "Sun", "time": "Closed"}], "id": "4580700007", "name": "USPS COLLECTION BOX - BLUE BOX", "address": {"city": "ELIDA", "state": "OH", "street": "2275 N CABLE RD", "postcode": "45807"}}},
{"geometry": {"type": "Point", "coordinates": [-84.1650246539, 40.7577364943]}, "type": "Feature", "properties": {"collection_times": [{"days": "Mon-Fri", "time": "12:00pm"}, {"days": "Sat", "time": "9:00am"}, {"days": "Sun", "time": "Closed"}], "id": "4580700008", "name": "USPS COLLECTION BOX - BLUE BOX", "address": {"city": "ELIDA", "state": "OH", "street": "1866 N EASTOWN RD", "postcode": "45807"}}},
{"geometry": {"type": "Point", "coordinates": [-83.9743650841, 40.8330490144]}, "type": "Feature", "properties": {"collection_times": [{"days": "Mon-Sat", "time": "11:30am"}, {"days": "Sun", "time": "Closed"}], "id": "4580800000", "name": "USPS COLLECTION BOX - BLUE BOX", "address": {"city": "BEAVERDAM", "state": "OH", "street": "104 W MAIN ST", "postcode": "45808"}}},
{"geometry": {"type": "Point", "coordinates": [-83.9687228081, 40.8330361801]}, "type": "Feature", "properties": {"collection_times": [{"days": "Mon-Sat", "time": "11:30am"}, {"days": "Sun", "time": "Closed"}], "id": "4580800001", "name": "USPS COLLECTION BOX - BLUE BOX", "address": {"city": "BEAVERDAM", "state": "OH", "street": "420 E MAIN ST", "postcode": "45808"}}},
{"geometry": {"type": "Point", "coordinates": [-83.8231312568, 40.7692640657]}, "type": "Feature", "properties": {"collection_times": [{"days": "Mon-Fri", "time": "4:30pm"}, {"days": "Sat", "time": "11:45am"}, {"days": "Sun", "time": "Closed"}], "id": "4581000001", "name": "USPS COLLECTION BOX - PO LOBBY", "address": {"city": "ADA", "state": "OH", "street": "131 S MAIN ST", "postcode": "45810"}}},
{"geometry": {"type": "Point", "coordinates": [-83.8231312568, 40.7692640657]}, "type": "Feature", "properties": {"collection_times": [{"days": "Mon-Fri", "time": "4:30pm"}, {"days": "Sat", "time": "11:45am"}, {"days": "Sun", "time": "Closed"}], "id": "4581000004", "name": "USPS COLLECTION BOX - BLUE BOX", "address": {"city": "ADA", "state": "OH", "street": "131 S MAIN ST", "postcode": "45810"}}},
{"geometry": {"type": "Point", "coordinates": [-83.78525643, 40.6925159017]}, "type": "Feature", "properties": {"collection_times": [{"days": "Mon-Fri", "time": "2:45pm"}, {"days": "Sat", "time": "11:15am"}, {"days": "Sun", "time": "Closed"}], "id": "4581200000", "name": "USPS COLLECTION BOX - PO LOBBY", "address": {"city": "ALGER", "state": "OH", "street": "101 S MAIN ST", "postcode": "45812"}}},
{"geometry": {"type": "Point", "coordinates": [-83.78525643, 40.6925159017]}, "type": "Feature", "properties": {"collection_times": [{"days": "Mon-Fri", "time": "2:45pm"}, {"days": "Sat", "time": "11:15am"}, {"days": "Sun", "time": "Closed"}], "id": "4581200001", "name": "USPS COLLECTION BOX - PO LOBBY", "address": {"city": "ALGER", "state": "OH", "street": "101 S MAIN ST", "postcode": "45812"}}},
{"geometry": {"type": "Point", "coordinates": [-83.78525643, 40.6925159017]}, "type": "Feature", "properties": {"collection_times": [{"days": "Mon-Fri", "time": "3:45pm"}, {"days": "Sat", "time": "11:15am"}, {"days": "Sun", "time": "Closed"}], "id": "4581200002", "name": "USPS COLLECTION BOX - BLUE BOX", "address": {"city": "ALGER", "state": "OH", "street": "101 S MAIN ST", "postcode": "45812"}}},
{"geometry": {"type": "Point", "coordinates": [-84.7398840271, 41.1797742548]}, "type": "Feature", "properties": {"collection_times": [{"days": "Mon-Fri", "time": "3:45pm"}, {"days": "Sat", "time": "11:45am"}, {"days": "Sun", "time": "Closed"}], "id": "4581300002", "name": "USPS COLLECTION BOX - PO LOBBY", "address": {"city": "ANTWERP", "state": "OH", "street": "303 S MAIN ST", "postcode": "45813"}}},
{"geometry": {"type": "Point", "coordinates": [-84.7398840271, 41.1797742548]}, "type": "Feature", "properties": {"collection_times": [{"days": "Mon-Fri", "time": "3:45pm"}, {"days": "Sat", "time": "11:45am"}, {"days": "Sun", "time": "Closed"}], "id": "4581300003", "name": "USPS COLLECTION BOX - PO LOBBY", "address": {"city": "ANTWERP", "state": "OH", "street": "303 S MAIN ST", "postcode": "45813"}}},
{"geometry": {"type": "Point", "coordinates": [-84.7398840271, 41.1797742548]}, "type": "Feature", "properties": {"collection_times": [{"days": "Mon-Fri", "time": "3:45pm"}, {"days": "Sat", "time": "11:45am"}, {"days": "Sun", "time": "Closed"}], "id": "4581300005", "name": "USPS COLLECTION BOX - BLUE BOX", "address": {"city": "ANTWERP", "state": "OH", "street": "303 S MAIN ST", "postcode": "45813"}}},
{"geometry": {"type": "Point", "coordinates": [-83.6513741589, 40.8934505564]}, "type": "Feature", "properties": {"collection_times": [{"days": "Mon-Fri", "time": "4:15pm"}, {"days": "Sat", "time": "11:00am"}, {"days": "Sun", "time": "Closed"}], "id": "4581400000", "name": "USPS COLLECTION BOX - BLUE BOX", "address": {"city": "ARLINGTON", "state": "OH", "street": "120 W LIBERTY ST", "postcode": "45814"}}},
{"geometry": {"type": "Point", "coordinates": [-83.6513741589, 40.8934505564]}, "type": "Feature", "properties": {"collection_times": [{"days": "Mon-Fri", "time": "4:15pm"}, {"days": "Sat", "time": "11:00am"}, {"days": "Sun", "time": "Closed"}], "id": "4581400001", "name": "USPS COLLECTION BOX - PO LOBBY", "address": {"city": "ARLINGTON", "state": "OH", "street": "120 W LIBERTY ST", "postcode": "45814"}}},
{"geometry": {"type": "Point", "coordinates": [-83.7964330277, 41.0045860188]}, "type": "Feature", "properties": {"collection_times": [{"days": "Mon-Sat", "time": "11:00am"}, {"days": "Sun", "time": "Closed"}], "id": "4581600001", "name": "USPS COLLECTION BOX - BLUE BOX", "address": {"city": "BENTON RIDGE", "state": "OH", "street": "143 MAIN ST", "postcode": "45816"}}},
{"geometry": {"type": "Point", "coordinates": [-83.8929953166, 40.8926480069]}, "type": "Feature", "properties": {"collection_times": [{"days": "Mon-Fri", "time": "4:30pm"}, {"days": "Sat", "time": "12:00pm"}, {"days": "Sun", "time": "Closed"}], "id": "4581700010", "name": "USPS COLLECTION BOX - BLUE BOX", "address": {"city": "BLUFFTON", "state": "OH", "street": "105 FRANKLIN ST", "postcode": "45817"}}},
{"geometry": {"type": "Point", "coordinates": [-83.8928183211, 40.8927278959]}, "type": "Feature", "properties": {"collection_times": [{"days": "Mon-Fri", "time": "4:30pm"}, {"days": "Sat", "time": "12:00pm"}, {"days": "Sun", "time": "Closed"}], "id": "4581700012", "name": "USPS COLLECTION BOX - PO LOBBY", "address": {"city": "BLUFFTON", "state": "OH", "street": "132 S MAIN ST", "postcode": "45817"}}},
{"geometry": {"type": "Point", "coordinates": [-84.0812106284, 40.8320374584]}, "type": "Feature", "properties": {"collection_times": [{"days": "Mon-Fri", "time": "4:30pm"}, {"days": "Sat", "time": "12:00pm"}, {"days": "Sun", "time": "Closed"}], "id": "4582000000", "name": "USPS COLLECTION BOX - BLUE BOX", "address": {"city": "CAIRO", "state": "OH", "street": "104 W MAIN ST", "postcode": "45820"}}},
{"geometry": {"type": "Point", "coordinates": [-84.0812106284, 40.8320374584]}, "type": "Feature", "properties": {"collection_times": [{"days": "Mon-Fri", "time": "4:30pm"}, {"days": "Sat", "time": "12:00pm"}, {"days": "Sun", "time": "Closed"}], "id": "4582000001", "name": "USPS COLLECTION BOX - PO LOBBY", "address": {"city": "CAIRO", "state": "OH", "street": "104 W MAIN ST", "postcode": "45820"}}},
{"geometry": {"type": "Point", "coordinates": [-84.6022012417, 41.2177780955]}, "type": "Feature", "properties": {"collection_times": [{"days": "Mon-Fri", "time": "11:30am"}, {"days": "Sat", "time": "11:15am"}, {"days": "Sun", "time": "Closed"}], "id": "4582100000", "name": "USPS COLLECTION BOX - PO LOBBY", "address": {"city": "CECIL", "state": "OH", "street": "107 N MAIN ST", "postcode": "45821"}}},
{"geometry": {"type": "Point", "coordinates": [-84.6022012417, 41.2177780955]}, "type": "Feature", "properties": {"collection_times": [{"days": "Mon-Fri", "time": "4:15pm"}, {"days": "Sat", "time": "11:15am"}, {"days": "Sun", "time": "Closed"}], "id": "4582100001", "name": "USPS COLLECTION BOX - BLUE BOX", "address": {"city": "CECIL", "state": "OH", "street": "107 N MAIN ST", "postcode": "45821"}}},
{"geometry": {"type": "Point", "coordinates": [-84.5708807971, 40.5500117716]}, "type": "Feature", "properties": {"collection_times": [{"days": "Mon-Fri", "time": "5:00pm"}, {"days": "Sat", "time": "4:00pm"}, {"days": "Sun", "time": "Closed"}], "id": "4582200001", "name": "USPS COLLECTION BOX - BLUE BOX", "address": {"city": "CELINA", "state": "OH", "street": "201 N MAIN ST", "postcode": "45822"}}},
{"geometry": {"type": "Point", "coordinates": [-84.5708807971, 40.5500117716]}, "type": "Feature", "properties": {"collection_times": [{"days": "Mon-Fri", "time": "5:00pm"}, {"days": "Sat", "time": "4:00pm"}, {"days": "Sun", "time": "Closed"}], "id": "4582200002", "name": "USPS COLLECTION BOX - BLUE BOX", "address": {"city": "CELINA", "state": "OH", "street": "201 N MAIN ST", "postcode": "45822"}}},
{"geometry": {"type": "Point", "coordinates": [-84.5708807971, 40.5500117716]}, "type": "Feature", "properties": {"collection_times": [{"days": "Mon-Fri", "time": "5:00pm"}, {"days": "Sat", "time": "4:00pm"}, {"days": "Sun", "time": "Closed"}], "id": "4582200024", "name": "USPS COLLECTION BOX - PO LOBBY", "address": {"city": "CELINA", "state": "OH", "street": "201 N MAIN ST", "postcode": "45822"}}},
{"geometry": {"type": "Point", "coordinates": [-84.5708807971, 40.5500117716]}, "type": "Feature", "properties": {"collection_times": [{"days": "Mon-Fri", "time": "5:00pm"}, {"days": "Sat", "time": "4:00pm"}, {"days": "Sun", "time": "Closed"}], "id": "4582200025", "name": "USPS COLLECTION BOX - BLUE BOX", "address": {"city": "CELINA", "state": "OH", "street": "201 N MAIN ST", "postcode": "45822"}}},
{"geometry": {"type": "Point", "coordinates": [-84.4950906959, 40.4368561359]}, "type": "Feature", "properties": {"collection_times": [{"days": "Mon-Fri", "time": "4:30pm"}, {"days": "Sat", "time": "11:45am"}, {"days": "Sun", "time": "Closed"}], "id": "4582600000", "name": "USPS COLLECTION BOX - BLUE BOX", "address": {"city": "CELINA", "state": "OH", "street": "49 W FRANKLIN ST", "postcode": "45826"}}},
{"geometry": {"type": "Point", "coordinates": [-84.3044021742, 41.0199508121]}, "type": "Feature", "properties": {"collection_times": [{"days": "Mon-Fri", "time": "4:00pm"}, {"days": "Sat", "time": "10:30am"}, {"days": "Sun", "time": "Closed"}], "id": "4582700000", "name": "USPS COLLECTION BOX - BLUE BOX", "address": {"city": "CLOVERDALE", "state": "OH", "street": "117 MAHONING ST", "postcode": "45827"}}},
{"geometry": {"type": "Point", "coordinates": [-84.3044021742, 41.0199508121]}, "type": "Feature", "properties": {"collection_times": [{"days": "Mon-Fri", "time": "4:00pm"}, {"days": "Sat", "time": "10:30am"}, {"days": "Sun", "time": "Closed"}], "id": "4582700001", "name": "USPS COLLECTION BOX - PO LOBBY", "address": {"city": "CLOVERDALE", "state": "OH", "street": "117 MAHONING ST", "postcode": "45827"}}},
{"geometry": {"type": "Point", "coordinates": [-84.6286931853, 40.4797131917]}, "type": "Feature", "properties": {"collection_times": [{"days": "Mon-Fri", "time": "4:30pm"}, {"days": "Sat", "time": "12:15pm"}, {"days": "Sun", "time": "Closed"}], "id": "4582800000", "name": "USPS COLLECTION BOX - PO LOBBY", "address": {"city": "COLDWATER", "state": "OH", "street": "101 E MAIN ST", "postcode": "45828"}}},
{"geometry": {"type": "Point", "coordinates": [-84.6286931853, 40.4797131917]}, "type": "Feature", "properties": {"collection_times": [{"days": "Mon-Fri", "time": "4:30pm"}, {"days": "Sat", "time": "12:15pm"}, {"days": "Sun", "time": "Closed"}], "id": "4582800003", "name": "USPS COLLECTION BOX - BLUE BOX", "address": {"city": "COLDWATER", "state": "OH", "street": "101 E MAIN ST", "postcode": "45828"}}},
{"geometry": {"type": "Point", "coordinates": [-84.6286931853, 40.4797131917]}, "type": "Feature", "properties": {"collection_times": [{"days": "Mon-Fri", "time": "4:30pm"}, {"days": "Sat", "time": "12:15pm"}, {"days": "Sun", "time": "Closed"}], "id": "4582800010", "name": "USPS COLLECTION BOX - BLUE BOX", "address": {"city": "COLDWATER", "state": "OH", "street": "101 E MAIN ST", "postcode": "45828"}}},
{"geometry": {"type": "Point", "coordinates": [-84.0569027365, 40.9196497916]}, "type": "Feature", "properties": {"collection_times": [{"days": "Mon-Fri", "time": "4:30pm"}, {"days": "Sat", "time": "11:30am"}, {"days": "Sun", "time": "Closed"}], "id": "4583000000", "name": "USPS COLLECTION BOX - PO LOBBY", "address": {"city": "COLUMBUS GROVE", "state": "OH", "street": "122 N HIGH ST", "postcode": "45830"}}},
{"geometry": {"type": "Point", "coordinates": [-84.0569027365, 40.9196497916]}, "type": "Feature", "properties": {"collection_times": [{"days": "Mon-Fri", "time": "4:30pm"}, {"days": "Sat", "time": "11:30am"}, {"days": "Sun", "time": "Closed"}], "id": "4583000001", "name": "USPS COLLECTION BOX - BLUE BOX", "address": {"city": "COLUMBUS GROVE", "state": "OH", "street": "122 N HIGH ST", "postcode": "45830"}}},
{"geometry": {"type": "Point", "coordinates": [-84.2660174018, 41.097226654]}, "type": "Feature", "properties": {"collection_times": [{"days": "Mon-Fri", "time": "4:15pm"}, {"days": "Sat", "time": "11:30am"}, {"days": "Sun", "time": "Closed"}], "id": "4583100000", "name": "USPS COLLECTION BOX - BLUE BOX", "address": {"city": "CONTINENTAL", "state": "OH", "street": "105 S MAIN ST", "postcode": "45831"}}},
{"geometry": {"type": "Point", "coordinates": [-84.2660174018, 41.097226654]}, "type": "Feature", "properties": {"collection_times": [{"days": "Mon-Fri", "time": "4:15pm"}, {"days": "Sat", "time": "11:30am"}, {"days": "Sun", "time": "Closed"}], "id": "4583100001", "name": "USPS COLLECTION BOX - PO LOBBY", "address": {"city": "CONTINENTAL", "state": "OH", "street": "105 S MAIN ST", "postcode": "45831"}}},
{"geometry": {"type": "Point", "coordinates": [-84.7077119416, 40.9169616669]}, "type": "Feature", "properties": {"collection_times": [{"days": "Mon-Fri", "time": "4:00pm"}, {"days": "Sat", "time": "11:15am"}, {"days": "Sun", "time": "Closed"}], "id": "4583200000", "name": "USPS COLLECTION BOX - PO LOBBY", "address": {"city": "CONVOY", "state": "OH", "street": "116 W TULLY ST", "postcode": "45832"}}},
{"geometry": {"type": "Point", "coordinates": [-84.7077119416, 40.9169616669]}, "type": "Feature", "properties": {"collection_times": [{"days": "Mon-Fri", "time": "4:00pm"}, {"days": "Sat", "time": "11:15am"}, {"days": "Sun", "time": "Closed"}], "id": "4583200001", "name": "USPS COLLECTION BOX - BLUE BOX", "address": {"city": "CONVOY", "state": "OH", "street": "116 W TULLY ST", "postcode": "45832"}}},
{"geometry": {"type": "Point", "coordinates": [-84.3396240338, 40.8429792392]}, "type": "Feature", "properties": {"collection_times": [{"days": "Mon-Fri", "time": "5:00pm"}, {"days": "Sat", "time": "4:00pm"}, {"days": "Sun", "time": "Closed"}], "id": "4583300000", "name": "USPS COLLECTION BOX - BLUE BOX", "address": {"city": "DELPHOS", "state": "OH", "street": "127 N MAIN ST", "postcode": "45833"}}},
{"geometry": {"type": "Point", "coordinates": [-84.3396240338, 40.8429792392]}, "type": "Feature", "properties": {"collection_times": [{"days": "Mon-Fri", "time": "5:00pm"}, {"days": "Sat", "time": "4:00pm"}, {"days": "Sun", "time": "Closed"}], "id": "4583300002", "name": "USPS COLLECTION BOX - PO LOBBY", "address": {"city": "DELPHOS", "state": "OH", "street": "127 N MAIN ST", "postcode": "45833"}}},
{"geometry": {"type": "Point", "coordinates": [-84.340640171, 40.8437697794]}, "type": "Feature", "properties": {"collection_times": [{"days": "Mon-Fri", "time": "5:00pm"}, {"days": "Sat", "time": "4:00pm"}, {"days": "Sun", "time": "Closed"}], "id": "4583300004", "name": "USPS COLLECTION BOX - BLUE BOX", "address": {"city": "DELPHOS", "state": "OH", "street": "150 W 2ND ST", "postcode": "45833"}}},
{"geometry": {"type": "Point", "coordinates": [-84.340640171, 40.8437697794]}, "type": "Feature", "properties": {"collection_times": [{"days": "Mon-Fri", "time": "5:00pm"}, {"days": "Sat", "time": "4:00pm"}, {"days": "Sun", "time": "Closed"}], "id": "4583300005", "name": "USPS COLLECTION BOX - BLUE BOX", "address": {"city": "DELPHOS", "state": "OH", "street": "150 W 2ND ST", "postcode": "45833"}}},
{"geometry": {"type": "Point", "coordinates": [-84.3266731594, 40.8424202246]}, "type": "Feature", "properties": {"collection_times": [{"days": "Mon-Sat", "time": "1:15pm"}, {"days": "Sun", "time": "Closed"}], "id": "4583300024", "name": "USPS COLLECTION BOX - BLUE BOX", "address": {"city": "DELPHOS", "state": "OH", "street": "1102 ELIDA AVE", "postcode": "45833"}}},
{"geometry": {"type": "Point", "coordinates": [-83.691325454, 40.7822382909]}, "type": "Feature", "properties": {"collection_times": [{"days": "Mon-Fri", "time": "4:30pm"}, {"days": "Sat", "time": "12:00pm"}, {"days": "Sun", "time": "Closed"}], "id": "4583500000", "name": "USPS COLLECTION BOX - BLUE BOX", "address": {"city": "DOLA", "state": "OH", "street": "9924 FRANKLIN ST", "postcode": "45835"}}},
{"geometry": {"type": "Point", "coordinates": [-83.691325454, 40.7822382909]}, "type": "Feature", "properties": {"collection_times": [{"days": "Mon-Fri", "time": "4:30pm"}, {"days": "Sat", "time": "12:00pm"}, {"days": "Sun", "time": "Closed"}], "id": "4583500001", "name": "USPS COLLECTION BOX - PO LOBBY", "address": {"city": "DOLA", "state": "OH", "street": "9924 FRANKLIN ST", "postcode": "45835"}}},
{"geometry": {"type": "Point", "coordinates": [-83.6434665085, 40.7900016106]}, "type": "Feature", "properties": {"collection_times": [{"days": "Mon-Fri", "time": "4:30pm"}, {"days": "Sat", "time": "12:00pm"}, {"days": "Sun", "time": "Closed"}], "id": "4583600001", "name": "USPS COLLECTION BOX - BLUE BOX", "address": {"city": "DUNKIRK", "state": "OH", "street": "240 N MAIN ST", "postcode": "45836"}}},
{"geometry": {"type": "Point", "coordinates": [-83.6434665085, 40.7900016106]}, "type": "Feature", "properties": {"collection_times": [{"days": "Mon-Fri", "time": "3:00pm"}, {"days": "Sat", "time": "12:00pm"}, {"days": "Sun", "time": "Closed"}], "id": "4583600002", "name": "USPS COLLECTION BOX - PO LOBBY", "address": {"city": "DUNKIRK", "state": "OH", "street": "240 N MAIN ST", "postcode": "45836"}}},
{"geometry": {"type": "Point", "coordinates": [-84.2983466624, 41.0544701744]}, "type": "Feature", "properties": {"collection_times": [{"days": "Mon-Sat", "time": "8:45am"}, {"days": "Sun", "time": "Closed"}], "id": "4583700000", "name": "USPS COLLECTION BOX - BLUE BOX", "address": {"city": "DUPONT", "state": "OH", "street": "501 MAPLE ST", "postcode": "45837"}}},
{"geometry": {"type": "Point", "coordinates": [-84.4754714446, 40.741495879]}, "type": "Feature", "properties": {"collection_times": [{"days": "Mon-Fri", "time": "12:15pm"}, {"days": "Sat", "time": "9:45am"}, {"days": "Sun", "time": "Closed"}], "id": "4583800000", "name": "USPS COLLECTION BOX - BLUE BOX", "address": {"city": "ELGIN", "state": "OH", "street": "18100 SANDS RD", "postcode": "45838"}}},
{"geometry": {"type": "Point", "coordinates": [-83.6524985087, 41.0391091598]}, "type": "Feature", "properties": {"collection_times": [{"days": "Mon-Fri", "time": "5:30pm"}, {"days": "Sat", "time": "3:30pm"}, {"days": "Sun", "time": "Closed"}], "id": "4584000001", "name": "USPS COLLECTION BOX - PO LOBBY", "address": {"city": "FINDLAY", "state": "OH", "street": "229 W MAIN CROSS ST", "postcode": "45840"}}},
{"geometry": {"type": "Point", "coordinates": [-83.6524985087, 41.0391091598]}, "type": "Feature", "properties": {"collection_times": [{"days": "Mon-Fri", "time": "5:30pm"}, {"days": "Sat", "time": "3:30pm"}, {"days": "Sun", "time": "Closed"}], "id": "4584000004", "name": "USPS COLLECTION BOX - BLUE BOX", "address": {"city": "FINDLAY", "state": "OH", "street": "229 W MAIN CROSS ST", "postcode": "45840"}}},
{"geometry": {"type": "Point", "coordinates": [-83.6524985087, 41.0391091598]}, "type": "Feature", "properties": {"collection_times": [{"days": "Mon-Fri", "time": "5:30pm"}, {"days": "Sat", "time": "3:30pm"}, {"days": "Sun", "time": "Closed"}], "id": "4584000005", "name": "USPS COLLECTION BOX - BLUE BOX", "address": {"city": "FINDLAY", "state": "OH", "street": "229 W MAIN CROSS ST", "postcode": "45840"}}},
{"geometry": {"type": "Point", "coordinates": [-83.6108491179, 41.0535070053]}, "type": "Feature", "properties": {"collection_times": [{"days": "Mon-Fri", "time": "12:00pm"}, {"days": "Sat", "time": "10:00am"}, {"days": "Sun", "time": "Closed"}], "id": "4584000019", "name": "USPS COLLECTION BOX - BLUE BOX", "address": {"city": "FINDLAY", "state": "OH", "street": "1920 TIFFIN AVE", "postcode": "45840"}}},
{"geometry": {"type": "Point", "coordinates": [-83.6108491179, 41.0535070053]}, "type": "Feature", "properties": {"collection_times": [{"days": "Mon-Fri", "time": "12:00pm"}, {"days": "Sat", "time": "10:00am"}, {"days": "Sun", "time": "Closed"}], "id": "4584000020", "name": "USPS COLLECTION BOX - BLUE BOX", "address": {"city": "FINDLAY", "state": "OH", "street": "1920 TIFFIN AVE", "postcode": "45840"}}},
{"geometry": {"type": "Point", "coordinates": [-83.6321116018, 41.0484457728]}, "type": "Feature", "properties": {"collection_times": [{"days": "Mon-Fri", "time": "12:00pm"}, {"days": "Sat", "time": "10:00am"}, {"days": "Sun", "time": "Closed"}], "id": "4584000025", "name": "USPS COLLECTION BOX - BLUE BOX", "address": {"city": "FINDLAY", "state": "OH", "street": "1016 TIFFIN AVE", "postcode": "45840"}}},
{"geometry": {"type": "Point", "coordinates": [-83.6466164246, 41.0440369921]}, "type": "Feature", "properties": {"collection_times": [{"days": "Mon-Sat", "time": "12:00pm"}, {"days": "Sun", "time": "Closed"}], "id": "4584000028", "name": "USPS COLLECTION BOX - BLUE BOX", "address": {"city": "FINDLAY", "state": "OH", "street": "301 CENTER ST", "postcode": "45840"}}},
{"geometry": {"type": "Point", "coordinates": [-83.649982597, 41.0579776634]}, "type": "Feature", "properties": {"collection_times": [{"days": "Mon-Sat", "time": "10:00am"}, {"days": "Sun", "time": "Closed"}], "id": "4584000031", "name": "USPS COLLECTION BOX - BLUE BOX", "address": {"city": "FINDLAY", "state": "OH", "street": "1403 N MAIN ST", "postcode": "45840"}}},
{"geometry": {"type": "Point", "coordinates": [-83.6295818797, 41.0686663635]}, "type": "Feature", "properties": {"collection_times": [{"days": "Mon-Sat", "time": "10:00am"}, {"days": "Sun", "time": "Closed"}], "id": "4584000034", "name": "USPS COLLECTION BOX - BLUE BOX", "address": {"city": "FINDLAY", "state": "OH", "street": "2400 CRYSTAL AVE", "postcode": "45840"}}},
{"geometry": {"type": "Point", "coordinates": [-83.6500517739, 41.0643988818]}, "type": "Feature", "properties": {"collection_times": [{"days": "Mon-Sat", "time": "10:00am"}, {"days": "Sun", "time": "Closed"}], "id": "4584000042", "name": "USPS COLLECTION BOX - BLUE BOX", "address": {"city": "FINDLAY", "state": "OH", "street": "2016 N MAIN ST", "postcode": "45840"}}},
{"geometry": {"type": "Point", "coordinates": [-83.654266455, 41.0260445286]}, "type": "Feature", "properties": {"collection_times": [{"days": "Mon-Fri", "time": "12:00pm"}, {"days": "Sat", "time": "12:30pm"}, {"days": "Sun", "time": "Closed"}], "id": "4584000045", "name": "USPS COLLECTION BOX - BLUE BOX", "address": {"city": "FINDLAY", "state": "OH", "street": "421 DEFINANCE AVE", "postcode": "45840"}}},
{"geometry": {"type": "Point", "coordinates": [-83.6852687472, 41.0482173041]}, "type": "Feature", "properties": {"collection_times": [{"days": "Mon-Sat", "time": "11:00am"}, {"days": "Sun", "time": "Closed"}], "id": "4584000053", "name": "USPS COLLECTION BOX - BLUE BOX", "address": {"city": "FINDLAY", "state": "OH", "street": "8219 PARKWOOD DR", "postcode": "45840"}}},
{"geometry": {"type": "Point", "coordinates": [-83.6604357872, 41.0273721603]}, "type": "Feature", "properties": {"collection_times": [{"days": "Mon-Fri", "time": "12:00pm"}, {"days": "Sat", "time": "1:30pm"}, {"days": "Sun", "time": "Closed"}], "id": "4584000055", "name": "USPS COLLECTION BOX - BLUE BOX", "address": {"city": "FINDLAY", "state": "OH", "street": "700 LIMA AVE", "postcode": "45840"}}},
{"geometry": {"type": "Point", "coordinates": [-83.650318565, 41.0084212696]}, "type": "Feature", "properties": {"collection_times": [{"days": "Mon-Fri", "time": "12:00pm"}, {"days": "Sat", "time": "1:30pm"}, {"days": "Sun", "time": "Closed"}], "id": "4584000056", "name": "USPS COLLECTION BOX - BLUE BOX", "address": {"city": "FINDLAY", "state": "OH", "street": "2443 S MAIN ST", "postcode": "45840"}}},
{"geometry": {"type": "Point", "coordinates": [-83.6502011981, 41.0223076419]}, "type": "Feature", "properties": {"collection_times": [{"days": "Mon-Fri", "time": "12:00pm"}, {"days": "Sat", "time": "1:30pm"}, {"days": "Sun", "time": "Closed"}], "id": "4584000057", "name": "USPS COLLECTION BOX - BLUE BOX", "address": {"city": "FINDLAY", "state": "OH", "street": "101 6TH ST", "postcode": "45840"}}},
{"geometry": {"type": "Point", "coordinates": [-83.6388162038, 41.0345425973]}, "type": "Feature", "properties": {"collection_times": [{"days": "Mon-Sat", "time": "11:00am"}, {"days": "Sun", "time": "Closed"}], "id": "4584000061", "name": "USPS COLLECTION BOX - BLUE BOX", "address": {"city": "FINDLAY", "state": "OH", "street": "638 E LINCOLN ST", "postcode": "45840"}}},
{"geometry": {"type": "Point", "coordinates": [-83.6508968671, 41.0357722686]}, "type": "Feature", "properties": {"collection_times": [{"days": "Mon-Fri", "time": "12:00pm"}, {"days": "Sat", "time": "11:00am"}, {"days": "Sun", "time": "Closed"}], "id": "4584000071", "name": "USPS COLLECTION BOX - BLUE BOX", "address": {"city": "FINDLAY", "state": "OH", "street": "128 W HARDIN ST", "postcode": "45840"}}},
{"geometry": {"type": "Point", "coordinates": [-83.6503101047, 41.0378342369]}, "type": "Feature", "properties": {"collection_times": [{"days": "Mon-Fri", "time": "11:10am"}, {"days": "Sat", "time": "11:00am"}, {"days": "Sun", "time": "Closed"}], "id": "4584000072", "name": "USPS COLLECTION BOX - BLUE BOX", "address": {"city": "FINDLAY", "state": "OH", "street": "100 W CRAWFORD ST", "postcode": "45840"}}},
{"geometry": {"type": "Point", "coordinates": [-83.6513739138, 41.0389962201]}, "type": "Feature", "properties": {"collection_times": [{"days": "Mon-Sat", "time": "11:00am"}, {"days": "Sun", "time": "Closed"}], "id": "4584000073", "name": "USPS COLLECTION BOX - BLUE BOX", "address": {"city": "FINDLAY", "state": "OH", "street": "318 DORNEY PLZ", "postcode": "45840"}}},
{"geometry": {"type": "Point", "coordinates": [-83.6513739138, 41.0389962201]}, "type": "Feature", "properties": {"collection_times": [{"days": "Mon-Sat", "time": "11:00am"}, {"days": "Sun", "time": "Closed"}], "id": "4584000074", "name": "USPS COLLECTION BOX - BLUE BOX", "address": {"city": "FINDLAY", "state": "OH", "street": "318 DORNEY PLZ", "postcode": "45840"}}},
{"geometry": {"type": "Point", "coordinates": [-83.6502015102, 41.037045013]}, "type": "Feature", "properties": {"collection_times": [{"days": "Mon-Fri", "time": "11:10am"}, {"days": "Sat", "time": "11:00am"}, {"days": "Sun", "time": "Closed"}], "id": "4584000076", "name": "USPS COLLECTION BOX - BLUE BOX", "address": {"city": "FINDLAY", "state": "OH", "street": "501 S MAIN ST", "postcode": "45840"}}},
{"geometry": {"type": "Point", "coordinates": [-83.6524985087, 41.0391091598]}, "type": "Feature", "properties": {"collection_times": [{"days": "Mon-Fri", "time": "5:30pm"}, {"days": "Sat", "time": "3:30pm"}, {"days": "Sun", "time": "Closed"}], "id": "4584000079", "name": "USPS COLLECTION BOX - APC", "address": {"city": "FINDLAY", "state": "OH", "street": "229 W MAIN CROSS ST", "postcode": "45840"}}},
{"geometry": {"type": "Point", "coordinates": [-83.6498668938, 41.0712894544]}, "type": "Feature", "properties": {"collection_times": [{"days": "Mon-Sat", "time": "10:00am"}, {"days": "Sun", "time": "Closed"}], "id": "4584000080", "name": "USPS COLLECTION BOX - BLUE BOX", "address": {"city": "FINDLAY", "state": "OH", "street": "2701 N MAIN ST", "postcode": "45840"}}},
{"geometry": {"type": "Point", "coordinates": [-83.6152372179, 41.0528380017]}, "type": "Feature", "properties": {"collection_times": [{"days": "Mon-Fri", "time": "12:00pm"}, {"days": "Sat", "time": "10:00am"}, {"days": "Sun", "time": "Closed"}], "id": "4584000081", "name": "USPS COLLECTION BOX - BLUE BOX", "address": {"city": "FINDLAY", "state": "OH", "street": "1800 TIFFIN AVE", "postcode": "45840"}}},
{"geometry": {"type": "Point", "coordinates": [-83.726981252, 40.8996629221]}, "type": "Feature", "properties": {"collection_times": [{"days": "Mon-Sat", "time": "10:00am"}, {"days": "Sun", "time": "Closed"}], "id": "4584100000", "name": "USPS COLLECTION BOX - BLUE BOX", "address": {"city": "JENERA", "state": "OH", "street": "104 N MAIN ST", "postcode": "45841"}}},
{"geometry": {"type": "Point", "coordinates": [-83.512077177, 40.8017073871]}, "type": "Feature", "properties": {"collection_times": [{"days": "Mon-Fri", "time": "3:00pm"}, {"days": "Sat", "time": "11:15am"}, {"days": "Sun", "time": "Closed"}], "id": "4584300001", "name": "USPS COLLECTION BOX - PO LOBBY", "address": {"city": "FOREST", "state": "OH", "street": "108 E LIMA ST", "postcode": "45843"}}},
{"geometry": {"type": "Point", "coordinates": [-83.512077177, 40.8017073871]}, "type": "Feature", "properties": {"collection_times": [{"days": "Mon-Fri", "time": "4:15pm"}, {"days": "Sat", "time": "11:15am"}, {"days": "Sun", "time": "Closed"}], "id": "4584300002", "name": "USPS COLLECTION BOX - BLUE BOX", "address": {"city": "FOREST", "state": "OH", "street": "108 E LIMA ST", "postcode": "45843"}}},
{"geometry": {"type": "Point", "coordinates": [-84.2784130487, 40.9180648677]}, "type": "Feature", "properties": {"collection_times": [{"days": "Mon-Fri", "time": "4:00pm"}, {"days": "Sat", "time": "11:00am"}, {"days": "Sun", "time": "Closed"}], "id": "4584400000", "name": "USPS COLLECTION BOX - BLUE BOX", "address": {"city": "FORT JENNINGS", "state": "OH", "street": "20 S WATER ST", "postcode": "45844"}}},
{"geometry": {"type": "Point", "coordinates": [-84.2784130487, 40.9180648677]}, "type": "Feature", "properties": {"collection_times": [{"days": "Mon-Fri", "time": "4:00pm"}, {"days": "Sat", "time": "11:00am"}, {"days": "Sun", "time": "Closed"}], "id": "4584400001", "name": "USPS COLLECTION BOX - PO LOBBY", "address": {"city": "FORT JENNINGS", "state": "OH", "street": "20 S WATER ST", "postcode": "45844"}}},
{"geometry": {"type": "Point", "coordinates": [-84.3742712221, 40.3498082929]}, "type": "Feature", "properties": {"collection_times": [{"days": "Mon-Fri", "time": "4:15pm"}, {"days": "Sat", "time": "11:15am"}, {"days": "Sun", "time": "Closed"}], "id": "4584500000", "name": "USPS COLLECTION BOX - BLUE BOX", "address": {"city": "FORT LORAMIE", "state": "OH", "street": "13 E PARK ST", "postcode": "45845"}}},
{"geometry": {"type": "Point", "coordinates": [-84.3742712221, 40.3498082929]}, "type": "Feature", "properties": {"collection_times": [{"days": "Mon-Fri", "time": "4:15pm"}, {"days": "Sat", "time": "11:15am"}, {"days": "Sun", "time": "Closed"}], "id": "4584500001", "name": "USPS COLLECTION BOX - PO LOBBY", "address": {"city": "FORT LORAMIE", "state": "OH", "street": "13 E PARK ST", "postcode": "45845"}}},
{"geometry": {"type": "Point", "coordinates": [-84.3754159521, 40.3465984209]}, "type": "Feature", "properties": {"collection_times": [{"days": "Mon-Sat", "time": "12:30pm"}, {"days": "Sun", "time": "Closed"}], "id": "4584500003", "name": "USPS COLLECTION BOX - BLUE BOX", "address": {"city": "FORT LORAMIE", "state": "OH", "street": "200 S MAIN ST", "postcode": "45845"}}},
{"geometry": {"type": "Point", "coordinates": [-84.7538787531, 40.3306484082]}, "type": "Feature", "properties": {"collection_times": [{"days": "Mon-Fri", "time": "4:15pm"}, {"days": "Sat", "time": "11:45am"}, {"days": "Sun", "time": "Closed"}], "id": "4584600000", "name": "USPS COLLECTION BOX - PO LOBBY", "address": {"city": "FORT RECOVERY", "state": "OH", "street": "206 SAINT CLAIR ST", "postcode": "45846"}}},
{"geometry": {"type": "Point", "coordinates": [-84.7538787531, 40.3306484082]}, "type": "Feature", "properties": {"collection_times": [{"days": "Mon-Fri", "time": "4:15pm"}, {"days": "Sat", "time": "11:45am"}, {"days": "Sun", "time": "Closed"}], "id": "4584600001", "name": "USPS COLLECTION BOX - BLUE BOX", "address": {"city": "FORT RECOVERY", "state": "OH", "street": "206 SAINT CLAIR ST", "postcode": "45846"}}},
{"geometry": {"type": "Point", "coordinates": [-84.0782311061, 41.0277088671]}, "type": "Feature", "properties": {"collection_times": [{"days": "Mon-Fri", "time": "4:15pm"}, {"days": "Sat", "time": "11:15am"}, {"days": "Sun", "time": "Closed"}], "id": "4584800000", "name": "USPS COLLECTION BOX - PO LOBBY", "address": {"city": "GLANDORF", "state": "OH", "street": "130 S MAIN ST", "postcode": "45848"}}},
{"geometry": {"type": "Point", "coordinates": [-84.0782311061, 41.0277088671]}, "type": "Feature", "properties": {"collection_times": [{"days": "Mon-Fri", "time": "4:15pm"}, {"days": "Sat", "time": "11:15am"}, {"days": "Sun", "time": "Closed"}], "id": "4584800001", "name": "USPS COLLECTION BOX - BLUE BOX", "address": {"city": "GLANDORF", "state": "OH", "street": "130 S MAIN ST", "postcode": "45848"}}},
{"geometry": {"type": "Point", "coordinates": [-84.4764714928, 41.0191896595]}, "type": "Feature", "properties": {"collection_times": [{"days": "Mon-Fri", "time": "3:45pm"}, {"days": "Sat", "time": "11:30am"}, {"days": "Sun", "time": "Closed"}], "id": "4584900000", "name": "USPS COLLECTION BOX - BLUE BOX", "address": {"city": "GROVER HILL", "state": "OH", "street": "100 S MAIN ST", "postcode": "45849"}}},
{"geometry": {"type": "Point", "coordinates": [-84.4764714928, 41.0191896595]}, "type": "Feature", "properties": {"collection_times": [{"days": "Mon-Fri", "time": "3:45pm"}, {"days": "Sat", "time": "11:30am"}, {"days": "Sun", "time": "Closed"}], "id": "4584900001", "name": "USPS COLLECTION BOX - PO LOBBY", "address": {"city": "GROVER HILL", "state": "OH", "street": "100 S MAIN ST", "postcode": "45849"}}},
{"geometry": {"type": "Point", "coordinates": [-83.9214544772, 40.7092060547]}, "type": "Feature", "properties": {"collection_times": [{"days": "Mon-Fri", "time": "4:00pm"}, {"days": "Sat", "time": "10:45am"}, {"days": "Sun", "time": "Closed"}], "id": "4585000000", "name": "USPS COLLECTION BOX - BLUE BOX", "address": {"city": "HARROD", "state": "OH", "street": "129 W 3RD ST", "postcode": "45850"}}},
{"geometry": {"type": "Point", "coordinates": [-83.9214544772, 40.7092060547]}, "type": "Feature", "properties": {"collection_times": [{"days": "Mon-Fri", "time": "3:15pm"}, {"days": "Sat", "time": "10:45am"}, {"days": "Sun", "time": "Closed"}], "id": "4585000001", "name": "USPS COLLECTION BOX - PO LOBBY", "address": {"city": "HARROD", "state": "OH", "street": "129 W 3RD ST", "postcode": "45850"}}},
{"geometry": {"type": "Point", "coordinates": [-84.5815561317, 41.0191040186]}, "type": "Feature", "properties": {"collection_times": [{"days": "Mon-Fri", "time": "3:45pm"}, {"days": "Sat", "time": "10:45am"}, {"days": "Sun", "time": "Closed"}], "id": "4585100000", "name": "USPS COLLECTION BOX - BLUE BOX", "address": {"city": "HAVILAND", "state": "OH", "street": "208 MAIN ST", "postcode": "45851"}}},
{"geometry": {"type": "Point", "coordinates": [-84.5815561317, 41.0191040186]}, "type": "Feature", "properties": {"collection_times": [{"days": "Mon-Fri", "time": "3:45pm"}, {"days": "Sat", "time": "10:45am"}, {"days": "Sun", "time": "Closed"}], "id": "4585100001", "name": "USPS COLLECTION BOX - PO LOBBY", "address": {"city": "HAVILAND", "state": "OH", "street": "208 MAIN ST", "postcode": "45851"}}},
{"geometry": {"type": "Point", "coordinates": [-84.2017197269, 40.9812683005]}, "type": "Feature", "properties": {"collection_times": [{"days": "Mon-Fri", "time": "4:00pm"}, {"days": "Sat", "time": "11:00am"}, {"days": "Sun", "time": "Closed"}], "id": "4585300000", "name": "USPS COLLECTION BOX - BLUE BOX", "address": {"city": "KALIDA", "state": "OH", "street": "114 MAIN ST", "postcode": "45853"}}},
{"geometry": {"type": "Point", "coordinates": [-84.2017197269, 40.9812683005]}, "type": "Feature", "properties": {"collection_times": [{"days": "Mon-Fri", "time": "4:00pm"}, {"days": "Sat", "time": "11:00am"}, {"days": "Sun", "time": "Closed"}], "id": "4585300001", "name": "USPS COLLECTION BOX - PO LOBBY", "address": {"city": "KALIDA", "state": "OH", "street": "114 MAIN ST", "postcode": "45853"}}},
{"geometry": {"type": "Point", "coordinates": [-84.5815346895, 41.0876966527]}, "type": "Feature", "properties": {"collection_times": [{"days": "Mon-Fri", "time": "4:00pm"}, {"days": "Sat", "time": "11:00am"}, {"days": "Sun", "time": "Closed"}], "id": "4585500000", "name": "USPS COLLECTION BOX - BLUE BOX", "address": {"city": "LATTY", "state": "OH", "street": "380 2ND ST", "postcode": "45855"}}},
{"geometry": {"type": "Point", "coordinates": [-84.5815346895, 41.0876966527]}, "type": "Feature", "properties": {"collection_times": [{"days": "Mon-Fri", "time": "4:00pm"}, {"days": "Sat", "time": "11:00am"}, {"days": "Sun", "time": "Closed"}], "id": "4585500001", "name": "USPS COLLECTION BOX - PO LOBBY", "address": {"city": "LATTY", "state": "OH", "street": "380 2ND ST", "postcode": "45855"}}},
{"geometry": {"type": "Point", "coordinates": [-83.985148759, 41.0989972925]}, "type": "Feature", "properties": {"collection_times": [{"days": "Mon-Sat", "time": "8:30am"}, {"days": "Sun", "time": "Closed"}], "id": "4585600004", "name": "USPS COLLECTION BOX - BLUE BOX", "address": {"city": "LEIPSIC", "state": "OH", "street": "142 E MAIN ST", "postcode": "45856"}}},
{"geometry": {"type": "Point", "coordinates": [-83.9853484171, 41.0975242243]}, "type": "Feature", "properties": {"collection_times": [{"days": "Mon-Fri", "time": "4:30pm"}, {"days": "Sat", "time": "12:00pm"}, {"days": "Sun", "time": "Closed"}], "id": "4585600012", "name": "USPS COLLECTION BOX - BLUE BOX", "address": {"city": "LEIPSIC", "state": "OH", "street": "321 S BELMORE ST", "postcode": "45856"}}},
{"geometry": {"type": "Point", "coordinates": [-83.9853484171, 41.0975242243]}, "type": "Feature", "properties": {"collection_times": [{"days": "Mon-Fri", "time": "4:30pm"}, {"days": "Sat", "time": "12:00pm"}, {"days": "Sun", "time": "Closed"}], "id": "4585600014", "name": "USPS COLLECTION BOX - PO LOBBY", "address": {"city": "LEIPSIC", "state": "OH", "street": "321 S BELMORE ST", "postcode": "45856"}}},
{"geometry": {"type": "Point", "coordinates": [-83.7918468391, 41.1065698736]}, "type": "Feature", "properties": {"collection_times": [{"days": "Mon-Fri", "time": "4:00pm"}, {"days": "Sat", "time": "11:30am"}, {"days": "Sun", "time": "Closed"}], "id": "4585800002", "name": "USPS COLLECTION BOX - PO LOBBY", "address": {"city": "MC COMB", "state": "OH", "street": "116 W SOUTH ST", "postcode": "45858"}}},
{"geometry": {"type": "Point", "coordinates": [-83.7918468391, 41.1065698736]}, "type": "Feature", "properties": {"collection_times": [{"days": "Mon-Fri", "time": "4:00pm"}, {"days": "Sat", "time": "11:30am"}, {"days": "Sun", "time": "Closed"}], "id": "4585800003", "name": "USPS COLLECTION BOX - BLUE BOX", "address": {"city": "MC COMB", "state": "OH", "street": "116 W SOUTH ST", "postcode": "45858"}}},
{"geometry": {"type": "Point", "coordinates": [-83.7853596041, 40.6929403238]}, "type": "Feature", "properties": {"collection_times": [{"days": "Mon-Fri", "time": "4:00pm"}, {"days": "Sat", "time": "11:30am"}, {"days": "Sun", "time": "Closed"}], "id": "4585900000", "name": "USPS COLLECTION BOX - BLUE BOX", "address": {"city": "MC GUFFEY", "state": "OH", "street": "402 COURTRIGHT ST", "postcode": "45859"}}},
{"geometry": {"type": "Point", "coordinates": [-83.7853596041, 40.6929403238]}, "type": "Feature", "properties": {"collection_times": [{"days": "Mon-Fri", "time": "4:00pm"}, {"days": "Sat", "time": "11:30am"}, {"days": "Sun", "time": "Closed"}], "id": "4585900002", "name": "USPS COLLECTION BOX - PO LOBBY", "address": {"city": "MC GUFFEY", "state": "OH", "street": "402 COURTRIGHT ST", "postcode": "45859"}}},
{"geometry": {"type": "Point", "coordinates": [-84.4711651524, 40.407648168]}, "type": "Feature", "properties": {"collection_times": [{"days": "Mon-Fri", "time": "4:00pm"}, {"days": "Sat", "time": "11:30am"}, {"days": "Sun", "time": "Closed"}], "id": "4586000000", "name": "USPS COLLECTION BOX - BLUE BOX", "address": {"city": "MARIA STEIN", "state": "OH", "street": "8629 STATE ROUTE 119", "postcode": "45860"}}},
{"geometry": {"type": "Point", "coordinates": [-84.4711651524, 40.407648168]}, "type": "Feature", "properties": {"collection_times": [{"days": "Mon-Fri", "time": "4:00pm"}, {"days": "Sat", "time": "11:30am"}, {"days": "Sun", "time": "Closed"}], "id": "4586000001", "name": "USPS COLLECTION BOX - PO LOBBY", "address": {"city": "MARIA STEIN", "state": "OH", "street": "8629 STATE ROUTE 119", "postcode": "45860"}}},
{"geometry": {"type": "Point", "coordinates": [-84.4844994414, 40.407555828]}, "type": "Feature", "properties": {"collection_times": [{"days": "Mon-Sat", "time": "12:00pm"}, {"days": "Sun", "time": "Closed"}], "id": "4586000002", "name": "USPS COLLECTION BOX - BLUE BOX", "address": {"city": "MARIA STEIN", "state": "OH", "street": "7990 STATE ROUTE 119", "postcode": "45860"}}},
{"geometry": {"type": "Point", "coordinates": [-84.5495391533, 40.4074572755]}, "type": "Feature", "properties": {"collection_times": [{"days": "Mon-Sat", "time": "11:00am"}, {"days": "Sun", "time": "Closed"}], "id": "4586000003", "name": "USPS COLLECTION BOX - BLUE BOX", "address": {"city": "MARIA STEIN", "state": "OH", "street": "6420 STATE ROUTE 119", "postcode": "45860"}}},
{"geometry": {"type": "Point", "coordinates": [-84.4188935981, 41.092520201]}, "type": "Feature", "properties": {"collection_times": [{"days": "Mon-Fri", "time": "4:00pm"}, {"days": "Sat", "time": "11:00am"}, {"days": "Sun", "time": "Closed"}], "id": "4586100000", "name": "USPS COLLECTION BOX - BLUE BOX", "address": {"city": "MELROSE", "state": "OH", "street": "519 STATE ST", "postcode": "45861"}}},
{"geometry": {"type": "Point", "coordinates": [-84.4188935981, 41.092520201]}, "type": "Feature", "properties": {"collection_times": [{"days": "Mon-Fri", "time": "4:00pm"}, {"days": "Sat", "time": "11:00am"}, {"days": "Sun", "time": "Closed"}], "id": "4586100001", "name": "USPS COLLECTION BOX - PO LOBBY", "address": {"city": "MELROSE", "state": "OH", "street": "519 STATE ST", "postcode": "45861"}}},
{"geometry": {"type": "Point", "coordinates": [-84.5187236507, 40.6735460989]}, "type": "Feature", "properties": {"collection_times": [{"days": "Mon-Fri", "time": "4:00pm"}, {"days": "Sat", "time": "11:30am"}, {"days": "Sun", "time": "Closed"}], "id": "4586200000", "name": "USPS COLLECTION BOX - BLUE BOX", "address": {"city": "MENDON", "state": "OH", "street": "113 N MAIN ST", "postcode": "45862"}}},
{"geometry": {"type": "Point", "coordinates": [-84.5187236507, 40.6735460989]}, "type": "Feature", "properties": {"collection_times": [{"days": "Mon-Fri", "time": "4:00pm"}, {"days": "Sat", "time": "11:30am"}, {"days": "Sun", "time": "Closed"}], "id": "4586200001", "name": "USPS COLLECTION BOX - PO LOBBY", "address": {"city": "MENDON", "state": "OH", "street": "113 N MAIN ST", "postcode": "45862"}}},
{"geometry": {"type": "Point", "coordinates": [-84.4447426465, 40.8552353547]}, "type": "Feature", "properties": {"collection_times": [{"days": "Mon-Fri", "time": "3:45pm"}, {"days": "Sat", "time": "11:45am"}, {"days": "Sun", "time": "Closed"}], "id": "4586300000", "name": "USPS COLLECTION BOX - BLUE BOX", "address": {"city": "MIDDLE POINT", "state": "OH", "street": "206 E JACKSON ST", "postcode": "45863"}}},
{"geometry": {"type": "Point", "coordinates": [-84.4447426465, 40.8552353547]}, "type": "Feature", "properties": {"collection_times": [{"days": "Mon-Fri", "time": "3:45pm"}, {"days": "Sat", "time": "11:45am"}, {"days": "Sun", "time": "Closed"}], "id": "4586300001", "name": "USPS COLLECTION BOX - PO LOBBY", "address": {"city": "MIDDLE POINT", "state": "OH", "street": "206 E JACKSON SREET", "postcode": "45863"}}},
{"geometry": {"type": "Point", "coordinates": [-84.131410696, 41.1028479726]}, "type": "Feature", "properties": {"collection_times": [{"days": "Mon-Fri", "time": "4:00pm"}, {"days": "Sat", "time": "11:00am"}, {"days": "Sun", "time": "Closed"}], "id": "4586400000", "name": "USPS COLLECTION BOX - BLUE BOX", "address": {"city": "MILLER CITY", "state": "OH", "street": "108 S MAIN ST", "postcode": "45864"}}},
{"geometry": {"type": "Point", "coordinates": [-84.131410696, 41.1028479726]}, "type": "Feature", "properties": {"collection_times": [{"days": "Mon-Fri", "time": "4:00pm"}, {"days": "Sat", "time": "11:00am"}, {"days": "Sun", "time": "Closed"}], "id": "4586400001", "name": "USPS COLLECTION BOX - PO LOBBY", "address": {"city": "MILLER CITY", "state": "OH", "street": "108 S MAIN ST", "postcode": "45864"}}},
{"geometry": {"type": "Point", "coordinates": [-84.3792323834, 40.3930655036]}, "type": "Feature", "properties": {"collection_times": [{"days": "Mon-Fri", "time": "4:45pm"}, {"days": "Sat", "time": "1:00pm"}, {"days": "Sun", "time": "Closed"}], "id": "4586500000", "name": "USPS COLLECTION BOX - PO LOBBY", "address": {"city": "MINSTER", "state": "OH", "street": "62 E 4TH ST", "postcode": "45865"}}},
{"geometry": {"type": "Point", "coordinates": [-84.3752508347, 40.3929799887]}, "type": "Feature", "properties": {"collection_times": [{"days": "Mon-Sat", "time": "9:00am"}, {"days": "Sun", "time": "Closed"}], "id": "4586500005", "name": "USPS COLLECTION BOX - BLUE BOX", "address": {"city": "MINSTER", "state": "OH", "street": "257 E 4TH ST", "postcode": "45865"}}},
{"geometry": {"type": "Point", "coordinates": [-84.5508639058, 40.4891126305]}, "type": "Feature", "properties": {"collection_times": [{"days": "Mon-Fri", "time": "4:30pm"}, {"days": "Sat", "time": "11:30am"}, {"days": "Sun", "time": "Closed"}], "id": "4586600000", "name": "USPS COLLECTION BOX - BLUE BOX", "address": {"city": "MONTEZUMA", "state": "OH", "street": "99 W MAIN ST", "postcode": "45866"}}},
{"geometry": {"type": "Point", "coordinates": [-84.5508639058, 40.4891126305]}, "type": "Feature", "properties": {"collection_times": [{"days": "Mon-Fri", "time": "4:30pm"}, {"days": "Sat", "time": "11:30am"}, {"days": "Sun", "time": "Closed"}], "id": "4586600001", "name": "USPS COLLECTION BOX - PO LOBBY", "address": {"city": "MONTEZUMA", "state": "OH", "street": "99 W MAIN ST", "postcode": "45866"}}},
{"geometry": {"type": "Point", "coordinates": [-83.5567627183, 40.8995246929]}, "type": "Feature", "properties": {"collection_times": [{"days": "Mon-Fri", "time": "4:15pm"}, {"days": "Sat", "time": "11:30am"}, {"days": "Sun", "time": "Closed"}], "id": "4586700000", "name": "USPS COLLECTION BOX - BLUE BOX", "address": {"city": "MT BLANCHARD", "state": "OH", "street": "121 N MAIN ST", "postcode": "45867"}}},
{"geometry": {"type": "Point", "coordinates": [-83.5567627183, 40.8995246929]}, "type": "Feature", "properties": {"collection_times": [{"days": "Mon-Fri", "time": "4:15pm"}, {"days": "Sat", "time": "11:45am"}, {"days": "Sun", "time": "Closed"}], "id": "4586700001", "name": "USPS COLLECTION BOX - PO LOBBY", "address": {"city": "MT BLANCHARD", "state": "OH", "street": "121 N MAIN ST", "postcode": "45867"}}},
{"geometry": {"type": "Point", "coordinates": [-83.8252436741, 40.9353639429]}, "type": "Feature", "properties": {"collection_times": [{"days": "Mon-Fri", "time": "4:00pm"}, {"days": "Sat", "time": "11:00am"}, {"days": "Sun", "time": "Closed"}], "id": "4586800000", "name": "USPS COLLECTION BOX - BLUE BOX", "address": {"city": "MOUNT CORY", "state": "OH", "street": "209 LINCOLN ST", "postcode": "45868"}}},
{"geometry": {"type": "Point", "coordinates": [-83.8252436741, 40.9353639429]}, "type": "Feature", "properties": {"collection_times": [{"days": "Mon-Fri", "time": "4:00pm"}, {"days": "Sat", "time": "11:00am"}, {"days": "Sun", "time": "Closed"}], "id": "4586800001", "name": "USPS COLLECTION BOX - PO LOBBY", "address": {"city": "MOUNT CORY", "state": "OH", "street": "209 LINCOLN ST", "postcode": "45868"}}},
{"geometry": {"type": "Point", "coordinates": [-84.3801126076, 40.4370294905]}, "type": "Feature", "properties": {"collection_times": [{"days": "Mon-Sat", "time": "3:30pm"}, {"days": "Sun", "time": "Closed"}], "id": "4586900000", "name": "USPS COLLECTION BOX - BLUE BOX", "address": {"city": "NEW BREMEN", "state": "OH", "street": "14 N WASHINGTON ST", "postcode": "45869"}}},
{"geometry": {"type": "Point", "coordinates": [-84.3790771674, 40.4295345116]}, "type": "Feature", "properties": {"collection_times": [{"days": "Mon-Sat", "time": "10:00am"}, {"days": "Sun", "time": "Closed"}], "id": "4586900001", "name": "USPS COLLECTION BOX - BLUE BOX", "address": {"city": "NEW BREMEN", "state": "OH", "street": "444 S WASHINGTON ST", "postcode": "45869"}}},
{"geometry": {"type": "Point", "coordinates": [-84.3827339733, 40.4382163642]}, "type": "Feature", "properties": {"collection_times": [{"days": "Mon-Fri", "time": "4:30pm"}, {"days": "Sat", "time": "1:00pm"}, {"days": "Sun", "time": "Closed"}], "id": "4586900002", "name": "USPS COLLECTION BOX - BLUE BOX", "address": {"city": "NEW BREMEN", "state": "OH", "street": "109 N MAIN ST", "postcode": "45869"}}},
{"geometry": {"type": "Point", "coordinates": [-84.3827344865, 40.4382405734]}, "type": "Feature", "properties": {"collection_times": [{"days": "Mon-Fri", "time": "4:30pm"}, {"days": "Sat", "time": "1:00pm"}, {"days": "Sun", "time": "Closed"}], "id": "4586900005", "name": "USPS COLLECTION BOX - PO LOBBY", "address": {"city": "NEW BREMEN", "state": "OH", "street": "111 N MAIN ST", "postcode": "45869"}}},
{"geometry": {"type": "Point", "coordinates": [-84.3827344865, 40.4382405734]}, "type": "Feature", "properties": {"collection_times": [{"days": "Mon-Fri", "time": "4:30pm"}, {"days": "Sat", "time": "1:00pm"}, {"days": "Sun", "time": "Closed"}], "id": "4586900006", "name": "USPS COLLECTION BOX - PO LOBBY", "address": {"city": "NEW BREMEN", "state": "OH", "street": "111 N MAIN ST", "postcode": "45869"}}},
{"geometry": {"type": "Point", "coordinates": [-83.953567605, 40.5560872077]}, "type": "Feature", "properties": {"collection_times": [{"days": "Mon-Fri", "time": "4:30pm"}, {"days": "Sat", "time": "12:00pm"}, {"days": "Sun", "time": "Closed"}], "id": "4587000000", "name": "USPS COLLECTION BOX - PO LOBBY", "address": {"city": "NEW HAMPSHIRE", "state": "OH", "street": "46 E MARKET ST", "postcode": "45870"}}},
{"geometry": {"type": "Point", "coordinates": [-83.953567605, 40.5560872077]}, "type": "Feature", "properties": {"collection_times": [{"days": "Mon-Fri", "time": "4:30pm"}, {"days": "Sat", "time": "12:00pm"}, {"days": "Sun", "time": "Closed"}], "id": "4587000001", "name": "USPS COLLECTION BOX - BLUE BOX", "address": {"city": "NEW HAMPSHIRE", "state": "OH", "street": "46 E MARKET ST", "postcode": "45870"}}},
{"geometry": {"type": "Point", "coordinates": [-84.3171139799, 40.4927187614]}, "type": "Feature", "properties": {"collection_times": [{"days": "Mon-Fri", "time": "3:30pm"}, {"days": "Sat", "time": "11:30am"}, {"days": "Sun", "time": "Closed"}], "id": "4587100000", "name": "USPS COLLECTION BOX - BLUE BOX", "address": {"city": "NEW KNOXVILLE", "state": "OH", "street": "102 S MAIN ST", "postcode": "45871"}}},
{"geometry": {"type": "Point", "coordinates": [-84.3161463194, 40.4927234932]}, "type": "Feature", "properties": {"collection_times": [{"days": "Mon-Fri", "time": "3:30pm"}, {"days": "Sat", "time": "11:30am"}, {"days": "Sun", "time": "Closed"}], "id": "4587100001", "name": "USPS COLLECTION BOX - PO LOBBY", "address": {"city": "NEW KNOXVILLE", "state": "OH", "street": "105 S MAIN ST", "postcode": "45871"}}},
{"geometry": {"type": "Point", "coordinates": [-83.6774774209, 41.1828487409]}, "type": "Feature", "properties": {"collection_times": [{"days": "Mon-Fri", "time": "4:30pm"}, {"days": "Sat", "time": "11:00am"}, {"days": "Sun", "time": "Closed"}], "id": "4587200001", "name": "USPS COLLECTION BOX - PO LOBBY", "address": {"city": "NORTH BALTIMORE", "state": "OH", "street": "115 E BROADWAY ST", "postcode": "45872"}}},
{"geometry": {"type": "Point", "coordinates": [-83.6774774209, 41.1828487409]}, "type": "Feature", "properties": {"collection_times": [{"days": "Mon-Fri", "time": "4:30pm"}, {"days": "Sat", "time": "11:00am"}, {"days": "Sun", "time": "Closed"}], "id": "4587200002", "name": "USPS COLLECTION BOX - BLUE BOX", "address": {"city": "NORTH BALTIMORE", "state": "OH", "street": "115 E BROADWAY ST", "postcode": "45872"}}},
{"geometry": {"type": "Point", "coordinates": [-83.6388827989, 41.1728322358]}, "type": "Feature", "properties": {"collection_times": [{"days": "Mon-Sat", "time": "9:00am"}, {"days": "Sun", "time": "Closed"}], "id": "4587200008", "name": "USPS COLLECTION BOX - BLUE BOX", "address": {"city": "NORTH BALTIMORE", "state": "OH", "street": "12906 DESHLER RD", "postcode": "45872"}}},
{"geometry": {"type": "Point", "coordinates": [-84.3803589489, 41.094987499]}, "type": "Feature", "properties": {"collection_times": [{"days": "Mon-Fri", "time": "4:15pm"}, {"days": "Sat", "time": "11:30am"}, {"days": "Sun", "time": "Closed"}], "id": "4587300001", "name": "USPS COLLECTION BOX - BLUE BOX", "address": {"city": "OAKWOOD", "state": "OH", "street": "223 N 1ST ST", "postcode": "45873"}}},
{"geometry": {"type": "Point", "coordinates": [-84.3803589489, 41.094987499]}, "type": "Feature", "properties": {"collection_times": [{"days": "Mon-Fri", "time": "4:15pm"}, {"days": "Sat", "time": "11:30am"}, {"days": "Sun", "time": "Closed"}], "id": "4587300002", "name": "USPS COLLECTION BOX - PO LOBBY", "address": {"city": "OAKWOOD", "state": "OH", "street": "223 N 1ST ST", "postcode": "45873"}}},
{"geometry": {"type": "Point", "coordinates": [-84.6153155654, 40.7702318955]}, "type": "Feature", "properties": {"collection_times": [{"days": "Mon-Fri", "time": "4:00pm"}, {"days": "Sat", "time": "11:15am"}, {"days": "Sun", "time": "Closed"}], "id": "4587400000", "name": "USPS COLLECTION BOX - PO LOBBY", "address": {"city": "OHIO CITY", "state": "OH", "street": "118 S MAIN ST", "postcode": "45874"}}},
{"geometry": {"type": "Point", "coordinates": [-84.6153155654, 40.7702318955]}, "type": "Feature", "properties": {"collection_times": [{"days": "Mon-Fri", "time": "4:00pm"}, {"days": "Sat", "time": "11:15am"}, {"days": "Sun", "time": "Closed"}], "id": "4587400001", "name": "USPS COLLECTION BOX - BLUE BOX", "address": {"city": "OHIO CITY", "state": "OH", "street": "118 S MAIN ST", "postcode": "45874"}}},
{"geometry": {"type": "Point", "coordinates": [-84.0457154233, 41.01913336]}, "type": "Feature", "properties": {"collection_times": [{"days": "Mon-Fri", "time": "4:30pm"}, {"days": "Sat", "time": "3:30pm"}, {"days": "Sun", "time": "Closed"}], "id": "4587500001", "name": "USPS COLLECTION BOX - BLUE BOX", "address": {"city": "OTTAWA", "state": "OH", "street": "404 E MAIN ST", "postcode": "45875"}}},
{"geometry": {"type": "Point", "coordinates": [-84.0457154233, 41.01913336]}, "type": "Feature", "properties": {"collection_times": [{"days": "Mon-Fri", "time": "4:30pm"}, {"days": "Sat", "time": "3:30pm"}, {"days": "Sun", "time": "Closed"}], "id": "4587500002", "name": "USPS COLLECTION BOX - BLUE BOX", "address": {"city": "OTTAWA", "state": "OH", "street": "404 E MAIN ST", "postcode": "45875"}}},
{"geometry": {"type": "Point", "coordinates": [-84.0457154233, 41.01913336]}, "type": "Feature", "properties": {"collection_times": [{"days": "Mon-Fri", "time": "4:30pm"}, {"days": "Sat", "time": "3:30pm"}, {"days": "Sun", "time": "Closed"}], "id": "4587500003", "name": "USPS COLLECTION BOX - PO LOBBY", "address": {"city": "OTTAWA", "state": "OH", "street": "404 E MAIN ST", "postcode": "45875"}}},
{"geometry": {"type": "Point", "coordinates": [-84.0457154233, 41.01913336]}, "type": "Feature", "properties": {"collection_times": [{"days": "Mon-Fri", "time": "4:30pm"}, {"days": "Sat", "time": "3:30pm"}, {"days": "Sun", "time": "Closed"}], "id": "4587500004", "name": "USPS COLLECTION BOX - PO LOBBY", "address": {"city": "OTTAWA", "state": "OH", "street": "404 E MAIN ST", "postcode": "45875"}}},
{"geometry": {"type": "Point", "coordinates": [-84.3392865825, 40.9322102032]}, "type": "Feature", "properties": {"collection_times": [{"days": "Mon-Fri", "time": "4:15pm"}, {"days": "Sat", "time": "11:15am"}, {"days": "Sun", "time": "Closed"}], "id": "4587600000", "name": "USPS COLLECTION BOX - PO LOBBY", "address": {"city": "OTTOVILLE", "state": "OH", "street": "103 E 3RD ST", "postcode": "45876"}}},
{"geometry": {"type": "Point", "coordinates": [-84.3392865825, 40.9322102032]}, "type": "Feature", "properties": {"collection_times": [{"days": "Mon-Fri", "time": "4:15pm"}, {"days": "Sat", "time": "11:15am"}, {"days": "Sun", "time": "Closed"}], "id": "4587600001", "name": "USPS COLLECTION BOX - BLUE BOX", "address": {"city": "OTTOVILLE", "state": "OH", "street": "103 E 3RD ST", "postcode": "45876"}}},
{"geometry": {"type": "Point", "coordinates": [-83.9617373489, 40.9480902103]}, "type": "Feature", "properties": {"collection_times": [{"days": "Mon-Fri", "time": "4:00pm"}, {"days": "Sat", "time": "11:15am"}, {"days": "Sun", "time": "Closed"}], "id": "4587700000", "name": "USPS COLLECTION BOX - BLUE BOX", "address": {"city": "PANDORA", "state": "OH", "street": "120 E MAIN ST", "postcode": "45877"}}},
{"geometry": {"type": "Point", "coordinates": [-83.9617373489, 40.9480902103]}, "type": "Feature", "properties": {"collection_times": [{"days": "Mon-Fri", "time": "4:30pm"}, {"days": "Sat", "time": "11:15am"}, {"days": "Sun", "time": "Closed"}], "id": "4587700001", "name": "USPS COLLECTION BOX - PO LOBBY", "address": {"city": "PANDORA", "state": "OH", "street": "120 E MAIN ST", "postcode": "45877"}}},
{"geometry": {"type": "Point", "coordinates": [-83.9617373489, 40.9480902103]}, "type": "Feature", "properties": {"collection_times": [{"days": "Mon-Fri", "time": "4:30pm"}, {"days": "Sat", "time": "11:15am"}, {"days": "Sun", "time": "Closed"}], "id": "4587700002", "name": "USPS COLLECTION BOX - PO LOBBY", "address": {"city": "PANDORA", "state": "OH", "street": "120 E MAIN ST", "postcode": "45877"}}},
{"geometry": {"type": "Point", "coordinates": [-84.5810343726, 41.1383085632]}, "type": "Feature", "properties": {"collection_times": [{"days": "Mon-Fri", "time": "4:30pm"}, {"days": "Sat-Sun", "time": "Closed"}], "id": "4587900000", "name": "USPS COLLECTION BOX - BLUE BOX", "address": {"city": "PAULDING", "state": "OH", "street": "121 W JACKSON ST", "postcode": "45879"}}},
{"geometry": {"type": "Point", "coordinates": [-84.5810343726, 41.1383085632]}, "type": "Feature", "properties": {"collection_times": [{"days": "Mon-Fri", "time": "4:30pm"}, {"days": "Sat-Sun", "time": "Closed"}], "id": "4587900002", "name": "USPS COLLECTION BOX - PO LOBBY", "address": {"city": "PAULDING", "state": "OH", "street": "121 W JACKSON ST", "postcode": "45879"}}},
{"geometry": {"type": "Point", "coordinates": [-84.5806831411, 41.1374819208]}, "type": "Feature", "properties": {"collection_times": [{"days": "Mon-Fri", "time": "3:30pm"}, {"days": "Sat", "time": "1:00pm"}, {"days": "Sun", "time": "Closed"}], "id": "4587900006", "name": "USPS COLLECTION BOX - BLUE BOX", "address": {"city": "PAULDING", "state": "OH", "street": "115 N WILLIAMS ST", "postcode": "45879"}}},
{"geometry": {"type": "Point", "coordinates": [-84.5807804149, 41.151500495]}, "type": "Feature", "properties": {"collection_times": [{"days": "Mon-Sat", "time": "12:45pm"}, {"days": "Sun", "time": "Closed"}], "id": "4587900008", "name": "USPS COLLECTION BOX - BLUE BOX", "address": {"city": "PAULDING", "state": "OH", "street": "1069 N WILLIAMS ST", "postcode": "45879"}}},
{"geometry": {"type": "Point", "coordinates": [-84.7255596917, 41.0792433604]}, "type": "Feature", "properties": {"collection_times": [{"days": "Mon-Fri", "time": "3:30pm"}, {"days": "Sat", "time": "11:45am"}, {"days": "Sun", "time": "Closed"}], "id": "4588000000", "name": "USPS COLLECTION BOX - BLUE BOX", "address": {"city": "PAYNE", "state": "OH", "street": "101 S LAURA ST", "postcode": "45880"}}},
{"geometry": {"type": "Point", "coordinates": [-84.7255596917, 41.0792433604]}, "type": "Feature", "properties": {"collection_times": [{"days": "Mon-Fri", "time": "3:30pm"}, {"days": "Sat", "time": "11:45am"}, {"days": "Sun", "time": "Closed"}], "id": "4588000002", "name": "USPS COLLECTION BOX - PO LOBBY", "address": {"city": "PAYNE", "state": "OH", "street": "101 S LAURA ST", "postcode": "45880"}}},
{"geometry": {"type": "Point", "coordinates": [-83.7851383793, 40.9566987441]}, "type": "Feature", "properties": {"collection_times": [{"days": "Mon-Fri", "time": "4:15pm"}, {"days": "Sat", "time": "11:15am"}, {"days": "Sun", "time": "Closed"}], "id": "4588100001", "name": "USPS COLLECTION BOX - BLUE BOX", "address": {"city": "RAWSON", "state": "OH", "street": "101 S MAIN ST", "postcode": "45881"}}},
{"geometry": {"type": "Point", "coordinates": [-84.6464849814, 40.6937685062]}, "type": "Feature", "properties": {"collection_times": [{"days": "Mon-Sat", "time": "12:30pm"}, {"days": "Sun", "time": "Closed"}], "id": "4588200000", "name": "USPS COLLECTION BOX - BLUE BOX", "address": {"city": "ROCKFORD", "state": "OH", "street": "301 N MAIN ST", "postcode": "45882"}}},
{"geometry": {"type": "Point", "coordinates": [-84.646495853, 40.6925635983]}, "type": "Feature", "properties": {"collection_times": [{"days": "Mon-Fri", "time": "3:30pm"}, {"days": "Sat", "time": "11:30am"}, {"days": "Sun", "time": "Closed"}], "id": "4588200002", "name": "USPS COLLECTION BOX - PO LOBBY", "address": {"city": "ROCKFORD", "state": "OH", "street": "101 S MAIN ST", "postcode": "45882"}}},
{"geometry": {"type": "Point", "coordinates": [-84.6468295359, 40.6916424815]}, "type": "Feature", "properties": {"collection_times": [{"days": "Mon-Fri", "time": "3:30pm"}, {"days": "Sat", "time": "11:30am"}, {"days": "Sun", "time": "Closed"}], "id": "4588200003", "name": "USPS COLLECTION BOX - BLUE BOX", "address": {"city": "ROCKFORD", "state": "OH", "street": "128 MARKET ST", "postcode": "45882"}}},
{"geometry": {"type": "Point", "coordinates": [-84.6330604061, 40.4177852988]}, "type": "Feature", "properties": {"collection_times": [{"days": "Mon-Fri", "time": "4:00pm"}, {"days": "Sat", "time": "11:45am"}, {"days": "Sun", "time": "Closed"}], "id": "4588300000", "name": "USPS COLLECTION BOX - BLUE BOX", "address": {"city": "SAINT HENRY", "state": "OH", "street": "301 E MAIN ST", "postcode": "45883"}}},
{"geometry": {"type": "Point", "coordinates": [-84.6330604061, 40.4177852988]}, "type": "Feature", "properties": {"collection_times": [{"days": "Mon-Fri", "time": "4:00pm"}, {"days": "Sat", "time": "11:45am"}, {"days": "Sun", "time": "Closed"}], "id": "4588300001", "name": "USPS COLLECTION BOX - PO LOBBY", "address": {"city": "SAINT HENRY", "state": "OH", "street": "301 E MAIN ST", "postcode": "45883"}}},
{"geometry": {"type": "Point", "coordinates": [-84.0843181873, 40.5559763864]}, "type": "Feature", "properties": {"collection_times": [{"days": "Mon-Fri", "time": "4:30pm"}, {"days": "Sat", "time": "12:30pm"}, {"days": "Sun", "time": "Closed"}], "id": "4588400000", "name": "USPS COLLECTION BOX - BLUE BOX", "address": {"city": "ST JOHNS", "state": "OH", "street": "19210 CENTER ST", "postcode": "45884"}}},
{"geometry": {"type": "Point", "coordinates": [-84.0843181873, 40.5559763864]}, "type": "Feature", "properties": {"collection_times": [{"days": "Mon-Fri", "time": "4:30pm"}, {"days": "Sat", "time": "12:30pm"}, {"days": "Sun", "time": "Closed"}], "id": "4588400001", "name": "USPS COLLECTION BOX - PO LOBBY", "address": {"city": "ST JOHNS", "state": "OH", "street": "19210 CENTER ST", "postcode": "45884"}}},
{"geometry": {"type": "Point", "coordinates": [-84.3864829674, 40.5441491286]}, "type": "Feature", "properties": {"collection_times": [{"days": "Mon-Fri", "time": "5:00pm"}, {"days": "Sat", "time": "4:15pm"}, {"days": "Sun", "time": "Closed"}], "id": "4588500000", "name": "USPS COLLECTION BOX - PO LOBBY", "address": {"city": "SAINT MARYS", "state": "OH", "street": "120 N CHESTNUT ST", "postcode": "45885"}}},
{"geometry": {"type": "Point", "coordinates": [-84.3864829674, 40.5441491286]}, "type": "Feature", "properties": {"collection_times": [{"days": "Mon-Fri", "time": "5:00pm"}, {"days": "Sat", "time": "4:15pm"}, {"days": "Sun", "time": "Closed"}], "id": "4588500001", "name": "USPS COLLECTION BOX - PO LOBBY", "address": {"city": "SAINT MARYS", "state": "OH", "street": "120 N CHESTNUT ST", "postcode": "45885"}}},
{"geometry": {"type": "Point", "coordinates": [-84.3864829674, 40.5441491286]}, "type": "Feature", "properties": {"collection_times": [{"days": "Mon-Fri", "time": "5:00pm"}, {"days": "Sat", "time": "4:00pm"}, {"days": "Sun", "time": "Closed"}], "id": "4588500002", "name": "USPS COLLECTION BOX - BLUE BOX", "address": {"city": "SAINT MARYS", "state": "OH", "street": "120 N CHESTNUT ST", "postcode": "45885"}}},
{"geometry": {"type": "Point", "coordinates": [-84.4072613678, 40.544506339]}, "type": "Feature", "properties": {"collection_times": [{"days": "Mon-Sat", "time": "3:00pm"}, {"days": "Sun", "time": "Closed"}], "id": "4588500004", "name": "USPS COLLECTION BOX - BLUE BOX", "address": {"city": "SAINT MARYS", "state": "OH", "street": "1550 CELINA RD", "postcode": "45885"}}},
{"geometry": {"type": "Point", "coordinates": [-84.3881831068, 40.5432451919]}, "type": "Feature", "properties": {"collection_times": [{"days": "Mon-Sat", "time": "3:00pm"}, {"days": "Sun", "time": "Closed"}], "id": "4588500007", "name": "USPS COLLECTION BOX - BLUE BOX", "address": {"city": "SAINT MARYS", "state": "OH", "street": "106 E SPRING ST", "postcode": "45885"}}},
{"geometry": {"type": "Point", "coordinates": [-84.4047847633, 40.5511185527]}, "type": "Feature", "properties": {"collection_times": [{"days": "Mon-Sat", "time": "9:15am"}, {"days": "Sun", "time": "Closed"}], "id": "4588500011", "name": "USPS COLLECTION BOX - BLUE BOX", "address": {"city": "SAINT MARYS", "state": "OH", "street": "1248 INDIANA AVE", "postcode": "45885"}}},
{"geometry": {"type": "Point", "coordinates": [-84.3912417375, 40.5424491733]}, "type": "Feature", "properties": {"collection_times": [{"days": "Mon-Sat", "time": "3:00pm"}, {"days": "Sun", "time": "Closed"}], "id": "4588500033", "name": "USPS COLLECTION BOX - BLUE BOX", "address": {"city": "SAINT MARYS", "state": "OH", "street": "112 COURT ST", "postcode": "45885"}}},
{"geometry": {"type": "Point", "coordinates": [-84.5836648054, 40.9898144738]}, "type": "Feature", "properties": {"collection_times": [{"days": "Mon-Fri", "time": "4:00pm"}, {"days": "Sat", "time": "11:30am"}, {"days": "Sun", "time": "Closed"}], "id": "4588600000", "name": "USPS COLLECTION BOX - BLUE BOX", "address": {"city": "SCOTT", "state": "OH", "street": "12436 BLAINE ST", "postcode": "45886"}}},
{"geometry": {"type": "Point", "coordinates": [-84.5836648054, 40.9898144738]}, "type": "Feature", "properties": {"collection_times": [{"days": "Mon-Fri", "time": "4:00pm"}, {"days": "Sat", "time": "11:30am"}, {"days": "Sun", "time": "Closed"}], "id": "4588600001", "name": "USPS COLLECTION BOX - PO LOBBY", "address": {"city": "SCOTT", "state": "OH", "street": "12436 BLAINE ST", "postcode": "45886"}}},
{"geometry": {"type": "Point", "coordinates": [-84.3543573897, 40.7071795055]}, "type": "Feature", "properties": {"collection_times": [{"days": "Mon-Fri", "time": "4:45pm"}, {"days": "Sat", "time": "12:15pm"}, {"days": "Sun", "time": "Closed"}], "id": "4588700001", "name": "USPS COLLECTION BOX - BLUE BOX", "address": {"city": "SPENCERVILLE", "state": "OH", "street": "121 S BROADWAY ST", "postcode": "45887"}}},
{"geometry": {"type": "Point", "coordinates": [-84.3543573897, 40.7071795055]}, "type": "Feature", "properties": {"collection_times": [{"days": "Mon-Fri", "time": "4:45pm"}, {"days": "Sat", "time": "12:15pm"}, {"days": "Sun", "time": "Closed"}], "id": "4588700002", "name": "USPS COLLECTION BOX - PO LOBBY", "address": {"city": "SPENCERVILLE", "state": "OH", "street": "121 S BROADWAY ST", "postcode": "45887"}}},
{"geometry": {"type": "Point", "coordinates": [-84.3543573897, 40.7071795055]}, "type": "Feature", "properties": {"collection_times": [{"days": "Mon-Fri", "time": "4:45pm"}, {"days": "Sat", "time": "12:15pm"}, {"days": "Sun", "time": "Closed"}], "id": "4588700003", "name": "USPS COLLECTION BOX - PO LOBBY", "address": {"city": "SPENCERVILLE", "state": "OH", "street": "121 S BROADWAY ST", "postcode": "45887"}}},
{"geometry": {"type": "Point", "coordinates": [-84.0874581222, 40.6015864269]}, "type": "Feature", "properties": {"collection_times": [{"days": "Mon-Fri", "time": "4:00pm"}, {"days": "Sat", "time": "11:00am"}, {"days": "Sun", "time": "Closed"}], "id": "4588800000", "name": "USPS COLLECTION BOX - PO LOBBY", "address": {"city": "UNIOPOLIS", "state": "OH", "street": "7 N MAIN ST", "postcode": "45888"}}},
{"geometry": {"type": "Point", "coordinates": [-84.0874581222, 40.6015864269]}, "type": "Feature", "properties": {"collection_times": [{"days": "Mon-Fri", "time": "4:00pm"}, {"days": "Sat", "time": "11:00am"}, {"days": "Sun", "time": "Closed"}], "id": "4588800001", "name": "USPS COLLECTION BOX - PO LOBBY", "address": {"city": "UNIOPOLIS", "state": "OH", "street": "7 N MAIN ST", "postcode": "45888"}}},
{"geometry": {"type": "Point", "coordinates": [-84.0874581222, 40.6015864269]}, "type": "Feature", "properties": {"collection_times": [{"days": "Mon-Fri", "time": "4:00pm"}, {"days": "Sat", "time": "11:00am"}, {"days": "Sun", "time": "Closed"}], "id": "4588800002", "name": "USPS COLLECTION BOX - BLUE BOX", "address": {"city": "UNIOPOLIS", "state": "OH", "street": "7 W OHIO ST", "postcode": "45888"}}},
{"geometry": {"type": "Point", "coordinates": [-83.6495624406, 41.1386584644]}, "type": "Feature", "properties": {"collection_times": [{"days": "Mon-Fri", "time": "4:00pm"}, {"days": "Sat", "time": "12:00pm"}, {"days": "Sun", "time": "Closed"}], "id": "4588900000", "name": "USPS COLLECTION BOX - BLUE BOX", "address": {"city": "VAN BUREN", "state": "OH", "street": "100 S MAIN ST", "postcode": "45889"}}},
{"geometry": {"type": "Point", "coordinates": [-83.6495624406, 41.1386584644]}, "type": "Feature", "properties": {"collection_times": [{"days": "Mon-Fri", "time": "4:00pm"}, {"days": "Sat", "time": "12:00pm"}, {"days": "Sun", "time": "Closed"}], "id": "4588900001", "name": "USPS COLLECTION BOX - PO LOBBY", "address": {"city": "VAN BUREN", "state": "OH", "street": "100 S MAIN ST", "postcode": "45889"}}},
{"geometry": {"type": "Point", "coordinates": [-83.4800667169, 40.9742619211]}, "type": "Feature", "properties": {"collection_times": [{"days": "Mon-Fri", "time": "4:00pm"}, {"days": "Sat", "time": "1:30pm"}, {"days": "Sun", "time": "Closed"}], "id": "4589000000", "name": "USPS COLLECTION BOX - BLUE BOX", "address": {"city": "VANLUE", "state": "OH", "street": "301 S BUFFALO ST", "postcode": "45890"}}},
{"geometry": {"type": "Point", "coordinates": [-83.4800667169, 40.9742619211]}, "type": "Feature", "properties": {"collection_times": [{"days": "Mon-Fri", "time": "4:00pm"}, {"days": "Sat", "time": "1:30pm"}, {"days": "Sun", "time": "Closed"}], "id": "4589000001", "name": "USPS COLLECTION BOX - PO LOBBY", "address": {"city": "VANLUE", "state": "OH", "street": "301 S BUFFALO ST", "postcode": "45890"}}},
{"geometry": {"type": "Point", "coordinates": [-84.5840467396, 40.8544607511]}, "type": "Feature", "properties": {"collection_times": [{"days": "Mon-Fri", "time": "3:00pm"}, {"days": "Sat", "time": "9:30am"}, {"days": "Sun", "time": "Closed"}], "id": "4589100002", "name": "USPS COLLECTION BOX - BLUE BOX", "address": {"city": "VAN WERT", "state": "OH", "street": "1250 S WASHINGTON ST", "postcode": "45891"}}},
{"geometry": {"type": "Point", "coordinates": [-84.5969790537, 40.8516798006]}, "type": "Feature", "properties": {"collection_times": [{"days": "Mon-Sat", "time": "9:30am"}, {"days": "Sun", "time": "Closed"}], "id": "4589100003", "name": "USPS COLLECTION BOX - BLUE BOX", "address": {"city": "VAN WERT", "state": "OH", "street": "719 FOX RD", "postcode": "45891"}}},
{"geometry": {"type": "Point", "coordinates": [-84.5972258476, 40.8584407189]}, "type": "Feature", "properties": {"collection_times": [{"days": "Mon-Sat", "time": "9:30am"}, {"days": "Sun", "time": "Closed"}], "id": "4589100004", "name": "USPS COLLECTION BOX - BLUE BOX", "address": {"city": "VAN WERT", "state": "OH", "street": "1136 S SHANNON ST", "postcode": "45891"}}},
{"geometry": {"type": "Point", "coordinates": [-84.5819626276, 40.8696825491]}, "type": "Feature", "properties": {"collection_times": [{"days": "Mon-Fri", "time": "3:15pm"}, {"days": "Sat", "time": "9:30am"}, {"days": "Sun", "time": "Closed"}], "id": "4589100016", "name": "USPS COLLECTION BOX - BLUE BOX", "address": {"city": "VAN WERT", "state": "OH", "street": "121 E MAIN ST", "postcode": "45891"}}},
{"geometry": {"type": "Point", "coordinates": [-84.5819626276, 40.8696825491]}, "type": "Feature", "properties": {"collection_times": [{"days": "Mon-Fri", "time": "3:15pm"}, {"days": "Sat", "time": "9:30am"}, {"days": "Sun", "time": "Closed"}], "id": "4589100018", "name": "USPS COLLECTION BOX - BLUE BOX", "address": {"city": "VAN WERT", "state": "OH", "street": "121 E MAIN ST", "postcode": "45891"}}},
{"geometry": {"type": "Point", "coordinates": [-84.5791798948, 40.8695900165]}, "type": "Feature", "properties": {"collection_times": [{"days": "Mon-Fri", "time": "5:00pm"}, {"days": "Sat", "time": "3:45pm"}, {"days": "Sun", "time": "Closed"}], "id": "4589100022", "name": "USPS COLLECTION BOX - BLUE BOX", "address": {"city": "VAN WERT", "state": "OH", "street": "314 E MAIN ST", "postcode": "45891"}}},
{"geometry": {"type": "Point", "coordinates": [-84.582723203, 40.8516429639]}, "type": "Feature", "properties": {"collection_times": [{"days": "Mon-Fri", "time": "3:00pm"}, {"days": "Sat", "time": "9:30am"}, {"days": "Sun", "time": "Closed"}], "id": "4589100023", "name": "USPS COLLECTION BOX - BLUE BOX", "address": {"city": "VAN WERT", "state": "OH", "street": "140 FOX RD", "postcode": "45891"}}},
{"geometry": {"type": "Point", "coordinates": [-84.5791798948, 40.8695900165]}, "type": "Feature", "properties": {"collection_times": [{"days": "Mon-Fri", "time": "5:00pm"}, {"days": "Sat", "time": "3:45pm"}, {"days": "Sun", "time": "Closed"}], "id": "4589100025", "name": "USPS COLLECTION BOX - PO LOBBY", "address": {"city": "VAN WERT", "state": "OH", "street": "314 E MAIN ST", "postcode": "45891"}}},
{"geometry": {"type": "Point", "coordinates": [-84.5791798948, 40.8695900165]}, "type": "Feature", "properties": {"collection_times": [{"days": "Mon-Fri", "time": "5:00pm"}, {"days": "Sat", "time": "3:45pm"}, {"days": "Sun", "time": "Closed"}], "id": "4589100026", "name": "USPS COLLECTION BOX - PO LOBBY", "address": {"city": "VAN WERT", "state": "OH", "street": "314 E MAIN ST", "postcode": "45891"}}},
{"geometry": {"type": "Point", "coordinates": [-84.5791798948, 40.8695900165]}, "type": "Feature", "properties": {"collection_times": [{"days": "Mon-Fri", "time": "5:00pm"}, {"days": "Sat", "time": "3:45pm"}, {"days": "Sun", "time": "Closed"}], "id": "4589100027", "name": "USPS COLLECTION BOX - PO LOBBY", "address": {"city": "VAN WERT", "state": "OH", "street": "314 E MAIN ST", "postcode": "45891"}}},
{"geometry": {"type": "Point", "coordinates": [-84.5798780542, 40.8738031522]}, "type": "Feature", "properties": {"collection_times": [{"days": "Mon-Sat", "time": "1:00pm"}, {"days": "Sun", "time": "Closed"}], "id": "4589100028", "name": "USPS COLLECTION BOX - BLUE BOX", "address": {"city": "VAN WERT", "state": "OH", "street": "301 TOWN CENTER BLVD", "postcode": "45891"}}},
{"geometry": {"type": "Point", "coordinates": [-84.1479153661, 40.8815748462]}, "type": "Feature", "properties": {"collection_times": [{"days": "Mon-Fri", "time": "4:45pm"}, {"days": "Sat", "time": "11:45am"}, {"days": "Sun", "time": "Closed"}], "id": "4589300000", "name": "USPS COLLECTION BOX - BLUE BOX", "address": {"city": "VAUGHNSVILLE", "state": "OH", "street": "342 W FINDLAY ST", "postcode": "45893"}}},
{"geometry": {"type": "Point", "coordinates": [-84.1479153661, 40.8815748462]}, "type": "Feature", "properties": {"collection_times": [{"days": "Mon-Fri", "time": "4:00pm"}, {"days": "Sat", "time": "11:45am"}, {"days": "Sun", "time": "Closed"}], "id": "4589300001", "name": "USPS COLLECTION BOX - PO LOBBY", "address": {"city": "VAUGHNSVILLE", "state": "OH", "street": "342 W FINDLAY ST", "postcode": "45893"}}},
{"geometry": {"type": "Point", "coordinates": [-84.456338442, 40.7852254833]}, "type": "Feature", "properties": {"collection_times": [{"days": "Mon-Fri", "time": "3:30pm"}, {"days": "Sat", "time": "11:00am"}, {"days": "Sun", "time": "Closed"}], "id": "4589400001", "name": "USPS COLLECTION BOX - PO LOBBY", "address": {"city": "VENEDOCIA", "state": "OH", "street": "15155 MAIN ST", "postcode": "45894"}}},
{"geometry": {"type": "Point", "coordinates": [-84.456338442, 40.7852254833]}, "type": "Feature", "properties": {"collection_times": [{"days": "Mon-Fri", "time": "3:30pm"}, {"days": "Sat", "time": "11:00am"}, {"days": "Sun", "time": "Closed"}], "id": "4589400002", "name": "USPS COLLECTION BOX - BLUE BOX", "address": {"city": "VENEDOCIA", "state": "OH", "street": "15155 MAIN ST", "postcode": "45894"}}},
{"geometry": {"type": "Point", "coordinates": [-84.1940282825, 40.569788538]}, "type": "Feature", "properties": {"collection_times": [{"days": "Mon-Fri", "time": "5:00pm"}, {"days": "Sat", "time": "12:30pm"}, {"days": "Sun", "time": "Closed"}], "id": "4589500000", "name": "USPS COLLECTION BOX - BLUE BOX", "address": {"city": "WAPAKONETA", "state": "OH", "street": "12 WILLIPIE ST", "postcode": "45895"}}},
{"geometry": {"type": "Point", "coordinates": [-84.1975972697, 40.5627842379]}, "type": "Feature", "properties": {"collection_times": [{"days": "Mon-Sat", "time": "2:00pm"}, {"days": "Sun", "time": "Closed"}], "id": "4589500001", "name": "USPS COLLECTION BOX - BLUE BOX", "address": {"city": "WAPAKONETA", "state": "OH", "street": "209 S BLACKHOOF ST", "postcode": "45895"}}},
{"geometry": {"type": "Point", "coordinates": [-84.1779026011, 40.5648188299]}, "type": "Feature", "properties": {"collection_times": [{"days": "Mon-Sat", "time": "8:00am"}, {"days": "Sun", "time": "Closed"}], "id": "4589500006", "name": "USPS COLLECTION BOX - BLUE BOX", "address": {"city": "WAPAKONETA", "state": "OH", "street": "1252 BELLEFONTAINE ST", "postcode": "45895"}}},
{"geometry": {"type": "Point", "coordinates": [-84.2020183927, 40.5778870576]}, "type": "Feature", "properties": {"collection_times": [{"days": "Mon-Sat", "time": "10:30am"}, {"days": "Sun", "time": "Closed"}], "id": "4589500018", "name": "USPS COLLECTION BOX - BLUE BOX", "address": {"city": "WAPAKONETA", "state": "OH", "street": "701 PARLETTE CT", "postcode": "45895"}}},
{"geometry": {"type": "Point", "coordinates": [-84.1940282825, 40.569788538]}, "type": "Feature", "properties": {"collection_times": [{"days": "Mon-Fri", "time": "5:00pm"}, {"days": "Sat", "time": "12:30pm"}, {"days": "Sun", "time": "Closed"}], "id": "4589500019", "name": "USPS COLLECTION BOX - PO LOBBY", "address": {"city": "WAPAKONETA", "state": "OH", "street": "12 WILLIPIE ST", "postcode": "45895"}}},
{"geometry": {"type": "Point", "coordinates": [-83.9754631502, 40.6006844654]}, "type": "Feature", "properties": {"collection_times": [{"days": "Mon-Fri", "time": "4:00pm"}, {"days": "Sat", "time": "12:00pm"}, {"days": "Sun", "time": "Closed"}], "id": "4589600000", "name": "USPS COLLECTION BOX - BLUE BOX", "address": {"city": "WAYNESFIELD", "state": "OH", "street": "109 N WESTMINSTER ST", "postcode": "45896"}}},
{"geometry": {"type": "Point", "coordinates": [-83.9754631502, 40.6006844654]}, "type": "Feature", "properties": {"collection_times": [{"days": "Mon-Fri", "time": "4:00pm"}, {"days": "Sat", "time": "12:00pm"}, {"days": "Sun", "time": "Closed"}], "id": "4589600001", "name": "USPS COLLECTION BOX - PO LOBBY", "address": {"city": "WAYNESFIELD", "state": "OH", "street": "109 N WESTMINSTER ST", "postcode": "45896"}}},
{"geometry": {"type": "Point", "coordinates": [-84.7942571994, 40.7479486951]}, "type": "Feature", "properties": {"collection_times": [{"days": "Mon-Fri", "time": "3:30pm"}, {"days": "Sat", "time": "11:30am"}, {"days": "Sun", "time": "Closed"}], "id": "4589800000", "name": "USPS COLLECTION BOX - BLUE BOX", "address": {"city": "WILLSHIRE", "state": "OH", "street": "110 WALCOTT ST", "postcode": "45898"}}},
{"geometry": {"type": "Point", "coordinates": [-84.7942571994, 40.7479486951]}, "type": "Feature", "properties": {"collection_times": [{"days": "Mon-Fri", "time": "3:30pm"}, {"days": "Sat", "time": "11:30am"}, {"days": "Sun", "time": "Closed"}], "id": "4589800001", "name": "USPS COLLECTION BOX - PO LOBBY", "address": {"city": "WILLSHIRE", "state": "OH", "street": "110 WALCOTT ST", "postcode": "45898"}}},
{"geometry": {"type": "Point", "coordinates": [-84.775185557, 40.8007125176]}, "type": "Feature", "properties": {"collection_times": [{"days": "Mon-Fri", "time": "3:45pm"}, {"days": "Sat", "time": "11:15am"}, {"days": "Sun", "time": "Closed"}], "id": "4589900000", "name": "USPS COLLECTION BOX - BLUE BOX", "address": {"city": "WREN", "state": "OH", "street": "119 STATE ROUTE 49", "postcode": "45899"}}},
{"geometry": {"type": "Point", "coordinates": [-84.775185557, 40.8007125176]}, "type": "Feature", "properties": {"collection_times": [{"days": "Mon-Fri", "time": "3:45pm"}, {"days": "Sat", "time": "11:15am"}, {"days": "Sun", "time": "Closed"}], "id": "4589900001", "name": "USPS COLLECTION BOX - PO LOBBY", "address": {"city": "WREN", "state": "OH", "street": "119 STATE ROUTE 49", "postcode": "45899"}}}
]}
