{"type": "FeatureCollection", "features": [
{"geometry": {"type": "Point", "coordinates": [-72.3200473752, 43.6412015053]}, "type": "Feature", "properties": {"collection_times": [{"days": "Mon-Sat", "time": "8:00pm"}, {"days": "Sun", "time": "Closed"}], "id": "0500100000", "name": "USPS COLLECTION BOX - BLUE BOX", "address": {"city": "WHITE RIV JCT", "state": "VT", "street": "195 SYKES MOUNTAIN AVE", "postcode": "05001"}}},
{"geometry": {"type": "Point", "coordinates": [-72.3151712466, 43.651575124]}, "type": "Feature", "properties": {"collection_times": [{"days": "Mon-Fri", "time": "4:30pm"}, {"days": "Sat-Sun", "time": "Closed"}], "id": "0500100001", "name": "USPS COLLECTION BOX - BLUE BOX", "address": {"city": "WHITE RIV JCT", "state": "VT", "street": "118 PROSPECT ST", "postcode": "05001"}}},
{"geometry": {"type": "Point", "coordinates": [-72.3200473752, 43.6412015053]}, "type": "Feature", "properties": {"collection_times": [{"days": "Mon-Sat", "time": "5:30pm"}, {"days": "Sun", "time": "Closed"}], "id": "0500100002", "name": "USPS COLLECTION BOX - EXPRESS", "address": {"city": "WHITE RIV JCT", "state": "VT", "street": "195 SYKES MOUNTAIN AVE", "postcode": "05001"}}},
{"geometry": {"type": "Point", "coordinates": [-72.3209767201, 43.64951692]}, "type": "Feature", "properties": {"collection_times": [{"days": "Mon-Fri", "time": "4:30pm"}, {"days": "Sat", "time": "2:00pm"}, {"days": "Sun", "time": "Closed"}], "id": "0500100003", "name": "USPS COLLECTION BOX - BLUE BOX", "address": {"city": "WHITE RIV JCT", "state": "VT", "street": "128 N MAIN ST", "postcode": "05001"}}},
{"geometry": {"type": "Point", "coordinates": [-72.3176812571, 43.6514017617]}, "type": "Feature", "properties": {"collection_times": [{"days": "Mon-Fri", "time": "5:00pm"}, {"days": "Sat-Sun", "time": "Closed"}], "id": "0500100005", "name": "USPS COLLECTION BOX - BLUE BOX", "address": {"city": "WHITE RIV JCT", "state": "VT", "street": "171 BRIDGE ST", "postcode": "05001"}}},
{"geometry": {"type": "Point", "coordinates": [-72.3148174128, 43.6506738927]}, "type": "Feature", "properties": {"collection_times": [{"days": "Mon-Fri", "time": "5:00pm"}, {"days": "Sat", "time": "2:00pm"}, {"days": "Sun", "time": "Closed"}], "id": "0500100006", "name": "USPS COLLECTION BOX - BLUE BOX", "address": {"city": "WHITE RIV JCT", "state": "VT", "street": "209 MAPLE ST", "postcode": "05001"}}},
{"geometry": {"type": "Point", "coordinates": [-72.3191443167, 43.6487775707]}, "type": "Feature", "properties": {"collection_times": [{"days": "Mon-Fri", "time": "5:00pm"}, {"days": "Sat", "time": "2:00pm"}, {"days": "Sun", "time": "Closed"}], "id": "0500100021", "name": "USPS COLLECTION BOX - BLUE BOX", "address": {"city": "WHITE RIV JCT", "state": "VT", "street": "27 S MAIN ST", "postcode": "05001"}}},
{"geometry": {"type": "Point", "coordinates": [-72.3200473752, 43.6412015053]}, "type": "Feature", "properties": {"collection_times": [{"days": "Mon-Sat", "time": "8:00pm"}, {"days": "Sun", "time": "Closed"}], "id": "0500100023", "name": "USPS COLLECTION BOX - BLUE BOX", "address": {"city": "WHITE RIV JCT", "state": "VT", "street": "195 SYKES MOUNTAIN AVE", "postcode": "05001"}}},
{"geometry": {"type": "Point", "coordinates": [-72.3196886725, 43.6921106029]}, "type": "Feature", "properties": {"collection_times": [{"days": "Mon-Sat", "time": "9:30am"}, {"days": "Sun", "time": "Closed"}], "id": "0500100025", "name": "USPS COLLECTION BOX - BLUE BOX", "address": {"city": "WHITE RIV JCT", "state": "VT", "street": "16 HEMLOCK RIDGE DR", "postcode": "05001"}}},
{"geometry": {"type": "Point", "coordinates": [-72.4074583322, 43.4068824043]}, "type": "Feature", "properties": {"collection_times": [{"days": "Mon-Fri", "time": "4:30pm"}, {"days": "Sat", "time": "11:00am"}, {"days": "Sun", "time": "Closed"}], "id": "0503000000", "name": "USPS COLLECTION BOX - BLUE BOX", "address": {"city": "ASCUTNEY", "state": "VT", "street": "5159 ROUTE 5", "postcode": "05030"}}},
{"geometry": {"type": "Point", "coordinates": [-72.4074583322, 43.4068824043]}, "type": "Feature", "properties": {"collection_times": [{"days": "Mon-Fri", "time": "4:30pm"}, {"days": "Sat", "time": "11:00am"}, {"days": "Sun", "time": "Closed"}], "id": "0503000001", "name": "USPS COLLECTION BOX - PO LOBBY", "address": {"city": "ASCUTNEY", "state": "VT", "street": "5159 ROUTE 5", "postcode": "05030"}}},
{"geometry": {"type": "Point", "coordinates": [-72.6135366553, 43.7270905982]}, "type": "Feature", "properties": {"collection_times": [{"days": "Mon-Fri", "time": "4:45pm"}, {"days": "Sat", "time": "11:00am"}, {"days": "Sun", "time": "Closed"}], "id": "0503100000", "name": "USPS COLLECTION BOX - BLUE BOX", "address": {"city": "BARNARD", "state": "VT", "street": "6430 STAGE RD UNIT 1", "postcode": "05031"}}},
{"geometry": {"type": "Point", "coordinates": [-72.6135366553, 43.7270905982]}, "type": "Feature", "properties": {"collection_times": [{"days": "Mon-Fri", "time": "4:30pm"}, {"days": "Sat", "time": "11:00am"}, {"days": "Sun", "time": "Closed"}], "id": "0503100001", "name": "USPS COLLECTION BOX - PO LOBBY", "address": {"city": "BARNARD", "state": "VT", "street": "6430 STAGE RD UNIT 1", "postcode": "05031"}}},
{"geometry": {"type": "Point", "coordinates": [-72.6346536682, 43.8332127029]}, "type": "Feature", "properties": {"collection_times": [{"days": "Mon-Fri", "time": "4:30pm"}, {"days": "Sat", "time": "11:30am"}, {"days": "Sun", "time": "Closed"}], "id": "0503200000", "name": "USPS COLLECTION BOX - BLUE BOX", "address": {"city": "BETHEL", "state": "VT", "street": "34 N MAIN ST", "postcode": "05032"}}},
{"geometry": {"type": "Point", "coordinates": [-72.6346536682, 43.8332127029]}, "type": "Feature", "properties": {"collection_times": [{"days": "Mon-Fri", "time": "4:30pm"}, {"days": "Sat", "time": "11:30am"}, {"days": "Sun", "time": "Closed"}], "id": "0503200002", "name": "USPS COLLECTION BOX - PO LOBBY", "address": {"city": "BETHEL", "state": "VT", "street": "34 N MAIN ST", "postcode": "05032"}}},
{"geometry": {"type": "Point", "coordinates": [-72.1271465278, 43.9936479636]}, "type": "Feature", "properties": {"collection_times": [{"days": "Mon-Fri", "time": "5:00pm"}, {"days": "Sat", "time": "12:00pm"}, {"days": "Sun", "time": "Closed"}], "id": "0503300001", "name": "USPS COLLECTION BOX - BLUE BOX", "address": {"city": "BRADFORD", "state": "VT", "street": "41 BARTON ST", "postcode": "05033"}}},
{"geometry": {"type": "Point", "coordinates": [-72.1226501008, 43.9817675068]}, "type": "Feature", "properties": {"collection_times": [{"days": "Mon-Sat", "time": "10:00am"}, {"days": "Sun", "time": "Closed"}], "id": "0503300003", "name": "USPS COLLECTION BOX - BLUE BOX", "address": {"city": "BRADFORD", "state": "VT", "street": "530 WAITS RIVER RD", "postcode": "05033"}}},
{"geometry": {"type": "Point", "coordinates": [-72.1271465278, 43.9936479636]}, "type": "Feature", "properties": {"collection_times": [{"days": "Mon-Fri", "time": "5:00pm"}, {"days": "Sat", "time": "12:00pm"}, {"days": "Sun", "time": "Closed"}], "id": "0503300004", "name": "USPS COLLECTION BOX - PO LOBBY", "address": {"city": "BRADFORD", "state": "VT", "street": "41 BARTON ST", "postcode": "05033"}}},
{"geometry": {"type": "Point", "coordinates": [-72.6213097766, 43.58677424]}, "type": "Feature", "properties": {"collection_times": [{"days": "Mon-Fri", "time": "4:45pm"}, {"days": "Sat", "time": "11:45am"}, {"days": "Sun", "time": "Closed"}], "id": "0503400000", "name": "USPS COLLECTION BOX - BLUE BOX", "address": {"city": "BRIDGEWATER", "state": "VT", "street": "102 MILL RD", "postcode": "05034"}}},
{"geometry": {"type": "Point", "coordinates": [-72.6213097766, 43.58677424]}, "type": "Feature", "properties": {"collection_times": [{"days": "Mon-Fri", "time": "5:00pm"}, {"days": "Sat", "time": "11:45am"}, {"days": "Sun", "time": "Closed"}], "id": "0503400001", "name": "USPS COLLECTION BOX - PO LOBBY", "address": {"city": "BRIDGEWATER", "state": "VT", "street": "102 MILL RD", "postcode": "05034"}}},
{"geometry": {"type": "Point", "coordinates": [-72.7496104373, 43.5990791439]}, "type": "Feature", "properties": {"collection_times": [{"days": "Mon-Fri", "time": "4:30pm"}, {"days": "Sat", "time": "11:15am"}, {"days": "Sun", "time": "Closed"}], "id": "0503500000", "name": "USPS COLLECTION BOX - BLUE BOX", "address": {"city": "BRIDGEWATER COR", "state": "VT", "street": "39 VT RT 100A", "postcode": "05035"}}},
{"geometry": {"type": "Point", "coordinates": [-72.7496104373, 43.5990791439]}, "type": "Feature", "properties": {"collection_times": [{"days": "Mon-Fri", "time": "2:30pm"}, {"days": "Sat", "time": "11:15am"}, {"days": "Sun", "time": "Closed"}], "id": "0503500001", "name": "USPS COLLECTION BOX - PO LOBBY", "address": {"city": "BRIDGEWATER COR", "state": "VT", "street": "39 VT ROUTE 100A", "postcode": "05035"}}},
{"geometry": {"type": "Point", "coordinates": [-72.5956675822, 44.0379928197]}, "type": "Feature", "properties": {"collection_times": [{"days": "Mon-Fri", "time": "4:00pm"}, {"days": "Sat", "time": "10:00am"}, {"days": "Sun", "time": "Closed"}], "id": "0503600000", "name": "USPS COLLECTION BOX - BLUE BOX", "address": {"city": "BROOKFIELD", "state": "VT", "street": "1870 VT ROUTE 65", "postcode": "05036"}}},
{"geometry": {"type": "Point", "coordinates": [-72.5956675822, 44.0379928197]}, "type": "Feature", "properties": {"collection_times": [{"days": "Mon-Fri", "time": "4:00pm"}, {"days": "Sat", "time": "10:00am"}, {"days": "Sun", "time": "Closed"}], "id": "0503600001", "name": "USPS COLLECTION BOX - PO LOBBY", "address": {"city": "BROOKFIELD", "state": "VT", "street": "1870 VT ROUTE 65", "postcode": "05036"}}},
{"geometry": {"type": "Point", "coordinates": [-72.4533073404, 43.4676340754]}, "type": "Feature", "properties": {"collection_times": [{"days": "Mon-Fri", "time": "4:30pm"}, {"days": "Sat", "time": "11:45am"}, {"days": "Sun", "time": "Closed"}], "id": "0503700000", "name": "USPS COLLECTION BOX - BLUE BOX", "address": {"city": "BROWNSVILLE", "state": "VT", "street": "1269 ROUTE 44", "postcode": "05037"}}},
{"geometry": {"type": "Point", "coordinates": [-72.4533073404, 43.4676340754]}, "type": "Feature", "properties": {"collection_times": [{"days": "Mon-Fri", "time": "4:30pm"}, {"days": "Sat", "time": "11:45am"}, {"days": "Sun", "time": "Closed"}], "id": "0503700001", "name": "USPS COLLECTION BOX - PO LOBBY", "address": {"city": "BROWNSVILLE", "state": "VT", "street": "1269 ROUTE 44", "postcode": "05037"}}},
{"geometry": {"type": "Point", "coordinates": [-72.4476314347, 43.9893690128]}, "type": "Feature", "properties": {"collection_times": [{"days": "Mon-Fri", "time": "4:30pm"}, {"days": "Sat", "time": "12:00pm"}, {"days": "Sun", "time": "Closed"}], "id": "0503800000", "name": "USPS COLLECTION BOX - BLUE BOX", "address": {"city": "CHELSEA", "state": "VT", "street": "298 VT RTE 110", "postcode": "05038"}}},
{"geometry": {"type": "Point", "coordinates": [-72.4476314347, 43.9893690128]}, "type": "Feature", "properties": {"collection_times": [{"days": "Mon-Fri", "time": "4:30pm"}, {"days": "Sat", "time": "12:00pm"}, {"days": "Sun", "time": "Closed"}], "id": "0503800002", "name": "USPS COLLECTION BOX - PO LOBBY", "address": {"city": "CHELSEA", "state": "VT", "street": "298 VT RTE 110", "postcode": "05038"}}},
{"geometry": {"type": "Point", "coordinates": [-72.2884790463, 44.0327109269]}, "type": "Feature", "properties": {"collection_times": [{"days": "Mon-Fri", "time": "4:30pm"}, {"days": "Sat", "time": "11:30am"}, {"days": "Sun", "time": "Closed"}], "id": "0503900000", "name": "USPS COLLECTION BOX - BLUE BOX", "address": {"city": "CORINTH", "state": "VT", "street": "1776 CENTER RD", "postcode": "05039"}}},
{"geometry": {"type": "Point", "coordinates": [-72.2884790463, 44.0327109269]}, "type": "Feature", "properties": {"collection_times": [{"days": "Mon-Fri", "time": "2:30pm"}, {"days": "Sat", "time": "11:30am"}, {"days": "Sun", "time": "Closed"}], "id": "0503900001", "name": "USPS COLLECTION BOX - PO LOBBY", "address": {"city": "CORINTH", "state": "VT", "street": "1776 CENTER RD", "postcode": "05039"}}},
{"geometry": {"type": "Point", "coordinates": [-72.2111770536, 44.0629738898]}, "type": "Feature", "properties": {"collection_times": [{"days": "Mon-Fri", "time": "4:45pm"}, {"days": "Sat", "time": "11:15am"}, {"days": "Sun", "time": "Closed"}], "id": "0504000000", "name": "USPS COLLECTION BOX - BLUE BOX", "address": {"city": "EAST CORINTH", "state": "VT", "street": "749 VILLAGE RD", "postcode": "05040"}}},
{"geometry": {"type": "Point", "coordinates": [-72.2222169053, 44.0632444419]}, "type": "Feature", "properties": {"collection_times": [{"days": "Mon-Sat", "time": "11:15am"}, {"days": "Sun", "time": "Closed"}], "id": "0504000001", "name": "USPS COLLECTION BOX - BLUE BOX", "address": {"city": "EAST CORINTH", "state": "VT", "street": "365 TOPSHAM CORINTH RD", "postcode": "05040"}}},
{"geometry": {"type": "Point", "coordinates": [-72.2111770536, 44.0629738898]}, "type": "Feature", "properties": {"collection_times": [{"days": "Mon-Fri", "time": "4:45pm"}, {"days": "Sat", "time": "11:15am"}, {"days": "Sun", "time": "Closed"}], "id": "0504000002", "name": "USPS COLLECTION BOX - PO LOBBY", "address": {"city": "EAST CORINTH", "state": "VT", "street": "749 VILLAGE RD", "postcode": "05040"}}},
{"geometry": {"type": "Point", "coordinates": [-72.5534967684, 43.9388674999]}, "type": "Feature", "properties": {"collection_times": [{"days": "Mon-Fri", "time": "4:15pm"}, {"days": "Sat", "time": "11:45am"}, {"days": "Sun", "time": "Closed"}], "id": "0504100000", "name": "USPS COLLECTION BOX - BLUE BOX", "address": {"city": "EAST RANDOLPH", "state": "VT", "street": "100 VT ROUTE 14 S", "postcode": "05041"}}},
{"geometry": {"type": "Point", "coordinates": [-72.5534967684, 43.9388674999]}, "type": "Feature", "properties": {"collection_times": [{"days": "Mon-Fri", "time": "4:15pm"}, {"days": "Sat", "time": "11:45am"}, {"days": "Sun", "time": "Closed"}], "id": "0504100001", "name": "USPS COLLECTION BOX - PO LOBBY", "address": {"city": "EAST RANDOLPH", "state": "VT", "street": "100 VT ROUTE 14 S", "postcode": "05041"}}},
{"geometry": {"type": "Point", "coordinates": [-72.0627793646, 44.2048451765]}, "type": "Feature", "properties": {"collection_times": [{"days": "Mon-Fri", "time": "4:45pm"}, {"days": "Sat", "time": "9:45am"}, {"days": "Sun", "time": "Closed"}], "id": "0504200000", "name": "USPS COLLECTION BOX - BLUE BOX", "address": {"city": "EAST RYEGATE", "state": "VT", "street": "57 PAPERMILL RD", "postcode": "05042"}}},
{"geometry": {"type": "Point", "coordinates": [-72.0942659907, 44.2434001975]}, "type": "Feature", "properties": {"collection_times": [{"days": "Mon-Fri", "time": "4:00pm"}, {"days": "Sat", "time": "9:00am"}, {"days": "Sun", "time": "Closed"}], "id": "0504200001", "name": "USPS COLLECTION BOX - BLUE BOX", "address": {"city": "EAST RYEGATE", "state": "VT", "street": "18 S BAYLEY-HAZEN RD", "postcode": "05042"}}},
{"geometry": {"type": "Point", "coordinates": [-72.0627692559, 44.2048473232]}, "type": "Feature", "properties": {"collection_times": [{"days": "Mon-Fri", "time": "12:00pm"}, {"days": "Sat", "time": "9:45am"}, {"days": "Sun", "time": "Closed"}], "id": "0504200002", "name": "USPS COLLECTION BOX - PO LOBBY", "address": {"city": "EAST RYEGATE", "state": "VT", "street": "57 PAPERMILL RD", "postcode": "05042"}}},
{"geometry": {"type": "Point", "coordinates": [-72.1890199995, 43.8119608796]}, "type": "Feature", "properties": {"collection_times": [{"days": "Mon-Fri", "time": "4:30pm"}, {"days": "Sat", "time": "11:00am"}, {"days": "Sun", "time": "Closed"}], "id": "0504300000", "name": "USPS COLLECTION BOX - BLUE BOX", "address": {"city": "EAST THETFORD", "state": "VT", "street": "2969 ROUTE 5", "postcode": "05043"}}},
{"geometry": {"type": "Point", "coordinates": [-72.1890199995, 43.8119608796]}, "type": "Feature", "properties": {"collection_times": [{"days": "Mon-Fri", "time": "4:45pm"}, {"days": "Sat", "time": "11:15am"}, {"days": "Sun", "time": "Closed"}], "id": "0504300001", "name": "USPS COLLECTION BOX - PO LOBBY", "address": {"city": "EAST THETFORD", "state": "VT", "street": "2969 ROUTE 5", "postcode": "05043"}}},
{"geometry": {"type": "Point", "coordinates": [-72.1467315964, 43.9058617618]}, "type": "Feature", "properties": {"collection_times": [{"days": "Mon-Fri", "time": "4:30pm"}, {"days": "Sat", "time": "12:00pm"}, {"days": "Sun", "time": "Closed"}], "id": "0504500000", "name": "USPS COLLECTION BOX - BLUE BOX", "address": {"city": "FAIRLEE", "state": "VT", "street": "21 SCHOOL ST", "postcode": "05045"}}},
{"geometry": {"type": "Point", "coordinates": [-72.1467315964, 43.9058617618]}, "type": "Feature", "properties": {"collection_times": [{"days": "Mon-Fri", "time": "4:30pm"}, {"days": "Sat", "time": "12:00pm"}, {"days": "Sun", "time": "Closed"}], "id": "0504500003", "name": "USPS COLLECTION BOX - PO LOBBY", "address": {"city": "FAIRLEE", "state": "VT", "street": "21 SCHOOL ST", "postcode": "05045"}}},
{"geometry": {"type": "Point", "coordinates": [-72.2977591451, 44.1837004704]}, "type": "Feature", "properties": {"collection_times": [{"days": "Mon-Fri", "time": "2:30pm"}, {"days": "Sat", "time": "11:30am"}, {"days": "Sun", "time": "Closed"}], "id": "0504600000", "name": "USPS COLLECTION BOX - BLUE BOX", "address": {"city": "GROTON", "state": "VT", "street": "1236 SCOTT HWY", "postcode": "05046"}}},
{"geometry": {"type": "Point", "coordinates": [-72.2977591451, 44.1837004704]}, "type": "Feature", "properties": {"collection_times": [{"days": "Mon-Fri", "time": "2:30pm"}, {"days": "Sat", "time": "11:45am"}, {"days": "Sun", "time": "Closed"}], "id": "0504600001", "name": "USPS COLLECTION BOX - PO LOBBY", "address": {"city": "GROTON", "state": "VT", "street": "1236 SCOTT HWY", "postcode": "05046"}}},
{"geometry": {"type": "Point", "coordinates": [-72.3398492703, 43.6609301163]}, "type": "Feature", "properties": {"collection_times": [{"days": "Mon-Fri", "time": "5:15pm"}, {"days": "Sat", "time": "11:45am"}, {"days": "Sun", "time": "Closed"}], "id": "0504700000", "name": "USPS COLLECTION BOX - BLUE BOX", "address": {"city": "HARTFORD", "state": "VT", "street": "1238 MAPLE ST", "postcode": "05047"}}},
{"geometry": {"type": "Point", "coordinates": [-72.3398492703, 43.6609301163]}, "type": "Feature", "properties": {"collection_times": [{"days": "Mon-Fri", "time": "5:15pm"}, {"days": "Sat", "time": "11:45am"}, {"days": "Sun", "time": "Closed"}], "id": "0504700001", "name": "USPS COLLECTION BOX - PO LOBBY", "address": {"city": "HARTFORD", "state": "VT", "street": "1238 MAPLE ST", "postcode": "05047"}}},
{"geometry": {"type": "Point", "coordinates": [-72.4014062771, 43.5201639743]}, "type": "Feature", "properties": {"collection_times": [{"days": "Mon-Fri", "time": "4:45pm"}, {"days": "Sat", "time": "11:45am"}, {"days": "Sun", "time": "Closed"}], "id": "0504800000", "name": "USPS COLLECTION BOX - BLUE BOX", "address": {"city": "HARTLAND", "state": "VT", "street": "159 US ROUTE 5", "postcode": "05048"}}},
{"geometry": {"type": "Point", "coordinates": [-72.4014062771, 43.5201639743]}, "type": "Feature", "properties": {"collection_times": [{"days": "Mon-Fri", "time": "4:45pm"}, {"days": "Sat", "time": "11:45am"}, {"days": "Sun", "time": "Closed"}], "id": "0504800001", "name": "USPS COLLECTION BOX - PO LOBBY", "address": {"city": "HARTLAND", "state": "VT", "street": "159 US ROUTE 5", "postcode": "05048"}}},
{"geometry": {"type": "Point", "coordinates": [-72.0635520505, 44.2622503779]}, "type": "Feature", "properties": {"collection_times": [{"days": "Mon-Fri", "time": "4:30pm"}, {"days": "Sat", "time": "10:00am"}, {"days": "Sun", "time": "Closed"}], "id": "0505000000", "name": "USPS COLLECTION BOX - BLUE BOX", "address": {"city": "MC INDOE FALLS", "state": "VT", "street": "37 ACADEMY LN", "postcode": "05050"}}},
{"geometry": {"type": "Point", "coordinates": [-72.0635520505, 44.2622503779]}, "type": "Feature", "properties": {"collection_times": [{"days": "Mon-Fri", "time": "4:30pm"}, {"days": "Sat", "time": "10:00am"}, {"days": "Sun", "time": "Closed"}], "id": "0505000001", "name": "USPS COLLECTION BOX - PO LOBBY", "address": {"city": "MC INDOE FALLS", "state": "VT", "street": "37 ACADEMY LN", "postcode": "05050"}}},
{"geometry": {"type": "Point", "coordinates": [-72.6626876286, 44.0752034871]}, "type": "Feature", "properties": {"collection_times": [{"days": "Mon-Fri", "time": "4:45pm"}, {"days": "Sat", "time": "11:30am"}, {"days": "Sun", "time": "Closed"}], "id": "0505100000", "name": "USPS COLLECTION BOX - BLUE BOX", "address": {"city": "NEWBURY", "state": "VT", "street": "4982 MAIN ST N", "postcode": "05051"}}},
{"geometry": {"type": "Point", "coordinates": [-72.6626876286, 44.0752034871]}, "type": "Feature", "properties": {"collection_times": [{"days": "Mon-Fri", "time": "4:30pm"}, {"days": "Sat", "time": "11:30am"}, {"days": "Sun", "time": "Closed"}], "id": "0505100001", "name": "USPS COLLECTION BOX - PO LOBBY", "address": {"city": "NEWBURY", "state": "VT", "street": "4982 MAIN ST N", "postcode": "05051"}}},
{"geometry": {"type": "Point", "coordinates": [-72.3590661691, 43.5891233053]}, "type": "Feature", "properties": {"collection_times": [{"days": "Mon-Fri", "time": "5:00pm"}, {"days": "Sat", "time": "11:30am"}, {"days": "Sun", "time": "Closed"}], "id": "0505200000", "name": "USPS COLLECTION BOX - PO LOBBY", "address": {"city": "NORTH HARTLAND", "state": "VT", "street": "619 US ROUTE 5", "postcode": "05052"}}},
{"geometry": {"type": "Point", "coordinates": [-72.3590661691, 43.5891233053]}, "type": "Feature", "properties": {"collection_times": [{"days": "Mon-Fri", "time": "5:00pm"}, {"days": "Sat", "time": "11:30am"}, {"days": "Sun", "time": "Closed"}], "id": "0505200001", "name": "USPS COLLECTION BOX - BLUE BOX", "address": {"city": "NORTH HARTLAND", "state": "VT", "street": "619 US ROUTE 5", "postcode": "05052"}}},
{"geometry": {"type": "Point", "coordinates": [-72.5002973777, 43.7231737835]}, "type": "Feature", "properties": {"collection_times": [{"days": "Mon-Fri", "time": "4:30pm"}, {"days": "Sat", "time": "10:45am"}, {"days": "Sun", "time": "Closed"}], "id": "0505300000", "name": "USPS COLLECTION BOX - BLUE BOX", "address": {"city": "NORTH POMFRET", "state": "VT", "street": "7868 POMFRET RD", "postcode": "05053"}}},
{"geometry": {"type": "Point", "coordinates": [-72.5002973777, 43.7231737835]}, "type": "Feature", "properties": {"collection_times": [{"days": "Mon-Fri", "time": "4:30pm"}, {"days": "Sat", "time": "10:45am"}, {"days": "Sun", "time": "Closed"}], "id": "0505300001", "name": "USPS COLLECTION BOX - PO LOBBY", "address": {"city": "NORTH POMFRET", "state": "VT", "street": "7868 POMFRET RD", "postcode": "05053"}}},
{"geometry": {"type": "Point", "coordinates": [-72.184712334, 43.8427834939]}, "type": "Feature", "properties": {"collection_times": [{"days": "Mon-Fri", "time": "5:15pm"}, {"days": "Sat", "time": "10:45am"}, {"days": "Sun", "time": "Closed"}], "id": "0505400001", "name": "USPS COLLECTION BOX - PO LOBBY", "address": {"city": "NORTH THETFORD", "state": "VT", "street": "5378 RTE 5", "postcode": "05054"}}},
{"geometry": {"type": "Point", "coordinates": [-72.3084181006, 43.7143308029]}, "type": "Feature", "properties": {"collection_times": [{"days": "Mon-Fri", "time": "4:45pm"}, {"days": "Sat", "time": "11:00am"}, {"days": "Sun", "time": "Closed"}], "id": "0505500002", "name": "USPS COLLECTION BOX - BLUE BOX", "address": {"city": "NORWICH", "state": "VT", "street": "293 MAIN ST", "postcode": "05055"}}},
{"geometry": {"type": "Point", "coordinates": [-72.3084181006, 43.7143308029]}, "type": "Feature", "properties": {"collection_times": [{"days": "Mon-Fri", "time": "4:45pm"}, {"days": "Sat", "time": "11:00am"}, {"days": "Sun", "time": "Closed"}], "id": "0505500004", "name": "USPS COLLECTION BOX - BLUE BOX", "address": {"city": "NORWICH", "state": "VT", "street": "293 MAIN ST", "postcode": "05055"}}},
{"geometry": {"type": "Point", "coordinates": [-72.3084181006, 43.7143308029]}, "type": "Feature", "properties": {"collection_times": [{"days": "Mon-Fri", "time": "5:00pm"}, {"days": "Sat", "time": "12:00pm"}, {"days": "Sun", "time": "Closed"}], "id": "0505500005", "name": "USPS COLLECTION BOX - PO LOBBY", "address": {"city": "NORWICH", "state": "VT", "street": "293 MAIN ST", "postcode": "05055"}}},
{"geometry": {"type": "Point", "coordinates": [-72.7230157334, 43.5330905281]}, "type": "Feature", "properties": {"collection_times": [{"days": "Mon-Fri", "time": "4:15pm"}, {"days": "Sat", "time": "12:15pm"}, {"days": "Sun", "time": "Closed"}], "id": "0505600000", "name": "USPS COLLECTION BOX - BLUE BOX", "address": {"city": "PLYMOUTH", "state": "VT", "street": "236 COOLIDGE MEMORIAL RD", "postcode": "05056"}}},
{"geometry": {"type": "Point", "coordinates": [-72.7230157334, 43.5330905281]}, "type": "Feature", "properties": {"collection_times": [{"days": "Mon-Fri", "time": "4:15pm"}, {"days": "Sat", "time": "12:15pm"}, {"days": "Sun", "time": "Closed"}], "id": "0505600001", "name": "USPS COLLECTION BOX - PO LOBBY", "address": {"city": "PLYMOUTH", "state": "VT", "street": "236 COOLIDGE MEMORIAL RD", "postcode": "05056"}}},
{"geometry": {"type": "Point", "coordinates": [-72.261623138, 43.883619961]}, "type": "Feature", "properties": {"collection_times": [{"days": "Mon-Fri", "time": "4:15pm"}, {"days": "Sat", "time": "11:15am"}, {"days": "Sun", "time": "Closed"}], "id": "0505800000", "name": "USPS COLLECTION BOX - BLUE BOX", "address": {"city": "POST MILLS", "state": "VT", "street": "7788 VT ROUTE 113", "postcode": "05058"}}},
{"geometry": {"type": "Point", "coordinates": [-72.261623138, 43.883619961]}, "type": "Feature", "properties": {"collection_times": [{"days": "Mon-Fri", "time": "12:45pm"}, {"days": "Sat", "time": "11:15am"}, {"days": "Sun", "time": "Closed"}], "id": "0505800001", "name": "USPS COLLECTION BOX - PO LOBBY", "address": {"city": "POST MILLS", "state": "VT", "street": "7788 VT ROUTE 113", "postcode": "05058"}}},
{"geometry": {"type": "Point", "coordinates": [-72.421277301, 43.6481075315]}, "type": "Feature", "properties": {"collection_times": [{"days": "Mon-Fri", "time": "4:45pm"}, {"days": "Sat", "time": "11:00am"}, {"days": "Sun", "time": "Closed"}], "id": "0505900000", "name": "USPS COLLECTION BOX - BLUE BOX", "address": {"city": "QUECHEE", "state": "VT", "street": "1 VILLAGE GREEN CIR", "postcode": "05059"}}},
{"geometry": {"type": "Point", "coordinates": [-72.421277301, 43.6481075315]}, "type": "Feature", "properties": {"collection_times": [{"days": "Mon-Fri", "time": "4:45pm"}, {"days": "Sat", "time": "11:00am"}, {"days": "Sun", "time": "Closed"}], "id": "0505900001", "name": "USPS COLLECTION BOX - PO LOBBY", "address": {"city": "QUECHEE", "state": "VT", "street": "1 VILLAGE GREEN CIR", "postcode": "05059"}}},
{"geometry": {"type": "Point", "coordinates": [-72.6655181953, 43.9228107664]}, "type": "Feature", "properties": {"collection_times": [{"days": "Mon-Fri", "time": "4:45pm"}, {"days": "Sat", "time": "1:30pm"}, {"days": "Sun", "time": "Closed"}], "id": "0506000002", "name": "USPS COLLECTION BOX - BLUE BOX", "address": {"city": "RANDOLPH", "state": "VT", "street": "9 SALISBURY ST", "postcode": "05060"}}},
{"geometry": {"type": "Point", "coordinates": [-72.6655181953, 43.9228107664]}, "type": "Feature", "properties": {"collection_times": [{"days": "Mon-Sat", "time": "9:30am"}, {"days": "Sun", "time": "Closed"}], "id": "0506000010", "name": "USPS COLLECTION BOX - BLUE BOX", "address": {"city": "RANDOLPH", "state": "VT", "street": "65 N MAIN ST", "postcode": "05060"}}},
{"geometry": {"type": "Point", "coordinates": [-72.6655181953, 43.9228107664]}, "type": "Feature", "properties": {"collection_times": [{"days": "Mon-Fri", "time": "4:45pm"}, {"days": "Sat", "time": "2:30pm"}, {"days": "Sun", "time": "Closed"}], "id": "0506000014", "name": "USPS COLLECTION BOX - PO LOBBY", "address": {"city": "RANDOLPH", "state": "VT", "street": "9 SALISBURY ST", "postcode": "05060"}}},
{"geometry": {"type": "Point", "coordinates": [-72.6656937605, 43.9229202663]}, "type": "Feature", "properties": {"collection_times": [{"days": "Mon-Fri", "time": "4:45pm"}, {"days": "Sat", "time": "1:30pm"}, {"days": "Sun", "time": "Closed"}], "id": "0506000017", "name": "USPS COLLECTION BOX - BLUE BOX", "address": {"city": "RANDOLPH", "state": "VT", "street": "7 SALISBURY ST", "postcode": "05060"}}},
{"geometry": {"type": "Point", "coordinates": [-72.5542797078, 43.9403101678]}, "type": "Feature", "properties": {"collection_times": [{"days": "Mon-Fri", "time": "4:00pm"}, {"days": "Sat", "time": "11:30am"}, {"days": "Sun", "time": "Closed"}], "id": "0506100000", "name": "USPS COLLECTION BOX - BLUE BOX", "address": {"city": "RANDOLPH CENTER", "state": "VT", "street": "2952 VT ROUTE 66", "postcode": "05061"}}},
{"geometry": {"type": "Point", "coordinates": [-72.5542797078, 43.9403101678]}, "type": "Feature", "properties": {"collection_times": [{"days": "Mon-Fri", "time": "4:30pm"}, {"days": "Sat", "time": "11:30am"}, {"days": "Sun", "time": "Closed"}], "id": "0506100001", "name": "USPS COLLECTION BOX - PO LOBBY", "address": {"city": "RANDOLPH CENTER", "state": "VT", "street": "2952 VT ROUTE 66", "postcode": "05061"}}},
{"geometry": {"type": "Point", "coordinates": [-72.5371475959, 43.4552806028]}, "type": "Feature", "properties": {"collection_times": [{"days": "Mon-Fri", "time": "4:30pm"}, {"days": "Sat", "time": "12:00pm"}, {"days": "Sun", "time": "Closed"}], "id": "0506200000", "name": "USPS COLLECTION BOX - BLUE BOX", "address": {"city": "READING", "state": "VT", "street": "799 ROUTE 106", "postcode": "05062"}}},
{"geometry": {"type": "Point", "coordinates": [-72.5371475959, 43.4552806028]}, "type": "Feature", "properties": {"collection_times": [{"days": "Mon-Fri", "time": "4:30pm"}, {"days": "Sat", "time": "12:00pm"}, {"days": "Sun", "time": "Closed"}], "id": "0506200001", "name": "USPS COLLECTION BOX - PO LOBBY", "address": {"city": "READING", "state": "VT", "street": "799 ROUTE 106", "postcode": "05062"}}},
{"geometry": {"type": "Point", "coordinates": [-72.4597285474, 43.7829640344]}, "type": "Feature", "properties": {"collection_times": [{"days": "Mon-Fri", "time": "4:45pm"}, {"days": "Sat", "time": "11:00am"}, {"days": "Sun", "time": "Closed"}], "id": "0506500000", "name": "USPS COLLECTION BOX - BLUE BOX", "address": {"city": "SHARON", "state": "VT", "street": "5094 ROUTE 14", "postcode": "05065"}}},
{"geometry": {"type": "Point", "coordinates": [-72.4597285474, 43.7829640344]}, "type": "Feature", "properties": {"collection_times": [{"days": "Mon-Fri", "time": "4:45pm"}, {"days": "Sat", "time": "11:00am"}, {"days": "Sun", "time": "Closed"}], "id": "0506500001", "name": "USPS COLLECTION BOX - PO LOBBY", "address": {"city": "SHARON", "state": "VT", "street": "5094 ROUTE 14", "postcode": "05065"}}},
{"geometry": {"type": "Point", "coordinates": [-72.5386577311, 43.6648587148]}, "type": "Feature", "properties": {"collection_times": [{"days": "Mon-Fri", "time": "4:45pm"}, {"days": "Sat", "time": "11:45am"}, {"days": "Sun", "time": "Closed"}], "id": "0506700000", "name": "USPS COLLECTION BOX - BLUE BOX", "address": {"city": "SOUTH POMFRET", "state": "VT", "street": "2035 POMFRET RD UNIT B", "postcode": "05067"}}},
{"geometry": {"type": "Point", "coordinates": [-72.5386577311, 43.6648587148]}, "type": "Feature", "properties": {"collection_times": [{"days": "Mon-Fri", "time": "2:00pm"}, {"days": "Sat", "time": "11:45am"}, {"days": "Sun", "time": "Closed"}], "id": "0506700001", "name": "USPS COLLECTION BOX - PO LOBBY", "address": {"city": "SOUTH POMFRET", "state": "VT", "street": "2035 POMFRET RD UNIT B", "postcode": "05067"}}},
{"geometry": {"type": "Point", "coordinates": [-72.6626876286, 44.0752034871]}, "type": "Feature", "properties": {"collection_times": [{"days": "Mon-Fri", "time": "4:30pm"}, {"days": "Sat", "time": "10:30am"}, {"days": "Sun", "time": "Closed"}], "id": "0506800001", "name": "USPS COLLECTION BOX - BLUE BOX", "address": {"city": "SOUTH ROYALTON", "state": "VT", "street": "239 CHELSEA ST", "postcode": "05068"}}},
{"geometry": {"type": "Point", "coordinates": [-72.6626876286, 44.0752034871]}, "type": "Feature", "properties": {"collection_times": [{"days": "Mon-Fri", "time": "5:00pm"}, {"days": "Sat", "time": "11:00am"}, {"days": "Sun", "time": "Closed"}], "id": "0506800002", "name": "USPS COLLECTION BOX - PO LOBBY", "address": {"city": "SOUTH ROYALTON", "state": "VT", "street": "239 CHELSEA ST", "postcode": "05068"}}},
{"geometry": {"type": "Point", "coordinates": [-72.1400490612, 44.1868381752]}, "type": "Feature", "properties": {"collection_times": [{"days": "Mon-Fri", "time": "4:45pm"}, {"days": "Sat", "time": "11:45am"}, {"days": "Sun", "time": "Closed"}], "id": "0506900000", "name": "USPS COLLECTION BOX - BLUE BOX", "address": {"city": "SOUTH RYEGATE", "state": "VT", "street": "2544 SCOTT HWY", "postcode": "05069"}}},
{"geometry": {"type": "Point", "coordinates": [-72.1400490612, 44.1868381752]}, "type": "Feature", "properties": {"collection_times": [{"days": "Mon-Fri", "time": "4:30pm"}, {"days": "Sat", "time": "11:45am"}, {"days": "Sun", "time": "Closed"}], "id": "0506900001", "name": "USPS COLLECTION BOX - PO LOBBY", "address": {"city": "SOUTH RYEGATE", "state": "VT", "street": "2544 SCOTT HWY", "postcode": "05069"}}},
{"geometry": {"type": "Point", "coordinates": [-72.3936388317, 43.8290107288]}, "type": "Feature", "properties": {"collection_times": [{"days": "Mon-Fri", "time": "5:00pm"}, {"days": "Sat", "time": "11:30am"}, {"days": "Sun", "time": "Closed"}], "id": "0507000001", "name": "USPS COLLECTION BOX - PO LOBBY", "address": {"city": "SOUTH STRAFFORD", "state": "VT", "street": "216 VT RTE 132", "postcode": "05070"}}},
{"geometry": {"type": "Point", "coordinates": [-72.5467983134, 43.5681733536]}, "type": "Feature", "properties": {"collection_times": [{"days": "Mon-Fri", "time": "5:00pm"}, {"days": "Sat", "time": "12:00pm"}, {"days": "Sun", "time": "Closed"}], "id": "0507100000", "name": "USPS COLLECTION BOX - BLUE BOX", "address": {"city": "SOUTH WOODSTOCK", "state": "VT", "street": "10673 SOUTH RD", "postcode": "05071"}}},
{"geometry": {"type": "Point", "coordinates": [-72.5467983134, 43.5681733536]}, "type": "Feature", "properties": {"collection_times": [{"days": "Mon-Fri", "time": "5:00pm"}, {"days": "Sat", "time": "12:00pm"}, {"days": "Sun", "time": "Closed"}], "id": "0507100001", "name": "USPS COLLECTION BOX - PO LOBBY", "address": {"city": "SOUTH WOODSTOCK", "state": "VT", "street": "10673 SOUTH RD", "postcode": "05071"}}},
{"geometry": {"type": "Point", "coordinates": [-72.3770454262, 43.8649290157]}, "type": "Feature", "properties": {"collection_times": [{"days": "Mon-Fri", "time": "4:30pm"}, {"days": "Sat", "time": "11:45am"}, {"days": "Sun", "time": "Closed"}], "id": "0507200000", "name": "USPS COLLECTION BOX - BLUE BOX", "address": {"city": "STRAFFORD", "state": "VT", "street": "1 BROOK RD", "postcode": "05072"}}},
{"geometry": {"type": "Point", "coordinates": [-72.3770454262, 43.8649290157]}, "type": "Feature", "properties": {"collection_times": [{"days": "Mon-Fri", "time": "4:30pm"}, {"days": "Sat", "time": "11:45am"}, {"days": "Sun", "time": "Closed"}], "id": "0507200001", "name": "USPS COLLECTION BOX - PO LOBBY", "address": {"city": "STRAFFORD", "state": "VT", "street": "1 BROOK RD", "postcode": "05072"}}},
{"geometry": {"type": "Point", "coordinates": [-72.4704262076, 43.6291804006]}, "type": "Feature", "properties": {"collection_times": [{"days": "Mon-Fri", "time": "4:30pm"}, {"days": "Sat", "time": "10:45am"}, {"days": "Sun", "time": "Closed"}], "id": "0507300001", "name": "USPS COLLECTION BOX - PO LOBBY", "address": {"city": "TAFTSVILLE", "state": "VT", "street": "33 HAPPY VALLEY RD", "postcode": "05073"}}},
{"geometry": {"type": "Point", "coordinates": [-72.2308722183, 43.8197113661]}, "type": "Feature", "properties": {"collection_times": [{"days": "Mon-Fri", "time": "4:30pm"}, {"days": "Sat", "time": "11:30am"}, {"days": "Sun", "time": "Closed"}], "id": "0507400000", "name": "USPS COLLECTION BOX - BLUE BOX", "address": {"city": "THETFORD", "state": "VT", "street": "2734 RTE 113", "postcode": "05074"}}},
{"geometry": {"type": "Point", "coordinates": [-72.2308722183, 43.8197113661]}, "type": "Feature", "properties": {"collection_times": [{"days": "Mon-Fri", "time": "4:45pm"}, {"days": "Sat", "time": "11:45am"}, {"days": "Sun", "time": "Closed"}], "id": "0507400002", "name": "USPS COLLECTION BOX - PO LOBBY", "address": {"city": "THETFORD", "state": "VT", "street": "2734 RTE 113", "postcode": "05074"}}},
{"geometry": {"type": "Point", "coordinates": [-72.2264571809, 43.8186039458]}, "type": "Feature", "properties": {"collection_times": [{"days": "Mon-Fri", "time": "4:30pm"}, {"days": "Sat", "time": "10:30am"}, {"days": "Sun", "time": "Closed"}], "id": "0507500000", "name": "USPS COLLECTION BOX - BLUE BOX", "address": {"city": "THETFORD CENTER", "state": "VT", "street": "3956 ROUTE 113", "postcode": "05075"}}},
{"geometry": {"type": "Point", "coordinates": [-72.2264571809, 43.8186039458]}, "type": "Feature", "properties": {"collection_times": [{"days": "Mon-Fri", "time": "2:00pm"}, {"days": "Sat", "time": "10:30am"}, {"days": "Sun", "time": "Closed"}], "id": "0507500001", "name": "USPS COLLECTION BOX - PO LOBBY", "address": {"city": "THETFORD CENTER", "state": "VT", "street": "3956 ROUTE 113", "postcode": "05075"}}},
{"geometry": {"type": "Point", "coordinates": [-72.5066166412, 43.8523529221]}, "type": "Feature", "properties": {"collection_times": [{"days": "Mon-Fri", "time": "4:45pm"}, {"days": "Sat", "time": "11:45am"}, {"days": "Sun", "time": "Closed"}], "id": "0507700000", "name": "USPS COLLECTION BOX - BLUE BOX", "address": {"city": "TUNBRIDGE", "state": "VT", "street": "292 VT ROUTE 110", "postcode": "05077"}}},
{"geometry": {"type": "Point", "coordinates": [-72.5066166412, 43.8523529221]}, "type": "Feature", "properties": {"collection_times": [{"days": "Mon-Fri", "time": "4:45pm"}, {"days": "Sat", "time": "11:45am"}, {"days": "Sun", "time": "Closed"}], "id": "0507700001", "name": "USPS COLLECTION BOX - PO LOBBY", "address": {"city": "TUNBRIDGE", "state": "VT", "street": "292 VT ROUTE 110", "postcode": "05077"}}},
{"geometry": {"type": "Point", "coordinates": [-72.3496183503, 43.9758731153]}, "type": "Feature", "properties": {"collection_times": [{"days": "Mon-Fri", "time": "4:00pm"}, {"days": "Sat", "time": "11:30am"}, {"days": "Sun", "time": "Closed"}], "id": "0507900000", "name": "USPS COLLECTION BOX - BLUE BOX", "address": {"city": "VERSHIRE", "state": "VT", "street": "6319 VT ROUTE 113", "postcode": "05079"}}},
{"geometry": {"type": "Point", "coordinates": [-72.3496183503, 43.9758731153]}, "type": "Feature", "properties": {"collection_times": [{"days": "Mon-Fri", "time": "4:00pm"}, {"days": "Sat", "time": "11:30am"}, {"days": "Sun", "time": "Closed"}], "id": "0507900001", "name": "USPS COLLECTION BOX - PO LOBBY", "address": {"city": "VERSHIRE", "state": "VT", "street": "6319 VT ROUTE 113", "postcode": "05079"}}},
{"geometry": {"type": "Point", "coordinates": [-72.0469229826, 44.1536478955]}, "type": "Feature", "properties": {"collection_times": [{"days": "Mon-Fri", "time": "4:15pm"}, {"days": "Sat", "time": "11:00am"}, {"days": "Sun", "time": "Closed"}], "id": "0508100000", "name": "USPS COLLECTION BOX - BLUE BOX", "address": {"city": "WELLS RIVER", "state": "VT", "street": "31 MAIN ST", "postcode": "05081"}}},
{"geometry": {"type": "Point", "coordinates": [-72.0469229826, 44.1536478955]}, "type": "Feature", "properties": {"collection_times": [{"days": "Mon-Fri", "time": "4:15pm"}, {"days": "Sat", "time": "11:00am"}, {"days": "Sun", "time": "Closed"}], "id": "0508100004", "name": "USPS COLLECTION BOX - PO LOBBY", "address": {"city": "WELLS RIVER", "state": "VT", "street": "31 MAIN ST", "postcode": "05081"}}},
{"geometry": {"type": "Point", "coordinates": [-72.1233992523, 44.0640601414]}, "type": "Feature", "properties": {"collection_times": [{"days": "Mon-Fri", "time": "4:15pm"}, {"days": "Sat", "time": "11:15am"}, {"days": "Sun", "time": "Closed"}], "id": "0508500000", "name": "USPS COLLECTION BOX - BLUE BOX", "address": {"city": "WEST NEWBURY", "state": "VT", "street": "3060 SNAKE RD", "postcode": "05085"}}},
{"geometry": {"type": "Point", "coordinates": [-72.1233992523, 44.0640601414]}, "type": "Feature", "properties": {"collection_times": [{"days": "Mon-Fri", "time": "11:00am"}, {"days": "Sat", "time": "10:30am"}, {"days": "Sun", "time": "Closed"}], "id": "0508500001", "name": "USPS COLLECTION BOX - PO LOBBY", "address": {"city": "WEST NEWBURY", "state": "VT", "street": "3060 SNAKE RD", "postcode": "05085"}}},
{"geometry": {"type": "Point", "coordinates": [-72.312850975, 44.1158594543]}, "type": "Feature", "properties": {"collection_times": [{"days": "Mon-Fri", "time": "4:45pm"}, {"days": "Sat", "time": "11:45am"}, {"days": "Sun", "time": "Closed"}], "id": "0508600000", "name": "USPS COLLECTION BOX - BLUE BOX", "address": {"city": "WEST TOPSHAM", "state": "VT", "street": "7 BATTEN RD", "postcode": "05086"}}},
{"geometry": {"type": "Point", "coordinates": [-72.312850975, 44.1158594543]}, "type": "Feature", "properties": {"collection_times": [{"days": "Mon-Fri", "time": "12:00pm"}, {"days": "Sat", "time": "11:45am"}, {"days": "Sun", "time": "Closed"}], "id": "0508600001", "name": "USPS COLLECTION BOX - PO LOBBY", "address": {"city": "WEST TOPSHAM", "state": "VT", "street": "7 BATTEN RD", "postcode": "05086"}}},
{"geometry": {"type": "Point", "coordinates": [-72.3077382264, 43.6728626152]}, "type": "Feature", "properties": {"collection_times": [{"days": "Mon-Fri", "time": "5:00pm"}, {"days": "Sat", "time": "11:30am"}, {"days": "Sun", "time": "Closed"}], "id": "0508800000", "name": "USPS COLLECTION BOX - BLUE BOX", "address": {"city": "WILDER", "state": "VT", "street": "80 DEPOT ST", "postcode": "05088"}}},
{"geometry": {"type": "Point", "coordinates": [-72.3077382264, 43.6728626152]}, "type": "Feature", "properties": {"collection_times": [{"days": "Mon-Fri", "time": "5:00pm"}, {"days": "Sat", "time": "11:30am"}, {"days": "Sun", "time": "Closed"}], "id": "0508800002", "name": "USPS COLLECTION BOX - PO LOBBY", "address": {"city": "WILDER", "state": "VT", "street": "80 DEPOT ST", "postcode": "05088"}}},
{"geometry": {"type": "Point", "coordinates": [-72.3938458094, 43.4771846409]}, "type": "Feature", "properties": {"collection_times": [{"days": "Mon-Sat", "time": "12:30pm"}, {"days": "Sun", "time": "Closed"}], "id": "0508900006", "name": "USPS COLLECTION BOX - BLUE BOX", "address": {"city": "WINDSOR", "state": "VT", "street": "4 CLOUGH AVE", "postcode": "05089"}}},
{"geometry": {"type": "Point", "coordinates": [-72.3897196486, 43.480728786]}, "type": "Feature", "properties": {"collection_times": [{"days": "Mon-Sat", "time": "1:45pm"}, {"days": "Sun", "time": "Closed"}], "id": "0508900009", "name": "USPS COLLECTION BOX - BLUE BOX", "address": {"city": "WINDSOR", "state": "VT", "street": "57 STATE ST", "postcode": "05089"}}},
{"geometry": {"type": "Point", "coordinates": [-72.3859933278, 43.4807926658]}, "type": "Feature", "properties": {"collection_times": [{"days": "Mon-Fri", "time": "5:00pm"}, {"days": "Sat", "time": "2:15pm"}, {"days": "Sun", "time": "Closed"}], "id": "0508900011", "name": "USPS COLLECTION BOX - BLUE BOX", "address": {"city": "WINDSOR", "state": "VT", "street": "57 MAIN ST", "postcode": "05089"}}},
{"geometry": {"type": "Point", "coordinates": [-72.3859933278, 43.4807926658]}, "type": "Feature", "properties": {"collection_times": [{"days": "Mon-Fri", "time": "5:00pm"}, {"days": "Sat", "time": "2:15pm"}, {"days": "Sun", "time": "Closed"}], "id": "0508900012", "name": "USPS COLLECTION BOX - BLUE BOX", "address": {"city": "WINDSOR", "state": "VT", "street": "57 MAIN ST", "postcode": "05089"}}},
{"geometry": {"type": "Point", "coordinates": [-72.4483375723, 43.4966120672]}, "type": "Feature", "properties": {"collection_times": [{"days": "Mon-Sat", "time": "8:45am"}, {"days": "Sun", "time": "Closed"}], "id": "0508900014", "name": "USPS COLLECTION BOX - BLUE BOX", "address": {"city": "WINDSOR", "state": "VT", "street": "2725 US ROUTE 5 N", "postcode": "05089"}}},
{"geometry": {"type": "Point", "coordinates": [-72.3859933278, 43.4807926658]}, "type": "Feature", "properties": {"collection_times": [{"days": "Mon-Fri", "time": "5:15pm"}, {"days": "Sat", "time": "2:30pm"}, {"days": "Sun", "time": "Closed"}], "id": "0508900015", "name": "USPS COLLECTION BOX - PO LOBBY", "address": {"city": "WINDSOR", "state": "VT", "street": "57 MAIN ST", "postcode": "05089"}}},
{"geometry": {"type": "Point", "coordinates": [-72.5240903541, 43.6245159552]}, "type": "Feature", "properties": {"collection_times": [{"days": "Mon-Sat", "time": "10:00am"}, {"days": "Sun", "time": "Closed"}], "id": "0509100001", "name": "USPS COLLECTION BOX - BLUE BOX", "address": {"city": "WOODSTOCK", "state": "VT", "street": "45 MOUNTAIN AVE", "postcode": "05091"}}},
{"geometry": {"type": "Point", "coordinates": [-72.560568222, 43.6343827483]}, "type": "Feature", "properties": {"collection_times": [{"days": "Mon-Fri", "time": "11:00am"}, {"days": "Sat-Sun", "time": "Closed"}], "id": "0509100002", "name": "USPS COLLECTION BOX - BLUE BOX", "address": {"city": "WOODSTOCK", "state": "VT", "street": "1 SUNSET FARMS", "postcode": "05091"}}},
{"geometry": {"type": "Point", "coordinates": [-72.5204969451, 43.6234149304]}, "type": "Feature", "properties": {"collection_times": [{"days": "Mon-Fri", "time": "4:45pm"}, {"days": "Sat", "time": "12:30pm"}, {"days": "Sun", "time": "Closed"}], "id": "0509100012", "name": "USPS COLLECTION BOX - BLUE BOX", "address": {"city": "WOODSTOCK", "state": "VT", "street": "18 THE GRN", "postcode": "05091"}}},
{"geometry": {"type": "Point", "coordinates": [-72.5118495151, 43.6267757169]}, "type": "Feature", "properties": {"collection_times": [{"days": "Mon-Fri", "time": "10:30am"}, {"days": "Sat", "time": "12:00pm"}, {"days": "Sun", "time": "Closed"}], "id": "0509100017", "name": "USPS COLLECTION BOX - BLUE BOX", "address": {"city": "WOODSTOCK", "state": "VT", "street": "37 PLEASANT ST", "postcode": "05091"}}},
{"geometry": {"type": "Point", "coordinates": [-72.5174094222, 43.6254827427]}, "type": "Feature", "properties": {"collection_times": [{"days": "Mon-Fri", "time": "5:15pm"}, {"days": "Sat", "time": "2:45pm"}, {"days": "Sun", "time": "Closed"}], "id": "0509100018", "name": "USPS COLLECTION BOX - BLUE BOX", "address": {"city": "WOODSTOCK", "state": "VT", "street": "22 CENTRAL ST", "postcode": "05091"}}},
{"geometry": {"type": "Point", "coordinates": [-72.5174094222, 43.6254827427]}, "type": "Feature", "properties": {"collection_times": [{"days": "Mon-Fri", "time": "5:30pm"}, {"days": "Sat", "time": "2:45pm"}, {"days": "Sun", "time": "Closed"}], "id": "0509100019", "name": "USPS COLLECTION BOX - PO LOBBY", "address": {"city": "WOODSTOCK", "state": "VT", "street": "22 CENTRAL ST", "postcode": "05091"}}}
]}
