{"type": "FeatureCollection", "features": [
{"geometry": {"type": "Point", "coordinates": [-72.4431125014, 43.1337491772]}, "type": "Feature", "properties": {"collection_times": [{"days": "Mon-Fri", "time": "5:00pm"}, {"days": "Sat", "time": "1:30pm"}, {"days": "Sun", "time": "Closed"}], "id": "0510100002", "name": "USPS COLLECTION BOX - BLUE BOX", "address": {"city": "BELLOWS FALLS", "state": "VT", "street": "7 BRIDGE ST", "postcode": "05101"}}},
{"geometry": {"type": "Point", "coordinates": [-72.4569522272, 43.1187798936]}, "type": "Feature", "properties": {"collection_times": [{"days": "Mon-Sat", "time": "12:00pm"}, {"days": "Sun", "time": "Closed"}], "id": "0510100018", "name": "USPS COLLECTION BOX - BLUE BOX", "address": {"city": "BELLOWS FALLS", "state": "VT", "street": "115 CHURCH AVE", "postcode": "05101"}}},
{"geometry": {"type": "Point", "coordinates": [-72.4580559208, 43.1431231912]}, "type": "Feature", "properties": {"collection_times": [{"days": "Mon-Sat", "time": "12:00pm"}, {"days": "Sun", "time": "Closed"}], "id": "0510100026", "name": "USPS COLLECTION BOX - BLUE BOX", "address": {"city": "BELLOWS FALLS", "state": "VT", "street": "92 ATKINSON ST", "postcode": "05101"}}},
{"geometry": {"type": "Point", "coordinates": [-72.4444433303, 43.1269649075]}, "type": "Feature", "properties": {"collection_times": [{"days": "Mon-Sat", "time": "12:00pm"}, {"days": "Sun", "time": "Closed"}], "id": "0510100028", "name": "USPS COLLECTION BOX - BLUE BOX", "address": {"city": "BELLOWS FALLS", "state": "VT", "street": "1 HOSPITAL CT", "postcode": "05101"}}},
{"geometry": {"type": "Point", "coordinates": [-72.4431125014, 43.1337491772]}, "type": "Feature", "properties": {"collection_times": [{"days": "Mon-Fri", "time": "5:15pm"}, {"days": "Sat", "time": "1:00pm"}, {"days": "Sun", "time": "Closed"}], "id": "0510100031", "name": "USPS COLLECTION BOX - PO LOBBY", "address": {"city": "BELLOWS FALLS", "state": "VT", "street": "7 BRIDGE ST", "postcode": "05101"}}},
{"geometry": {"type": "Point", "coordinates": [-72.5562878058, 43.1510919309]}, "type": "Feature", "properties": {"collection_times": [{"days": "Mon-Fri", "time": "4:30pm"}, {"days": "Sat", "time": "11:30am"}, {"days": "Sun", "time": "Closed"}], "id": "0514100000", "name": "USPS COLLECTION BOX - BLUE BOX", "address": {"city": "CAMBRIDGEPORT", "state": "VT", "street": "999 SAXTONS RIVER RD", "postcode": "05141"}}},
{"geometry": {"type": "Point", "coordinates": [-72.5562878058, 43.1510919309]}, "type": "Feature", "properties": {"collection_times": [{"days": "Mon-Fri", "time": "10:00am"}, {"days": "Sat-Sun", "time": "Closed"}], "id": "0514100001", "name": "USPS COLLECTION BOX - PO LOBBY", "address": {"city": "CAMBRIDGEPORT", "state": "VT", "street": "999 SAXTONS RIVER RD", "postcode": "05141"}}},
{"geometry": {"type": "Point", "coordinates": [-72.6096482816, 43.3821894872]}, "type": "Feature", "properties": {"collection_times": [{"days": "Mon-Fri", "time": "4:45pm"}, {"days": "Sat", "time": "10:15am"}, {"days": "Sun", "time": "Closed"}], "id": "0514200000", "name": "USPS COLLECTION BOX - BLUE BOX", "address": {"city": "CAVENDISH", "state": "VT", "street": "2025 MAIN ST", "postcode": "05142"}}},
{"geometry": {"type": "Point", "coordinates": [-72.6096482816, 43.3821894872]}, "type": "Feature", "properties": {"collection_times": [{"days": "Mon-Fri", "time": "4:45pm"}, {"days": "Sat", "time": "10:15am"}, {"days": "Sun", "time": "Closed"}], "id": "0514200001", "name": "USPS COLLECTION BOX - PO LOBBY", "address": {"city": "CAVENDISH", "state": "VT", "street": "2025 MAIN ST", "postcode": "05142"}}},
{"geometry": {"type": "Point", "coordinates": [-72.5921629651, 43.2609634013]}, "type": "Feature", "properties": {"collection_times": [{"days": "Mon-Fri", "time": "5:00pm"}, {"days": "Sat", "time": "11:45am"}, {"days": "Sun", "time": "Closed"}], "id": "0514300001", "name": "USPS COLLECTION BOX - BLUE BOX", "address": {"city": "CHESTER", "state": "VT", "street": "203 S MAIN ST", "postcode": "05143"}}},
{"geometry": {"type": "Point", "coordinates": [-72.5921629651, 43.2609634013]}, "type": "Feature", "properties": {"collection_times": [{"days": "Mon-Fri", "time": "5:00pm"}, {"days": "Sat", "time": "11:45am"}, {"days": "Sun", "time": "Closed"}], "id": "0514300003", "name": "USPS COLLECTION BOX - PO LOBBY", "address": {"city": "CHESTER", "state": "VT", "street": "203 S MAIN ST", "postcode": "05143"}}},
{"geometry": {"type": "Point", "coordinates": [-72.5917596996, 43.2606144463]}, "type": "Feature", "properties": {"collection_times": [{"days": "Mon-Fri", "time": "12:00pm"}, {"days": "Sat", "time": "11:45am"}, {"days": "Sun", "time": "Closed"}], "id": "0514300005", "name": "USPS COLLECTION BOX - BLUE BOX", "address": {"city": "CHESTER", "state": "VT", "street": "556 ELM ST", "postcode": "05143"}}},
{"geometry": {"type": "Point", "coordinates": [-72.6083506569, 43.172518429]}, "type": "Feature", "properties": {"collection_times": [{"days": "Mon-Fri", "time": "4:30pm"}, {"days": "Sat", "time": "11:30am"}, {"days": "Sun", "time": "Closed"}], "id": "0514600000", "name": "USPS COLLECTION BOX - BLUE BOX", "address": {"city": "GRAFTON", "state": "VT", "street": "115 MAIN ST", "postcode": "05146"}}},
{"geometry": {"type": "Point", "coordinates": [-72.6083506569, 43.172518429]}, "type": "Feature", "properties": {"collection_times": [{"days": "Mon-Fri", "time": "2:30pm"}, {"days": "Sat", "time": "11:30am"}, {"days": "Sun", "time": "Closed"}], "id": "0514600001", "name": "USPS COLLECTION BOX - PO LOBBY", "address": {"city": "GRAFTON", "state": "VT", "street": "115 MAIN ST", "postcode": "05146"}}},
{"geometry": {"type": "Point", "coordinates": [-72.7986695925, 43.2349505371]}, "type": "Feature", "properties": {"collection_times": [{"days": "Mon-Fri", "time": "4:15pm"}, {"days": "Sat", "time": "11:45am"}, {"days": "Sun", "time": "Closed"}], "id": "0514800001", "name": "USPS COLLECTION BOX - BLUE BOX", "address": {"city": "LONDONDERRY", "state": "VT", "street": "5660 VT ROUTE 100", "postcode": "05148"}}},
{"geometry": {"type": "Point", "coordinates": [-72.7986695925, 43.2349505371]}, "type": "Feature", "properties": {"collection_times": [{"days": "Mon-Fri", "time": "4:30pm"}, {"days": "Sat", "time": "12:00pm"}, {"days": "Sun", "time": "Closed"}], "id": "0514800003", "name": "USPS COLLECTION BOX - PO LOBBY", "address": {"city": "LONDONDERRY", "state": "VT", "street": "5660 VT ROUTE 100", "postcode": "05148"}}},
{"geometry": {"type": "Point", "coordinates": [-72.6626876286, 44.0752034871]}, "type": "Feature", "properties": {"collection_times": [{"days": "Mon-Sat", "time": "2:00pm"}, {"days": "Sun", "time": "Closed"}], "id": "0514900002", "name": "USPS COLLECTION BOX - BLUE BOX", "address": {"city": "LUDLOW", "state": "VT", "street": "198 MAIN ST", "postcode": "05149"}}},
{"geometry": {"type": "Point", "coordinates": [-72.7033504612, 43.3958656758]}, "type": "Feature", "properties": {"collection_times": [{"days": "Mon-Sat", "time": "2:00pm"}, {"days": "Sun", "time": "Closed"}], "id": "0514900005", "name": "USPS COLLECTION BOX - BLUE BOX", "address": {"city": "LUDLOW", "state": "VT", "street": "213 MAIN ST", "postcode": "05149"}}},
{"geometry": {"type": "Point", "coordinates": [-72.7066083302, 43.3999042977]}, "type": "Feature", "properties": {"collection_times": [{"days": "Mon-Fri", "time": "4:30pm"}, {"days": "Sat", "time": "10:00am"}, {"days": "Sun", "time": "Closed"}], "id": "0514900006", "name": "USPS COLLECTION BOX - BLUE BOX", "address": {"city": "LUDLOW", "state": "VT", "street": "57 POND ST", "postcode": "05149"}}},
{"geometry": {"type": "Point", "coordinates": [-72.7066083302, 43.3999042977]}, "type": "Feature", "properties": {"collection_times": [{"days": "Mon-Fri", "time": "4:30pm"}, {"days": "Sat", "time": "10:30am"}, {"days": "Sun", "time": "Closed"}], "id": "0514900007", "name": "USPS COLLECTION BOX - PO LOBBY", "address": {"city": "LUDLOW", "state": "VT", "street": "57 POND ST", "postcode": "05149"}}},
{"geometry": {"type": "Point", "coordinates": [-72.5409080957, 43.3286205391]}, "type": "Feature", "properties": {"collection_times": [{"days": "Mon-Fri", "time": "4:00pm"}, {"days": "Sat", "time": "11:00am"}, {"days": "Sun", "time": "Closed"}], "id": "0515000000", "name": "USPS COLLECTION BOX - BLUE BOX", "address": {"city": "N SPRINGFIELD", "state": "VT", "street": "39 MAIN ST", "postcode": "05150"}}},
{"geometry": {"type": "Point", "coordinates": [-72.5409080957, 43.3286205391]}, "type": "Feature", "properties": {"collection_times": [{"days": "Mon-Fri", "time": "5:15pm"}, {"days": "Sat", "time": "11:00am"}, {"days": "Sun", "time": "Closed"}], "id": "0515000001", "name": "USPS COLLECTION BOX - PO LOBBY", "address": {"city": "N SPRINGFIELD", "state": "VT", "street": "39 MAIN ST", "postcode": "05150"}}},
{"geometry": {"type": "Point", "coordinates": [-72.5371195865, 43.3936839171]}, "type": "Feature", "properties": {"collection_times": [{"days": "Mon-Fri", "time": "4:45pm"}, {"days": "Sat", "time": "10:45am"}, {"days": "Sun", "time": "Closed"}], "id": "0515100000", "name": "USPS COLLECTION BOX - BLUE BOX", "address": {"city": "PERKINSVILLE", "state": "VT", "street": "7290 VT ROUTE 131", "postcode": "05151"}}},
{"geometry": {"type": "Point", "coordinates": [-72.5371195865, 43.3936839171]}, "type": "Feature", "properties": {"collection_times": [{"days": "Mon-Fri", "time": "4:45pm"}, {"days": "Sat", "time": "10:45am"}, {"days": "Sun", "time": "Closed"}], "id": "0515100001", "name": "USPS COLLECTION BOX - PO LOBBY", "address": {"city": "PERKINSVILLE", "state": "VT", "street": "7290 VT ROUTE 131", "postcode": "05151"}}},
{"geometry": {"type": "Point", "coordinates": [-72.8994862405, 43.2300810746]}, "type": "Feature", "properties": {"collection_times": [{"days": "Mon-Fri", "time": "4:15pm"}, {"days": "Sat", "time": "12:00pm"}, {"days": "Sun", "time": "Closed"}], "id": "0515200000", "name": "USPS COLLECTION BOX - BLUE BOX", "address": {"city": "PERU", "state": "VT", "street": "311 MAIN ST", "postcode": "05152"}}},
{"geometry": {"type": "Point", "coordinates": [-72.8994862405, 43.2300810746]}, "type": "Feature", "properties": {"collection_times": [{"days": "Mon-Fri", "time": "4:30pm"}, {"days": "Sat", "time": "12:00pm"}, {"days": "Sun", "time": "Closed"}], "id": "0515200001", "name": "USPS COLLECTION BOX - PO LOBBY", "address": {"city": "PERU", "state": "VT", "street": "311 MAIN ST", "postcode": "05152"}}},
{"geometry": {"type": "Point", "coordinates": [-72.6383326706, 43.3824994224]}, "type": "Feature", "properties": {"collection_times": [{"days": "Mon-Fri", "time": "2:00pm"}, {"days": "Sat", "time": "10:15am"}, {"days": "Sun", "time": "Closed"}], "id": "0515300000", "name": "USPS COLLECTION BOX - BLUE BOX", "address": {"city": "PROCTORSVILLE", "state": "VT", "street": "7 DEPOT ST", "postcode": "05153"}}},
{"geometry": {"type": "Point", "coordinates": [-72.6383326706, 43.3824994224]}, "type": "Feature", "properties": {"collection_times": [{"days": "Mon-Fri", "time": "2:00pm"}, {"days": "Sat", "time": "10:15am"}, {"days": "Sun", "time": "Closed"}], "id": "0515300001", "name": "USPS COLLECTION BOX - PO LOBBY", "address": {"city": "PROCTORSVILLE", "state": "VT", "street": "7 DEPOT ST", "postcode": "05153"}}},
{"geometry": {"type": "Point", "coordinates": [-72.5247169957, 43.1371227382]}, "type": "Feature", "properties": {"collection_times": [{"days": "Mon-Fri", "time": "4:30pm"}, {"days": "Sat", "time": "10:30am"}, {"days": "Sun", "time": "Closed"}], "id": "0515400000", "name": "USPS COLLECTION BOX - BLUE BOX", "address": {"city": "SAXTONS RIVER", "state": "VT", "street": "39 MAIN ST", "postcode": "05154"}}},
{"geometry": {"type": "Point", "coordinates": [-72.5247169957, 43.1371227382]}, "type": "Feature", "properties": {"collection_times": [{"days": "Mon-Fri", "time": "4:45pm"}, {"days": "Sat", "time": "10:45am"}, {"days": "Sun", "time": "Closed"}], "id": "0515400001", "name": "USPS COLLECTION BOX - PO LOBBY", "address": {"city": "SAXTONS RIVER", "state": "VT", "street": "39 MAIN ST", "postcode": "05154"}}},
{"geometry": {"type": "Point", "coordinates": [-72.8059777227, 43.1866907857]}, "type": "Feature", "properties": {"collection_times": [{"days": "Mon-Fri", "time": "4:00pm"}, {"days": "Sat", "time": "11:30am"}, {"days": "Sun", "time": "Closed"}], "id": "0515500000", "name": "USPS COLLECTION BOX - BLUE BOX", "address": {"city": "S LONDONDERRY", "state": "VT", "street": "67 MAIN ST", "postcode": "05155"}}},
{"geometry": {"type": "Point", "coordinates": [-72.8059777227, 43.1866907857]}, "type": "Feature", "properties": {"collection_times": [{"days": "Mon-Fri", "time": "4:00pm"}, {"days": "Sat", "time": "11:30am"}, {"days": "Sun", "time": "Closed"}], "id": "0515500001", "name": "USPS COLLECTION BOX - PO LOBBY", "address": {"city": "S LONDONDERRY", "state": "VT", "street": "67 MAIN ST", "postcode": "05155"}}},
{"geometry": {"type": "Point", "coordinates": [-72.4807873786, 43.2958997284]}, "type": "Feature", "properties": {"collection_times": [{"days": "Mon-Fri", "time": "5:15pm"}, {"days": "Sat", "time": "12:15pm"}, {"days": "Sun", "time": "Closed"}], "id": "0515600000", "name": "USPS COLLECTION BOX - PO LOBBY", "address": {"city": "SPRINGFIELD", "state": "VT", "street": "132 MAIN ST", "postcode": "05156"}}},
{"geometry": {"type": "Point", "coordinates": [-72.4807873786, 43.2958997284]}, "type": "Feature", "properties": {"collection_times": [{"days": "Mon-Fri", "time": "5:15pm"}, {"days": "Sat", "time": "2:30pm"}, {"days": "Sun", "time": "Closed"}], "id": "0515600001", "name": "USPS COLLECTION BOX - BLUE BOX", "address": {"city": "SPRINGFIELD", "state": "VT", "street": "132 MAIN ST", "postcode": "05156"}}},
{"geometry": {"type": "Point", "coordinates": [-72.4807873786, 43.2958997284]}, "type": "Feature", "properties": {"collection_times": [{"days": "Mon-Fri", "time": "5:15pm"}, {"days": "Sat", "time": "2:30pm"}, {"days": "Sun", "time": "Closed"}], "id": "0515600002", "name": "USPS COLLECTION BOX - BLUE BOX", "address": {"city": "SPRINGFIELD", "state": "VT", "street": "132 MAIN ST", "postcode": "05156"}}},
{"geometry": {"type": "Point", "coordinates": [-72.4814591493, 43.2965625015]}, "type": "Feature", "properties": {"collection_times": [{"days": "Mon-Fri", "time": "4:30pm"}, {"days": "Sat", "time": "9:00am"}, {"days": "Sun", "time": "Closed"}], "id": "0515600004", "name": "USPS COLLECTION BOX - BLUE BOX", "address": {"city": "SPRINGFIELD", "state": "VT", "street": "6 MAIN ST", "postcode": "05156"}}},
{"geometry": {"type": "Point", "coordinates": [-72.4814591493, 43.2965625015]}, "type": "Feature", "properties": {"collection_times": [{"days": "Mon-Fri", "time": "4:30pm"}, {"days": "Sat", "time": "9:00am"}, {"days": "Sun", "time": "Closed"}], "id": "0515600005", "name": "USPS COLLECTION BOX - BLUE BOX", "address": {"city": "SPRINGFIELD", "state": "VT", "street": "6 MAIN ST", "postcode": "05156"}}},
{"geometry": {"type": "Point", "coordinates": [-72.4817952596, 43.2974624172]}, "type": "Feature", "properties": {"collection_times": [{"days": "Mon-Fri", "time": "4:20pm"}, {"days": "Sat", "time": "9:00am"}, {"days": "Sun", "time": "Closed"}], "id": "0515600008", "name": "USPS COLLECTION BOX - BLUE BOX", "address": {"city": "SPRINGFIELD", "state": "VT", "street": "80 MAIN ST", "postcode": "05156"}}},
{"geometry": {"type": "Point", "coordinates": [-72.4720294591, 43.3074817136]}, "type": "Feature", "properties": {"collection_times": [{"days": "Mon-Sat", "time": "11:30am"}, {"days": "Sun", "time": "Closed"}], "id": "0515600010", "name": "USPS COLLECTION BOX - BLUE BOX", "address": {"city": "SPRINGFIELD", "state": "VT", "street": "56 ELM HILL ST", "postcode": "05156"}}},
{"geometry": {"type": "Point", "coordinates": [-72.4923448876, 43.3037593078]}, "type": "Feature", "properties": {"collection_times": [{"days": "Mon-Fri", "time": "4:30pm"}, {"days": "Sat", "time": "9:00am"}, {"days": "Sun", "time": "Closed"}], "id": "0515600011", "name": "USPS COLLECTION BOX - BLUE BOX", "address": {"city": "SPRINGFIELD", "state": "VT", "street": "2 CHESTER RD", "postcode": "05156"}}},
{"geometry": {"type": "Point", "coordinates": [-72.4801757888, 43.2940460317]}, "type": "Feature", "properties": {"collection_times": [{"days": "Mon-Fri", "time": "4:30pm"}, {"days": "Sat", "time": "9:00am"}, {"days": "Sun", "time": "Closed"}], "id": "0515600018", "name": "USPS COLLECTION BOX - BLUE BOX", "address": {"city": "SPRINGFIELD", "state": "VT", "street": "1 MINERAL ST", "postcode": "05156"}}},
{"geometry": {"type": "Point", "coordinates": [-72.4875882096, 43.2977203023]}, "type": "Feature", "properties": {"collection_times": [{"days": "Mon-Fri", "time": "4:30pm"}, {"days": "Sat", "time": "9:00am"}, {"days": "Sun", "time": "Closed"}], "id": "0515600019", "name": "USPS COLLECTION BOX - BLUE BOX", "address": {"city": "SPRINGFIELD", "state": "VT", "street": "114 PARK ST", "postcode": "05156"}}},
{"geometry": {"type": "Point", "coordinates": [-72.4945903601, 43.2976365945]}, "type": "Feature", "properties": {"collection_times": [{"days": "Mon-Fri", "time": "4:30pm"}, {"days": "Sat", "time": "9:00am"}, {"days": "Sun", "time": "Closed"}], "id": "0515600021", "name": "USPS COLLECTION BOX - BLUE BOX", "address": {"city": "SPRINGFIELD", "state": "VT", "street": "25 RIDGEWOOD RD", "postcode": "05156"}}},
{"geometry": {"type": "Point", "coordinates": [-72.485529861, 43.2992829911]}, "type": "Feature", "properties": {"collection_times": [{"days": "Mon-Fri", "time": "4:30pm"}, {"days": "Sat", "time": "9:00am"}, {"days": "Sun", "time": "Closed"}], "id": "0515600023", "name": "USPS COLLECTION BOX - BLUE BOX", "address": {"city": "SPRINGFIELD", "state": "VT", "street": "100 RIVER ST", "postcode": "05156"}}},
{"geometry": {"type": "Point", "coordinates": [-72.4923448876, 43.3037593078]}, "type": "Feature", "properties": {"collection_times": [{"days": "Mon-Fri", "time": "4:30pm"}, {"days": "Sat", "time": "9:00am"}, {"days": "Sun", "time": "Closed"}], "id": "0515600024", "name": "USPS COLLECTION BOX - BLUE BOX", "address": {"city": "SPRINGFIELD", "state": "VT", "street": "2 CHESTER RD", "postcode": "05156"}}},
{"geometry": {"type": "Point", "coordinates": [-72.4954708222, 43.3075449328]}, "type": "Feature", "properties": {"collection_times": [{"days": "Mon-Fri", "time": "4:30pm"}, {"days": "Sat", "time": "9:00am"}, {"days": "Sun", "time": "Closed"}], "id": "0515600025", "name": "USPS COLLECTION BOX - BLUE BOX", "address": {"city": "SPRINGFIELD", "state": "VT", "street": "258 RIVER ST", "postcode": "05156"}}},
{"geometry": {"type": "Point", "coordinates": [-72.4720294591, 43.3074817136]}, "type": "Feature", "properties": {"collection_times": [{"days": "Mon-Fri", "time": "4:30pm"}, {"days": "Sat", "time": "10:00am"}, {"days": "Sun", "time": "Closed"}], "id": "0515600026", "name": "USPS COLLECTION BOX - BLUE BOX", "address": {"city": "SPRINGFIELD", "state": "VT", "street": "390 RIVER ST", "postcode": "05156"}}},
{"geometry": {"type": "Point", "coordinates": [-72.4819679716, 43.298592143]}, "type": "Feature", "properties": {"collection_times": [{"days": "Mon-Fri", "time": "4:20pm"}, {"days": "Sat", "time": "9:00am"}, {"days": "Sun", "time": "Closed"}], "id": "0515600027", "name": "USPS COLLECTION BOX - BLUE BOX", "address": {"city": "SPRINGFIELD", "state": "VT", "street": "33 MAIN ST", "postcode": "05156"}}},
{"geometry": {"type": "Point", "coordinates": [-72.4768871628, 43.2858623216]}, "type": "Feature", "properties": {"collection_times": [{"days": "Mon-Sat", "time": "9:00am"}, {"days": "Sun", "time": "Closed"}], "id": "0515600028", "name": "USPS COLLECTION BOX - BLUE BOX", "address": {"city": "SPRINGFIELD", "state": "VT", "street": "181 SOUTH ST", "postcode": "05156"}}},
{"geometry": {"type": "Point", "coordinates": [-72.4843575487, 43.2972766927]}, "type": "Feature", "properties": {"collection_times": [{"days": "Mon-Fri", "time": "4:30pm"}, {"days": "Sat", "time": "9:00am"}, {"days": "Sun", "time": "Closed"}], "id": "0515600030", "name": "USPS COLLECTION BOX - BLUE BOX", "address": {"city": "SPRINGFIELD", "state": "VT", "street": "100 MINERAL ST", "postcode": "05156"}}},
{"geometry": {"type": "Point", "coordinates": [-72.4843575487, 43.2972766927]}, "type": "Feature", "properties": {"collection_times": [{"days": "Mon-Fri", "time": "4:30pm"}, {"days": "Sat", "time": "9:00am"}, {"days": "Sun", "time": "Closed"}], "id": "0515600031", "name": "USPS COLLECTION BOX - BLUE BOX", "address": {"city": "SPRINGFIELD", "state": "VT", "street": "100 MINERAL ST", "postcode": "05156"}}},
{"geometry": {"type": "Point", "coordinates": [-72.4694489255, 43.0498615147]}, "type": "Feature", "properties": {"collection_times": [{"days": "Mon-Fri", "time": "4:30pm"}, {"days": "Sat", "time": "11:30am"}, {"days": "Sun", "time": "Closed"}], "id": "0515800000", "name": "USPS COLLECTION BOX - BLUE BOX", "address": {"city": "WESTMINSTER", "state": "VT", "street": "3658 US RT 5", "postcode": "05158"}}},
{"geometry": {"type": "Point", "coordinates": [-72.4694489255, 43.0498615147]}, "type": "Feature", "properties": {"collection_times": [{"days": "Mon-Fri", "time": "4:30pm"}, {"days": "Sat", "time": "11:30am"}, {"days": "Sun", "time": "Closed"}], "id": "0515800001", "name": "USPS COLLECTION BOX - PO LOBBY", "address": {"city": "WESTMINSTER", "state": "VT", "street": "3658 US RT 5", "postcode": "05158"}}},
{"geometry": {"type": "Point", "coordinates": [-72.4393681565, 43.0852521826]}, "type": "Feature", "properties": {"collection_times": [{"days": "Mon-Fri", "time": "4:45pm"}, {"days": "Sat", "time": "10:45am"}, {"days": "Sun", "time": "Closed"}], "id": "0515900000", "name": "USPS COLLECTION BOX - BLUE BOX", "address": {"city": "WESTMNSTR STA", "state": "VT", "street": "5187 US ROUTE 5", "postcode": "05159"}}},
{"geometry": {"type": "Point", "coordinates": [-72.4393681565, 43.0852521826]}, "type": "Feature", "properties": {"collection_times": [{"days": "Mon-Fri", "time": "4:45pm"}, {"days": "Sat", "time": "10:45am"}, {"days": "Sun", "time": "Closed"}], "id": "0515900001", "name": "USPS COLLECTION BOX - PO LOBBY", "address": {"city": "WESTMNSTR STA", "state": "VT", "street": "5187 US ROUTE 5", "postcode": "05159"}}},
{"geometry": {"type": "Point", "coordinates": [-72.7936163505, 43.2919526639]}, "type": "Feature", "properties": {"collection_times": [{"days": "Mon-Fri", "time": "4:30pm"}, {"days": "Sat", "time": "11:00am"}, {"days": "Sun", "time": "Closed"}], "id": "0516100000", "name": "USPS COLLECTION BOX - BLUE BOX", "address": {"city": "WESTON", "state": "VT", "street": "664 MAIN ST", "postcode": "05161"}}},
{"geometry": {"type": "Point", "coordinates": [-72.7936163505, 43.2919526639]}, "type": "Feature", "properties": {"collection_times": [{"days": "Mon-Fri", "time": "2:30pm"}, {"days": "Sat", "time": "11:00am"}, {"days": "Sun", "time": "Closed"}], "id": "0516100001", "name": "USPS COLLECTION BOX - PO LOBBY", "address": {"city": "WESTON", "state": "VT", "street": "664 MAIN ST", "postcode": "05161"}}}
]}
