{"type": "FeatureCollection", "features": [
{"geometry": {"type": "Point", "coordinates": [-73.1560735889, 43.0704454941]}, "type": "Feature", "properties": {"collection_times": [{"days": "Mon-Fri", "time": "5:00pm"}, {"days": "Sat", "time": "12:00pm"}, {"days": "Sun", "time": "Closed"}], "id": "0525000001", "name": "USPS COLLECTION BOX - BLUE BOX", "address": {"city": "ARLINGTON", "state": "VT", "street": "3575 VT ROUTE 7A", "postcode": "05250"}}},
{"geometry": {"type": "Point", "coordinates": [-73.1560735889, 43.0704454941]}, "type": "Feature", "properties": {"collection_times": [{"days": "Mon-Fri", "time": "5:00pm"}, {"days": "Sat", "time": "12:00pm"}, {"days": "Sun", "time": "Closed"}], "id": "0525000003", "name": "USPS COLLECTION BOX - PO LOBBY", "address": {"city": "ARLINGTON", "state": "VT", "street": "3575 VT ROUTE 7A", "postcode": "05250"}}},
{"geometry": {"type": "Point", "coordinates": [-73.1560735889, 43.0704454941]}, "type": "Feature", "properties": {"collection_times": [{"days": "Mon-Fri", "time": "5:00pm"}, {"days": "Sat", "time": "12:00pm"}, {"days": "Sun", "time": "Closed"}], "id": "0525000006", "name": "USPS COLLECTION BOX - BLUE BOX", "address": {"city": "ARLINGTON", "state": "VT", "street": "3575 VT ROUTE 7A", "postcode": "05250"}}},
{"geometry": {"type": "Point", "coordinates": [-73.0976987684, 43.2537812346]}, "type": "Feature", "properties": {"collection_times": [{"days": "Mon-Fri", "time": "4:45pm"}, {"days": "Sat", "time": "11:45am"}, {"days": "Sun", "time": "Closed"}], "id": "0525100000", "name": "USPS COLLECTION BOX - BLUE BOX", "address": {"city": "DORSET", "state": "VT", "street": "3309 ROUTE 30", "postcode": "05251"}}},
{"geometry": {"type": "Point", "coordinates": [-73.0976987684, 43.2537812346]}, "type": "Feature", "properties": {"collection_times": [{"days": "Mon-Fri", "time": "4:45pm"}, {"days": "Sat", "time": "12:00pm"}, {"days": "Sun", "time": "Closed"}], "id": "0525100001", "name": "USPS COLLECTION BOX - PO LOBBY", "address": {"city": "DORSET", "state": "VT", "street": "3309 ROUTE 30", "postcode": "05251"}}},
{"geometry": {"type": "Point", "coordinates": [-73.1407483555, 43.0602046183]}, "type": "Feature", "properties": {"collection_times": [{"days": "Mon-Fri", "time": "4:30pm"}, {"days": "Sat", "time": "11:30am"}, {"days": "Sun", "time": "Closed"}], "id": "0525200001", "name": "USPS COLLECTION BOX - PO LOBBY", "address": {"city": "EAST ARLINGTON", "state": "VT", "street": "243 OLD MILL RD", "postcode": "05252"}}},
{"geometry": {"type": "Point", "coordinates": [-73.0095522915, 43.2397919847]}, "type": "Feature", "properties": {"collection_times": [{"days": "Mon-Fri", "time": "4:30pm"}, {"days": "Sat", "time": "11:30am"}, {"days": "Sun", "time": "Closed"}], "id": "0525300000", "name": "USPS COLLECTION BOX - BLUE BOX", "address": {"city": "EAST DORSET", "state": "VT", "street": "35 MAD TOM RD", "postcode": "05253"}}},
{"geometry": {"type": "Point", "coordinates": [-73.0095522915, 43.2397919847]}, "type": "Feature", "properties": {"collection_times": [{"days": "Mon-Fri", "time": "4:40pm"}, {"days": "Sat", "time": "11:30am"}, {"days": "Sun", "time": "Closed"}], "id": "0525300001", "name": "USPS COLLECTION BOX - PO LOBBY", "address": {"city": "EAST DORSET", "state": "VT", "street": "35 MAD TOM RD", "postcode": "05253"}}},
{"geometry": {"type": "Point", "coordinates": [-73.073254166, 43.1635369599]}, "type": "Feature", "properties": {"collection_times": [{"days": "Mon-Fri", "time": "4:45pm"}, {"days": "Sat", "time": "12:00pm"}, {"days": "Sun", "time": "Closed"}], "id": "0525400000", "name": "USPS COLLECTION BOX - BLUE BOX", "address": {"city": "MANCHESTER", "state": "VT", "street": "300 SEMINARY AVE", "postcode": "05254"}}},
{"geometry": {"type": "Point", "coordinates": [-73.073254166, 43.1635369599]}, "type": "Feature", "properties": {"collection_times": [{"days": "Mon-Fri", "time": "4:45pm"}, {"days": "Sat", "time": "12:00pm"}, {"days": "Sun", "time": "Closed"}], "id": "0525400004", "name": "USPS COLLECTION BOX - PO LOBBY", "address": {"city": "MANCHESTER", "state": "VT", "street": "300 SEMINARY AVE", "postcode": "05254"}}},
{"geometry": {"type": "Point", "coordinates": [-73.0489732161, 43.1679260446]}, "type": "Feature", "properties": {"collection_times": [{"days": "Mon-Fri", "time": "4:45pm"}, {"days": "Sat", "time": "1:00pm"}, {"days": "Sun", "time": "Closed"}], "id": "0525500001", "name": "USPS COLLECTION BOX - BLUE BOX", "address": {"city": "MANCHESTR CTR", "state": "VT", "street": "3452 RICHVILLE RD", "postcode": "05255"}}},
{"geometry": {"type": "Point", "coordinates": [-73.0489732161, 43.1679260446]}, "type": "Feature", "properties": {"collection_times": [{"days": "Mon-Fri", "time": "4:45pm"}, {"days": "Sat", "time": "1:00pm"}, {"days": "Sun", "time": "Closed"}], "id": "0525500002", "name": "USPS COLLECTION BOX - BLUE BOX", "address": {"city": "MANCHESTR CTR", "state": "VT", "street": "3452 RICHVILLE RD", "postcode": "05255"}}},
{"geometry": {"type": "Point", "coordinates": [-72.6626876286, 44.0752034871]}, "type": "Feature", "properties": {"collection_times": [{"days": "Mon-Fri", "time": "3:00pm"}, {"days": "Sat", "time": "11:30am"}, {"days": "Sun", "time": "Closed"}], "id": "0525500003", "name": "USPS COLLECTION BOX - BLUE BOX", "address": {"city": "MANCHESTR CTR", "state": "VT", "street": "4993 MAIN ST", "postcode": "05255"}}},
{"geometry": {"type": "Point", "coordinates": [-73.0569695043, 43.1754461034]}, "type": "Feature", "properties": {"collection_times": [{"days": "Mon-Fri", "time": "3:00pm"}, {"days": "Sat", "time": "11:30am"}, {"days": "Sun", "time": "Closed"}], "id": "0525500004", "name": "USPS COLLECTION BOX - BLUE BOX", "address": {"city": "MANCHESTR CTR", "state": "VT", "street": "81 WYMAN LN", "postcode": "05255"}}},
{"geometry": {"type": "Point", "coordinates": [-73.0501121689, 43.1783093243]}, "type": "Feature", "properties": {"collection_times": [{"days": "Mon-Fri", "time": "3:00pm"}, {"days": "Sat", "time": "11:30am"}, {"days": "Sun", "time": "Closed"}], "id": "0525500006", "name": "USPS COLLECTION BOX - BLUE BOX", "address": {"city": "MANCHESTR CTR", "state": "VT", "street": "5240 MAIN ST", "postcode": "05255"}}},
{"geometry": {"type": "Point", "coordinates": [-73.046473978, 43.1736231358]}, "type": "Feature", "properties": {"collection_times": [{"days": "Mon-Fri", "time": "3:00pm"}, {"days": "Sat", "time": "11:30am"}, {"days": "Sun", "time": "Closed"}], "id": "0525500008", "name": "USPS COLLECTION BOX - BLUE BOX", "address": {"city": "MANCHESTR CTR", "state": "VT", "street": "150 ELM ST", "postcode": "05255"}}},
{"geometry": {"type": "Point", "coordinates": [-73.0507957472, 43.1740624831]}, "type": "Feature", "properties": {"collection_times": [{"days": "Mon-Fri", "time": "3:00pm"}, {"days": "Sat", "time": "11:30am"}, {"days": "Sun", "time": "Closed"}], "id": "0525500009", "name": "USPS COLLECTION BOX - BLUE BOX", "address": {"city": "MANCHESTR CTR", "state": "VT", "street": "371 DEPOT ST", "postcode": "05255"}}},
{"geometry": {"type": "Point", "coordinates": [-73.0610886188, 43.1724754512]}, "type": "Feature", "properties": {"collection_times": [{"days": "Mon-Fri", "time": "3:00pm"}, {"days": "Sat", "time": "11:30am"}, {"days": "Sun", "time": "Closed"}], "id": "0525500011", "name": "USPS COLLECTION BOX - BLUE BOX", "address": {"city": "MANCHESTR CTR", "state": "VT", "street": "64 EQUINOX TER", "postcode": "05255"}}},
{"geometry": {"type": "Point", "coordinates": [-73.0489732161, 43.1679260446]}, "type": "Feature", "properties": {"collection_times": [{"days": "Mon-Fri", "time": "4:45pm"}, {"days": "Sat", "time": "1:00pm"}, {"days": "Sun", "time": "Closed"}], "id": "0525500013", "name": "USPS COLLECTION BOX - PO LOBBY", "address": {"city": "MANCHESTR CTR", "state": "VT", "street": "3452 RICHVILLE RD", "postcode": "05255"}}},
{"geometry": {"type": "Point", "coordinates": [-73.2426673681, 42.9321540422]}, "type": "Feature", "properties": {"collection_times": [{"days": "Mon-Fri", "time": "4:15pm"}, {"days": "Sat", "time": "11:30am"}, {"days": "Sun", "time": "Closed"}], "id": "0525700001", "name": "USPS COLLECTION BOX - BLUE BOX", "address": {"city": "N BENNINGTON", "state": "VT", "street": "52 MAIN ST", "postcode": "05257"}}},
{"geometry": {"type": "Point", "coordinates": [-73.2426673681, 42.9321540422]}, "type": "Feature", "properties": {"collection_times": [{"days": "Mon-Fri", "time": "4:30pm"}, {"days": "Sat", "time": "11:30am"}, {"days": "Sun", "time": "Closed"}], "id": "0525700002", "name": "USPS COLLECTION BOX - PO LOBBY", "address": {"city": "N BENNINGTON", "state": "VT", "street": "52 MAIN ST", "postcode": "05257"}}},
{"geometry": {"type": "Point", "coordinates": [-73.2666577548, 42.8050803665]}, "type": "Feature", "properties": {"collection_times": [{"days": "Mon-Fri", "time": "4:30pm"}, {"days": "Sat", "time": "11:30am"}, {"days": "Sun", "time": "Closed"}], "id": "0526000000", "name": "USPS COLLECTION BOX - BLUE BOX", "address": {"city": "NORTH POWNAL", "state": "VT", "street": "3616 ROUTE 346", "postcode": "05260"}}},
{"geometry": {"type": "Point", "coordinates": [-73.2666577548, 42.8050803665]}, "type": "Feature", "properties": {"collection_times": [{"days": "Mon-Fri", "time": "4:30pm"}, {"days": "Sat", "time": "11:30am"}, {"days": "Sun", "time": "Closed"}], "id": "0526000001", "name": "USPS COLLECTION BOX - PO LOBBY", "address": {"city": "NORTH POWNAL", "state": "VT", "street": "3616 ROUTE 346", "postcode": "05260"}}},
{"geometry": {"type": "Point", "coordinates": [-73.2356671278, 42.765251225]}, "type": "Feature", "properties": {"collection_times": [{"days": "Mon-Fri", "time": "4:30pm"}, {"days": "Sat", "time": "11:30am"}, {"days": "Sun", "time": "Closed"}], "id": "0526100000", "name": "USPS COLLECTION BOX - BLUE BOX", "address": {"city": "POWNAL", "state": "VT", "street": "235 ROUTE 346", "postcode": "05261"}}},
{"geometry": {"type": "Point", "coordinates": [-73.2356671278, 42.765251225]}, "type": "Feature", "properties": {"collection_times": [{"days": "Mon-Fri", "time": "4:30pm"}, {"days": "Sat", "time": "11:30am"}, {"days": "Sun", "time": "Closed"}], "id": "0526100001", "name": "USPS COLLECTION BOX - PO LOBBY", "address": {"city": "POWNAL", "state": "VT", "street": "235 ROUTE 346", "postcode": "05261"}}},
{"geometry": {"type": "Point", "coordinates": [-73.2116883593, 42.9463134835]}, "type": "Feature", "properties": {"collection_times": [{"days": "Mon-Fri", "time": "4:30pm"}, {"days": "Sat", "time": "11:30am"}, {"days": "Sun", "time": "Closed"}], "id": "0526200001", "name": "USPS COLLECTION BOX - BLUE BOX", "address": {"city": "SHAFTSBURY", "state": "VT", "street": "56 CHURCH ST", "postcode": "05262"}}},
{"geometry": {"type": "Point", "coordinates": [-73.2116883593, 42.9463134835]}, "type": "Feature", "properties": {"collection_times": [{"days": "Mon-Fri", "time": "4:30pm"}, {"days": "Sat", "time": "11:30am"}, {"days": "Sun", "time": "Closed"}], "id": "0526200003", "name": "USPS COLLECTION BOX - PO LOBBY", "address": {"city": "SHAFTSBURY", "state": "VT", "street": "56 CHURCH ST", "postcode": "05262"}}}
]}
