{"type": "FeatureCollection", "features": [
{"geometry": {"type": "Point", "coordinates": [-72.559070871, 42.8546004354]}, "type": "Feature", "properties": {"collection_times": [{"days": "Mon-Fri", "time": "5:30pm"}, {"days": "Sat", "time": "3:00pm"}, {"days": "Sun", "time": "Closed"}], "id": "0530100001", "name": "USPS COLLECTION BOX - BLUE BOX", "address": {"city": "GUILFORD", "state": "VT", "street": "204 MAIN ST", "postcode": "05301"}}},
{"geometry": {"type": "Point", "coordinates": [-72.559070871, 42.8546004354]}, "type": "Feature", "properties": {"collection_times": [{"days": "Mon-Fri", "time": "5:30pm"}, {"days": "Sat", "time": "3:00pm"}, {"days": "Sun", "time": "Closed"}], "id": "0530100003", "name": "USPS COLLECTION BOX - BLUE BOX", "address": {"city": "GUILFORD", "state": "VT", "street": "204 MAIN ST", "postcode": "05301"}}},
{"geometry": {"type": "Point", "coordinates": [-72.5617881278, 42.8569521578]}, "type": "Feature", "properties": {"collection_times": [{"days": "Mon-Fri", "time": "4:15pm"}, {"days": "Sat", "time": "9:30am"}, {"days": "Sun", "time": "Closed"}], "id": "0530100004", "name": "USPS COLLECTION BOX - BLUE BOX", "address": {"city": "GUILFORD", "state": "VT", "street": "80 LINDEN ST", "postcode": "05301"}}},
{"geometry": {"type": "Point", "coordinates": [-72.555236901, 42.8871448195]}, "type": "Feature", "properties": {"collection_times": [{"days": "Mon-Fri", "time": "4:45pm"}, {"days": "Sat", "time": "10:00am"}, {"days": "Sun", "time": "Closed"}], "id": "0530100007", "name": "USPS COLLECTION BOX - BLUE BOX", "address": {"city": "GUILFORD", "state": "VT", "street": "1222 PUTNEY RD", "postcode": "05301"}}},
{"geometry": {"type": "Point", "coordinates": [-72.600889287, 42.8456336996]}, "type": "Feature", "properties": {"collection_times": [{"days": "Mon-Fri", "time": "4:45pm"}, {"days": "Sat", "time": "10:00am"}, {"days": "Sun", "time": "Closed"}], "id": "0530100008", "name": "USPS COLLECTION BOX - BLUE BOX", "address": {"city": "GUILFORD", "state": "VT", "street": "1063 WESTERN AVE", "postcode": "05301"}}},
{"geometry": {"type": "Point", "coordinates": [-72.5601059601, 42.8557147828]}, "type": "Feature", "properties": {"collection_times": [{"days": "Mon-Fri", "time": "4:45pm"}, {"days": "Sat", "time": "9:30am"}, {"days": "Sun", "time": "Closed"}], "id": "0530100012", "name": "USPS COLLECTION BOX - BLUE BOX", "address": {"city": "GUILFORD", "state": "VT", "street": "232 MAIN ST", "postcode": "05301"}}},
{"geometry": {"type": "Point", "coordinates": [-72.5618318972, 42.8533642433]}, "type": "Feature", "properties": {"collection_times": [{"days": "Mon-Fri", "time": "4:45pm"}, {"days": "Sat", "time": "9:30am"}, {"days": "Sun", "time": "Closed"}], "id": "0530100015", "name": "USPS COLLECTION BOX - BLUE BOX", "address": {"city": "GUILFORD", "state": "VT", "street": "88 HIGH ST", "postcode": "05301"}}},
{"geometry": {"type": "Point", "coordinates": [-72.5593796233, 42.8552013786]}, "type": "Feature", "properties": {"collection_times": [{"days": "Mon-Fri", "time": "4:45pm"}, {"days": "Sat", "time": "10:00am"}, {"days": "Sun", "time": "Closed"}], "id": "0530100027", "name": "USPS COLLECTION BOX - BLUE BOX", "address": {"city": "GUILFORD", "state": "VT", "street": "221 MAIN ST", "postcode": "05301"}}},
{"geometry": {"type": "Point", "coordinates": [-72.5593796233, 42.8552013786]}, "type": "Feature", "properties": {"collection_times": [{"days": "Mon-Fri", "time": "4:45pm"}, {"days": "Sat", "time": "10:00am"}, {"days": "Sun", "time": "Closed"}], "id": "0530100028", "name": "USPS COLLECTION BOX - BLUE BOX", "address": {"city": "GUILFORD", "state": "VT", "street": "221 MAIN ST", "postcode": "05301"}}},
{"geometry": {"type": "Point", "coordinates": [-72.5580771855, 42.8522889336]}, "type": "Feature", "properties": {"collection_times": [{"days": "Mon-Fri", "time": "4:30pm"}, {"days": "Sat", "time": "9:30am"}, {"days": "Sun", "time": "Closed"}], "id": "0530100030", "name": "USPS COLLECTION BOX - BLUE BOX", "address": {"city": "GUILFORD", "state": "VT", "street": "100 MAIN ST", "postcode": "05301"}}},
{"geometry": {"type": "Point", "coordinates": [-72.5580771855, 42.8522889336]}, "type": "Feature", "properties": {"collection_times": [{"days": "Mon-Fri", "time": "4:30pm"}, {"days": "Sat", "time": "9:30am"}, {"days": "Sun", "time": "Closed"}], "id": "0530100031", "name": "USPS COLLECTION BOX - BLUE BOX", "address": {"city": "GUILFORD", "state": "VT", "street": "100 MAIN ST", "postcode": "05301"}}},
{"geometry": {"type": "Point", "coordinates": [-72.5583954015, 42.8529253655]}, "type": "Feature", "properties": {"collection_times": [{"days": "Mon-Fri", "time": "4:30pm"}, {"days": "Sat", "time": "9:30am"}, {"days": "Sun", "time": "Closed"}], "id": "0530100035", "name": "USPS COLLECTION BOX - BLUE BOX", "address": {"city": "GUILFORD", "state": "VT", "street": "141 MAIN ST", "postcode": "05301"}}},
{"geometry": {"type": "Point", "coordinates": [-72.600889287, 42.8456336996]}, "type": "Feature", "properties": {"collection_times": [{"days": "Mon-Fri", "time": "4:00pm"}, {"days": "Sat", "time": "10:00am"}, {"days": "Sun", "time": "Closed"}], "id": "0530100043", "name": "USPS COLLECTION BOX - BLUE BOX", "address": {"city": "GUILFORD", "state": "VT", "street": "896 PUTNEY RD", "postcode": "05301"}}},
{"geometry": {"type": "Point", "coordinates": [-72.5753720456, 42.8178873039]}, "type": "Feature", "properties": {"collection_times": [{"days": "Mon-Sat", "time": "10:00am"}, {"days": "Sun", "time": "Closed"}], "id": "0530100055", "name": "USPS COLLECTION BOX - BLUE BOX", "address": {"city": "GUILFORD", "state": "VT", "street": "475 COOLIDGE HWY", "postcode": "05301"}}},
{"geometry": {"type": "Point", "coordinates": [-72.565557035, 42.8422586245]}, "type": "Feature", "properties": {"collection_times": [{"days": "Mon-Fri", "time": "4:30pm"}, {"days": "Sat", "time": "10:00am"}, {"days": "Sun", "time": "Closed"}], "id": "0530100057", "name": "USPS COLLECTION BOX - BLUE BOX", "address": {"city": "GUILFORD", "state": "VT", "street": "17 BELMONT AVE", "postcode": "05301"}}},
{"geometry": {"type": "Point", "coordinates": [-72.5609352144, 42.8759469299]}, "type": "Feature", "properties": {"collection_times": [{"days": "Mon-Fri", "time": "4:00pm"}, {"days": "Sat", "time": "10:00am"}, {"days": "Sun", "time": "Closed"}], "id": "0530100058", "name": "USPS COLLECTION BOX - BLUE BOX", "address": {"city": "GUILFORD", "state": "VT", "street": "20 TECHNOLOGY DR", "postcode": "05301"}}},
{"geometry": {"type": "Point", "coordinates": [-72.5591998136, 42.8513697745]}, "type": "Feature", "properties": {"collection_times": [{"days": "Mon-Fri", "time": "4:30pm"}, {"days": "Sat", "time": "10:00am"}, {"days": "Sun", "time": "Closed"}], "id": "0530100060", "name": "USPS COLLECTION BOX - BLUE BOX", "address": {"city": "GUILFORD", "state": "VT", "street": "47 FLAT ST", "postcode": "05301"}}},
{"geometry": {"type": "Point", "coordinates": [-72.600889287, 42.8456336996]}, "type": "Feature", "properties": {"collection_times": [{"days": "Mon-Fri", "time": "4:30pm"}, {"days": "Sat", "time": "10:00am"}, {"days": "Sun", "time": "Closed"}], "id": "0530100069", "name": "USPS COLLECTION BOX - BLUE BOX", "address": {"city": "GUILFORD", "state": "VT", "street": "499 CANAL ST", "postcode": "05301"}}},
{"geometry": {"type": "Point", "coordinates": [-72.5611741721, 42.8564848891]}, "type": "Feature", "properties": {"collection_times": [{"days": "Mon-Fri", "time": "4:15pm"}, {"days": "Sat", "time": "9:30am"}, {"days": "Sun", "time": "Closed"}], "id": "0530100070", "name": "USPS COLLECTION BOX - BLUE BOX", "address": {"city": "GUILFORD", "state": "VT", "street": "45 LINDEN ST", "postcode": "05301"}}},
{"geometry": {"type": "Point", "coordinates": [-72.559070871, 42.8546004354]}, "type": "Feature", "properties": {"collection_times": [{"days": "Mon-Fri", "time": "5:30pm"}, {"days": "Sat", "time": "3:00pm"}, {"days": "Sun", "time": "Closed"}], "id": "0530100076", "name": "USPS COLLECTION BOX - PO LOBBY", "address": {"city": "GUILFORD", "state": "VT", "street": "204 MAIN ST", "postcode": "05301"}}},
{"geometry": {"type": "Point", "coordinates": [-72.600889287, 42.8456336996]}, "type": "Feature", "properties": {"collection_times": [{"days": "Mon-Fri", "time": "4:45pm"}, {"days": "Sat", "time": "12:00pm"}, {"days": "Sun", "time": "Closed"}], "id": "0530100082", "name": "USPS COLLECTION BOX - PO LOBBY", "address": {"city": "GUILFORD", "state": "VT", "street": "1063 WESTERN AVE", "postcode": "05301"}}},
{"geometry": {"type": "Point", "coordinates": [-72.555236901, 42.8871448195]}, "type": "Feature", "properties": {"collection_times": [{"days": "Mon-Fri", "time": "4:45pm"}, {"days": "Sat-Sun", "time": "Closed"}], "id": "0530100084", "name": "USPS COLLECTION BOX - PO LOBBY", "address": {"city": "GUILFORD", "state": "VT", "street": "1222 PUTNEY RD", "postcode": "05301"}}},
{"geometry": {"type": "Point", "coordinates": [-72.5607163669, 42.8504849212]}, "type": "Feature", "properties": {"collection_times": [{"days": "Mon-Fri", "time": "4:30pm"}, {"days": "Sat", "time": "10:00am"}, {"days": "Sun", "time": "Closed"}], "id": "0530100085", "name": "USPS COLLECTION BOX - BLUE BOX", "address": {"city": "GUILFORD", "state": "VT", "street": "80 FLAT ST", "postcode": "05301"}}},
{"geometry": {"type": "Point", "coordinates": [-72.5545673462, 42.8375989492]}, "type": "Feature", "properties": {"collection_times": [{"days": "Mon-Sat", "time": "9:00am"}, {"days": "Sun", "time": "Closed"}], "id": "0530100086", "name": "USPS COLLECTION BOX - BLUE BOX", "address": {"city": "GUILFORD", "state": "VT", "street": "74 COTTON MILL HL", "postcode": "05301"}}},
{"geometry": {"type": "Point", "coordinates": [-72.5713031547, 42.8519125935]}, "type": "Feature", "properties": {"collection_times": [{"days": "Mon-Fri", "time": "4:45pm"}, {"days": "Sat", "time": "10:00am"}, {"days": "Sun", "time": "Closed"}], "id": "0530100088", "name": "USPS COLLECTION BOX - BLUE BOX", "address": {"city": "GUILFORD", "state": "VT", "street": "136 WESTERN AVE", "postcode": "05301"}}},
{"geometry": {"type": "Point", "coordinates": [-72.8749895263, 43.144449041]}, "type": "Feature", "properties": {"collection_times": [{"days": "Mon-Fri", "time": "4:15pm"}, {"days": "Sat", "time": "12:00pm"}, {"days": "Sun", "time": "Closed"}], "id": "0534000000", "name": "USPS COLLECTION BOX - BLUE BOX", "address": {"city": "BONDVILLE", "state": "VT", "street": "43 VT ROUTE 30", "postcode": "05340"}}},
{"geometry": {"type": "Point", "coordinates": [-72.8749895263, 43.144449041]}, "type": "Feature", "properties": {"collection_times": [{"days": "Mon-Fri", "time": "4:30pm"}, {"days": "Sat", "time": "12:00pm"}, {"days": "Sun", "time": "Closed"}], "id": "0534000001", "name": "USPS COLLECTION BOX - PO LOBBY", "address": {"city": "BONDVILLE", "state": "VT", "street": "43 VT ROUTE 30", "postcode": "05340"}}},
{"geometry": {"type": "Point", "coordinates": [-72.7685977459, 42.9509287839]}, "type": "Feature", "properties": {"collection_times": [{"days": "Mon-Fri", "time": "10:45am"}, {"days": "Sat", "time": "10:30am"}, {"days": "Sun", "time": "Closed"}], "id": "0534100001", "name": "USPS COLLECTION BOX - PO LOBBY", "address": {"city": "EAST DOVER", "state": "VT", "street": "4 NORTH ST", "postcode": "05341"}}},
{"geometry": {"type": "Point", "coordinates": [-72.6626876286, 44.0752034871]}, "type": "Feature", "properties": {"collection_times": [{"days": "Mon-Fri", "time": "4:00pm"}, {"days": "Sat", "time": "11:00am"}, {"days": "Sun", "time": "Closed"}], "id": "0534200000", "name": "USPS COLLECTION BOX - BLUE BOX", "address": {"city": "JACKSONVILLE", "state": "VT", "street": "2939 VT ROUTE 100", "postcode": "05342"}}},
{"geometry": {"type": "Point", "coordinates": [-72.6626876286, 44.0752034871]}, "type": "Feature", "properties": {"collection_times": [{"days": "Mon-Fri", "time": "4:45pm"}, {"days": "Sat", "time": "11:30am"}, {"days": "Sun", "time": "Closed"}], "id": "0534200002", "name": "USPS COLLECTION BOX - PO LOBBY", "address": {"city": "JACKSONVILLE", "state": "VT", "street": "2939 VT ROUTE 100", "postcode": "05342"}}},
{"geometry": {"type": "Point", "coordinates": [-72.7812361879, 43.0997525923]}, "type": "Feature", "properties": {"collection_times": [{"days": "Mon-Fri", "time": "2:30pm"}, {"days": "Sat", "time": "12:00pm"}, {"days": "Sun", "time": "Closed"}], "id": "0534300000", "name": "USPS COLLECTION BOX - BLUE BOX", "address": {"city": "JAMAICA", "state": "VT", "street": "3912 VT ROUTE 30", "postcode": "05343"}}},
{"geometry": {"type": "Point", "coordinates": [-72.7812361879, 43.0997525923]}, "type": "Feature", "properties": {"collection_times": [{"days": "Mon-Fri", "time": "2:30pm"}, {"days": "Sat", "time": "12:00pm"}, {"days": "Sun", "time": "Closed"}], "id": "0534300001", "name": "USPS COLLECTION BOX - PO LOBBY", "address": {"city": "JAMAICA", "state": "VT", "street": "3912 VT ROUTE 30", "postcode": "05343"}}},
{"geometry": {"type": "Point", "coordinates": [-72.7277051085, 42.8610778817]}, "type": "Feature", "properties": {"collection_times": [{"days": "Mon-Fri", "time": "4:30pm"}, {"days": "Sat", "time": "11:30am"}, {"days": "Sun", "time": "Closed"}], "id": "0534400000", "name": "USPS COLLECTION BOX - BLUE BOX", "address": {"city": "MARLBORO", "state": "VT", "street": "510 SOUTH RD", "postcode": "05344"}}},
{"geometry": {"type": "Point", "coordinates": [-72.7277051085, 42.8610778817]}, "type": "Feature", "properties": {"collection_times": [{"days": "Mon-Fri", "time": "4:30pm"}, {"days": "Sat", "time": "11:30am"}, {"days": "Sun", "time": "Closed"}], "id": "0534400001", "name": "USPS COLLECTION BOX - PO LOBBY", "address": {"city": "MARLBORO", "state": "VT", "street": "510 SOUTH RD", "postcode": "05344"}}},
{"geometry": {"type": "Point", "coordinates": [-72.6559293682, 42.9881925882]}, "type": "Feature", "properties": {"collection_times": [{"days": "Mon-Fri", "time": "4:30pm"}, {"days": "Sat", "time": "11:45am"}, {"days": "Sun", "time": "Closed"}], "id": "0534500001", "name": "USPS COLLECTION BOX - BLUE BOX", "address": {"city": "NEWFANE", "state": "VT", "street": "562 VT ROUTE 30", "postcode": "05345"}}},
{"geometry": {"type": "Point", "coordinates": [-72.6559293682, 42.9881925882]}, "type": "Feature", "properties": {"collection_times": [{"days": "Mon-Fri", "time": "4:45pm"}, {"days": "Sat", "time": "11:45am"}, {"days": "Sun", "time": "Closed"}], "id": "0534500002", "name": "USPS COLLECTION BOX - PO LOBBY", "address": {"city": "NEWFANE", "state": "VT", "street": "562 VT ROUTE 30", "postcode": "05345"}}},
{"geometry": {"type": "Point", "coordinates": [-72.5208499406, 43.0250607011]}, "type": "Feature", "properties": {"collection_times": [{"days": "Mon-Fri", "time": "4:45pm"}, {"days": "Sat", "time": "12:00pm"}, {"days": "Sun", "time": "Closed"}], "id": "0534600001", "name": "USPS COLLECTION BOX - BLUE BOX", "address": {"city": "PUTNEY", "state": "VT", "street": "109 MAIN ST", "postcode": "05346"}}},
{"geometry": {"type": "Point", "coordinates": [-72.5208499406, 43.0250607011]}, "type": "Feature", "properties": {"collection_times": [{"days": "Mon-Fri", "time": "5:00pm"}, {"days": "Sat", "time": "12:00pm"}, {"days": "Sun", "time": "Closed"}], "id": "0534600003", "name": "USPS COLLECTION BOX - PO LOBBY", "address": {"city": "PUTNEY", "state": "VT", "street": "109 MAIN ST", "postcode": "05346"}}},
{"geometry": {"type": "Point", "coordinates": [-72.9829586554, 42.7883839068]}, "type": "Feature", "properties": {"collection_times": [{"days": "Mon-Fri", "time": "2:00pm"}, {"days": "Sat", "time": "11:15am"}, {"days": "Sun", "time": "Closed"}], "id": "0535000001", "name": "USPS COLLECTION BOX - BLUE BOX", "address": {"city": "READSBORO", "state": "VT", "street": "6802 MAIN ST", "postcode": "05350"}}},
{"geometry": {"type": "Point", "coordinates": [-72.9437053063, 42.777858359]}, "type": "Feature", "properties": {"collection_times": [{"days": "Mon-Sat", "time": "10:00am"}, {"days": "Sun", "time": "Closed"}], "id": "0535000002", "name": "USPS COLLECTION BOX - BLUE BOX", "address": {"city": "READSBORO", "state": "VT", "street": "544 E MAIN ST", "postcode": "05350"}}},
{"geometry": {"type": "Point", "coordinates": [-72.9829586554, 42.7883839068]}, "type": "Feature", "properties": {"collection_times": [{"days": "Mon-Fri", "time": "2:00pm"}, {"days": "Sat", "time": "11:15am"}, {"days": "Sun", "time": "Closed"}], "id": "0535000003", "name": "USPS COLLECTION BOX - PO LOBBY", "address": {"city": "READSBORO", "state": "VT", "street": "6802 MAIN ST", "postcode": "05350"}}},
{"geometry": {"type": "Point", "coordinates": [-72.6663399679, 43.0448412571]}, "type": "Feature", "properties": {"collection_times": [{"days": "Mon-Fri", "time": "4:30pm"}, {"days": "Sat", "time": "11:30am"}, {"days": "Sun", "time": "Closed"}], "id": "0535300000", "name": "USPS COLLECTION BOX - BLUE BOX", "address": {"city": "TOWNSHEND", "state": "VT", "street": "1955 VT ROUTE 30", "postcode": "05353"}}},
{"geometry": {"type": "Point", "coordinates": [-72.6663399679, 43.0448412571]}, "type": "Feature", "properties": {"collection_times": [{"days": "Mon-Fri", "time": "4:45pm"}, {"days": "Sat", "time": "12:00pm"}, {"days": "Sun", "time": "Closed"}], "id": "0535300001", "name": "USPS COLLECTION BOX - PO LOBBY", "address": {"city": "TOWNSHEND", "state": "VT", "street": "1955 VT ROUTE 30", "postcode": "05353"}}},
{"geometry": {"type": "Point", "coordinates": [-72.6563990356, 43.019203574]}, "type": "Feature", "properties": {"collection_times": [{"days": "Mon-Fri", "time": "4:30pm"}, {"days": "Sat", "time": "10:45am"}, {"days": "Sun", "time": "Closed"}], "id": "0535300003", "name": "USPS COLLECTION BOX - BLUE BOX", "address": {"city": "TOWNSHEND", "state": "VT", "street": "6573 VT ROUTE 30", "postcode": "05353"}}},
{"geometry": {"type": "Point", "coordinates": [-72.5130573162, 42.7615701765]}, "type": "Feature", "properties": {"collection_times": [{"days": "Mon-Fri", "time": "4:30pm"}, {"days": "Sat", "time": "11:00am"}, {"days": "Sun", "time": "Closed"}], "id": "0535400001", "name": "USPS COLLECTION BOX - BLUE BOX", "address": {"city": "VERNON", "state": "VT", "street": "2531 FORT BRIDGMAN RD", "postcode": "05354"}}},
{"geometry": {"type": "Point", "coordinates": [-72.5130573162, 42.7615701765]}, "type": "Feature", "properties": {"collection_times": [{"days": "Mon-Fri", "time": "4:30pm"}, {"days": "Sat", "time": "11:00am"}, {"days": "Sun", "time": "Closed"}], "id": "0535400002", "name": "USPS COLLECTION BOX - PO LOBBY", "address": {"city": "VERNON", "state": "VT", "street": "2531 FORT BRIDGMAN RD", "postcode": "05354"}}},
{"geometry": {"type": "Point", "coordinates": [-72.790177423, 43.0404420974]}, "type": "Feature", "properties": {"collection_times": [{"days": "Mon-Fri", "time": "4:30pm"}, {"days": "Sat", "time": "11:00am"}, {"days": "Sun", "time": "Closed"}], "id": "0535500000", "name": "USPS COLLECTION BOX - BLUE BOX", "address": {"city": "WARDSBORO", "state": "VT", "street": "861 ROUTE 100", "postcode": "05355"}}},
{"geometry": {"type": "Point", "coordinates": [-72.790177423, 43.0404420974]}, "type": "Feature", "properties": {"collection_times": [{"days": "Mon-Fri", "time": "4:30pm"}, {"days": "Sat", "time": "11:00am"}, {"days": "Sun", "time": "Closed"}], "id": "0535500001", "name": "USPS COLLECTION BOX - PO LOBBY", "address": {"city": "WARDSBORO", "state": "VT", "street": "861 ROUTE 100", "postcode": "05355"}}},
{"geometry": {"type": "Point", "coordinates": [-72.8922572193, 42.9721285523]}, "type": "Feature", "properties": {"collection_times": [{"days": "Mon-Fri", "time": "4:15pm"}, {"days": "Sat", "time": "11:15am"}, {"days": "Sun", "time": "Closed"}], "id": "0535600000", "name": "USPS COLLECTION BOX - BLUE BOX", "address": {"city": "WEST DOVER", "state": "VT", "street": "1 MOUNTAIN PARK PLZ UNIT A", "postcode": "05356"}}},
{"geometry": {"type": "Point", "coordinates": [-72.8922572193, 42.9721285523]}, "type": "Feature", "properties": {"collection_times": [{"days": "Mon-Fri", "time": "4:15pm"}, {"days": "Sat", "time": "11:15am"}, {"days": "Sun", "time": "Closed"}], "id": "0535600002", "name": "USPS COLLECTION BOX - PO LOBBY", "address": {"city": "WEST DOVER", "state": "VT", "street": "1 MOUNTAIN PARK PLZ UNIT A", "postcode": "05356"}}},
{"geometry": {"type": "Point", "coordinates": [-72.6121566141, 42.9315305212]}, "type": "Feature", "properties": {"collection_times": [{"days": "Mon-Fri", "time": "4:30pm"}, {"days": "Sat", "time": "11:30am"}, {"days": "Sun", "time": "Closed"}], "id": "0535700000", "name": "USPS COLLECTION BOX - BLUE BOX", "address": {"city": "WEST DUMMERSTON", "state": "VT", "street": "9A LYONS ST", "postcode": "05357"}}},
{"geometry": {"type": "Point", "coordinates": [-72.6121566141, 42.9315305212]}, "type": "Feature", "properties": {"collection_times": [{"days": "Mon-Fri", "time": "4:45pm"}, {"days": "Sat", "time": "11:30am"}, {"days": "Sun", "time": "Closed"}], "id": "0535700001", "name": "USPS COLLECTION BOX - PO LOBBY", "address": {"city": "WEST DUMMERSTON", "state": "VT", "street": "9A LYONS ST", "postcode": "05357"}}},
{"geometry": {"type": "Point", "coordinates": [-72.7733378624, 42.7865329766]}, "type": "Feature", "properties": {"collection_times": [{"days": "Mon-Fri", "time": "4:30pm"}, {"days": "Sat", "time": "11:30am"}, {"days": "Sun", "time": "Closed"}], "id": "0535800000", "name": "USPS COLLECTION BOX - BLUE BOX", "address": {"city": "WEST HALIFAX", "state": "VT", "street": "3438 REED HILL RD", "postcode": "05358"}}},
{"geometry": {"type": "Point", "coordinates": [-72.7733378624, 42.7865329766]}, "type": "Feature", "properties": {"collection_times": [{"days": "Mon-Fri", "time": "4:30pm"}, {"days": "Sat", "time": "11:30am"}, {"days": "Sun", "time": "Closed"}], "id": "0535800001", "name": "USPS COLLECTION BOX - PO LOBBY", "address": {"city": "WEST HALIFAX", "state": "VT", "street": "3438 REED HILL RD", "postcode": "05358"}}},
{"geometry": {"type": "Point", "coordinates": [-72.8889972821, 42.9900911515]}, "type": "Feature", "properties": {"collection_times": [{"days": "Mon-Fri", "time": "4:15pm"}, {"days": "Sat", "time": "11:00am"}, {"days": "Sun", "time": "Closed"}], "id": "0536000000", "name": "USPS COLLECTION BOX - BLUE BOX", "address": {"city": "WEST WARDSBORO", "state": "VT", "street": "4690 ROUTE 100", "postcode": "05360"}}},
{"geometry": {"type": "Point", "coordinates": [-72.8889972821, 42.9900911515]}, "type": "Feature", "properties": {"collection_times": [{"days": "Mon-Fri", "time": "4:15pm"}, {"days": "Sat", "time": "11:00am"}, {"days": "Sun", "time": "Closed"}], "id": "0536000001", "name": "USPS COLLECTION BOX - PO LOBBY", "address": {"city": "WEST WARDSBORO", "state": "VT", "street": "4690 ROUTE 100", "postcode": "05360"}}},
{"geometry": {"type": "Point", "coordinates": [-72.6626876286, 44.0752034871]}, "type": "Feature", "properties": {"collection_times": [{"days": "Mon-Fri", "time": "4:15pm"}, {"days": "Sat", "time": "11:00am"}, {"days": "Sun", "time": "Closed"}], "id": "0536100000", "name": "USPS COLLECTION BOX - BLUE BOX", "address": {"city": "WHITINGHAM", "state": "VT", "street": "6677 VT ROUTE 100", "postcode": "05361"}}},
{"geometry": {"type": "Point", "coordinates": [-72.6626876286, 44.0752034871]}, "type": "Feature", "properties": {"collection_times": [{"days": "Mon-Fri", "time": "4:30pm"}, {"days": "Sat", "time": "11:00am"}, {"days": "Sun", "time": "Closed"}], "id": "0536100001", "name": "USPS COLLECTION BOX - PO LOBBY", "address": {"city": "WHITINGHAM", "state": "VT", "street": "6677 VT ROUTE 100", "postcode": "05361"}}},
{"geometry": {"type": "Point", "coordinates": [-72.6626876286, 44.0752034871]}, "type": "Feature", "properties": {"collection_times": [{"days": "Mon-Fri", "time": "3:00pm"}, {"days": "Sat", "time": "10:00am"}, {"days": "Sun", "time": "Closed"}], "id": "0536200001", "name": "USPS COLLECTION BOX - BLUE BOX", "address": {"city": "WILLIAMSVILLE", "state": "VT", "street": "67 DOVER RD", "postcode": "05362"}}},
{"geometry": {"type": "Point", "coordinates": [-72.6626876286, 44.0752034871]}, "type": "Feature", "properties": {"collection_times": [{"days": "Mon-Fri", "time": "3:00pm"}, {"days": "Sat", "time": "10:00am"}, {"days": "Sun", "time": "Closed"}], "id": "0536200002", "name": "USPS COLLECTION BOX - PO LOBBY", "address": {"city": "WILLIAMSVILLE", "state": "VT", "street": "67 DOVER RD", "postcode": "05362"}}},
{"geometry": {"type": "Point", "coordinates": [-72.8679522532, 42.8667124207]}, "type": "Feature", "properties": {"collection_times": [{"days": "Mon-Fri", "time": "4:45pm"}, {"days": "Sat", "time": "12:15pm"}, {"days": "Sun", "time": "Closed"}], "id": "0536300000", "name": "USPS COLLECTION BOX - BLUE BOX", "address": {"city": "WILMINGTON", "state": "VT", "street": "39 E MAIN ST", "postcode": "05363"}}},
{"geometry": {"type": "Point", "coordinates": [-72.8679522532, 42.8667124207]}, "type": "Feature", "properties": {"collection_times": [{"days": "Mon-Fri", "time": "4:45pm"}, {"days": "Sat", "time": "12:15pm"}, {"days": "Sun", "time": "Closed"}], "id": "0536300003", "name": "USPS COLLECTION BOX - PO LOBBY", "address": {"city": "WILMINGTON", "state": "VT", "street": "39 E MAIN ST", "postcode": "05363"}}}
]}
