{"type": "FeatureCollection", "features": [
{"geometry": {"type": "Point", "coordinates": [-73.1876158014, 44.49141441]}, "type": "Feature", "properties": {"collection_times": [{"days": "Mon-Sat", "time": "2:00pm"}, {"days": "Sun", "time": "Closed"}], "id": "0540100002", "name": "USPS COLLECTION BOX - BLUE BOX", "address": {"city": "WINOOSKI", "state": "VT", "street": "95 NORTH AVE", "postcode": "05401"}}},
{"geometry": {"type": "Point", "coordinates": [-73.1876158014, 44.49141441]}, "type": "Feature", "properties": {"collection_times": [{"days": "Mon-Sat", "time": "1:00pm"}, {"days": "Sun", "time": "Closed"}], "id": "0540100006", "name": "USPS COLLECTION BOX - BLUE BOX", "address": {"city": "WINOOSKI", "state": "VT", "street": "91 S WILLARD ST", "postcode": "05401"}}},
{"geometry": {"type": "Point", "coordinates": [-73.2086111625, 44.4549510928]}, "type": "Feature", "properties": {"collection_times": [{"days": "Mon-Sat", "time": "5:00pm"}, {"days": "Sun", "time": "Closed"}], "id": "0540100011", "name": "USPS COLLECTION BOX - BLUE BOX", "address": {"city": "WINOOSKI", "state": "VT", "street": "370 SHELBURNE RD", "postcode": "05401"}}},
{"geometry": {"type": "Point", "coordinates": [-73.1876158014, 44.49141441]}, "type": "Feature", "properties": {"collection_times": [{"days": "Mon-Sat", "time": "10:30am"}, {"days": "Sun", "time": "Closed"}], "id": "0540100014", "name": "USPS COLLECTION BOX - BLUE BOX", "address": {"city": "WINOOSKI", "state": "VT", "street": "261 S WINOOSKI AVE", "postcode": "05401"}}},
{"geometry": {"type": "Point", "coordinates": [-73.2086111625, 44.4549510928]}, "type": "Feature", "properties": {"collection_times": [{"days": "Mon-Sat", "time": "5:00pm"}, {"days": "Sun", "time": "Closed"}], "id": "0540100015", "name": "USPS COLLECTION BOX - BLUE BOX", "address": {"city": "WINOOSKI", "state": "VT", "street": "370 SHELBURNE RD", "postcode": "05401"}}},
{"geometry": {"type": "Point", "coordinates": [-73.215698654, 44.4775647741]}, "type": "Feature", "properties": {"collection_times": [{"days": "Mon-Sat", "time": "4:30pm"}, {"days": "Sun", "time": "Closed"}], "id": "0540100019", "name": "USPS COLLECTION BOX - BLUE BOX", "address": {"city": "WINOOSKI", "state": "VT", "street": "1 BURLINGTON SQ", "postcode": "05401"}}},
{"geometry": {"type": "Point", "coordinates": [-73.2104459318, 44.4771883554]}, "type": "Feature", "properties": {"collection_times": [{"days": "Mon-Sat", "time": "1:30pm"}, {"days": "Sun", "time": "Closed"}], "id": "0540100020", "name": "USPS COLLECTION BOX - BLUE BOX", "address": {"city": "WINOOSKI", "state": "VT", "street": "230 COLLEGE ST", "postcode": "05401"}}},
{"geometry": {"type": "Point", "coordinates": [-73.2136008834, 44.4807135731]}, "type": "Feature", "properties": {"collection_times": [{"days": "Mon-Fri", "time": "5:30pm"}, {"days": "Sat", "time": "5:00pm"}, {"days": "Sun", "time": "Closed"}], "id": "0540100021", "name": "USPS COLLECTION BOX - BLUE BOX", "address": {"city": "WINOOSKI", "state": "VT", "street": "11 ELMWOOD AVE", "postcode": "05401"}}},
{"geometry": {"type": "Point", "coordinates": [-73.2185882384, 44.4744190484]}, "type": "Feature", "properties": {"collection_times": [{"days": "Mon-Sat", "time": "3:00pm"}, {"days": "Sun", "time": "Closed"}], "id": "0540100022", "name": "USPS COLLECTION BOX - BLUE BOX", "address": {"city": "WINOOSKI", "state": "VT", "street": "181 BATTERY ST", "postcode": "05401"}}},
{"geometry": {"type": "Point", "coordinates": [-73.2140683698, 44.4760076236]}, "type": "Feature", "properties": {"collection_times": [{"days": "Mon-Sat", "time": "2:30pm"}, {"days": "Sun", "time": "Closed"}], "id": "0540100024", "name": "USPS COLLECTION BOX - BLUE BOX", "address": {"city": "WINOOSKI", "state": "VT", "street": "135 SAINT PAUL ST", "postcode": "05401"}}},
{"geometry": {"type": "Point", "coordinates": [-73.2126923709, 44.480225011]}, "type": "Feature", "properties": {"collection_times": [{"days": "Mon-Sat", "time": "3:30pm"}, {"days": "Sun", "time": "Closed"}], "id": "0540100025", "name": "USPS COLLECTION BOX - BLUE BOX", "address": {"city": "WINOOSKI", "state": "VT", "street": "2 CHURCH ST", "postcode": "05401"}}},
{"geometry": {"type": "Point", "coordinates": [-73.1876158014, 44.49141441]}, "type": "Feature", "properties": {"collection_times": [{"days": "Mon-Sat", "time": "3:30pm"}, {"days": "Sun", "time": "Closed"}], "id": "0540100029", "name": "USPS COLLECTION BOX - BLUE BOX", "address": {"city": "WINOOSKI", "state": "VT", "street": "294 N WINOOSKI AVE", "postcode": "05401"}}},
{"geometry": {"type": "Point", "coordinates": [-73.2088075337, 44.4737009924]}, "type": "Feature", "properties": {"collection_times": [{"days": "Mon-Sat", "time": "11:30am"}, {"days": "Sun", "time": "Closed"}], "id": "0540100034", "name": "USPS COLLECTION BOX - BLUE BOX", "address": {"city": "WINOOSKI", "state": "VT", "street": "230 S UNION ST", "postcode": "05401"}}},
{"geometry": {"type": "Point", "coordinates": [-73.2055224566, 44.4765128858]}, "type": "Feature", "properties": {"collection_times": [{"days": "Mon-Sat", "time": "2:00pm"}, {"days": "Sun", "time": "Closed"}], "id": "0540100035", "name": "USPS COLLECTION BOX - BLUE BOX", "address": {"city": "WINOOSKI", "state": "VT", "street": "143 S WILLARD ST", "postcode": "05401"}}},
{"geometry": {"type": "Point", "coordinates": [-73.211137349, 44.4877923998]}, "type": "Feature", "properties": {"collection_times": [{"days": "Mon-Sat", "time": "12:30pm"}, {"days": "Sun", "time": "Closed"}], "id": "0540100037", "name": "USPS COLLECTION BOX - BLUE BOX", "address": {"city": "WINOOSKI", "state": "VT", "street": "124 INTERVALE AVE", "postcode": "05401"}}},
{"geometry": {"type": "Point", "coordinates": [-73.2174277557, 44.4612669107]}, "type": "Feature", "properties": {"collection_times": [{"days": "Mon-Sat", "time": "3:30pm"}, {"days": "Sun", "time": "Closed"}], "id": "0540100038", "name": "USPS COLLECTION BOX - BLUE BOX", "address": {"city": "WINOOSKI", "state": "VT", "street": "128 LAKESIDE AVE", "postcode": "05401"}}},
{"geometry": {"type": "Point", "coordinates": [-73.2168457398, 44.4725345948]}, "type": "Feature", "properties": {"collection_times": [{"days": "Mon-Sat", "time": "1:30pm"}, {"days": "Sun", "time": "Closed"}], "id": "0540100043", "name": "USPS COLLECTION BOX - BLUE BOX", "address": {"city": "WINOOSKI", "state": "VT", "street": "255 S CHAMPLAIN ST", "postcode": "05401"}}},
{"geometry": {"type": "Point", "coordinates": [-73.1876158014, 44.49141441]}, "type": "Feature", "properties": {"collection_times": [{"days": "Mon-Sat", "time": "4:00pm"}, {"days": "Sun", "time": "Closed"}], "id": "0540100045", "name": "USPS COLLECTION BOX - BLUE BOX", "address": {"city": "WINOOSKI", "state": "VT", "street": "139 BANK ST", "postcode": "05401"}}},
{"geometry": {"type": "Point", "coordinates": [-73.2163287868, 44.4792100323]}, "type": "Feature", "properties": {"collection_times": [{"days": "Mon-Sat", "time": "4:30pm"}, {"days": "Sun", "time": "Closed"}], "id": "0540100046", "name": "USPS COLLECTION BOX - BLUE BOX", "address": {"city": "WINOOSKI", "state": "VT", "street": "1 BURLINGTON SQ", "postcode": "05401"}}},
{"geometry": {"type": "Point", "coordinates": [-73.1876158014, 44.49141441]}, "type": "Feature", "properties": {"collection_times": [{"days": "Mon-Sat", "time": "4:00pm"}, {"days": "Sun", "time": "Closed"}], "id": "0540100047", "name": "USPS COLLECTION BOX - BLUE BOX", "address": {"city": "WINOOSKI", "state": "VT", "street": "191 COLLEGE ST", "postcode": "05401"}}},
{"geometry": {"type": "Point", "coordinates": [-73.2121757525, 44.4782955953]}, "type": "Feature", "properties": {"collection_times": [{"days": "Mon-Sat", "time": "4:30pm"}, {"days": "Sun", "time": "Closed"}], "id": "0540100048", "name": "USPS COLLECTION BOX - BLUE BOX", "address": {"city": "WINOOSKI", "state": "VT", "street": "184 BANK ST", "postcode": "05401"}}},
{"geometry": {"type": "Point", "coordinates": [-73.2122712375, 44.4793117667]}, "type": "Feature", "properties": {"collection_times": [{"days": "Mon-Sat", "time": "4:00pm"}, {"days": "Sun", "time": "Closed"}], "id": "0540100049", "name": "USPS COLLECTION BOX - BLUE BOX", "address": {"city": "WINOOSKI", "state": "VT", "street": "144 CHERRY ST", "postcode": "05401"}}},
{"geometry": {"type": "Point", "coordinates": [-73.2119045202, 44.4759344189]}, "type": "Feature", "properties": {"collection_times": [{"days": "Mon-Sat", "time": "4:30pm"}, {"days": "Sun", "time": "Closed"}], "id": "0540100050", "name": "USPS COLLECTION BOX - BLUE BOX", "address": {"city": "WINOOSKI", "state": "VT", "street": "175 MAIN ST", "postcode": "05401"}}},
{"geometry": {"type": "Point", "coordinates": [-73.1865813421, 44.4883877486]}, "type": "Feature", "properties": {"collection_times": [{"days": "Mon-Sat", "time": "1:00pm"}, {"days": "Sun", "time": "Closed"}], "id": "0540100053", "name": "USPS COLLECTION BOX - BLUE BOX", "address": {"city": "WINOOSKI", "state": "VT", "street": "1 MILL ST", "postcode": "05401"}}},
{"geometry": {"type": "Point", "coordinates": [-73.2143035398, 44.4769891374]}, "type": "Feature", "properties": {"collection_times": [{"days": "Mon-Sat", "time": "2:30pm"}, {"days": "Sun", "time": "Closed"}], "id": "0540100054", "name": "USPS COLLECTION BOX - BLUE BOX", "address": {"city": "WINOOSKI", "state": "VT", "street": "131 COLLEGE ST", "postcode": "05401"}}},
{"geometry": {"type": "Point", "coordinates": [-73.2131895625, 44.4709935466]}, "type": "Feature", "properties": {"collection_times": [{"days": "Mon-Sat", "time": "3:45pm"}, {"days": "Sun", "time": "Closed"}], "id": "0540100059", "name": "USPS COLLECTION BOX - BLUE BOX", "address": {"city": "WINOOSKI", "state": "VT", "street": "305 SAINT PAUL ST", "postcode": "05401"}}},
{"geometry": {"type": "Point", "coordinates": [-73.2136008834, 44.4807135731]}, "type": "Feature", "properties": {"collection_times": [{"days": "Mon-Fri", "time": "5:30pm"}, {"days": "Sat", "time": "5:00pm"}, {"days": "Sun", "time": "Closed"}], "id": "0540100066", "name": "USPS COLLECTION BOX - BLUE BOX", "address": {"city": "WINOOSKI", "state": "VT", "street": "11 ELMWOOD AVE", "postcode": "05401"}}},
{"geometry": {"type": "Point", "coordinates": [-73.2136008834, 44.4807135731]}, "type": "Feature", "properties": {"collection_times": [{"days": "Mon-Fri", "time": "5:30pm"}, {"days": "Sat", "time": "5:00pm"}, {"days": "Sun", "time": "Closed"}], "id": "0540100067", "name": "USPS COLLECTION BOX - BLUE BOX", "address": {"city": "WINOOSKI", "state": "VT", "street": "11 ELMWOOD AVE", "postcode": "05401"}}},
{"geometry": {"type": "Point", "coordinates": [-73.2136008834, 44.4807135731]}, "type": "Feature", "properties": {"collection_times": [{"days": "Mon-Fri", "time": "5:00pm"}, {"days": "Sat", "time": "1:00pm"}, {"days": "Sun", "time": "Closed"}], "id": "0540100072", "name": "USPS COLLECTION BOX - PO LOBBY", "address": {"city": "WINOOSKI", "state": "VT", "street": "11 ELMWOOD AVE", "postcode": "05401"}}},
{"geometry": {"type": "Point", "coordinates": [-73.2108498491, 44.4757667466]}, "type": "Feature", "properties": {"collection_times": [{"days": "Mon-Fri", "time": "5:00pm"}, {"days": "Sat", "time": "1:00pm"}, {"days": "Sun", "time": "Closed"}], "id": "0540100080", "name": "USPS COLLECTION BOX - EXPRESS", "address": {"city": "WINOOSKI", "state": "VT", "street": "11 ELMWOOD AVE", "postcode": "05401"}}},
{"geometry": {"type": "Point", "coordinates": [-73.2005670415, 44.4802096326]}, "type": "Feature", "properties": {"collection_times": [{"days": "Mon-Sat", "time": "3:00pm"}, {"days": "Sun", "time": "Closed"}], "id": "0540100081", "name": "USPS COLLECTION BOX - BLUE BOX", "address": {"city": "WINOOSKI", "state": "VT", "street": "1 S PROSPECT ST", "postcode": "05401"}}},
{"geometry": {"type": "Point", "coordinates": [-73.2183764887, 44.4757344988]}, "type": "Feature", "properties": {"collection_times": [{"days": "Mon-Sat", "time": "4:30pm"}, {"days": "Sun", "time": "Closed"}], "id": "0540100082", "name": "USPS COLLECTION BOX - BLUE BOX", "address": {"city": "WINOOSKI", "state": "VT", "street": "30 MAIN ST", "postcode": "05401"}}},
{"geometry": {"type": "Point", "coordinates": [-73.2136008834, 44.4807135731]}, "type": "Feature", "properties": {"collection_times": [{"days": "Mon-Fri", "time": "5:30pm"}, {"days": "Sat", "time": "5:00pm"}, {"days": "Sun", "time": "Closed"}], "id": "0540100083", "name": "USPS COLLECTION BOX - BLUE BOX", "address": {"city": "WINOOSKI", "state": "VT", "street": "11 ELMWOOD AVE", "postcode": "05401"}}},
{"geometry": {"type": "Point", "coordinates": [-73.2136008834, 44.4807135731]}, "type": "Feature", "properties": {"collection_times": [{"days": "Mon-Fri", "time": "5:30pm"}, {"days": "Sat", "time": "5:00pm"}, {"days": "Sun", "time": "Closed"}], "id": "0540100084", "name": "USPS COLLECTION BOX - BLUE BOX", "address": {"city": "WINOOSKI", "state": "VT", "street": "11 ELMWOOD AVE", "postcode": "05401"}}},
{"geometry": {"type": "Point", "coordinates": [-73.2136008834, 44.4807135731]}, "type": "Feature", "properties": {"collection_times": [{"days": "Mon-Fri", "time": "5:30pm"}, {"days": "Sat", "time": "5:00pm"}, {"days": "Sun", "time": "Closed"}], "id": "0540100085", "name": "USPS COLLECTION BOX - BLUE BOX", "address": {"city": "WINOOSKI", "state": "VT", "street": "11 ELMWOOD AVE", "postcode": "05401"}}},
{"geometry": {"type": "Point", "coordinates": [-73.1864354137, 44.4912501886]}, "type": "Feature", "properties": {"collection_times": [{"days": "Mon-Fri", "time": "5:00pm"}, {"days": "Sat", "time": "4:00pm"}, {"days": "Sun", "time": "Closed"}], "id": "0540100089", "name": "USPS COLLECTION BOX - BLUE BOX", "address": {"city": "WINOOSKI", "state": "VT", "street": "50 MAIN ST", "postcode": "05401"}}},
{"geometry": {"type": "Point", "coordinates": [-73.2191643394, 44.4758078423]}, "type": "Feature", "properties": {"collection_times": [{"days": "Mon-Sat", "time": "2:45pm"}, {"days": "Sun", "time": "Closed"}], "id": "0540100092", "name": "USPS COLLECTION BOX - BLUE BOX", "address": {"city": "WINOOSKI", "state": "VT", "street": "20 WINOOSKI FALLS WAY", "postcode": "05401"}}},
{"geometry": {"type": "Point", "coordinates": [-73.1846787197, 44.5016767889]}, "type": "Feature", "properties": {"collection_times": [{"days": "Mon-Sat", "time": "2:15pm"}, {"days": "Sun", "time": "Closed"}], "id": "0540100093", "name": "USPS COLLECTION BOX - BLUE BOX", "address": {"city": "WINOOSKI", "state": "VT", "street": "1 TIGAN ST", "postcode": "05401"}}},
{"geometry": {"type": "Point", "coordinates": [-73.2086111625, 44.4549510928]}, "type": "Feature", "properties": {"collection_times": [{"days": "Mon-Sat", "time": "5:00pm"}, {"days": "Sun", "time": "Closed"}], "id": "0540100094", "name": "USPS COLLECTION BOX - APC", "address": {"city": "WINOOSKI", "state": "VT", "street": "370 SHELBURNE RD", "postcode": "05401"}}},
{"geometry": {"type": "Point", "coordinates": [-73.2479567981, 44.4672653928]}, "type": "Feature", "properties": {"collection_times": [{"days": "Mon-Sat", "time": "2:00pm"}, {"days": "Sun", "time": "Closed"}], "id": "0540100100", "name": "USPS COLLECTION BOX - BLUE BOX", "address": {"city": "WINOOSKI", "state": "VT", "street": "42 HERCULES DR", "postcode": "05401"}}},
{"geometry": {"type": "Point", "coordinates": [-73.1876158014, 44.49141441]}, "type": "Feature", "properties": {"collection_times": [{"days": "Mon-Fri", "time": "12:30pm"}, {"days": "Sat", "time": "12:00pm"}, {"days": "Sun", "time": "Closed"}], "id": "0540100101", "name": "USPS COLLECTION BOX - BLUE BOX", "address": {"city": "WINOOSKI", "state": "VT", "street": "66 MOUNTAIN VIEW DR", "postcode": "05401"}}},
{"geometry": {"type": "Point", "coordinates": [-72.6626876286, 44.0752034871]}, "type": "Feature", "properties": {"collection_times": [{"days": "Mon-Fri", "time": "12:30pm"}, {"days": "Sat", "time": "12:00pm"}, {"days": "Sun", "time": "Closed"}], "id": "0540100102", "name": "USPS COLLECTION BOX - BLUE BOX", "address": {"city": "WINOOSKI", "state": "VT", "street": "356 MOUNTAIN VIEW DR", "postcode": "05401"}}},
{"geometry": {"type": "Point", "coordinates": [-72.6626876286, 44.0752034871]}, "type": "Feature", "properties": {"collection_times": [{"days": "Mon-Sat", "time": "12:30pm"}, {"days": "Sun", "time": "Closed"}], "id": "0540100103", "name": "USPS COLLECTION BOX - BLUE BOX", "address": {"city": "WINOOSKI", "state": "VT", "street": "463 MOUNTAIN VIEW DR", "postcode": "05401"}}},
{"geometry": {"type": "Point", "coordinates": [-72.6626876286, 44.0752034871]}, "type": "Feature", "properties": {"collection_times": [{"days": "Mon-Sat", "time": "12:30pm"}, {"days": "Sun", "time": "Closed"}], "id": "0540100104", "name": "USPS COLLECTION BOX - BLUE BOX", "address": {"city": "WINOOSKI", "state": "VT", "street": "463 MOUNTAIN VIEW DR", "postcode": "05401"}}},
{"geometry": {"type": "Point", "coordinates": [-73.2085222421, 44.4552761869]}, "type": "Feature", "properties": {"collection_times": [{"days": "Mon-Sat", "time": "5:00pm"}, {"days": "Sun", "time": "Closed"}], "id": "0540100107", "name": "USPS COLLECTION BOX - BLUE BOX", "address": {"city": "WINOOSKI", "state": "VT", "street": "370 SHELBURNE RD", "postcode": "05401"}}},
{"geometry": {"type": "Point", "coordinates": [-73.1809239272, 44.4648976909]}, "type": "Feature", "properties": {"collection_times": [{"days": "Mon-Sat", "time": "3:30pm"}, {"days": "Sun", "time": "Closed"}], "id": "0540300002", "name": "USPS COLLECTION BOX - BLUE BOX", "address": {"city": "BURLINGTON", "state": "VT", "street": "150 DORSET ST", "postcode": "05403"}}},
{"geometry": {"type": "Point", "coordinates": [-73.2132291813, 44.4759213296]}, "type": "Feature", "properties": {"collection_times": [{"days": "Mon-Sat", "time": "4:00pm"}, {"days": "Sun", "time": "Closed"}], "id": "0540300005", "name": "USPS COLLECTION BOX - BLUE BOX", "address": {"city": "BURLINGTON", "state": "VT", "street": "1795 WILLISTON RD", "postcode": "05403"}}},
{"geometry": {"type": "Point", "coordinates": [-73.1700963845, 44.4607641531]}, "type": "Feature", "properties": {"collection_times": [{"days": "Mon-Sat", "time": "12:00pm"}, {"days": "Sun", "time": "Closed"}], "id": "0540300006", "name": "USPS COLLECTION BOX - BLUE BOX", "address": {"city": "BURLINGTON", "state": "VT", "street": "225 HINESBURG RD", "postcode": "05403"}}},
{"geometry": {"type": "Point", "coordinates": [-73.1671757131, 44.452872485]}, "type": "Feature", "properties": {"collection_times": [{"days": "Mon-Sat", "time": "3:30pm"}, {"days": "Sun", "time": "Closed"}], "id": "0540300007", "name": "USPS COLLECTION BOX - BLUE BOX", "address": {"city": "BURLINGTON", "state": "VT", "street": "51 TIMBER LN", "postcode": "05403"}}},
{"geometry": {"type": "Point", "coordinates": [-73.2097266928, 44.4332497105]}, "type": "Feature", "properties": {"collection_times": [{"days": "Mon-Sat", "time": "3:15pm"}, {"days": "Sun", "time": "Closed"}], "id": "0540300009", "name": "USPS COLLECTION BOX - BLUE BOX", "address": {"city": "BURLINGTON", "state": "VT", "street": "41 IDX DR", "postcode": "05403"}}},
{"geometry": {"type": "Point", "coordinates": [-73.1786359782, 44.4519865775]}, "type": "Feature", "properties": {"collection_times": [{"days": "Mon-Sat", "time": "5:00pm"}, {"days": "Sun", "time": "Closed"}], "id": "0540300010", "name": "USPS COLLECTION BOX - BLUE BOX", "address": {"city": "BURLINGTON", "state": "VT", "street": "60 WHITE ST", "postcode": "05403"}}},
{"geometry": {"type": "Point", "coordinates": [-73.2143769045, 44.4418521881]}, "type": "Feature", "properties": {"collection_times": [{"days": "Mon-Sat", "time": "3:00pm"}, {"days": "Sun", "time": "Closed"}], "id": "0540300013", "name": "USPS COLLECTION BOX - BLUE BOX", "address": {"city": "BURLINGTON", "state": "VT", "street": "218 HANNEFORD DR", "postcode": "05403"}}},
{"geometry": {"type": "Point", "coordinates": [-73.1778731567, 44.452985015]}, "type": "Feature", "properties": {"collection_times": [{"days": "Mon-Sat", "time": "3:30pm"}, {"days": "Sun", "time": "Closed"}], "id": "0540300014", "name": "USPS COLLECTION BOX - BLUE BOX", "address": {"city": "BURLINGTON", "state": "VT", "street": "1 KENNEDY DR", "postcode": "05403"}}},
{"geometry": {"type": "Point", "coordinates": [-73.2106032654, 44.4350276979]}, "type": "Feature", "properties": {"collection_times": [{"days": "Mon-Sat", "time": "3:45pm"}, {"days": "Sun", "time": "Closed"}], "id": "0540300015", "name": "USPS COLLECTION BOX - BLUE BOX", "address": {"city": "BURLINGTON", "state": "VT", "street": "1233 SHELBURNE RD", "postcode": "05403"}}},
{"geometry": {"type": "Point", "coordinates": [-73.1541181578, 44.459788212]}, "type": "Feature", "properties": {"collection_times": [{"days": "Mon-Sat", "time": "4:00pm"}, {"days": "Sun", "time": "Closed"}], "id": "0540300016", "name": "USPS COLLECTION BOX - BLUE BOX", "address": {"city": "BURLINGTON", "state": "VT", "street": "20 KIMBALL AVE", "postcode": "05403"}}},
{"geometry": {"type": "Point", "coordinates": [-73.1786359782, 44.4519865775]}, "type": "Feature", "properties": {"collection_times": [{"days": "Mon-Sat", "time": "5:00pm"}, {"days": "Sun", "time": "Closed"}], "id": "0540300019", "name": "USPS COLLECTION BOX - BLUE BOX", "address": {"city": "BURLINGTON", "state": "VT", "street": "60 WHITE ST", "postcode": "05403"}}},
{"geometry": {"type": "Point", "coordinates": [-73.2082539089, 44.4414192252]}, "type": "Feature", "properties": {"collection_times": [{"days": "Mon-Sat", "time": "3:00pm"}, {"days": "Sun", "time": "Closed"}], "id": "0540300021", "name": "USPS COLLECTION BOX - BLUE BOX", "address": {"city": "BURLINGTON", "state": "VT", "street": "13 LAUREL HILL DR", "postcode": "05403"}}},
{"geometry": {"type": "Point", "coordinates": [-73.1786359782, 44.4519865775]}, "type": "Feature", "properties": {"collection_times": [{"days": "Mon-Fri", "time": "5:00pm"}, {"days": "Sat", "time": "2:00pm"}, {"days": "Sun", "time": "Closed"}], "id": "0540300023", "name": "USPS COLLECTION BOX - PO LOBBY", "address": {"city": "BURLINGTON", "state": "VT", "street": "60 WHITE ST", "postcode": "05403"}}},
{"geometry": {"type": "Point", "coordinates": [-73.2091848976, 44.4488292801]}, "type": "Feature", "properties": {"collection_times": [{"days": "Mon-Sat", "time": "2:00pm"}, {"days": "Sun", "time": "Closed"}], "id": "0540300028", "name": "USPS COLLECTION BOX - BLUE BOX", "address": {"city": "BURLINGTON", "state": "VT", "street": "580 SHELBURNE RD", "postcode": "05403"}}},
{"geometry": {"type": "Point", "coordinates": [-73.1898068468, 44.4960861248]}, "type": "Feature", "properties": {"collection_times": [{"days": "Mon-Sat", "time": "9:30am"}, {"days": "Sun", "time": "Closed"}], "id": "0540400006", "name": "USPS COLLECTION BOX - BLUE BOX", "address": {"city": "WINOOSKI", "state": "VT", "street": "83 NORTH ST", "postcode": "05404"}}},
{"geometry": {"type": "Point", "coordinates": [-73.1864354137, 44.4912501886]}, "type": "Feature", "properties": {"collection_times": [{"days": "Mon-Fri", "time": "5:00pm"}, {"days": "Sat", "time": "3:30pm"}, {"days": "Sun", "time": "Closed"}], "id": "0540400011", "name": "USPS COLLECTION BOX - PO LOBBY", "address": {"city": "WINOOSKI", "state": "VT", "street": "50 MAIN ST", "postcode": "05404"}}},
{"geometry": {"type": "Point", "coordinates": [-73.244920905, 44.5069243949]}, "type": "Feature", "properties": {"collection_times": [{"days": "Mon-Fri", "time": "5:00pm"}, {"days": "Sat", "time": "3:00pm"}, {"days": "Sun", "time": "Closed"}], "id": "0540800001", "name": "USPS COLLECTION BOX - BLUE BOX", "address": {"city": "BURLINGTON", "state": "VT", "street": "1127 NORTH AVE", "postcode": "05408"}}},
{"geometry": {"type": "Point", "coordinates": [-73.244920905, 44.5069243949]}, "type": "Feature", "properties": {"collection_times": [{"days": "Mon-Fri", "time": "5:00pm"}, {"days": "Sat", "time": "3:00pm"}, {"days": "Sun", "time": "Closed"}], "id": "0540800002", "name": "USPS COLLECTION BOX - BLUE BOX", "address": {"city": "BURLINGTON", "state": "VT", "street": "1127 NORTH AVE", "postcode": "05408"}}},
{"geometry": {"type": "Point", "coordinates": [-73.244920905, 44.5069243949]}, "type": "Feature", "properties": {"collection_times": [{"days": "Mon-Fri", "time": "5:00pm"}, {"days": "Sat", "time": "3:00pm"}, {"days": "Sun", "time": "Closed"}], "id": "0540800003", "name": "USPS COLLECTION BOX - PO LOBBY", "address": {"city": "BURLINGTON", "state": "VT", "street": "1127 NORTH AVE", "postcode": "05408"}}},
{"geometry": {"type": "Point", "coordinates": [-73.2543172837, 44.5127558249]}, "type": "Feature", "properties": {"collection_times": [{"days": "Mon-Sat", "time": "2:00pm"}, {"days": "Sun", "time": "Closed"}], "id": "0540800005", "name": "USPS COLLECTION BOX - BLUE BOX", "address": {"city": "BURLINGTON", "state": "VT", "street": "6 VILLAGE GRN", "postcode": "05408"}}},
{"geometry": {"type": "Point", "coordinates": [-73.3006844076, 44.9755878947]}, "type": "Feature", "properties": {"collection_times": [{"days": "Mon-Fri", "time": "4:30pm"}, {"days": "Sat", "time": "12:00pm"}, {"days": "Sun", "time": "Closed"}], "id": "0544000000", "name": "USPS COLLECTION BOX - BLUE BOX", "address": {"city": "ALBURG", "state": "VT", "street": "12 S MAIN ST", "postcode": "05440"}}},
{"geometry": {"type": "Point", "coordinates": [-73.3006844076, 44.9755878947]}, "type": "Feature", "properties": {"collection_times": [{"days": "Mon-Fri", "time": "4:45pm"}, {"days": "Sat", "time": "12:00pm"}, {"days": "Sun", "time": "Closed"}], "id": "0544000002", "name": "USPS COLLECTION BOX - PO LOBBY", "address": {"city": "ALBURG", "state": "VT", "street": "12 S MAIN ST", "postcode": "05440"}}},
{"geometry": {"type": "Point", "coordinates": [-72.8014961635, 44.7821259308]}, "type": "Feature", "properties": {"collection_times": [{"days": "Mon-Fri", "time": "4:30pm"}, {"days": "Sat", "time": "11:00am"}, {"days": "Sun", "time": "Closed"}], "id": "0544100000", "name": "USPS COLLECTION BOX - BLUE BOX", "address": {"city": "BAKERSFIELD", "state": "VT", "street": "65 MAIN ST N", "postcode": "05441"}}},
{"geometry": {"type": "Point", "coordinates": [-72.8014961635, 44.7821259308]}, "type": "Feature", "properties": {"collection_times": [{"days": "Mon-Fri", "time": "4:30pm"}, {"days": "Sat", "time": "11:00am"}, {"days": "Sun", "time": "Closed"}], "id": "0544100001", "name": "USPS COLLECTION BOX - PO LOBBY", "address": {"city": "BAKERSFIELD", "state": "VT", "street": "65 MAIN ST N", "postcode": "05441"}}},
{"geometry": {"type": "Point", "coordinates": [-73.0796958434, 44.1333802595]}, "type": "Feature", "properties": {"collection_times": [{"days": "Mon-Fri", "time": "4:30pm"}, {"days": "Sat", "time": "3:30pm"}, {"days": "Sun", "time": "Closed"}], "id": "0544300000", "name": "USPS COLLECTION BOX - BLUE BOX", "address": {"city": "BRISTOL", "state": "VT", "street": "11 WEST ST", "postcode": "05443"}}},
{"geometry": {"type": "Point", "coordinates": [-73.0796958434, 44.1333802595]}, "type": "Feature", "properties": {"collection_times": [{"days": "Mon-Fri", "time": "4:30pm"}, {"days": "Sat", "time": "3:30pm"}, {"days": "Sun", "time": "Closed"}], "id": "0544300002", "name": "USPS COLLECTION BOX - PO LOBBY", "address": {"city": "BRISTOL", "state": "VT", "street": "11 WEST ST", "postcode": "05443"}}},
{"geometry": {"type": "Point", "coordinates": [-72.8764256385, 44.6443901414]}, "type": "Feature", "properties": {"collection_times": [{"days": "Mon-Fri", "time": "4:30pm"}, {"days": "Sat", "time": "11:30am"}, {"days": "Sun", "time": "Closed"}], "id": "0544400000", "name": "USPS COLLECTION BOX - BLUE BOX", "address": {"city": "CAMBRIDGE", "state": "VT", "street": "27 MANSFIELD AVE", "postcode": "05444"}}},
{"geometry": {"type": "Point", "coordinates": [-72.8764256385, 44.6443901414]}, "type": "Feature", "properties": {"collection_times": [{"days": "Mon-Fri", "time": "4:30pm"}, {"days": "Sat", "time": "11:30am"}, {"days": "Sun", "time": "Closed"}], "id": "0544400001", "name": "USPS COLLECTION BOX - PO LOBBY", "address": {"city": "CAMBRIDGE", "state": "VT", "street": "27 MANSFIELD AVE", "postcode": "05444"}}},
{"geometry": {"type": "Point", "coordinates": [-73.2501285276, 44.3109818793]}, "type": "Feature", "properties": {"collection_times": [{"days": "Mon-Fri", "time": "4:45pm"}, {"days": "Sat", "time": "10:45am"}, {"days": "Sun", "time": "Closed"}], "id": "0544500000", "name": "USPS COLLECTION BOX - BLUE BOX", "address": {"city": "CHARLOTTE", "state": "VT", "street": "161 FERRY RD", "postcode": "05445"}}},
{"geometry": {"type": "Point", "coordinates": [-73.2501285276, 44.3109818793]}, "type": "Feature", "properties": {"collection_times": [{"days": "Mon-Fri", "time": "5:00pm"}, {"days": "Sat", "time": "10:45am"}, {"days": "Sun", "time": "Closed"}], "id": "0544500002", "name": "USPS COLLECTION BOX - PO LOBBY", "address": {"city": "CHARLOTTE", "state": "VT", "street": "161 FERRY RD", "postcode": "05445"}}},
{"geometry": {"type": "Point", "coordinates": [-73.1885529103, 44.3191828923]}, "type": "Feature", "properties": {"collection_times": [{"days": "Mon-Sat", "time": "10:00am"}, {"days": "Sun", "time": "Closed"}], "id": "0544500004", "name": "USPS COLLECTION BOX - BLUE BOX", "address": {"city": "CHARLOTTE", "state": "VT", "street": "20 JACKSON HILL RD", "postcode": "05445"}}},
{"geometry": {"type": "Point", "coordinates": [-73.2086975185, 44.5352195904]}, "type": "Feature", "properties": {"collection_times": [{"days": "Mon-Fri", "time": "5:30pm"}, {"days": "Sat", "time": "3:00pm"}, {"days": "Sun", "time": "Closed"}], "id": "0544600008", "name": "USPS COLLECTION BOX - PO LOBBY", "address": {"city": "COLCHESTER", "state": "VT", "street": "218 MALLETTS BAY AVE", "postcode": "05446"}}},
{"geometry": {"type": "Point", "coordinates": [-73.2086975185, 44.5352195904]}, "type": "Feature", "properties": {"collection_times": [{"days": "Mon-Fri", "time": "5:00pm"}, {"days": "Sat", "time": "3:00pm"}, {"days": "Sun", "time": "Closed"}], "id": "0544600009", "name": "USPS COLLECTION BOX - BLUE BOX", "address": {"city": "COLCHESTER", "state": "VT", "street": "218 MALLETTS BAY AVE", "postcode": "05446"}}},
{"geometry": {"type": "Point", "coordinates": [-73.2469544114, 44.5376446562]}, "type": "Feature", "properties": {"collection_times": [{"days": "Mon-Sat", "time": "11:00am"}, {"days": "Sun", "time": "Closed"}], "id": "0544600011", "name": "USPS COLLECTION BOX - BLUE BOX", "address": {"city": "COLCHESTER", "state": "VT", "street": "1184 PRIM RD", "postcode": "05446"}}},
{"geometry": {"type": "Point", "coordinates": [-73.2059814447, 44.5355590996]}, "type": "Feature", "properties": {"collection_times": [{"days": "Mon-Sat", "time": "12:00pm"}, {"days": "Sun", "time": "Closed"}], "id": "0544600014", "name": "USPS COLLECTION BOX - BLUE BOX", "address": {"city": "COLCHESTER", "state": "VT", "street": "835 BLAKELY RD", "postcode": "05446"}}},
{"geometry": {"type": "Point", "coordinates": [-72.8576277294, 44.7840922094]}, "type": "Feature", "properties": {"collection_times": [{"days": "Mon-Fri", "time": "4:15pm"}, {"days": "Sat", "time": "10:45am"}, {"days": "Sun", "time": "Closed"}], "id": "0544800000", "name": "USPS COLLECTION BOX - BLUE BOX", "address": {"city": "EAST FAIRFIELD", "state": "VT", "street": "9516 ROUTE 36", "postcode": "05448"}}},
{"geometry": {"type": "Point", "coordinates": [-72.8576277294, 44.7840922094]}, "type": "Feature", "properties": {"collection_times": [{"days": "Mon-Fri", "time": "4:15pm"}, {"days": "Sat", "time": "10:45am"}, {"days": "Sun", "time": "Closed"}], "id": "0544800001", "name": "USPS COLLECTION BOX - PO LOBBY", "address": {"city": "EAST FAIRFIELD", "state": "VT", "street": "9516 ROUTE 36", "postcode": "05448"}}},
{"geometry": {"type": "Point", "coordinates": [-72.8048128516, 44.9063504894]}, "type": "Feature", "properties": {"collection_times": [{"days": "Mon-Fri", "time": "4:45pm"}, {"days": "Sat", "time": "11:45am"}, {"days": "Sun", "time": "Closed"}], "id": "0545000001", "name": "USPS COLLECTION BOX - BLUE BOX", "address": {"city": "ENOSBURG FALLS", "state": "VT", "street": "34 SCHOOL ST", "postcode": "05450"}}},
{"geometry": {"type": "Point", "coordinates": [-72.8048128516, 44.9063504894]}, "type": "Feature", "properties": {"collection_times": [{"days": "Mon-Fri", "time": "4:45pm"}, {"days": "Sat", "time": "11:45am"}, {"days": "Sun", "time": "Closed"}], "id": "0545000002", "name": "USPS COLLECTION BOX - PO LOBBY", "address": {"city": "ENOSBURG FALLS", "state": "VT", "street": "34 SCHOOL ST", "postcode": "05450"}}},
{"geometry": {"type": "Point", "coordinates": [-72.9357658092, 44.9004798399]}, "type": "Feature", "properties": {"collection_times": [{"days": "Mon-Sat", "time": "12:30pm"}, {"days": "Sun", "time": "Closed"}], "id": "0545000003", "name": "USPS COLLECTION BOX - BLUE BOX", "address": {"city": "ENOSBURG FALLS", "state": "VT", "street": "2861 VT ROUTE 105", "postcode": "05450"}}},
{"geometry": {"type": "Point", "coordinates": [-73.079002667, 44.5080032964]}, "type": "Feature", "properties": {"collection_times": [{"days": "Mon-Fri", "time": "5:00pm"}, {"days": "Sat", "time": "4:00pm"}, {"days": "Sun", "time": "Closed"}], "id": "0545200000", "name": "USPS COLLECTION BOX - BLUE BOX", "address": {"city": "ESSEX JCT", "state": "VT", "street": "22 ESSEX WAY", "postcode": "05452"}}},
{"geometry": {"type": "Point", "coordinates": [-73.079013276, 44.5080931583]}, "type": "Feature", "properties": {"collection_times": [{"days": "Mon-Fri", "time": "5:00pm"}, {"days": "Sat", "time": "4:00pm"}, {"days": "Sun", "time": "Closed"}], "id": "0545200001", "name": "USPS COLLECTION BOX - BLUE BOX", "address": {"city": "ESSEX JCT", "state": "VT", "street": "22 ESSEX WAY", "postcode": "05452"}}},
{"geometry": {"type": "Point", "coordinates": [-73.0790120931, 44.5074756538]}, "type": "Feature", "properties": {"collection_times": [{"days": "Mon-Fri", "time": "5:00pm"}, {"days": "Sat", "time": "4:00pm"}, {"days": "Sun", "time": "Closed"}], "id": "0545200002", "name": "USPS COLLECTION BOX - BLUE BOX", "address": {"city": "ESSEX JCT", "state": "VT", "street": "21 ESSEX WAY", "postcode": "05452"}}},
{"geometry": {"type": "Point", "coordinates": [-73.1111887457, 44.4905322938]}, "type": "Feature", "properties": {"collection_times": [{"days": "Mon-Fri", "time": "5:00pm"}, {"days": "Sat", "time": "4:00pm"}, {"days": "Sun", "time": "Closed"}], "id": "0545200005", "name": "USPS COLLECTION BOX - BLUE BOX", "address": {"city": "ESSEX JCT", "state": "VT", "street": "159 PEARL ST", "postcode": "05452"}}},
{"geometry": {"type": "Point", "coordinates": [-73.1211467255, 44.4949256421]}, "type": "Feature", "properties": {"collection_times": [{"days": "Mon-Fri", "time": "5:00pm"}, {"days": "Sat", "time": "4:00pm"}, {"days": "Sun", "time": "Closed"}], "id": "0545200007", "name": "USPS COLLECTION BOX - BLUE BOX", "address": {"city": "ESSEX JCT", "state": "VT", "street": "103 PEARL ST", "postcode": "05452"}}},
{"geometry": {"type": "Point", "coordinates": [-73.1101179991, 44.4910715618]}, "type": "Feature", "properties": {"collection_times": [{"days": "Mon-Fri", "time": "5:00pm"}, {"days": "Sat", "time": "4:00pm"}, {"days": "Sun", "time": "Closed"}], "id": "0545200008", "name": "USPS COLLECTION BOX - BLUE BOX", "address": {"city": "ESSEX JCT", "state": "VT", "street": "8 MAIN ST", "postcode": "05452"}}},
{"geometry": {"type": "Point", "coordinates": [-73.1321293165, 44.5068285752]}, "type": "Feature", "properties": {"collection_times": [{"days": "Mon-Fri", "time": "5:00pm"}, {"days": "Sat", "time": "4:00pm"}, {"days": "Sun", "time": "Closed"}], "id": "0545200009", "name": "USPS COLLECTION BOX - BLUE BOX", "address": {"city": "ESSEX JCT", "state": "VT", "street": "1 MARKET PL", "postcode": "05452"}}},
{"geometry": {"type": "Point", "coordinates": [-72.6626876286, 44.0752034871]}, "type": "Feature", "properties": {"collection_times": [{"days": "Mon-Fri", "time": "3:00pm"}, {"days": "Sat", "time": "4:00pm"}, {"days": "Sun", "time": "Closed"}], "id": "0545200010", "name": "USPS COLLECTION BOX - BLUE BOX", "address": {"city": "ESSEX JCT", "state": "VT", "street": "156 COLLEGE PKWY", "postcode": "05452"}}},
{"geometry": {"type": "Point", "coordinates": [-73.0607101205, 44.5228862845]}, "type": "Feature", "properties": {"collection_times": [{"days": "Mon-Fri", "time": "3:15pm"}, {"days": "Sat", "time": "4:00pm"}, {"days": "Sun", "time": "Closed"}], "id": "0545200011", "name": "USPS COLLECTION BOX - BLUE BOX", "address": {"city": "ESSEX JCT", "state": "VT", "street": "101 COLLEGE PKWY", "postcode": "05452"}}},
{"geometry": {"type": "Point", "coordinates": [-73.1111613689, 44.4921681648]}, "type": "Feature", "properties": {"collection_times": [{"days": "Mon-Fri", "time": "5:00pm"}, {"days": "Sat", "time": "4:00pm"}, {"days": "Sun", "time": "Closed"}], "id": "0545200013", "name": "USPS COLLECTION BOX - BLUE BOX", "address": {"city": "ESSEX JCT", "state": "VT", "street": "11 LINCOLN ST", "postcode": "05452"}}},
{"geometry": {"type": "Point", "coordinates": [-73.118971264, 44.4939165781]}, "type": "Feature", "properties": {"collection_times": [{"days": "Mon-Fri", "time": "5:15pm"}, {"days": "Sat", "time": "4:00pm"}, {"days": "Sun", "time": "Closed"}], "id": "0545200014", "name": "USPS COLLECTION BOX - BLUE BOX", "address": {"city": "ESSEX JCT", "state": "VT", "street": "78 PEARL ST", "postcode": "05452"}}},
{"geometry": {"type": "Point", "coordinates": [-73.118971264, 44.4939165781]}, "type": "Feature", "properties": {"collection_times": [{"days": "Mon-Fri", "time": "5:15pm"}, {"days": "Sat", "time": "4:00pm"}, {"days": "Sun", "time": "Closed"}], "id": "0545200015", "name": "USPS COLLECTION BOX - BLUE BOX", "address": {"city": "ESSEX JCT", "state": "VT", "street": "78 PEARL ST", "postcode": "05452"}}},
{"geometry": {"type": "Point", "coordinates": [-73.118971264, 44.4939165781]}, "type": "Feature", "properties": {"collection_times": [{"days": "Mon-Fri", "time": "5:15pm"}, {"days": "Sat", "time": "4:00pm"}, {"days": "Sun", "time": "Closed"}], "id": "0545200017", "name": "USPS COLLECTION BOX - BLUE BOX", "address": {"city": "ESSEX JCT", "state": "VT", "street": "78 PEARL ST", "postcode": "05452"}}},
{"geometry": {"type": "Point", "coordinates": [-72.6626876286, 44.0752034871]}, "type": "Feature", "properties": {"collection_times": [{"days": "Mon-Fri", "time": "5:00pm"}, {"days": "Sat", "time": "4:00pm"}, {"days": "Sun", "time": "Closed"}], "id": "0545200020", "name": "USPS COLLECTION BOX - BLUE BOX", "address": {"city": "ESSEX JCT", "state": "VT", "street": "164 HEGEMAN AVE", "postcode": "05452"}}},
{"geometry": {"type": "Point", "coordinates": [-72.6626876286, 44.0752034871]}, "type": "Feature", "properties": {"collection_times": [{"days": "Mon-Fri", "time": "5:00pm"}, {"days": "Sat", "time": "4:00pm"}, {"days": "Sun", "time": "Closed"}], "id": "0545200021", "name": "USPS COLLECTION BOX - BLUE BOX", "address": {"city": "ESSEX JCT", "state": "VT", "street": "164 HEGEMAN AVE", "postcode": "05452"}}},
{"geometry": {"type": "Point", "coordinates": [-73.079013276, 44.5080931583]}, "type": "Feature", "properties": {"collection_times": [{"days": "Mon-Fri", "time": "5:30pm"}, {"days": "Sat", "time": "4:00pm"}, {"days": "Sun", "time": "Closed"}], "id": "0545200024", "name": "USPS COLLECTION BOX - PO LOBBY", "address": {"city": "ESSEX JCT", "state": "VT", "street": "22 ESSEX WAY", "postcode": "05452"}}},
{"geometry": {"type": "Point", "coordinates": [-73.1383154362, 44.5138530398]}, "type": "Feature", "properties": {"collection_times": [{"days": "Mon-Fri", "time": "5:00pm"}, {"days": "Sat", "time": "4:30pm"}, {"days": "Sun", "time": "Closed"}], "id": "0545200025", "name": "USPS COLLECTION BOX - BLUE BOX", "address": {"city": "ESSEX JCT", "state": "VT", "street": "48 NEW ENGLAND DR", "postcode": "05452"}}},
{"geometry": {"type": "Point", "coordinates": [-73.079013276, 44.5080931583]}, "type": "Feature", "properties": {"collection_times": [{"days": "Mon-Fri", "time": "5:30pm"}, {"days": "Sat", "time": "4:00pm"}, {"days": "Sun", "time": "Closed"}], "id": "0545200027", "name": "USPS COLLECTION BOX - PO LOBBY", "address": {"city": "ESSEX JCT", "state": "VT", "street": "22 ESSEX WAY", "postcode": "05452"}}},
{"geometry": {"type": "Point", "coordinates": [-73.1321293165, 44.5068285752]}, "type": "Feature", "properties": {"collection_times": [{"days": "Mon-Fri", "time": "5:00pm"}, {"days": "Sat", "time": "4:00pm"}, {"days": "Sun", "time": "Closed"}], "id": "0545200028", "name": "USPS COLLECTION BOX - BLUE BOX", "address": {"city": "ESSEX JCT", "state": "VT", "street": "1 MARKET PL", "postcode": "05452"}}},
{"geometry": {"type": "Point", "coordinates": [-73.1130694817, 44.4873357774]}, "type": "Feature", "properties": {"collection_times": [{"days": "Mon-Fri", "time": "5:00pm"}, {"days": "Sat", "time": "4:00pm"}, {"days": "Sun", "time": "Closed"}], "id": "0545200033", "name": "USPS COLLECTION BOX - BLUE BOX", "address": {"city": "ESSEX JCT", "state": "VT", "street": "47 PARK ST", "postcode": "05452"}}},
{"geometry": {"type": "Point", "coordinates": [-73.118971264, 44.4939165781]}, "type": "Feature", "properties": {"collection_times": [{"days": "Mon-Fri", "time": "5:30pm"}, {"days": "Sat", "time": "4:00pm"}, {"days": "Sun", "time": "Closed"}], "id": "0545200036", "name": "USPS COLLECTION BOX - PO LOBBY", "address": {"city": "ESSEX JCT", "state": "VT", "street": "78 PEARL ST", "postcode": "05452"}}},
{"geometry": {"type": "Point", "coordinates": [-73.0324178534, 44.6950070798]}, "type": "Feature", "properties": {"collection_times": [{"days": "Mon-Fri", "time": "4:30pm"}, {"days": "Sat", "time": "11:15am"}, {"days": "Sun", "time": "Closed"}], "id": "0545400000", "name": "USPS COLLECTION BOX - BLUE BOX", "address": {"city": "FAIRFAX", "state": "VT", "street": "997 MAIN ST", "postcode": "05454"}}},
{"geometry": {"type": "Point", "coordinates": [-73.0324178534, 44.6950070798]}, "type": "Feature", "properties": {"collection_times": [{"days": "Mon-Fri", "time": "5:00pm"}, {"days": "Sat", "time": "11:30am"}, {"days": "Sun", "time": "Closed"}], "id": "0545400002", "name": "USPS COLLECTION BOX - PO LOBBY", "address": {"city": "FAIRFAX", "state": "VT", "street": "997 MAIN ST", "postcode": "05454"}}},
{"geometry": {"type": "Point", "coordinates": [-72.6626876286, 44.0752034871]}, "type": "Feature", "properties": {"collection_times": [{"days": "Mon-Sat", "time": "11:00am"}, {"days": "Sun", "time": "Closed"}], "id": "0545400004", "name": "USPS COLLECTION BOX - BLUE BOX", "address": {"city": "FAIRFAX", "state": "VT", "street": "962 ETHAN ALLEN HWY", "postcode": "05454"}}},
{"geometry": {"type": "Point", "coordinates": [-72.975537386, 44.8059567959]}, "type": "Feature", "properties": {"collection_times": [{"days": "Mon-Fri", "time": "4:15pm"}, {"days": "Sat", "time": "10:45am"}, {"days": "Sun", "time": "Closed"}], "id": "0545500000", "name": "USPS COLLECTION BOX - BLUE BOX", "address": {"city": "FAIRFIELD", "state": "VT", "street": "4696 VT ROUTE 36", "postcode": "05455"}}},
{"geometry": {"type": "Point", "coordinates": [-72.975537386, 44.8059567959]}, "type": "Feature", "properties": {"collection_times": [{"days": "Mon-Fri", "time": "4:15pm"}, {"days": "Sat", "time": "10:45am"}, {"days": "Sun", "time": "Closed"}], "id": "0545500001", "name": "USPS COLLECTION BOX - PO LOBBY", "address": {"city": "FAIRFIELD", "state": "VT", "street": "4696 VT ROUTE 36", "postcode": "05455"}}},
{"geometry": {"type": "Point", "coordinates": [-73.246071924, 44.2059914638]}, "type": "Feature", "properties": {"collection_times": [{"days": "Mon-Fri", "time": "3:45pm"}, {"days": "Sat", "time": "10:45am"}, {"days": "Sun", "time": "Closed"}], "id": "0545600000", "name": "USPS COLLECTION BOX - BLUE BOX", "address": {"city": "FERRISBURGH", "state": "VT", "street": "3153 ROUTE 7", "postcode": "05456"}}},
{"geometry": {"type": "Point", "coordinates": [-73.246071924, 44.2059914638]}, "type": "Feature", "properties": {"collection_times": [{"days": "Mon-Fri", "time": "3:45pm"}, {"days": "Sat", "time": "10:45am"}, {"days": "Sun", "time": "Closed"}], "id": "0545600001", "name": "USPS COLLECTION BOX - PO LOBBY", "address": {"city": "FERRISBURGH", "state": "VT", "street": "3153 ROUTE 7", "postcode": "05456"}}},
{"geometry": {"type": "Point", "coordinates": [-72.9161756712, 44.9816327592]}, "type": "Feature", "properties": {"collection_times": [{"days": "Mon-Fri", "time": "2:30pm"}, {"days": "Sat", "time": "11:00am"}, {"days": "Sun", "time": "Closed"}], "id": "0545700000", "name": "USPS COLLECTION BOX - BLUE BOX", "address": {"city": "FRANKLIN", "state": "VT", "street": "5142 HANNA RD", "postcode": "05457"}}},
{"geometry": {"type": "Point", "coordinates": [-72.9162487691, 44.9816174365]}, "type": "Feature", "properties": {"collection_times": [{"days": "Mon-Fri", "time": "2:30pm"}, {"days": "Sat", "time": "11:00am"}, {"days": "Sun", "time": "Closed"}], "id": "0545700001", "name": "USPS COLLECTION BOX - PO LOBBY", "address": {"city": "FRANKLIN", "state": "VT", "street": "5142 HANNA RD", "postcode": "05457"}}},
{"geometry": {"type": "Point", "coordinates": [-73.2940030554, 44.720970173]}, "type": "Feature", "properties": {"collection_times": [{"days": "Mon-Fri", "time": "4:30pm"}, {"days": "Sat", "time": "11:00am"}, {"days": "Sun", "time": "Closed"}], "id": "0545800000", "name": "USPS COLLECTION BOX - BLUE BOX", "address": {"city": "GRAND ISLE", "state": "VT", "street": "203 US ROUTE 2", "postcode": "05458"}}},
{"geometry": {"type": "Point", "coordinates": [-73.2940030554, 44.720970173]}, "type": "Feature", "properties": {"collection_times": [{"days": "Mon-Fri", "time": "4:30pm"}, {"days": "Sat", "time": "11:00am"}, {"days": "Sun", "time": "Closed"}], "id": "0545800001", "name": "USPS COLLECTION BOX - PO LOBBY", "address": {"city": "GRAND ISLE", "state": "VT", "street": "203 US ROUTE 2", "postcode": "05458"}}},
{"geometry": {"type": "Point", "coordinates": [-73.0457224448, 44.9390072546]}, "type": "Feature", "properties": {"collection_times": [{"days": "Mon-Fri", "time": "4:15pm"}, {"days": "Sat", "time": "11:15am"}, {"days": "Sun", "time": "Closed"}], "id": "0545900000", "name": "USPS COLLECTION BOX - BLUE BOX", "address": {"city": "HIGHGATE CENTER", "state": "VT", "street": "38 ST ARMAND RD", "postcode": "05459"}}},
{"geometry": {"type": "Point", "coordinates": [-73.0457224448, 44.9390072546]}, "type": "Feature", "properties": {"collection_times": [{"days": "Mon-Fri", "time": "4:15pm"}, {"days": "Sat", "time": "11:15am"}, {"days": "Sun", "time": "Closed"}], "id": "0545900001", "name": "USPS COLLECTION BOX - PO LOBBY", "address": {"city": "HIGHGATE CENTER", "state": "VT", "street": "38 ST ARMAND RD", "postcode": "05459"}}},
{"geometry": {"type": "Point", "coordinates": [-73.0870693268, 44.9907167771]}, "type": "Feature", "properties": {"collection_times": [{"days": "Mon-Fri", "time": "4:45pm"}, {"days": "Sat", "time": "10:45am"}, {"days": "Sun", "time": "Closed"}], "id": "0546000000", "name": "USPS COLLECTION BOX - BLUE BOX", "address": {"city": "HIGHGATE SPRINGS", "state": "VT", "street": "2934 VT RT 7", "postcode": "05460"}}},
{"geometry": {"type": "Point", "coordinates": [-73.0870693268, 44.9907167771]}, "type": "Feature", "properties": {"collection_times": [{"days": "Mon-Fri", "time": "4:45pm"}, {"days": "Sat", "time": "10:45am"}, {"days": "Sun", "time": "Closed"}], "id": "0546000001", "name": "USPS COLLECTION BOX - PO LOBBY", "address": {"city": "HIGHGATE SPRINGS", "state": "VT", "street": "2934 VT ROUTE 7", "postcode": "05460"}}},
{"geometry": {"type": "Point", "coordinates": [-73.107756813, 44.3347186924]}, "type": "Feature", "properties": {"collection_times": [{"days": "Mon-Fri", "time": "4:30pm"}, {"days": "Sat", "time": "12:00pm"}, {"days": "Sun", "time": "Closed"}], "id": "0546100003", "name": "USPS COLLECTION BOX - BLUE BOX", "address": {"city": "HINESBURG", "state": "VT", "street": "234 COMMERCE ST", "postcode": "05461"}}},
{"geometry": {"type": "Point", "coordinates": [-73.107756813, 44.3347186924]}, "type": "Feature", "properties": {"collection_times": [{"days": "Mon-Fri", "time": "4:45pm"}, {"days": "Sat", "time": "12:00pm"}, {"days": "Sun", "time": "Closed"}], "id": "0546100004", "name": "USPS COLLECTION BOX - PO LOBBY", "address": {"city": "HINESBURG", "state": "VT", "street": "234 COMMERCE ST", "postcode": "05461"}}},
{"geometry": {"type": "Point", "coordinates": [-72.9759458167, 44.3024705929]}, "type": "Feature", "properties": {"collection_times": [{"days": "Mon-Fri", "time": "4:15pm"}, {"days": "Sat", "time": "11:45am"}, {"days": "Sun", "time": "Closed"}], "id": "0546200000", "name": "USPS COLLECTION BOX - BLUE BOX", "address": {"city": "HUNTINGTON", "state": "VT", "street": "2209 MAIN RD", "postcode": "05462"}}},
{"geometry": {"type": "Point", "coordinates": [-72.9759458167, 44.3024705929]}, "type": "Feature", "properties": {"collection_times": [{"days": "Mon-Fri", "time": "4:30pm"}, {"days": "Sat", "time": "12:00pm"}, {"days": "Sun", "time": "Closed"}], "id": "0546200001", "name": "USPS COLLECTION BOX - PO LOBBY", "address": {"city": "HUNTINGTON", "state": "VT", "street": "2209 MAIN RD", "postcode": "05462"}}},
{"geometry": {"type": "Point", "coordinates": [-72.6626876286, 44.0752034871]}, "type": "Feature", "properties": {"collection_times": [{"days": "Mon-Fri", "time": "4:30pm"}, {"days": "Sat", "time": "11:45am"}, {"days": "Sun", "time": "Closed"}], "id": "0546300000", "name": "USPS COLLECTION BOX - BLUE BOX", "address": {"city": "ISLE LAMOTTE", "state": "VT", "street": "46 SCHOOL ST", "postcode": "05463"}}},
{"geometry": {"type": "Point", "coordinates": [-72.6626876286, 44.0752034871]}, "type": "Feature", "properties": {"collection_times": [{"days": "Mon-Fri", "time": "4:30pm"}, {"days": "Sat", "time": "11:45am"}, {"days": "Sun", "time": "Closed"}], "id": "0546300001", "name": "USPS COLLECTION BOX - PO LOBBY", "address": {"city": "ISLE LAMOTTE", "state": "VT", "street": "46 SCHOOL ST", "postcode": "05463"}}},
{"geometry": {"type": "Point", "coordinates": [-72.8312780096, 44.6438968475]}, "type": "Feature", "properties": {"collection_times": [{"days": "Mon-Fri", "time": "4:00pm"}, {"days": "Sat", "time": "11:30am"}, {"days": "Sun", "time": "Closed"}], "id": "0546400001", "name": "USPS COLLECTION BOX - BLUE BOX", "address": {"city": "JEFFERSONVILLE", "state": "VT", "street": "85 CHURCH ST", "postcode": "05464"}}},
{"geometry": {"type": "Point", "coordinates": [-72.7920838512, 44.5450595478]}, "type": "Feature", "properties": {"collection_times": [{"days": "Mon-Sat", "time": "12:30pm"}, {"days": "Sun", "time": "Closed"}], "id": "0546400002", "name": "USPS COLLECTION BOX - BLUE BOX", "address": {"city": "JEFFERSONVILLE", "state": "VT", "street": "4323 VT ROUTE 108 S", "postcode": "05464"}}},
{"geometry": {"type": "Point", "coordinates": [-72.8312780096, 44.6438968475]}, "type": "Feature", "properties": {"collection_times": [{"days": "Mon-Fri", "time": "4:30pm"}, {"days": "Sat", "time": "11:30am"}, {"days": "Sun", "time": "Closed"}], "id": "0546400003", "name": "USPS COLLECTION BOX - PO LOBBY", "address": {"city": "JEFFERSONVILLE", "state": "VT", "street": "85 CHURCH ST", "postcode": "05464"}}},
{"geometry": {"type": "Point", "coordinates": [-72.9916860623, 44.5065624094]}, "type": "Feature", "properties": {"collection_times": [{"days": "Mon-Fri", "time": "5:00pm"}, {"days": "Sat", "time": "12:00pm"}, {"days": "Sun", "time": "Closed"}], "id": "0546500002", "name": "USPS COLLECTION BOX - BLUE BOX", "address": {"city": "JERICHO", "state": "VT", "street": "87 VT ROUTE 15", "postcode": "05465"}}},
{"geometry": {"type": "Point", "coordinates": [-72.9916860623, 44.5065624094]}, "type": "Feature", "properties": {"collection_times": [{"days": "Mon-Fri", "time": "5:00pm"}, {"days": "Sat", "time": "12:00pm"}, {"days": "Sun", "time": "Closed"}], "id": "0546500003", "name": "USPS COLLECTION BOX - PO LOBBY", "address": {"city": "JERICHO", "state": "VT", "street": "87 VT ROUTE 15", "postcode": "05465"}}},
{"geometry": {"type": "Point", "coordinates": [-72.9731076917, 44.4698244358]}, "type": "Feature", "properties": {"collection_times": [{"days": "Mon-Sat", "time": "10:00am"}, {"days": "Sun", "time": "Closed"}], "id": "0546500004", "name": "USPS COLLECTION BOX - BLUE BOX", "address": {"city": "JERICHO", "state": "VT", "street": "25 JERICHO CENTER CIR", "postcode": "05465"}}},
{"geometry": {"type": "Point", "coordinates": [-72.9481862952, 44.5175698426]}, "type": "Feature", "properties": {"collection_times": [{"days": "Mon-Sat", "time": "9:30am"}, {"days": "Sun", "time": "Closed"}], "id": "0546500007", "name": "USPS COLLECTION BOX - BLUE BOX", "address": {"city": "JERICHO", "state": "VT", "street": "341 VERMONT ROUTE 15", "postcode": "05465"}}},
{"geometry": {"type": "Point", "coordinates": [-72.6626876286, 44.0752034871]}, "type": "Feature", "properties": {"collection_times": [{"days": "Mon-Fri", "time": "4:30pm"}, {"days": "Sat", "time": "10:45am"}, {"days": "Sun", "time": "Closed"}], "id": "0546600000", "name": "USPS COLLECTION BOX - BLUE BOX", "address": {"city": "JONESVILLE", "state": "VT", "street": "3459 E MAIN ST", "postcode": "05466"}}},
{"geometry": {"type": "Point", "coordinates": [-72.6626876286, 44.0752034871]}, "type": "Feature", "properties": {"collection_times": [{"days": "Mon-Fri", "time": "4:30pm"}, {"days": "Sat", "time": "10:45am"}, {"days": "Sun", "time": "Closed"}], "id": "0546600001", "name": "USPS COLLECTION BOX - PO LOBBY", "address": {"city": "JONESVILLE", "state": "VT", "street": "3459 E MAIN ST", "postcode": "05466"}}},
{"geometry": {"type": "Point", "coordinates": [-73.1186116444, 44.6239083899]}, "type": "Feature", "properties": {"collection_times": [{"days": "Mon-Fri", "time": "5:00pm"}, {"days": "Sat", "time": "3:00pm"}, {"days": "Sun", "time": "Closed"}], "id": "0546800000", "name": "USPS COLLECTION BOX - BLUE BOX", "address": {"city": "MILTON", "state": "VT", "street": "215 US ROUTE 7 S", "postcode": "05468"}}},
{"geometry": {"type": "Point", "coordinates": [-73.1186116444, 44.6239083899]}, "type": "Feature", "properties": {"collection_times": [{"days": "Mon-Fri", "time": "5:00pm"}, {"days": "Sat", "time": "3:00pm"}, {"days": "Sun", "time": "Closed"}], "id": "0546800003", "name": "USPS COLLECTION BOX - BLUE BOX", "address": {"city": "MILTON", "state": "VT", "street": "215 US ROUTE 7 S", "postcode": "05468"}}},
{"geometry": {"type": "Point", "coordinates": [-73.1186116444, 44.6239083899]}, "type": "Feature", "properties": {"collection_times": [{"days": "Mon-Fri", "time": "5:30pm"}, {"days": "Sat", "time": "3:00pm"}, {"days": "Sun", "time": "Closed"}], "id": "0546800004", "name": "USPS COLLECTION BOX - PO LOBBY", "address": {"city": "MILTON", "state": "VT", "street": "215 US ROUTE 7 S", "postcode": "05468"}}},
{"geometry": {"type": "Point", "coordinates": [-73.1236594213, 44.2525961437]}, "type": "Feature", "properties": {"collection_times": [{"days": "Mon-Fri", "time": "4:00pm"}, {"days": "Sat", "time": "11:30am"}, {"days": "Sun", "time": "Closed"}], "id": "0546900000", "name": "USPS COLLECTION BOX - BLUE BOX", "address": {"city": "MONKTON", "state": "VT", "street": "3747 STATES PRISON HOLLOW RD SIDE", "postcode": "05469"}}},
{"geometry": {"type": "Point", "coordinates": [-73.1236594213, 44.2525961437]}, "type": "Feature", "properties": {"collection_times": [{"days": "Mon-Fri", "time": "4:00pm"}, {"days": "Sat", "time": "11:30am"}, {"days": "Sun", "time": "Closed"}], "id": "0546900001", "name": "USPS COLLECTION BOX - PO LOBBY", "address": {"city": "MONKTON", "state": "VT", "street": "3747 STATES PRISON HOLLOW RD SIDE", "postcode": "05469"}}},
{"geometry": {"type": "Point", "coordinates": [-72.6391887815, 44.9021378487]}, "type": "Feature", "properties": {"collection_times": [{"days": "Mon-Fri", "time": "4:00pm"}, {"days": "Sat", "time": "11:30am"}, {"days": "Sun", "time": "Closed"}], "id": "0547000000", "name": "USPS COLLECTION BOX - BLUE BOX", "address": {"city": "MONTGOMERY", "state": "VT", "street": "1 BLACK FALLS RD", "postcode": "05470"}}},
{"geometry": {"type": "Point", "coordinates": [-72.6391887815, 44.9021378487]}, "type": "Feature", "properties": {"collection_times": [{"days": "Mon-Fri", "time": "12:00pm"}, {"days": "Sat", "time": "11:30am"}, {"days": "Sun", "time": "Closed"}], "id": "0547000001", "name": "USPS COLLECTION BOX - PO LOBBY", "address": {"city": "MONTGOMERY", "state": "VT", "street": "1 BLACK FALLS RD", "postcode": "05470"}}},
{"geometry": {"type": "Point", "coordinates": [-72.6079875658, 44.8773767808]}, "type": "Feature", "properties": {"collection_times": [{"days": "Mon-Fri", "time": "4:00pm"}, {"days": "Sat", "time": "11:45am"}, {"days": "Sun", "time": "Closed"}], "id": "0547100000", "name": "USPS COLLECTION BOX - BLUE BOX", "address": {"city": "MONTGOMRY CTR", "state": "VT", "street": "98 MAIN ST", "postcode": "05471"}}},
{"geometry": {"type": "Point", "coordinates": [-72.6079875658, 44.8773767808]}, "type": "Feature", "properties": {"collection_times": [{"days": "Mon-Fri", "time": "4:30pm"}, {"days": "Sat", "time": "11:45am"}, {"days": "Sun", "time": "Closed"}], "id": "0547100001", "name": "USPS COLLECTION BOX - PO LOBBY", "address": {"city": "MONTGOMRY CTR", "state": "VT", "street": "98 MAIN ST", "postcode": "05471"}}},
{"geometry": {"type": "Point", "coordinates": [-73.1803881275, 44.1220025602]}, "type": "Feature", "properties": {"collection_times": [{"days": "Mon-Fri", "time": "4:00pm"}, {"days": "Sat", "time": "11:00am"}, {"days": "Sun", "time": "Closed"}], "id": "0547200000", "name": "USPS COLLECTION BOX - BLUE BOX", "address": {"city": "NEW HAVEN", "state": "VT", "street": "73 MAIN ST", "postcode": "05472"}}},
{"geometry": {"type": "Point", "coordinates": [-73.1803881275, 44.1220025602]}, "type": "Feature", "properties": {"collection_times": [{"days": "Mon-Fri", "time": "4:15pm"}, {"days": "Sat", "time": "11:00am"}, {"days": "Sun", "time": "Closed"}], "id": "0547200001", "name": "USPS COLLECTION BOX - PO LOBBY", "address": {"city": "NEW HAVEN", "state": "VT", "street": "73 MAIN ST", "postcode": "05472"}}},
{"geometry": {"type": "Point", "coordinates": [-73.2282809365, 44.2585019962]}, "type": "Feature", "properties": {"collection_times": [{"days": "Mon-Fri", "time": "2:30pm"}, {"days": "Sat", "time": "11:00am"}, {"days": "Sun", "time": "Closed"}], "id": "0547300000", "name": "USPS COLLECTION BOX - BLUE BOX", "address": {"city": "N FERRISBURGH", "state": "VT", "street": "6935 ROUTE 7", "postcode": "05473"}}},
{"geometry": {"type": "Point", "coordinates": [-73.2282809365, 44.2585019962]}, "type": "Feature", "properties": {"collection_times": [{"days": "Mon-Fri", "time": "2:30pm"}, {"days": "Sat", "time": "11:00am"}, {"days": "Sun", "time": "Closed"}], "id": "0547300001", "name": "USPS COLLECTION BOX - PO LOBBY", "address": {"city": "N FERRISBURGH", "state": "VT", "street": "6935 ROUTE 7", "postcode": "05473"}}},
{"geometry": {"type": "Point", "coordinates": [-73.2903734293, 44.8162734047]}, "type": "Feature", "properties": {"collection_times": [{"days": "Mon-Fri", "time": "4:30pm"}, {"days": "Sat", "time": "11:30am"}, {"days": "Sun", "time": "Closed"}], "id": "0547400000", "name": "USPS COLLECTION BOX - BLUE BOX", "address": {"city": "NORTH HERO", "state": "VT", "street": "3537 US ROUTE 2", "postcode": "05474"}}},
{"geometry": {"type": "Point", "coordinates": [-73.2903734293, 44.8162734047]}, "type": "Feature", "properties": {"collection_times": [{"days": "Mon-Fri", "time": "3:00pm"}, {"days": "Sat", "time": "11:30am"}, {"days": "Sun", "time": "Closed"}], "id": "0547400001", "name": "USPS COLLECTION BOX - PO LOBBY", "address": {"city": "NORTH HERO", "state": "VT", "street": "3537 US ROUTE 2", "postcode": "05474"}}},
{"geometry": {"type": "Point", "coordinates": [-72.6729543306, 44.9951504871]}, "type": "Feature", "properties": {"collection_times": [{"days": "Mon-Fri", "time": "4:00pm"}, {"days": "Sat", "time": "11:45am"}, {"days": "Sun", "time": "Closed"}], "id": "0547600002", "name": "USPS COLLECTION BOX - BLUE BOX", "address": {"city": "RICHFORD", "state": "VT", "street": "80 MAIN ST", "postcode": "05476"}}},
{"geometry": {"type": "Point", "coordinates": [-72.6729543306, 44.9951504871]}, "type": "Feature", "properties": {"collection_times": [{"days": "Mon-Fri", "time": "4:30pm"}, {"days": "Sat", "time": "11:45am"}, {"days": "Sun", "time": "Closed"}], "id": "0547600004", "name": "USPS COLLECTION BOX - PO LOBBY", "address": {"city": "RICHFORD", "state": "VT", "street": "80 MAIN ST", "postcode": "05476"}}},
{"geometry": {"type": "Point", "coordinates": [-72.9955212152, 44.402822823]}, "type": "Feature", "properties": {"collection_times": [{"days": "Mon-Fri", "time": "4:45pm"}, {"days": "Sat", "time": "11:30am"}, {"days": "Sun", "time": "Closed"}], "id": "0547700002", "name": "USPS COLLECTION BOX - BLUE BOX", "address": {"city": "RICHMOND", "state": "VT", "street": "205 BRIDGE ST", "postcode": "05477"}}},
{"geometry": {"type": "Point", "coordinates": [-72.9955212152, 44.402822823]}, "type": "Feature", "properties": {"collection_times": [{"days": "Mon-Fri", "time": "5:00pm"}, {"days": "Sat", "time": "11:30am"}, {"days": "Sun", "time": "Closed"}], "id": "0547700003", "name": "USPS COLLECTION BOX - PO LOBBY", "address": {"city": "RICHMOND", "state": "VT", "street": "205 BRIDGE ST", "postcode": "05477"}}},
{"geometry": {"type": "Point", "coordinates": [-72.9955212152, 44.402822823]}, "type": "Feature", "properties": {"collection_times": [{"days": "Mon-Fri", "time": "4:45pm"}, {"days": "Sat", "time": "11:30am"}, {"days": "Sun", "time": "Closed"}], "id": "0547700005", "name": "USPS COLLECTION BOX - BLUE BOX", "address": {"city": "RICHMOND", "state": "VT", "street": "205 BRIDGE ST", "postcode": "05477"}}},
{"geometry": {"type": "Point", "coordinates": [-73.0818994967, 44.8385368804]}, "type": "Feature", "properties": {"collection_times": [{"days": "Mon-Fri", "time": "4:00pm"}, {"days": "Sat", "time": "2:30pm"}, {"days": "Sun", "time": "Closed"}], "id": "0547800000", "name": "USPS COLLECTION BOX - BLUE BOX", "address": {"city": "SAINT ALBANS", "state": "VT", "street": "277 SWANTON RD", "postcode": "05478"}}},
{"geometry": {"type": "Point", "coordinates": [-73.0834358481, 44.810777797]}, "type": "Feature", "properties": {"collection_times": [{"days": "Mon-Sat", "time": "9:30am"}, {"days": "Sun", "time": "Closed"}], "id": "0547800001", "name": "USPS COLLECTION BOX - BLUE BOX", "address": {"city": "SAINT ALBANS", "state": "VT", "street": "266 N MAIN ST", "postcode": "05478"}}},
{"geometry": {"type": "Point", "coordinates": [-73.0685547358, 44.8054476386]}, "type": "Feature", "properties": {"collection_times": [{"days": "Mon-Sat", "time": "2:00pm"}, {"days": "Sun", "time": "Closed"}], "id": "0547800003", "name": "USPS COLLECTION BOX - BLUE BOX", "address": {"city": "SAINT ALBANS", "state": "VT", "street": "27 FISHER POND RD", "postcode": "05478"}}},
{"geometry": {"type": "Point", "coordinates": [-73.0947860621, 44.8029674314]}, "type": "Feature", "properties": {"collection_times": [{"days": "Mon-Sat", "time": "2:00pm"}, {"days": "Sun", "time": "Closed"}], "id": "0547800006", "name": "USPS COLLECTION BOX - BLUE BOX", "address": {"city": "SAINT ALBANS", "state": "VT", "street": "229 S MAIN ST", "postcode": "05478"}}},
{"geometry": {"type": "Point", "coordinates": [-73.0837735029, 44.8093348417]}, "type": "Feature", "properties": {"collection_times": [{"days": "Mon-Fri", "time": "4:00pm"}, {"days": "Sat", "time": "3:00pm"}, {"days": "Sun", "time": "Closed"}], "id": "0547800008", "name": "USPS COLLECTION BOX - BLUE BOX", "address": {"city": "SAINT ALBANS", "state": "VT", "street": "50 S MAIN ST", "postcode": "05478"}}},
{"geometry": {"type": "Point", "coordinates": [-73.0825621529, 44.8157251861]}, "type": "Feature", "properties": {"collection_times": [{"days": "Mon-Fri", "time": "5:30pm"}, {"days": "Sat", "time": "4:30pm"}, {"days": "Sun", "time": "Closed"}], "id": "0547800010", "name": "USPS COLLECTION BOX - BLUE BOX", "address": {"city": "SAINT ALBANS", "state": "VT", "street": "153 N MAIN ST", "postcode": "05478"}}},
{"geometry": {"type": "Point", "coordinates": [-73.0947860622, 44.8029760758]}, "type": "Feature", "properties": {"collection_times": [{"days": "Mon-Fri", "time": "5:30pm"}, {"days": "Sat", "time": "4:30pm"}, {"days": "Sun", "time": "Closed"}], "id": "0547800011", "name": "USPS COLLECTION BOX - EXPRESS", "address": {"city": "SAINT ALBANS", "state": "VT", "street": "153 N MAIN ST", "postcode": "05478"}}},
{"geometry": {"type": "Point", "coordinates": [-73.0870692266, 44.8109744229]}, "type": "Feature", "properties": {"collection_times": [{"days": "Mon-Fri", "time": "3:00pm"}, {"days": "Sat", "time": "2:00pm"}, {"days": "Sun", "time": "Closed"}], "id": "0547800015", "name": "USPS COLLECTION BOX - BLUE BOX", "address": {"city": "SAINT ALBANS", "state": "VT", "street": "108 LAKE ST", "postcode": "05478"}}},
{"geometry": {"type": "Point", "coordinates": [-73.0840961323, 44.812266503]}, "type": "Feature", "properties": {"collection_times": [{"days": "Mon-Sat", "time": "9:30am"}, {"days": "Sun", "time": "Closed"}], "id": "0547800016", "name": "USPS COLLECTION BOX - BLUE BOX", "address": {"city": "SAINT ALBANS", "state": "VT", "street": "37 KINGMAN ST", "postcode": "05478"}}},
{"geometry": {"type": "Point", "coordinates": [-73.08335, 44.811317]}, "type": "Feature", "properties": {"collection_times": [{"days": "Mon-Fri", "time": "4:30pm"}, {"days": "Sat", "time": "3:00pm"}, {"days": "Sun", "time": "Closed"}], "id": "0547800018", "name": "USPS COLLECTION BOX - BLUE BOX", "address": {"city": "SAINT ALBANS", "state": "VT", "street": "24 N MAIN ST", "postcode": "05478"}}},
{"geometry": {"type": "Point", "coordinates": [-73.0834358481, 44.810777797]}, "type": "Feature", "properties": {"collection_times": [{"days": "Mon-Fri", "time": "4:30pm"}, {"days": "Sat", "time": "3:00pm"}, {"days": "Sun", "time": "Closed"}], "id": "0547800019", "name": "USPS COLLECTION BOX - BLUE BOX", "address": {"city": "SAINT ALBANS", "state": "VT", "street": "64 N MAIN ST", "postcode": "05478"}}},
{"geometry": {"type": "Point", "coordinates": [-73.0825621529, 44.8157251861]}, "type": "Feature", "properties": {"collection_times": [{"days": "Mon-Fri", "time": "5:30pm"}, {"days": "Sat", "time": "4:30pm"}, {"days": "Sun", "time": "Closed"}], "id": "0547800022", "name": "USPS COLLECTION BOX - PO LOBBY", "address": {"city": "SAINT ALBANS", "state": "VT", "street": "153 N MAIN ST", "postcode": "05478"}}},
{"geometry": {"type": "Point", "coordinates": [-73.0825621529, 44.8157251861]}, "type": "Feature", "properties": {"collection_times": [{"days": "Mon-Fri", "time": "5:30pm"}, {"days": "Sat", "time": "4:30pm"}, {"days": "Sun", "time": "Closed"}], "id": "0547800024", "name": "USPS COLLECTION BOX - BLUE BOX", "address": {"city": "SAINT ALBANS", "state": "VT", "street": "153 N MAIN ST", "postcode": "05478"}}},
{"geometry": {"type": "Point", "coordinates": [-73.08296, 44.81343]}, "type": "Feature", "properties": {"collection_times": [{"days": "Mon-Fri", "time": "4:30pm"}, {"days": "Sat", "time": "3:00pm"}, {"days": "Sun", "time": "Closed"}], "id": "0547800025", "name": "USPS COLLECTION BOX - BLUE BOX", "address": {"city": "SAINT ALBANS", "state": "VT", "street": "104 N MAIN ST", "postcode": "05478"}}},
{"geometry": {"type": "Point", "coordinates": [-73.0736702836, 44.8069438053]}, "type": "Feature", "properties": {"collection_times": [{"days": "Mon-Sat", "time": "2:00pm"}, {"days": "Sun", "time": "Closed"}], "id": "0547800027", "name": "USPS COLLECTION BOX - BLUE BOX", "address": {"city": "SAINT ALBANS", "state": "VT", "street": "131 FAIRFIELD ST", "postcode": "05478"}}},
{"geometry": {"type": "Point", "coordinates": [-73.0807049074, 44.8367096951]}, "type": "Feature", "properties": {"collection_times": [{"days": "Mon-Fri", "time": "4:00pm"}, {"days": "Sat", "time": "2:30pm"}, {"days": "Sun", "time": "Closed"}], "id": "0547800028", "name": "USPS COLLECTION BOX - BLUE BOX", "address": {"city": "SAINT ALBANS", "state": "VT", "street": "170 SWANTON RD", "postcode": "05478"}}},
{"geometry": {"type": "Point", "coordinates": [-73.1346236193, 44.8057972586]}, "type": "Feature", "properties": {"collection_times": [{"days": "Mon-Fri", "time": "4:30pm"}, {"days": "Sat", "time": "11:30am"}, {"days": "Sun", "time": "Closed"}], "id": "0548100000", "name": "USPS COLLECTION BOX - BLUE BOX", "address": {"city": "ST ALBANS BAY", "state": "VT", "street": "571 LAKE RD", "postcode": "05481"}}},
{"geometry": {"type": "Point", "coordinates": [-73.1346236193, 44.8057972586]}, "type": "Feature", "properties": {"collection_times": [{"days": "Mon-Fri", "time": "4:30pm"}, {"days": "Sat", "time": "12:00pm"}, {"days": "Sun", "time": "Closed"}], "id": "0548100001", "name": "USPS COLLECTION BOX - PO LOBBY", "address": {"city": "ST ALBANS BAY", "state": "VT", "street": "571 LAKE RD", "postcode": "05481"}}},
{"geometry": {"type": "Point", "coordinates": [-73.215548853, 44.3705531551]}, "type": "Feature", "properties": {"collection_times": [{"days": "Mon-Fri", "time": "5:00pm"}, {"days": "Sat", "time": "2:00pm"}, {"days": "Sun", "time": "Closed"}], "id": "0548200003", "name": "USPS COLLECTION BOX - BLUE BOX", "address": {"city": "SHELBURNE", "state": "VT", "street": "495 FALLS RD", "postcode": "05482"}}},
{"geometry": {"type": "Point", "coordinates": [-73.215548853, 44.3705531551]}, "type": "Feature", "properties": {"collection_times": [{"days": "Mon-Fri", "time": "5:30pm"}, {"days": "Sat", "time": "2:30pm"}, {"days": "Sun", "time": "Closed"}], "id": "0548200004", "name": "USPS COLLECTION BOX - PO LOBBY", "address": {"city": "SHELBURNE", "state": "VT", "street": "495 FALLS RD", "postcode": "05482"}}},
{"geometry": {"type": "Point", "coordinates": [-73.215548853, 44.3705531551]}, "type": "Feature", "properties": {"collection_times": [{"days": "Mon-Fri", "time": "5:00pm"}, {"days": "Sat", "time": "2:00pm"}, {"days": "Sun", "time": "Closed"}], "id": "0548200006", "name": "USPS COLLECTION BOX - BLUE BOX", "address": {"city": "SHELBURNE", "state": "VT", "street": "495 FALLS RD", "postcode": "05482"}}},
{"geometry": {"type": "Point", "coordinates": [-73.215548853, 44.3705531551]}, "type": "Feature", "properties": {"collection_times": [{"days": "Mon-Fri", "time": "5:00pm"}, {"days": "Sat", "time": "2:00pm"}, {"days": "Sun", "time": "Closed"}], "id": "0548200008", "name": "USPS COLLECTION BOX - BLUE BOX", "address": {"city": "SHELBURNE", "state": "VT", "street": "495 FALLS RD", "postcode": "05482"}}},
{"geometry": {"type": "Point", "coordinates": [-72.9465857517, 44.8819247527]}, "type": "Feature", "properties": {"collection_times": [{"days": "Mon-Fri", "time": "4:00pm"}, {"days": "Sat", "time": "11:45am"}, {"days": "Sun", "time": "Closed"}], "id": "0548300000", "name": "USPS COLLECTION BOX - BLUE BOX", "address": {"city": "SHELDON", "state": "VT", "street": "1547 MAIN ST", "postcode": "05483"}}},
{"geometry": {"type": "Point", "coordinates": [-72.9465857517, 44.8819247527]}, "type": "Feature", "properties": {"collection_times": [{"days": "Mon-Fri", "time": "4:15pm"}, {"days": "Sat", "time": "11:45am"}, {"days": "Sun", "time": "Closed"}], "id": "0548300001", "name": "USPS COLLECTION BOX - PO LOBBY", "address": {"city": "SHELDON", "state": "VT", "street": "1547 MAIN ST", "postcode": "05483"}}},
{"geometry": {"type": "Point", "coordinates": [-72.9768357697, 44.9050961822]}, "type": "Feature", "properties": {"collection_times": [{"days": "Mon-Fri", "time": "4:30pm"}, {"days": "Sat", "time": "11:15am"}, {"days": "Sun", "time": "Closed"}], "id": "0548500000", "name": "USPS COLLECTION BOX - BLUE BOX", "address": {"city": "SHELDON SPRINGS", "state": "VT", "street": "614 MILL ST", "postcode": "05485"}}},
{"geometry": {"type": "Point", "coordinates": [-72.9768357697, 44.9050961822]}, "type": "Feature", "properties": {"collection_times": [{"days": "Mon-Fri", "time": "11:30am"}, {"days": "Sat", "time": "11:15am"}, {"days": "Sun", "time": "Closed"}], "id": "0548500001", "name": "USPS COLLECTION BOX - PO LOBBY", "address": {"city": "SHELDON SPRINGS", "state": "VT", "street": "614 MILL ST", "postcode": "05485"}}},
{"geometry": {"type": "Point", "coordinates": [-73.3009086732, 44.6459387946]}, "type": "Feature", "properties": {"collection_times": [{"days": "Mon-Fri", "time": "4:30pm"}, {"days": "Sat", "time": "11:30am"}, {"days": "Sun", "time": "Closed"}], "id": "0548600000", "name": "USPS COLLECTION BOX - BLUE BOX", "address": {"city": "SOUTH HERO", "state": "VT", "street": "291 ROUTE 2", "postcode": "05486"}}},
{"geometry": {"type": "Point", "coordinates": [-73.3009086732, 44.6459387946]}, "type": "Feature", "properties": {"collection_times": [{"days": "Mon-Fri", "time": "4:45pm"}, {"days": "Sat", "time": "11:30am"}, {"days": "Sun", "time": "Closed"}], "id": "0548600001", "name": "USPS COLLECTION BOX - PO LOBBY", "address": {"city": "SOUTH HERO", "state": "VT", "street": "291 ROUTE 2", "postcode": "05486"}}},
{"geometry": {"type": "Point", "coordinates": [-73.0097673395, 44.2468632131]}, "type": "Feature", "properties": {"collection_times": [{"days": "Mon-Fri", "time": "2:30pm"}, {"days": "Sat", "time": "10:45am"}, {"days": "Sun", "time": "Closed"}], "id": "0548700000", "name": "USPS COLLECTION BOX - BLUE BOX", "address": {"city": "STARKSBORO", "state": "VT", "street": "3054 VT ROUTE 116", "postcode": "05487"}}},
{"geometry": {"type": "Point", "coordinates": [-73.0097673395, 44.2468632131]}, "type": "Feature", "properties": {"collection_times": [{"days": "Mon-Fri", "time": "2:30pm"}, {"days": "Sat", "time": "11:00am"}, {"days": "Sun", "time": "Closed"}], "id": "0548700001", "name": "USPS COLLECTION BOX - PO LOBBY", "address": {"city": "STARKSBORO", "state": "VT", "street": "3054 VT ROUTE 116", "postcode": "05487"}}},
{"geometry": {"type": "Point", "coordinates": [-73.1166099291, 44.9204940863]}, "type": "Feature", "properties": {"collection_times": [{"days": "Mon-Sat", "time": "12:00pm"}, {"days": "Sun", "time": "Closed"}], "id": "0548800000", "name": "USPS COLLECTION BOX - BLUE BOX", "address": {"city": "SWANTON", "state": "VT", "street": "81 1ST ST", "postcode": "05488"}}},
{"geometry": {"type": "Point", "coordinates": [-73.1269477925, 44.9219380272]}, "type": "Feature", "properties": {"collection_times": [{"days": "Mon-Sat", "time": "9:00am"}, {"days": "Sun", "time": "Closed"}], "id": "0548800002", "name": "USPS COLLECTION BOX - BLUE BOX", "address": {"city": "SWANTON", "state": "VT", "street": "66 MERCHANTS ROW", "postcode": "05488"}}},
{"geometry": {"type": "Point", "coordinates": [-73.1269477925, 44.9219380272]}, "type": "Feature", "properties": {"collection_times": [{"days": "Mon-Sat", "time": "12:00pm"}, {"days": "Sun", "time": "Closed"}], "id": "0548800004", "name": "USPS COLLECTION BOX - BLUE BOX", "address": {"city": "SWANTON", "state": "VT", "street": "19 CANADA ST", "postcode": "05488"}}},
{"geometry": {"type": "Point", "coordinates": [-72.6626876286, 44.0752034871]}, "type": "Feature", "properties": {"collection_times": [{"days": "Mon-Sat", "time": "12:00pm"}, {"days": "Sun", "time": "Closed"}], "id": "0548800005", "name": "USPS COLLECTION BOX - BLUE BOX", "address": {"city": "SWANTON", "state": "VT", "street": "39 1ST ST", "postcode": "05488"}}},
{"geometry": {"type": "Point", "coordinates": [-73.1247843243, 44.9187632778]}, "type": "Feature", "properties": {"collection_times": [{"days": "Mon-Fri", "time": "4:30pm"}, {"days": "Sat", "time": "3:00pm"}, {"days": "Sun", "time": "Closed"}], "id": "0548800006", "name": "USPS COLLECTION BOX - BLUE BOX", "address": {"city": "SWANTON", "state": "VT", "street": "21 GRAND AVE", "postcode": "05488"}}},
{"geometry": {"type": "Point", "coordinates": [-73.1247843243, 44.9187632778]}, "type": "Feature", "properties": {"collection_times": [{"days": "Mon-Fri", "time": "4:30pm"}, {"days": "Sat", "time": "3:00pm"}, {"days": "Sun", "time": "Closed"}], "id": "0548800009", "name": "USPS COLLECTION BOX - BLUE BOX", "address": {"city": "SWANTON", "state": "VT", "street": "21 GRAND AVE", "postcode": "05488"}}},
{"geometry": {"type": "Point", "coordinates": [-73.1247843243, 44.9187632778]}, "type": "Feature", "properties": {"collection_times": [{"days": "Mon-Fri", "time": "4:45pm"}, {"days": "Sat", "time": "3:45pm"}, {"days": "Sun", "time": "Closed"}], "id": "0548800010", "name": "USPS COLLECTION BOX - PO LOBBY", "address": {"city": "SWANTON", "state": "VT", "street": "21 GRAND AVE", "postcode": "05488"}}},
{"geometry": {"type": "Point", "coordinates": [-72.6626876286, 44.0752034871]}, "type": "Feature", "properties": {"collection_times": [{"days": "Mon-Sat", "time": "12:00pm"}, {"days": "Sun", "time": "Closed"}], "id": "0548800011", "name": "USPS COLLECTION BOX - BLUE BOX", "address": {"city": "SWANTON", "state": "VT", "street": "96 GRAND AVE", "postcode": "05488"}}},
{"geometry": {"type": "Point", "coordinates": [-72.9423566734, 44.5227937894]}, "type": "Feature", "properties": {"collection_times": [{"days": "Mon-Fri", "time": "5:00pm"}, {"days": "Sat", "time": "12:00pm"}, {"days": "Sun", "time": "Closed"}], "id": "0548900001", "name": "USPS COLLECTION BOX - BLUE BOX", "address": {"city": "UNDERHILL", "state": "VT", "street": "2 HARVEST RUN", "postcode": "05489"}}},
{"geometry": {"type": "Point", "coordinates": [-72.9423566734, 44.5227937894]}, "type": "Feature", "properties": {"collection_times": [{"days": "Mon-Fri", "time": "5:30pm"}, {"days": "Sat", "time": "12:00pm"}, {"days": "Sun", "time": "Closed"}], "id": "0548900004", "name": "USPS COLLECTION BOX - PO LOBBY", "address": {"city": "UNDERHILL", "state": "VT", "street": "2 HARVEST RUN", "postcode": "05489"}}},
{"geometry": {"type": "Point", "coordinates": [-72.6626876286, 44.0752034871]}, "type": "Feature", "properties": {"collection_times": [{"days": "Mon-Fri", "time": "5:00pm"}, {"days": "Sat", "time": "12:00pm"}, {"days": "Sun", "time": "Closed"}], "id": "0549000000", "name": "USPS COLLECTION BOX - BLUE BOX", "address": {"city": "UNDERHILL CTR", "state": "VT", "street": "286 RIVER RD", "postcode": "05490"}}},
{"geometry": {"type": "Point", "coordinates": [-72.6626876286, 44.0752034871]}, "type": "Feature", "properties": {"collection_times": [{"days": "Mon-Fri", "time": "5:30pm"}, {"days": "Sat", "time": "12:00pm"}, {"days": "Sun", "time": "Closed"}], "id": "0549000001", "name": "USPS COLLECTION BOX - PO LOBBY", "address": {"city": "UNDERHILL CTR", "state": "VT", "street": "286 RIVER RD", "postcode": "05490"}}},
{"geometry": {"type": "Point", "coordinates": [-73.2513759583, 44.1681563563]}, "type": "Feature", "properties": {"collection_times": [{"days": "Mon-Fri", "time": "4:30pm"}, {"days": "Sat", "time": "3:00pm"}, {"days": "Sun", "time": "Closed"}], "id": "0549100000", "name": "USPS COLLECTION BOX - BLUE BOX", "address": {"city": "VERGENNES", "state": "VT", "street": "1 PARK ST", "postcode": "05491"}}},
{"geometry": {"type": "Point", "coordinates": [-73.2518663128, 44.1679131588]}, "type": "Feature", "properties": {"collection_times": [{"days": "Mon-Fri", "time": "4:30pm"}, {"days": "Sat", "time": "3:00pm"}, {"days": "Sun", "time": "Closed"}], "id": "0549100001", "name": "USPS COLLECTION BOX - BLUE BOX", "address": {"city": "VERGENNES", "state": "VT", "street": "9 N GREEN ST", "postcode": "05491"}}},
{"geometry": {"type": "Point", "coordinates": [-73.2518663128, 44.1679131588]}, "type": "Feature", "properties": {"collection_times": [{"days": "Mon-Fri", "time": "5:00pm"}, {"days": "Sat", "time": "3:15pm"}, {"days": "Sun", "time": "Closed"}], "id": "0549100003", "name": "USPS COLLECTION BOX - PO LOBBY", "address": {"city": "VERGENNES", "state": "VT", "street": "9 N GREEN ST", "postcode": "05491"}}},
{"geometry": {"type": "Point", "coordinates": [-72.7631057224, 44.7049180377]}, "type": "Feature", "properties": {"collection_times": [{"days": "Mon-Fri", "time": "2:30pm"}, {"days": "Sat", "time": "11:15am"}, {"days": "Sun", "time": "Closed"}], "id": "0549200000", "name": "USPS COLLECTION BOX - BLUE BOX", "address": {"city": "WATERVILLE", "state": "VT", "street": "1211 VT ROUTE 109", "postcode": "05492"}}},
{"geometry": {"type": "Point", "coordinates": [-72.7631057224, 44.7049180377]}, "type": "Feature", "properties": {"collection_times": [{"days": "Mon-Fri", "time": "2:30pm"}, {"days": "Sat", "time": "11:15am"}, {"days": "Sun", "time": "Closed"}], "id": "0549200001", "name": "USPS COLLECTION BOX - PO LOBBY", "address": {"city": "WATERVILLE", "state": "VT", "street": "1211 VT ROUTE 109", "postcode": "05492"}}},
{"geometry": {"type": "Point", "coordinates": [-73.0142971399, 44.6142720062]}, "type": "Feature", "properties": {"collection_times": [{"days": "Mon-Fri", "time": "2:30pm"}, {"days": "Sat", "time": "11:45am"}, {"days": "Sun", "time": "Closed"}], "id": "0549400000", "name": "USPS COLLECTION BOX - BLUE BOX", "address": {"city": "WESTFORD", "state": "VT", "street": "5 POST RD", "postcode": "05494"}}},
{"geometry": {"type": "Point", "coordinates": [-73.0142971399, 44.6142720062]}, "type": "Feature", "properties": {"collection_times": [{"days": "Mon-Fri", "time": "2:30pm"}, {"days": "Sat", "time": "11:45am"}, {"days": "Sun", "time": "Closed"}], "id": "0549400001", "name": "USPS COLLECTION BOX - PO LOBBY", "address": {"city": "WESTFORD", "state": "VT", "street": "5 POST RD", "postcode": "05494"}}},
{"geometry": {"type": "Point", "coordinates": [-73.1165414662, 44.4532866695]}, "type": "Feature", "properties": {"collection_times": [{"days": "Mon-Fri", "time": "5:15pm"}, {"days": "Sat", "time": "2:00pm"}, {"days": "Sun", "time": "Closed"}], "id": "0549500002", "name": "USPS COLLECTION BOX - BLUE BOX", "address": {"city": "WILLISTON", "state": "VT", "street": "82 BLAIR PARK RD", "postcode": "05495"}}},
{"geometry": {"type": "Point", "coordinates": [-73.1144996791, 44.4448628187]}, "type": "Feature", "properties": {"collection_times": [{"days": "Mon-Sat", "time": "10:00am"}, {"days": "Sun", "time": "Closed"}], "id": "0549500003", "name": "USPS COLLECTION BOX - BLUE BOX", "address": {"city": "WILLISTON", "state": "VT", "street": "78 MARSHALL AVE", "postcode": "05495"}}},
{"geometry": {"type": "Point", "coordinates": [-73.1082714001, 44.4367654646]}, "type": "Feature", "properties": {"collection_times": [{"days": "Mon-Sat", "time": "10:00am"}, {"days": "Sun", "time": "Closed"}], "id": "0549500004", "name": "USPS COLLECTION BOX - BLUE BOX", "address": {"city": "WILLISTON", "state": "VT", "street": "372 HURRICANE LN", "postcode": "05495"}}},
{"geometry": {"type": "Point", "coordinates": [-73.1087765236, 44.4473150926]}, "type": "Feature", "properties": {"collection_times": [{"days": "Mon-Sat", "time": "10:00am"}, {"days": "Sun", "time": "Closed"}], "id": "0549500005", "name": "USPS COLLECTION BOX - BLUE BOX", "address": {"city": "WILLISTON", "state": "VT", "street": "71 BOXWOOD ST", "postcode": "05495"}}},
{"geometry": {"type": "Point", "coordinates": [-73.1077776288, 44.4368876834]}, "type": "Feature", "properties": {"collection_times": [{"days": "Mon-Sat", "time": "10:00am"}, {"days": "Sun", "time": "Closed"}], "id": "0549500006", "name": "USPS COLLECTION BOX - BLUE BOX", "address": {"city": "WILLISTON", "state": "VT", "street": "195 CENTRAL SCHOOL DR", "postcode": "05495"}}},
{"geometry": {"type": "Point", "coordinates": [-73.1165414662, 44.4532866695]}, "type": "Feature", "properties": {"collection_times": [{"days": "Mon-Fri", "time": "5:15pm"}, {"days": "Sat", "time": "2:00pm"}, {"days": "Sun", "time": "Closed"}], "id": "0549500008", "name": "USPS COLLECTION BOX - PO LOBBY", "address": {"city": "WILLISTON", "state": "VT", "street": "82 BLAIR PARK RD", "postcode": "05495"}}}
]}
