{"type": "FeatureCollection", "features": [
{"geometry": {"type": "Point", "coordinates": [-72.5763936484, 44.2609191985]}, "type": "Feature", "properties": {"collection_times": [{"days": "Mon-Fri", "time": "3:30pm"}, {"days": "Sat", "time": "2:00pm"}, {"days": "Sun", "time": "Closed"}], "id": "0560200005", "name": "USPS COLLECTION BOX - BLUE BOX", "address": {"city": "MONTPELIER", "state": "VT", "street": "1 LANGDON ST", "postcode": "05602"}}},
{"geometry": {"type": "Point", "coordinates": [-72.5639884314, 44.2488867388]}, "type": "Feature", "properties": {"collection_times": [{"days": "Mon-Fri", "time": "3:30pm"}, {"days": "Sat", "time": "2:00pm"}, {"days": "Sun", "time": "Closed"}], "id": "0560200008", "name": "USPS COLLECTION BOX - BLUE BOX", "address": {"city": "MONTPELIER", "state": "VT", "street": "81 RIVER ST", "postcode": "05602"}}},
{"geometry": {"type": "Point", "coordinates": [-72.5778006603, 44.2606512657]}, "type": "Feature", "properties": {"collection_times": [{"days": "Mon-Fri", "time": "5:15pm"}, {"days": "Sat", "time": "5:30pm"}, {"days": "Sun", "time": "Closed"}], "id": "0560200012", "name": "USPS COLLECTION BOX - BLUE BOX", "address": {"city": "MONTPELIER", "state": "VT", "street": "87 STATE ST", "postcode": "05602"}}},
{"geometry": {"type": "Point", "coordinates": [-72.5788557641, 44.2621011011]}, "type": "Feature", "properties": {"collection_times": [{"days": "Mon-Sat", "time": "5:30pm"}, {"days": "Sun", "time": "Closed"}], "id": "0560200013", "name": "USPS COLLECTION BOX - EXPRESS", "address": {"city": "MONTPELIER", "state": "VT", "street": "87 STATE ST", "postcode": "05602"}}},
{"geometry": {"type": "Point", "coordinates": [-72.5759753546, 44.2594836852]}, "type": "Feature", "properties": {"collection_times": [{"days": "Mon-Fri", "time": "3:30pm"}, {"days": "Sat", "time": "2:00pm"}, {"days": "Sun", "time": "Closed"}], "id": "0560200016", "name": "USPS COLLECTION BOX - BLUE BOX", "address": {"city": "MONTPELIER", "state": "VT", "street": "54 MAIN ST", "postcode": "05602"}}},
{"geometry": {"type": "Point", "coordinates": [-72.5777857522, 44.2575842021]}, "type": "Feature", "properties": {"collection_times": [{"days": "Mon-Fri", "time": "3:30pm"}, {"days": "Sat", "time": "2:00pm"}, {"days": "Sun", "time": "Closed"}], "id": "0560200017", "name": "USPS COLLECTION BOX - BLUE BOX", "address": {"city": "MONTPELIER", "state": "VT", "street": "65 MAIN ST", "postcode": "05602"}}},
{"geometry": {"type": "Point", "coordinates": [-72.5770518473, 44.2583184706]}, "type": "Feature", "properties": {"collection_times": [{"days": "Mon-Fri", "time": "3:30pm"}, {"days": "Sat", "time": "2:00pm"}, {"days": "Sun", "time": "Closed"}], "id": "0560200018", "name": "USPS COLLECTION BOX - BLUE BOX", "address": {"city": "MONTPELIER", "state": "VT", "street": "7 MAIN ST", "postcode": "05602"}}},
{"geometry": {"type": "Point", "coordinates": [-72.5762438863, 44.2603200372]}, "type": "Feature", "properties": {"collection_times": [{"days": "Mon-Fri", "time": "3:30pm"}, {"days": "Sat", "time": "2:00pm"}, {"days": "Sun", "time": "Closed"}], "id": "0560200019", "name": "USPS COLLECTION BOX - BLUE BOX", "address": {"city": "MONTPELIER", "state": "VT", "street": "20 STATE ST", "postcode": "05602"}}},
{"geometry": {"type": "Point", "coordinates": [-72.5815279428, 44.2633916137]}, "type": "Feature", "properties": {"collection_times": [{"days": "Mon-Sat", "time": "12:00pm"}, {"days": "Sun", "time": "Closed"}], "id": "0560200020", "name": "USPS COLLECTION BOX - BLUE BOX", "address": {"city": "MONTPELIER", "state": "VT", "street": "162 ELM ST", "postcode": "05602"}}},
{"geometry": {"type": "Point", "coordinates": [-72.5741417682, 44.2614142742]}, "type": "Feature", "properties": {"collection_times": [{"days": "Mon-Fri", "time": "3:30pm"}, {"days": "Sat", "time": "2:00pm"}, {"days": "Sun", "time": "Closed"}], "id": "0560200022", "name": "USPS COLLECTION BOX - BLUE BOX", "address": {"city": "MONTPELIER", "state": "VT", "street": "132 MAIN ST", "postcode": "05602"}}},
{"geometry": {"type": "Point", "coordinates": [-72.5777857522, 44.2575842021]}, "type": "Feature", "properties": {"collection_times": [{"days": "Mon-Fri", "time": "3:30pm"}, {"days": "Sat", "time": "2:00pm"}, {"days": "Sun", "time": "Closed"}], "id": "0560200023", "name": "USPS COLLECTION BOX - BLUE BOX", "address": {"city": "MONTPELIER", "state": "VT", "street": "90 MAIN ST", "postcode": "05602"}}},
{"geometry": {"type": "Point", "coordinates": [-72.5713144963, 44.262717895]}, "type": "Feature", "properties": {"collection_times": [{"days": "Mon-Fri", "time": "3:30pm"}, {"days": "Sat", "time": "2:00pm"}, {"days": "Sun", "time": "Closed"}], "id": "0560200024", "name": "USPS COLLECTION BOX - BLUE BOX", "address": {"city": "MONTPELIER", "state": "VT", "street": "155 MAIN ST", "postcode": "05602"}}},
{"geometry": {"type": "Point", "coordinates": [-72.567144566, 44.2544277186]}, "type": "Feature", "properties": {"collection_times": [{"days": "Mon-Fri", "time": "3:30pm"}, {"days": "Sat", "time": "2:00pm"}, {"days": "Sun", "time": "Closed"}], "id": "0560200025", "name": "USPS COLLECTION BOX - BLUE BOX", "address": {"city": "MONTPELIER", "state": "VT", "street": "32 COLLEGE ST", "postcode": "05602"}}},
{"geometry": {"type": "Point", "coordinates": [-72.5719260861, 44.2587821905]}, "type": "Feature", "properties": {"collection_times": [{"days": "Mon-Fri", "time": "3:30pm"}, {"days": "Sat", "time": "2:00pm"}, {"days": "Sun", "time": "Closed"}], "id": "0560200026", "name": "USPS COLLECTION BOX - BLUE BOX", "address": {"city": "MONTPELIER", "state": "VT", "street": "58 E STATE ST", "postcode": "05602"}}},
{"geometry": {"type": "Point", "coordinates": [-72.5743582497, 44.2568717118]}, "type": "Feature", "properties": {"collection_times": [{"days": "Mon-Fri", "time": "3:30pm"}, {"days": "Sat", "time": "2:00pm"}, {"days": "Sun", "time": "Closed"}], "id": "0560200027", "name": "USPS COLLECTION BOX - BLUE BOX", "address": {"city": "MONTPELIER", "state": "VT", "street": "72 BARRE ST", "postcode": "05602"}}},
{"geometry": {"type": "Point", "coordinates": [-72.5837391143, 44.2642510098]}, "type": "Feature", "properties": {"collection_times": [{"days": "Mon-Sat", "time": "12:00pm"}, {"days": "Sun", "time": "Closed"}], "id": "0560200029", "name": "USPS COLLECTION BOX - BLUE BOX", "address": {"city": "MONTPELIER", "state": "VT", "street": "18 BAILEY AVE", "postcode": "05602"}}},
{"geometry": {"type": "Point", "coordinates": [-72.5715794791, 44.2516442162]}, "type": "Feature", "properties": {"collection_times": [{"days": "Mon-Sat", "time": "11:00am"}, {"days": "Sun", "time": "Closed"}], "id": "0560200033", "name": "USPS COLLECTION BOX - BLUE BOX", "address": {"city": "MONTPELIER", "state": "VT", "street": "141 BERLIN ST", "postcode": "05602"}}},
{"geometry": {"type": "Point", "coordinates": [-72.5778242178, 44.2575140415]}, "type": "Feature", "properties": {"collection_times": [{"days": "Mon-Fri", "time": "10:00am"}, {"days": "Sat", "time": "9:30am"}, {"days": "Sun", "time": "Closed"}], "id": "0560200035", "name": "USPS COLLECTION BOX - BLUE BOX", "address": {"city": "MONTPELIER", "state": "VT", "street": "1 BERLIN ST", "postcode": "05602"}}},
{"geometry": {"type": "Point", "coordinates": [-72.5733219777, 44.2619335932]}, "type": "Feature", "properties": {"collection_times": [{"days": "Mon-Fri", "time": "3:30pm"}, {"days": "Sat", "time": "2:00pm"}, {"days": "Sun", "time": "Closed"}], "id": "0560200038", "name": "USPS COLLECTION BOX - BLUE BOX", "address": {"city": "MONTPELIER", "state": "VT", "street": "141 MAIN ST", "postcode": "05602"}}},
{"geometry": {"type": "Point", "coordinates": [-72.576339174, 44.2101442411]}, "type": "Feature", "properties": {"collection_times": [{"days": "Mon-Fri", "time": "11:00am"}, {"days": "Sat", "time": "10:30am"}, {"days": "Sun", "time": "Closed"}], "id": "0560200039", "name": "USPS COLLECTION BOX - BLUE BOX", "address": {"city": "MONTPELIER", "state": "VT", "street": "1 PAINE TPKE N", "postcode": "05602"}}},
{"geometry": {"type": "Point", "coordinates": [-72.5778006603, 44.2606512657]}, "type": "Feature", "properties": {"collection_times": [{"days": "Mon-Sat", "time": "5:30pm"}, {"days": "Sun", "time": "Closed"}], "id": "0560200041", "name": "USPS COLLECTION BOX - PO LOBBY", "address": {"city": "MONTPELIER", "state": "VT", "street": "87 STATE ST", "postcode": "05602"}}},
{"geometry": {"type": "Point", "coordinates": [-72.5778242178, 44.2575140415]}, "type": "Feature", "properties": {"collection_times": [{"days": "Mon-Fri", "time": "10:00am"}, {"days": "Sat", "time": "9:30am"}, {"days": "Sun", "time": "Closed"}], "id": "0560200043", "name": "USPS COLLECTION BOX - BLUE BOX", "address": {"city": "MONTPELIER", "state": "VT", "street": "1 BERLIN ST", "postcode": "05602"}}},
{"geometry": {"type": "Point", "coordinates": [-72.573860224, 44.2554734543]}, "type": "Feature", "properties": {"collection_times": [{"days": "Mon-Fri", "time": "3:30pm"}, {"days": "Sat", "time": "2:00pm"}, {"days": "Sun", "time": "Closed"}], "id": "0560200044", "name": "USPS COLLECTION BOX - BLUE BOX", "address": {"city": "MONTPELIER", "state": "VT", "street": "535 STONE CUTTERS WAY", "postcode": "05602"}}},
{"geometry": {"type": "Point", "coordinates": [-72.5200391775, 44.2405923609]}, "type": "Feature", "properties": {"collection_times": [{"days": "Mon-Sat", "time": "12:00pm"}, {"days": "Sun", "time": "Closed"}], "id": "0560200045", "name": "USPS COLLECTION BOX - BLUE BOX", "address": {"city": "MONTPELIER", "state": "VT", "street": "903 US ROUTE 2", "postcode": "05602"}}},
{"geometry": {"type": "Point", "coordinates": [-72.5849374518, 44.2615313872]}, "type": "Feature", "properties": {"collection_times": [{"days": "Mon-Fri", "time": "3:00pm"}, {"days": "Sat-Sun", "time": "Closed"}], "id": "0560200046", "name": "USPS COLLECTION BOX - BLUE BOX", "address": {"city": "MONTPELIER", "state": "VT", "street": "1 BAILEY AVE", "postcode": "05602"}}},
{"geometry": {"type": "Point", "coordinates": [-72.5828187722, 44.261795187]}, "type": "Feature", "properties": {"collection_times": [{"days": "Mon-Fri", "time": "3:00pm"}, {"days": "Sat-Sun", "time": "Closed"}], "id": "0560200047", "name": "USPS COLLECTION BOX - BLUE BOX", "address": {"city": "MONTPELIER", "state": "VT", "street": "134 STATE ST", "postcode": "05602"}}},
{"geometry": {"type": "Point", "coordinates": [-72.5835589836, 44.2485788827]}, "type": "Feature", "properties": {"collection_times": [{"days": "Mon-Sat", "time": "12:00pm"}, {"days": "Sun", "time": "Closed"}], "id": "0560200048", "name": "USPS COLLECTION BOX - BLUE BOX", "address": {"city": "MONTPELIER", "state": "VT", "street": "2 INDEPENDENCE GRN", "postcode": "05602"}}},
{"geometry": {"type": "Point", "coordinates": [-72.501386243, 44.1964508997]}, "type": "Feature", "properties": {"collection_times": [{"days": "Mon-Fri", "time": "5:00pm"}, {"days": "Sat", "time": "2:30pm"}, {"days": "Sun", "time": "Closed"}], "id": "0564100001", "name": "USPS COLLECTION BOX - BLUE BOX", "address": {"city": "BARRE", "state": "VT", "street": "3 S MAIN ST", "postcode": "05641"}}},
{"geometry": {"type": "Point", "coordinates": [-72.501386243, 44.1964508997]}, "type": "Feature", "properties": {"collection_times": [{"days": "Mon-Fri", "time": "5:00pm"}, {"days": "Sat", "time": "2:30pm"}, {"days": "Sun", "time": "Closed"}], "id": "0564100002", "name": "USPS COLLECTION BOX - BLUE BOX", "address": {"city": "BARRE", "state": "VT", "street": "3 S MAIN ST", "postcode": "05641"}}},
{"geometry": {"type": "Point", "coordinates": [-72.501386243, 44.1964508997]}, "type": "Feature", "properties": {"collection_times": [{"days": "Mon-Fri", "time": "5:00pm"}, {"days": "Sat", "time": "2:30pm"}, {"days": "Sun", "time": "Closed"}], "id": "0564100004", "name": "USPS COLLECTION BOX - BLUE BOX", "address": {"city": "BARRE", "state": "VT", "street": "3 S MAIN ST", "postcode": "05641"}}},
{"geometry": {"type": "Point", "coordinates": [-72.501386243, 44.1964508997]}, "type": "Feature", "properties": {"collection_times": [{"days": "Mon-Fri", "time": "5:00pm"}, {"days": "Sat", "time": "2:30pm"}, {"days": "Sun", "time": "Closed"}], "id": "0564100005", "name": "USPS COLLECTION BOX - BLUE BOX", "address": {"city": "BARRE", "state": "VT", "street": "3 S MAIN ST", "postcode": "05641"}}},
{"geometry": {"type": "Point", "coordinates": [-72.5054674514, 44.2005155467]}, "type": "Feature", "properties": {"collection_times": [{"days": "Mon-Sat", "time": "2:00pm"}, {"days": "Sun", "time": "Closed"}], "id": "0564100006", "name": "USPS COLLECTION BOX - BLUE BOX", "address": {"city": "BARRE", "state": "VT", "street": "315 N MAIN ST", "postcode": "05641"}}},
{"geometry": {"type": "Point", "coordinates": [-72.5021227892, 44.1979935513]}, "type": "Feature", "properties": {"collection_times": [{"days": "Mon-Sat", "time": "2:00pm"}, {"days": "Sun", "time": "Closed"}], "id": "0564100009", "name": "USPS COLLECTION BOX - BLUE BOX", "address": {"city": "BARRE", "state": "VT", "street": "105 N MAIN ST", "postcode": "05641"}}},
{"geometry": {"type": "Point", "coordinates": [-72.5043578359, 44.1996306934]}, "type": "Feature", "properties": {"collection_times": [{"days": "Mon-Fri", "time": "3:00pm"}, {"days": "Sat", "time": "2:00pm"}, {"days": "Sun", "time": "Closed"}], "id": "0564100012", "name": "USPS COLLECTION BOX - BLUE BOX", "address": {"city": "BARRE", "state": "VT", "street": "255 N MAIN ST", "postcode": "05641"}}},
{"geometry": {"type": "Point", "coordinates": [-72.5021227892, 44.1979935513]}, "type": "Feature", "properties": {"collection_times": [{"days": "Mon-Sat", "time": "2:00pm"}, {"days": "Sun", "time": "Closed"}], "id": "0564100013", "name": "USPS COLLECTION BOX - BLUE BOX", "address": {"city": "BARRE", "state": "VT", "street": "105 N MAIN ST", "postcode": "05641"}}},
{"geometry": {"type": "Point", "coordinates": [-72.5043578359, 44.1996306934]}, "type": "Feature", "properties": {"collection_times": [{"days": "Mon-Fri", "time": "3:00pm"}, {"days": "Sat", "time": "2:00pm"}, {"days": "Sun", "time": "Closed"}], "id": "0564100015", "name": "USPS COLLECTION BOX - BLUE BOX", "address": {"city": "BARRE", "state": "VT", "street": "255 N MAIN ST", "postcode": "05641"}}},
{"geometry": {"type": "Point", "coordinates": [-72.5023397079, 44.20151633]}, "type": "Feature", "properties": {"collection_times": [{"days": "Mon-Sat", "time": "1:00pm"}, {"days": "Sun", "time": "Closed"}], "id": "0564100021", "name": "USPS COLLECTION BOX - BLUE BOX", "address": {"city": "BARRE", "state": "VT", "street": "35 MERCHANT ST", "postcode": "05641"}}},
{"geometry": {"type": "Point", "coordinates": [-72.4921685595, 44.1963742491]}, "type": "Feature", "properties": {"collection_times": [{"days": "Mon-Sat", "time": "12:00pm"}, {"days": "Sun", "time": "Closed"}], "id": "0564100024", "name": "USPS COLLECTION BOX - BLUE BOX", "address": {"city": "BARRE", "state": "VT", "street": "456 S BARRE RD", "postcode": "05641"}}},
{"geometry": {"type": "Point", "coordinates": [-72.4983200134, 44.189611031]}, "type": "Feature", "properties": {"collection_times": [{"days": "Mon-Fri", "time": "3:30pm"}, {"days": "Sat", "time": "10:30am"}, {"days": "Sun", "time": "Closed"}], "id": "0564100026", "name": "USPS COLLECTION BOX - BLUE BOX", "address": {"city": "BARRE", "state": "VT", "street": "131 S MAIN ST", "postcode": "05641"}}},
{"geometry": {"type": "Point", "coordinates": [-72.5002935591, 44.1978376356]}, "type": "Feature", "properties": {"collection_times": [{"days": "Mon-Sat", "time": "2:00pm"}, {"days": "Sun", "time": "Closed"}], "id": "0564100029", "name": "USPS COLLECTION BOX - BLUE BOX", "address": {"city": "BARRE", "state": "VT", "street": "17 JEFFERSON ST", "postcode": "05641"}}},
{"geometry": {"type": "Point", "coordinates": [-72.5118412343, 44.20612987]}, "type": "Feature", "properties": {"collection_times": [{"days": "Mon-Sat", "time": "9:00am"}, {"days": "Sun", "time": "Closed"}], "id": "0564100031", "name": "USPS COLLECTION BOX - BLUE BOX", "address": {"city": "BARRE", "state": "VT", "street": "475 N MAIN ST", "postcode": "05641"}}},
{"geometry": {"type": "Point", "coordinates": [-72.501386243, 44.1964508997]}, "type": "Feature", "properties": {"collection_times": [{"days": "Mon-Fri", "time": "5:00pm"}, {"days": "Sat", "time": "2:30pm"}, {"days": "Sun", "time": "Closed"}], "id": "0564100041", "name": "USPS COLLECTION BOX - PO LOBBY", "address": {"city": "BARRE", "state": "VT", "street": "3 S MAIN ST", "postcode": "05641"}}},
{"geometry": {"type": "Point", "coordinates": [-72.5043578359, 44.1996306934]}, "type": "Feature", "properties": {"collection_times": [{"days": "Mon-Fri", "time": "3:00pm"}, {"days": "Sat", "time": "2:00pm"}, {"days": "Sun", "time": "Closed"}], "id": "0564100043", "name": "USPS COLLECTION BOX - BLUE BOX", "address": {"city": "BARRE", "state": "VT", "street": "255 N MAIN ST", "postcode": "05641"}}},
{"geometry": {"type": "Point", "coordinates": [-72.4976031402, 44.1950195194]}, "type": "Feature", "properties": {"collection_times": [{"days": "Mon-Fri", "time": "2:30pm"}, {"days": "Sat", "time": "2:00pm"}, {"days": "Sun", "time": "Closed"}], "id": "0564100047", "name": "USPS COLLECTION BOX - BLUE BOX", "address": {"city": "BARRE", "state": "VT", "street": "83 WASHINGTON ST", "postcode": "05641"}}},
{"geometry": {"type": "Point", "coordinates": [-72.3107677843, 44.4027293692]}, "type": "Feature", "properties": {"collection_times": [{"days": "Mon-Fri", "time": "2:00pm"}, {"days": "Sat", "time": "11:00am"}, {"days": "Sun", "time": "Closed"}], "id": "0564700000", "name": "USPS COLLECTION BOX - BLUE BOX", "address": {"city": "CABOT", "state": "VT", "street": "3123 MAIN ST", "postcode": "05647"}}},
{"geometry": {"type": "Point", "coordinates": [-72.3107677843, 44.4027293692]}, "type": "Feature", "properties": {"collection_times": [{"days": "Mon-Fri", "time": "2:00pm"}, {"days": "Sat", "time": "11:00am"}, {"days": "Sun", "time": "Closed"}], "id": "0564700001", "name": "USPS COLLECTION BOX - PO LOBBY", "address": {"city": "CABOT", "state": "VT", "street": "3123 MAIN ST", "postcode": "05647"}}},
{"geometry": {"type": "Point", "coordinates": [-72.4950100942, 44.3751593276]}, "type": "Feature", "properties": {"collection_times": [{"days": "Mon-Fri", "time": "4:00pm"}, {"days": "Sat", "time": "10:00am"}, {"days": "Sun", "time": "Closed"}], "id": "0564800000", "name": "USPS COLLECTION BOX - BLUE BOX", "address": {"city": "CALAIS", "state": "VT", "street": "31 W COUNTY RD UNIT 2", "postcode": "05648"}}},
{"geometry": {"type": "Point", "coordinates": [-72.4950788907, 44.3751476619]}, "type": "Feature", "properties": {"collection_times": [{"days": "Mon-Fri", "time": "1:00pm"}, {"days": "Sat", "time": "10:30am"}, {"days": "Sun", "time": "Closed"}], "id": "0564800001", "name": "USPS COLLECTION BOX - PO LOBBY", "address": {"city": "CALAIS", "state": "VT", "street": "31 W COUNTY RD UNIT 2", "postcode": "05648"}}},
{"geometry": {"type": "Point", "coordinates": [-72.4448166889, 44.1564306131]}, "type": "Feature", "properties": {"collection_times": [{"days": "Mon-Fri", "time": "4:30pm"}, {"days": "Sat", "time": "11:15am"}, {"days": "Sun", "time": "Closed"}], "id": "0564900000", "name": "USPS COLLECTION BOX - BLUE BOX", "address": {"city": "EAST BARRE", "state": "VT", "street": "491 WEBSTERVILLE RD", "postcode": "05649"}}},
{"geometry": {"type": "Point", "coordinates": [-72.4448166889, 44.1564306131]}, "type": "Feature", "properties": {"collection_times": [{"days": "Mon-Fri", "time": "4:30pm"}, {"days": "Sat", "time": "11:15am"}, {"days": "Sun", "time": "Closed"}], "id": "0564900001", "name": "USPS COLLECTION BOX - PO LOBBY", "address": {"city": "EAST BARRE", "state": "VT", "street": "491 WEBSTERVILLE RD", "postcode": "05649"}}},
{"geometry": {"type": "Point", "coordinates": [-72.4298905196, 44.3678346655]}, "type": "Feature", "properties": {"collection_times": [{"days": "Mon-Fri", "time": "2:30pm"}, {"days": "Sat", "time": "10:30am"}, {"days": "Sun", "time": "Closed"}], "id": "0565000000", "name": "USPS COLLECTION BOX - BLUE BOX", "address": {"city": "EAST CALAIS", "state": "VT", "street": "34 BATTEN RD", "postcode": "05650"}}},
{"geometry": {"type": "Point", "coordinates": [-72.4298905196, 44.3678346655]}, "type": "Feature", "properties": {"collection_times": [{"days": "Mon-Fri", "time": "2:30pm"}, {"days": "Sat", "time": "10:30am"}, {"days": "Sun", "time": "Closed"}], "id": "0565000001", "name": "USPS COLLECTION BOX - PO LOBBY", "address": {"city": "EAST CALAIS", "state": "VT", "street": "34 BATTEN RD", "postcode": "05650"}}},
{"geometry": {"type": "Point", "coordinates": [-72.4394462626, 44.394701979]}, "type": "Feature", "properties": {"collection_times": [{"days": "Mon-Fri", "time": "4:30pm"}, {"days": "Sat", "time": "10:30am"}, {"days": "Sun", "time": "Closed"}], "id": "0565000002", "name": "USPS COLLECTION BOX - PO LOBBY", "address": {"city": "EAST CALAIS", "state": "VT", "street": "1313 HAGGETT RD", "postcode": "05650"}}},
{"geometry": {"type": "Point", "coordinates": [-72.517909108, 44.2413319067]}, "type": "Feature", "properties": {"collection_times": [{"days": "Mon-Fri", "time": "4:45pm"}, {"days": "Sat", "time": "10:30am"}, {"days": "Sun", "time": "Closed"}], "id": "0565100000", "name": "USPS COLLECTION BOX - BLUE BOX", "address": {"city": "EAST MONTPELIER", "state": "VT", "street": "2893 US ROUTE 2", "postcode": "05651"}}},
{"geometry": {"type": "Point", "coordinates": [-72.517909108, 44.2413319067]}, "type": "Feature", "properties": {"collection_times": [{"days": "Mon-Fri", "time": "4:45pm"}, {"days": "Sat", "time": "10:30am"}, {"days": "Sun", "time": "Closed"}], "id": "0565100001", "name": "USPS COLLECTION BOX - PO LOBBY", "address": {"city": "EAST MONTPELIER", "state": "VT", "street": "2893 US ROUTE 2", "postcode": "05651"}}},
{"geometry": {"type": "Point", "coordinates": [-72.5587166633, 44.7201559724]}, "type": "Feature", "properties": {"collection_times": [{"days": "Mon-Fri", "time": "3:00pm"}, {"days": "Sat", "time": "11:00am"}, {"days": "Sun", "time": "Closed"}], "id": "0565200000", "name": "USPS COLLECTION BOX - BLUE BOX", "address": {"city": "EDEN", "state": "VT", "street": "29 NANCY LN", "postcode": "05652"}}},
{"geometry": {"type": "Point", "coordinates": [-72.5587166633, 44.7201559724]}, "type": "Feature", "properties": {"collection_times": [{"days": "Mon-Fri", "time": "3:00pm"}, {"days": "Sat", "time": "11:00am"}, {"days": "Sun", "time": "Closed"}], "id": "0565200001", "name": "USPS COLLECTION BOX - PO LOBBY", "address": {"city": "EDEN", "state": "VT", "street": "29 NANCY LN", "postcode": "05652"}}},
{"geometry": {"type": "Point", "coordinates": [-72.4816579912, 44.1469802268]}, "type": "Feature", "properties": {"collection_times": [{"days": "Mon-Fri", "time": "2:00pm"}, {"days": "Sat", "time": "10:00am"}, {"days": "Sun", "time": "Closed"}], "id": "0565400000", "name": "USPS COLLECTION BOX - BLUE BOX", "address": {"city": "GRANITEVILLE", "state": "VT", "street": "623 GRANITEVILLE RD", "postcode": "05654"}}},
{"geometry": {"type": "Point", "coordinates": [-72.4816579912, 44.1469802268]}, "type": "Feature", "properties": {"collection_times": [{"days": "Mon-Fri", "time": "2:00pm"}, {"days": "Sat", "time": "10:00am"}, {"days": "Sun", "time": "Closed"}], "id": "0565400001", "name": "USPS COLLECTION BOX - PO LOBBY", "address": {"city": "GRANITEVILLE", "state": "VT", "street": "623 GRANITEVILLE RD", "postcode": "05654"}}},
{"geometry": {"type": "Point", "coordinates": [-72.586507319, 44.6189260337]}, "type": "Feature", "properties": {"collection_times": [{"days": "Mon-Fri", "time": "4:45pm"}, {"days": "Sat", "time": "11:30am"}, {"days": "Sun", "time": "Closed"}], "id": "0565500001", "name": "USPS COLLECTION BOX - BLUE BOX", "address": {"city": "HYDE PARK", "state": "VT", "street": "214 CHURCH ST", "postcode": "05655"}}},
{"geometry": {"type": "Point", "coordinates": [-72.616554396, 44.5941013729]}, "type": "Feature", "properties": {"collection_times": [{"days": "Mon-Fri", "time": "4:45pm"}, {"days": "Sat", "time": "11:30am"}, {"days": "Sun", "time": "Closed"}], "id": "0565500002", "name": "USPS COLLECTION BOX - PO LOBBY", "address": {"city": "HYDE PARK", "state": "VT", "street": "214 CHURCH ST", "postcode": "05655"}}},
{"geometry": {"type": "Point", "coordinates": [-72.6813769984, 44.6359875839]}, "type": "Feature", "properties": {"collection_times": [{"days": "Mon-Fri", "time": "4:30pm"}, {"days": "Sat", "time": "11:30am"}, {"days": "Sun", "time": "Closed"}], "id": "0565600000", "name": "USPS COLLECTION BOX - PO LOBBY", "address": {"city": "JOHNSON", "state": "VT", "street": "115 LOWER MAIN ST W", "postcode": "05656"}}},
{"geometry": {"type": "Point", "coordinates": [-72.6813769984, 44.6359875839]}, "type": "Feature", "properties": {"collection_times": [{"days": "Mon-Fri", "time": "4:30pm"}, {"days": "Sat", "time": "11:30am"}, {"days": "Sun", "time": "Closed"}], "id": "0565600003", "name": "USPS COLLECTION BOX - BLUE BOX", "address": {"city": "JOHNSON", "state": "VT", "street": "115 LOWER MAIN ST W", "postcode": "05656"}}},
{"geometry": {"type": "Point", "coordinates": [-72.3476370663, 44.3518195472]}, "type": "Feature", "properties": {"collection_times": [{"days": "Mon-Fri", "time": "2:00pm"}, {"days": "Sat", "time": "10:00am"}, {"days": "Sun", "time": "Closed"}], "id": "0565800000", "name": "USPS COLLECTION BOX - BLUE BOX", "address": {"city": "MARSHFIELD", "state": "VT", "street": "1401 US ROUTE 2", "postcode": "05658"}}},
{"geometry": {"type": "Point", "coordinates": [-72.3476370663, 44.3518195472]}, "type": "Feature", "properties": {"collection_times": [{"days": "Mon-Fri", "time": "2:00pm"}, {"days": "Sat", "time": "10:00am"}, {"days": "Sun", "time": "Closed"}], "id": "0565800001", "name": "USPS COLLECTION BOX - PO LOBBY", "address": {"city": "MARSHFIELD", "state": "VT", "street": "1401 US ROUTE 2", "postcode": "05658"}}},
{"geometry": {"type": "Point", "coordinates": [-72.7614704181, 44.2500448556]}, "type": "Feature", "properties": {"collection_times": [{"days": "Mon-Fri", "time": "4:45pm"}, {"days": "Sat", "time": "11:00am"}, {"days": "Sun", "time": "Closed"}], "id": "0566000000", "name": "USPS COLLECTION BOX - BLUE BOX", "address": {"city": "MORETOWN", "state": "VT", "street": "1115 ROUTE 100 B", "postcode": "05660"}}},
{"geometry": {"type": "Point", "coordinates": [-72.7614704181, 44.2500448556]}, "type": "Feature", "properties": {"collection_times": [{"days": "Mon-Fri", "time": "4:45pm"}, {"days": "Sat", "time": "11:00am"}, {"days": "Sun", "time": "Closed"}], "id": "0566000001", "name": "USPS COLLECTION BOX - PO LOBBY", "address": {"city": "MORETOWN", "state": "VT", "street": "1115 ROUTE 100 B", "postcode": "05660"}}},
{"geometry": {"type": "Point", "coordinates": [-72.5983690413, 44.5616482648]}, "type": "Feature", "properties": {"collection_times": [{"days": "Mon-Fri", "time": "4:45pm"}, {"days": "Sat", "time": "2:45pm"}, {"days": "Sun", "time": "Closed"}], "id": "0566100001", "name": "USPS COLLECTION BOX - BLUE BOX", "address": {"city": "MORRISVILLE", "state": "VT", "street": "16 PORTLAND ST", "postcode": "05661"}}},
{"geometry": {"type": "Point", "coordinates": [-72.5907552439, 44.5734894958]}, "type": "Feature", "properties": {"collection_times": [{"days": "Mon-Sat", "time": "11:30am"}, {"days": "Sun", "time": "Closed"}], "id": "0566100005", "name": "USPS COLLECTION BOX - BLUE BOX", "address": {"city": "MORRISVILLE", "state": "VT", "street": "370 MUNSON AVE", "postcode": "05661"}}},
{"geometry": {"type": "Point", "coordinates": [-72.5994800218, 44.5615891616]}, "type": "Feature", "properties": {"collection_times": [{"days": "Mon-Sat", "time": "12:00pm"}, {"days": "Sun", "time": "Closed"}], "id": "0566100008", "name": "USPS COLLECTION BOX - BLUE BOX", "address": {"city": "MORRISVILLE", "state": "VT", "street": "122 LOWER MAIN ST", "postcode": "05661"}}},
{"geometry": {"type": "Point", "coordinates": [-72.5944277489, 44.5707575211]}, "type": "Feature", "properties": {"collection_times": [{"days": "Mon-Sat", "time": "9:30am"}, {"days": "Sun", "time": "Closed"}], "id": "0566100011", "name": "USPS COLLECTION BOX - BLUE BOX", "address": {"city": "MORRISVILLE", "state": "VT", "street": "65 NORTHGATE PLZ", "postcode": "05661"}}},
{"geometry": {"type": "Point", "coordinates": [-72.5983690413, 44.5616482648]}, "type": "Feature", "properties": {"collection_times": [{"days": "Mon-Fri", "time": "4:45pm"}, {"days": "Sat", "time": "2:45pm"}, {"days": "Sun", "time": "Closed"}], "id": "0566100013", "name": "USPS COLLECTION BOX - PO LOBBY", "address": {"city": "MORRISVILLE", "state": "VT", "street": "16 PORTLAND ST", "postcode": "05661"}}},
{"geometry": {"type": "Point", "coordinates": [-72.6619670077, 44.14772482]}, "type": "Feature", "properties": {"collection_times": [{"days": "Mon-Sat", "time": "9:00am"}, {"days": "Sun", "time": "Closed"}], "id": "0566300000", "name": "USPS COLLECTION BOX - BLUE BOX", "address": {"city": "NORTHFIELD", "state": "VT", "street": "412 WATER ST", "postcode": "05663"}}},
{"geometry": {"type": "Point", "coordinates": [-72.6646174829, 44.1449337286]}, "type": "Feature", "properties": {"collection_times": [{"days": "Mon-Fri", "time": "4:45pm"}, {"days": "Sat", "time": "1:30pm"}, {"days": "Sun", "time": "Closed"}], "id": "0566300001", "name": "USPS COLLECTION BOX - BLUE BOX", "address": {"city": "NORTHFIELD", "state": "VT", "street": "119 S MAIN ST", "postcode": "05663"}}},
{"geometry": {"type": "Point", "coordinates": [-72.6751289591, 44.1474069046]}, "type": "Feature", "properties": {"collection_times": [{"days": "Mon-Sat", "time": "10:45am"}, {"days": "Sun", "time": "Closed"}], "id": "0566300006", "name": "USPS COLLECTION BOX - BLUE BOX", "address": {"city": "NORTHFIELD", "state": "VT", "street": "182 VINE ST", "postcode": "05663"}}},
{"geometry": {"type": "Point", "coordinates": [-72.6646174829, 44.1449337286]}, "type": "Feature", "properties": {"collection_times": [{"days": "Mon-Sat", "time": "10:00am"}, {"days": "Sun", "time": "Closed"}], "id": "0566300007", "name": "USPS COLLECTION BOX - BLUE BOX", "address": {"city": "NORTHFIELD", "state": "VT", "street": "119 CROSS ST", "postcode": "05663"}}},
{"geometry": {"type": "Point", "coordinates": [-72.6592982523, 44.1384184818]}, "type": "Feature", "properties": {"collection_times": [{"days": "Mon-Sat", "time": "11:00am"}, {"days": "Sun", "time": "Closed"}], "id": "0566300008", "name": "USPS COLLECTION BOX - BLUE BOX", "address": {"city": "NORTHFIELD", "state": "VT", "street": "158 HARMON DR", "postcode": "05663"}}},
{"geometry": {"type": "Point", "coordinates": [-72.6555056859, 44.1590007848]}, "type": "Feature", "properties": {"collection_times": [{"days": "Mon-Sat", "time": "11:15am"}, {"days": "Sun", "time": "Closed"}], "id": "0566300010", "name": "USPS COLLECTION BOX - BLUE BOX", "address": {"city": "NORTHFIELD", "state": "VT", "street": "150 DOGWOOD GLEN DR", "postcode": "05663"}}},
{"geometry": {"type": "Point", "coordinates": [-72.6646174829, 44.1449337286]}, "type": "Feature", "properties": {"collection_times": [{"days": "Mon-Sat", "time": "11:30am"}, {"days": "Sun", "time": "Closed"}], "id": "0566300011", "name": "USPS COLLECTION BOX - BLUE BOX", "address": {"city": "NORTHFIELD", "state": "VT", "street": "63 PLAZA DR", "postcode": "05663"}}},
{"geometry": {"type": "Point", "coordinates": [-72.6569465299, 44.1487859341]}, "type": "Feature", "properties": {"collection_times": [{"days": "Mon-Fri", "time": "2:00pm"}, {"days": "Sat", "time": "1:00pm"}, {"days": "Sun", "time": "Closed"}], "id": "0566300012", "name": "USPS COLLECTION BOX - BLUE BOX", "address": {"city": "NORTHFIELD", "state": "VT", "street": "40 DEPOT SQ", "postcode": "05663"}}},
{"geometry": {"type": "Point", "coordinates": [-72.65625095, 44.1483553371]}, "type": "Feature", "properties": {"collection_times": [{"days": "Mon-Fri", "time": "2:00pm"}, {"days": "Sat", "time": "1:00pm"}, {"days": "Sun", "time": "Closed"}], "id": "0566300013", "name": "USPS COLLECTION BOX - BLUE BOX", "address": {"city": "NORTHFIELD", "state": "VT", "street": "33 S MAIN ST", "postcode": "05663"}}},
{"geometry": {"type": "Point", "coordinates": [-72.6646174829, 44.1449337286]}, "type": "Feature", "properties": {"collection_times": [{"days": "Mon-Fri", "time": "4:45pm"}, {"days": "Sat", "time": "1:30pm"}, {"days": "Sun", "time": "Closed"}], "id": "0566300015", "name": "USPS COLLECTION BOX - PO LOBBY", "address": {"city": "NORTHFIELD", "state": "VT", "street": "119 S MAIN ST", "postcode": "05663"}}},
{"geometry": {"type": "Point", "coordinates": [-72.6508647927, 44.1722535929]}, "type": "Feature", "properties": {"collection_times": [{"days": "Mon-Fri", "time": "4:30pm"}, {"days": "Sat", "time": "10:45am"}, {"days": "Sun", "time": "Closed"}], "id": "0566400000", "name": "USPS COLLECTION BOX - BLUE BOX", "address": {"city": "NORTHFIELD FL", "state": "VT", "street": "51 GOULD RD", "postcode": "05664"}}},
{"geometry": {"type": "Point", "coordinates": [-72.6508647927, 44.1722535929]}, "type": "Feature", "properties": {"collection_times": [{"days": "Mon-Fri", "time": "4:30pm"}, {"days": "Sat", "time": "11:00am"}, {"days": "Sun", "time": "Closed"}], "id": "0566400001", "name": "USPS COLLECTION BOX - PO LOBBY", "address": {"city": "NORTHFIELD FL", "state": "VT", "street": "51 GOULD RD", "postcode": "05664"}}},
{"geometry": {"type": "Point", "coordinates": [-72.5994480039, 44.6705228967]}, "type": "Feature", "properties": {"collection_times": [{"days": "Mon-Fri", "time": "4:30pm"}, {"days": "Sat", "time": "10:45am"}, {"days": "Sun", "time": "Closed"}], "id": "0566500000", "name": "USPS COLLECTION BOX - BLUE BOX", "address": {"city": "NORTH HYDE PARK", "state": "VT", "street": "5541 VT RTE 100", "postcode": "05665"}}},
{"geometry": {"type": "Point", "coordinates": [-72.5994480039, 44.6705228967]}, "type": "Feature", "properties": {"collection_times": [{"days": "Mon-Fri", "time": "4:45pm"}, {"days": "Sat", "time": "10:45am"}, {"days": "Sun", "time": "Closed"}], "id": "0566500001", "name": "USPS COLLECTION BOX - PO LOBBY", "address": {"city": "NORTH HYDE PARK", "state": "VT", "street": "5541 VT RTE 100", "postcode": "05665"}}},
{"geometry": {"type": "Point", "coordinates": [-72.4293894533, 44.2778442163]}, "type": "Feature", "properties": {"collection_times": [{"days": "Mon-Fri", "time": "4:30pm"}, {"days": "Sat", "time": "11:00am"}, {"days": "Sun", "time": "Closed"}], "id": "0566700000", "name": "USPS COLLECTION BOX - BLUE BOX", "address": {"city": "PLAINFIELD", "state": "VT", "street": "189 TOWNE AVE", "postcode": "05667"}}},
{"geometry": {"type": "Point", "coordinates": [-72.4293894533, 44.2778442163]}, "type": "Feature", "properties": {"collection_times": [{"days": "Mon-Fri", "time": "4:30pm"}, {"days": "Sat", "time": "11:00am"}, {"days": "Sun", "time": "Closed"}], "id": "0566700001", "name": "USPS COLLECTION BOX - PO LOBBY", "address": {"city": "PLAINFIELD", "state": "VT", "street": "189 TOWNE AVE", "postcode": "05667"}}},
{"geometry": {"type": "Point", "coordinates": [-72.7335198221, 44.0921136472]}, "type": "Feature", "properties": {"collection_times": [{"days": "Mon-Fri", "time": "4:30pm"}, {"days": "Sat", "time": "10:45am"}, {"days": "Sun", "time": "Closed"}], "id": "0566900000", "name": "USPS COLLECTION BOX - BLUE BOX", "address": {"city": "ROXBURY", "state": "VT", "street": "1593 ROXBURY RD", "postcode": "05669"}}},
{"geometry": {"type": "Point", "coordinates": [-72.7335198221, 44.0921136472]}, "type": "Feature", "properties": {"collection_times": [{"days": "Mon-Fri", "time": "12:00pm"}, {"days": "Sat", "time": "10:45am"}, {"days": "Sun", "time": "Closed"}], "id": "0566900001", "name": "USPS COLLECTION BOX - PO LOBBY", "address": {"city": "ROXBURY", "state": "VT", "street": "1593 ROXBURY RD", "postcode": "05669"}}},
{"geometry": {"type": "Point", "coordinates": [-72.5049689457, 44.1771215294]}, "type": "Feature", "properties": {"collection_times": [{"days": "Mon-Fri", "time": "4:15pm"}, {"days": "Sat", "time": "10:45am"}, {"days": "Sun", "time": "Closed"}], "id": "0567000000", "name": "USPS COLLECTION BOX - BLUE BOX", "address": {"city": "SOUTH BARRE", "state": "VT", "street": "379 S BARRE RD", "postcode": "05670"}}},
{"geometry": {"type": "Point", "coordinates": [-72.5049689457, 44.1771215294]}, "type": "Feature", "properties": {"collection_times": [{"days": "Mon-Fri", "time": "4:45pm"}, {"days": "Sat", "time": "11:15am"}, {"days": "Sun", "time": "Closed"}], "id": "0567000001", "name": "USPS COLLECTION BOX - PO LOBBY", "address": {"city": "SOUTH BARRE", "state": "VT", "street": "379 S BARRE RD", "postcode": "05670"}}},
{"geometry": {"type": "Point", "coordinates": [-72.6866376169, 44.4636032546]}, "type": "Feature", "properties": {"collection_times": [{"days": "Mon-Fri", "time": "5:00pm"}, {"days": "Sat", "time": "3:00pm"}, {"days": "Sun", "time": "Closed"}], "id": "0567200002", "name": "USPS COLLECTION BOX - BLUE BOX", "address": {"city": "STOWE", "state": "VT", "street": "105 DEPOT ST", "postcode": "05672"}}},
{"geometry": {"type": "Point", "coordinates": [-72.6866376169, 44.4636032546]}, "type": "Feature", "properties": {"collection_times": [{"days": "Mon-Fri", "time": "5:00pm"}, {"days": "Sat", "time": "3:00pm"}, {"days": "Sun", "time": "Closed"}], "id": "0567200003", "name": "USPS COLLECTION BOX - BLUE BOX", "address": {"city": "STOWE", "state": "VT", "street": "105 DEPOT ST", "postcode": "05672"}}},
{"geometry": {"type": "Point", "coordinates": [-72.6860946388, 44.4653989863]}, "type": "Feature", "properties": {"collection_times": [{"days": "Mon-Sat", "time": "11:00am"}, {"days": "Sun", "time": "Closed"}], "id": "0567200005", "name": "USPS COLLECTION BOX - BLUE BOX", "address": {"city": "STOWE", "state": "VT", "street": "62 MAIN ST", "postcode": "05672"}}},
{"geometry": {"type": "Point", "coordinates": [-72.7144479984, 44.4741367356]}, "type": "Feature", "properties": {"collection_times": [{"days": "Mon-Sat", "time": "11:00am"}, {"days": "Sun", "time": "Closed"}], "id": "0567200006", "name": "USPS COLLECTION BOX - BLUE BOX", "address": {"city": "STOWE", "state": "VT", "street": "1880 MOUNTAIN RD", "postcode": "05672"}}},
{"geometry": {"type": "Point", "coordinates": [-72.6752741131, 44.4703236445]}, "type": "Feature", "properties": {"collection_times": [{"days": "Mon-Sat", "time": "12:30pm"}, {"days": "Sun", "time": "Closed"}], "id": "0567200007", "name": "USPS COLLECTION BOX - BLUE BOX", "address": {"city": "STOWE", "state": "VT", "street": "751 MAPLE ST", "postcode": "05672"}}},
{"geometry": {"type": "Point", "coordinates": [-72.6626876286, 44.0752034871]}, "type": "Feature", "properties": {"collection_times": [{"days": "Mon-Sat", "time": "11:00am"}, {"days": "Sun", "time": "Closed"}], "id": "0567200008", "name": "USPS COLLECTION BOX - BLUE BOX", "address": {"city": "STOWE", "state": "VT", "street": "394 MOUNTAIN RD", "postcode": "05672"}}},
{"geometry": {"type": "Point", "coordinates": [-72.6866376169, 44.4636032546]}, "type": "Feature", "properties": {"collection_times": [{"days": "Mon-Fri", "time": "5:00pm"}, {"days": "Sat", "time": "3:00pm"}, {"days": "Sun", "time": "Closed"}], "id": "0567200009", "name": "USPS COLLECTION BOX - PO LOBBY", "address": {"city": "STOWE", "state": "VT", "street": "105 DEPOT ST", "postcode": "05672"}}},
{"geometry": {"type": "Point", "coordinates": [-72.8384928763, 44.1843740717]}, "type": "Feature", "properties": {"collection_times": [{"days": "Mon-Fri", "time": "5:00pm"}, {"days": "Sat", "time": "12:00pm"}, {"days": "Sun", "time": "Closed"}], "id": "0567300001", "name": "USPS COLLECTION BOX - BLUE BOX", "address": {"city": "WAITSFIELD", "state": "VT", "street": "100 MAD RIVER GRN", "postcode": "05673"}}},
{"geometry": {"type": "Point", "coordinates": [-72.8384928763, 44.1843740717]}, "type": "Feature", "properties": {"collection_times": [{"days": "Mon-Fri", "time": "5:00pm"}, {"days": "Sat", "time": "12:00pm"}, {"days": "Sun", "time": "Closed"}], "id": "0567300002", "name": "USPS COLLECTION BOX - PO LOBBY", "address": {"city": "WAITSFIELD", "state": "VT", "street": "100 MAD RIVER GRN", "postcode": "05673"}}},
{"geometry": {"type": "Point", "coordinates": [-72.8558421525, 44.1134935364]}, "type": "Feature", "properties": {"collection_times": [{"days": "Mon-Fri", "time": "4:30pm"}, {"days": "Sat", "time": "10:00am"}, {"days": "Sun", "time": "Closed"}], "id": "0567400001", "name": "USPS COLLECTION BOX - BLUE BOX", "address": {"city": "WARREN", "state": "VT", "street": "354 MAIN ST", "postcode": "05674"}}},
{"geometry": {"type": "Point", "coordinates": [-72.8558421525, 44.1134935364]}, "type": "Feature", "properties": {"collection_times": [{"days": "Mon-Fri", "time": "4:30pm"}, {"days": "Sat", "time": "10:00am"}, {"days": "Sun", "time": "Closed"}], "id": "0567400003", "name": "USPS COLLECTION BOX - PO LOBBY", "address": {"city": "WARREN", "state": "VT", "street": "354 MAIN ST", "postcode": "05674"}}},
{"geometry": {"type": "Point", "coordinates": [-72.4330282002, 44.1068206842]}, "type": "Feature", "properties": {"collection_times": [{"days": "Mon-Fri", "time": "4:15pm"}, {"days": "Sat", "time": "11:00am"}, {"days": "Sun", "time": "Closed"}], "id": "0567500000", "name": "USPS COLLECTION BOX - BLUE BOX", "address": {"city": "WASHINGTON", "state": "VT", "street": "3029 VT ROUTE 110", "postcode": "05675"}}},
{"geometry": {"type": "Point", "coordinates": [-72.4330282002, 44.1068206842]}, "type": "Feature", "properties": {"collection_times": [{"days": "Mon-Fri", "time": "4:15pm"}, {"days": "Sat", "time": "11:00am"}, {"days": "Sun", "time": "Closed"}], "id": "0567500001", "name": "USPS COLLECTION BOX - PO LOBBY", "address": {"city": "WASHINGTON", "state": "VT", "street": "3029 VT ROUTE 110", "postcode": "05675"}}},
{"geometry": {"type": "Point", "coordinates": [-72.7598411717, 44.3419888315]}, "type": "Feature", "properties": {"collection_times": [{"days": "Mon-Fri", "time": "5:15pm"}, {"days": "Sat", "time": "2:45pm"}, {"days": "Sun", "time": "Closed"}], "id": "0567600001", "name": "USPS COLLECTION BOX - BLUE BOX", "address": {"city": "WATERBURY", "state": "VT", "street": "47 1/2 N MAIN ST", "postcode": "05676"}}},
{"geometry": {"type": "Point", "coordinates": [-72.7460789363, 44.3283724699]}, "type": "Feature", "properties": {"collection_times": [{"days": "Mon-Fri", "time": "2:00pm"}, {"days": "Sat", "time": "12:00pm"}, {"days": "Sun", "time": "Closed"}], "id": "0567600002", "name": "USPS COLLECTION BOX - BLUE BOX", "address": {"city": "WATERBURY", "state": "VT", "street": "29 S MAIN ST", "postcode": "05676"}}},
{"geometry": {"type": "Point", "coordinates": [-72.7516250866, 44.3355605034]}, "type": "Feature", "properties": {"collection_times": [{"days": "Mon-Fri", "time": "2:00pm"}, {"days": "Sat", "time": "12:00pm"}, {"days": "Sun", "time": "Closed"}], "id": "0567600003", "name": "USPS COLLECTION BOX - BLUE BOX", "address": {"city": "WATERBURY", "state": "VT", "street": "1 PARK ROW", "postcode": "05676"}}},
{"geometry": {"type": "Point", "coordinates": [-72.7598411717, 44.3419888315]}, "type": "Feature", "properties": {"collection_times": [{"days": "Mon-Fri", "time": "5:15pm"}, {"days": "Sat", "time": "2:45pm"}, {"days": "Sun", "time": "Closed"}], "id": "0567600005", "name": "USPS COLLECTION BOX - PO LOBBY", "address": {"city": "WATERBURY", "state": "VT", "street": "47 1/2 N MAIN ST", "postcode": "05676"}}},
{"geometry": {"type": "Point", "coordinates": [-72.7185361054, 44.3735256613]}, "type": "Feature", "properties": {"collection_times": [{"days": "Mon-Fri", "time": "4:45pm"}, {"days": "Sat", "time": "10:00am"}, {"days": "Sun", "time": "Closed"}], "id": "0567700001", "name": "USPS COLLECTION BOX - BLUE BOX", "address": {"city": "WATERBURY CENTER", "state": "VT", "street": "1787 GUPTILL RD", "postcode": "05677"}}},
{"geometry": {"type": "Point", "coordinates": [-72.7185361054, 44.3735256613]}, "type": "Feature", "properties": {"collection_times": [{"days": "Mon-Fri", "time": "4:45pm"}, {"days": "Sat", "time": "10:00am"}, {"days": "Sun", "time": "Closed"}], "id": "0567700002", "name": "USPS COLLECTION BOX - PO LOBBY", "address": {"city": "WATERBURY CENTER", "state": "VT", "street": "1787 GUPTILL RD", "postcode": "05677"}}},
{"geometry": {"type": "Point", "coordinates": [-72.4700599544, 44.159081495]}, "type": "Feature", "properties": {"collection_times": [{"days": "Mon-Fri", "time": "4:45pm"}, {"days": "Sat", "time": "10:45am"}, {"days": "Sun", "time": "Closed"}], "id": "0567800000", "name": "USPS COLLECTION BOX - BLUE BOX", "address": {"city": "WEBSTERVILLE", "state": "VT", "street": "37 CHURCH HILL RD", "postcode": "05678"}}},
{"geometry": {"type": "Point", "coordinates": [-72.4700599544, 44.159081495]}, "type": "Feature", "properties": {"collection_times": [{"days": "Mon-Fri", "time": "4:45pm"}, {"days": "Sat", "time": "10:45am"}, {"days": "Sun", "time": "Closed"}], "id": "0567800001", "name": "USPS COLLECTION BOX - PO LOBBY", "address": {"city": "WEBSTERVILLE", "state": "VT", "street": "37 CHURCH HILL RD", "postcode": "05678"}}},
{"geometry": {"type": "Point", "coordinates": [-72.5690396268, 44.0709927938]}, "type": "Feature", "properties": {"collection_times": [{"days": "Mon-Fri", "time": "5:00pm"}, {"days": "Sat", "time": "11:00am"}, {"days": "Sun", "time": "Closed"}], "id": "0567900000", "name": "USPS COLLECTION BOX - BLUE BOX", "address": {"city": "WILLIAMSTOWN", "state": "VT", "street": "2632 VT ROUTE 14", "postcode": "05679"}}},
{"geometry": {"type": "Point", "coordinates": [-72.5690396268, 44.0709927938]}, "type": "Feature", "properties": {"collection_times": [{"days": "Mon-Fri", "time": "5:00pm"}, {"days": "Sat", "time": "11:00am"}, {"days": "Sun", "time": "Closed"}], "id": "0567900001", "name": "USPS COLLECTION BOX - PO LOBBY", "address": {"city": "WILLIAMSTOWN", "state": "VT", "street": "2632 VT ROUTE 14", "postcode": "05679"}}},
{"geometry": {"type": "Point", "coordinates": [-72.4603328351, 44.5473780426]}, "type": "Feature", "properties": {"collection_times": [{"days": "Mon-Fri", "time": "4:30pm"}, {"days": "Sat", "time": "11:30am"}, {"days": "Sun", "time": "Closed"}], "id": "0568000001", "name": "USPS COLLECTION BOX - PO LOBBY", "address": {"city": "WOLCOTT", "state": "VT", "street": "4154 VT RTE 15", "postcode": "05680"}}},
{"geometry": {"type": "Point", "coordinates": [-72.4603328351, 44.5473780426]}, "type": "Feature", "properties": {"collection_times": [{"days": "Mon-Fri", "time": "4:00pm"}, {"days": "Sat", "time": "11:30am"}, {"days": "Sun", "time": "Closed"}], "id": "0568000002", "name": "USPS COLLECTION BOX - BLUE BOX", "address": {"city": "WOLCOTT", "state": "VT", "street": "4154 VT RTE 15", "postcode": "05680"}}},
{"geometry": {"type": "Point", "coordinates": [-72.4149894133, 44.4404913478]}, "type": "Feature", "properties": {"collection_times": [{"days": "Mon-Fri", "time": "4:30pm"}, {"days": "Sat", "time": "10:30am"}, {"days": "Sun", "time": "Closed"}], "id": "0568100000", "name": "USPS COLLECTION BOX - BLUE BOX", "address": {"city": "WOODBURY", "state": "VT", "street": "3655 VERMONT ROUTE 14", "postcode": "05681"}}},
{"geometry": {"type": "Point", "coordinates": [-72.4149894133, 44.4404913478]}, "type": "Feature", "properties": {"collection_times": [{"days": "Mon-Fri", "time": "4:30pm"}, {"days": "Sat", "time": "10:30am"}, {"days": "Sun", "time": "Closed"}], "id": "0568100001", "name": "USPS COLLECTION BOX - PO LOBBY", "address": {"city": "WOODBURY", "state": "VT", "street": "3655 VERMONT ROUTE 14", "postcode": "05681"}}},
{"geometry": {"type": "Point", "coordinates": [-72.5649256259, 44.3529236218]}, "type": "Feature", "properties": {"collection_times": [{"days": "Mon-Fri", "time": "4:00pm"}, {"days": "Sat", "time": "11:00am"}, {"days": "Sun", "time": "Closed"}], "id": "0568200000", "name": "USPS COLLECTION BOX - BLUE BOX", "address": {"city": "WORCESTER", "state": "VT", "street": "36 WORCESTER VILLAGE RD", "postcode": "05682"}}},
{"geometry": {"type": "Point", "coordinates": [-72.5649256259, 44.3529236218]}, "type": "Feature", "properties": {"collection_times": [{"days": "Mon-Fri", "time": "4:00pm"}, {"days": "Sat", "time": "11:00am"}, {"days": "Sun", "time": "Closed"}], "id": "0568200001", "name": "USPS COLLECTION BOX - PO LOBBY", "address": {"city": "WORCESTER", "state": "VT", "street": "36 WORCESTER VILLAGE RD", "postcode": "05682"}}}
]}
