{"type": "FeatureCollection", "features": [
{"geometry": {"type": "Point", "coordinates": [-72.963506066, 43.6194140034]}, "type": "Feature", "properties": {"collection_times": [{"days": "Mon-Fri", "time": "4:30pm"}, {"days": "Sat", "time": "12:00pm"}, {"days": "Sun", "time": "Closed"}], "id": "0570100002", "name": "USPS COLLECTION BOX - BLUE BOX", "address": {"city": "RUTLAND", "state": "VT", "street": "86 WOODSTOCK AVE", "postcode": "05701"}}},
{"geometry": {"type": "Point", "coordinates": [-72.9722713397, 43.6085427703]}, "type": "Feature", "properties": {"collection_times": [{"days": "Mon-Fri", "time": "4:15pm"}, {"days": "Sat", "time": "10:30am"}, {"days": "Sun", "time": "Closed"}], "id": "0570100005", "name": "USPS COLLECTION BOX - BLUE BOX", "address": {"city": "RUTLAND", "state": "VT", "street": "2 S MAIN ST", "postcode": "05701"}}},
{"geometry": {"type": "Point", "coordinates": [-72.9729645537, 43.6085971865]}, "type": "Feature", "properties": {"collection_times": [{"days": "Mon-Fri", "time": "4:30pm"}, {"days": "Sat", "time": "9:00am"}, {"days": "Sun", "time": "Closed"}], "id": "0570100006", "name": "USPS COLLECTION BOX - BLUE BOX", "address": {"city": "RUTLAND", "state": "VT", "street": "7 WEST ST", "postcode": "05701"}}},
{"geometry": {"type": "Point", "coordinates": [-72.9782783362, 43.6050931973]}, "type": "Feature", "properties": {"collection_times": [{"days": "Mon-Fri", "time": "4:30pm"}, {"days": "Sat", "time": "9:00am"}, {"days": "Sun", "time": "Closed"}], "id": "0570100007", "name": "USPS COLLECTION BOX - BLUE BOX", "address": {"city": "RUTLAND", "state": "VT", "street": "46 N MAIN ST", "postcode": "05701"}}},
{"geometry": {"type": "Point", "coordinates": [-72.9753979003, 43.6255016701]}, "type": "Feature", "properties": {"collection_times": [{"days": "Mon-Fri", "time": "4:30pm"}, {"days": "Sat", "time": "10:00am"}, {"days": "Sun", "time": "Closed"}], "id": "0570100010", "name": "USPS COLLECTION BOX - BLUE BOX", "address": {"city": "RUTLAND", "state": "VT", "street": "231 N MAIN ST", "postcode": "05701"}}},
{"geometry": {"type": "Point", "coordinates": [-72.9782783362, 43.6050931973]}, "type": "Feature", "properties": {"collection_times": [{"days": "Mon-Fri", "time": "4:30pm"}, {"days": "Sat", "time": "10:00am"}, {"days": "Sun", "time": "Closed"}], "id": "0570100011", "name": "USPS COLLECTION BOX - BLUE BOX", "address": {"city": "RUTLAND", "state": "VT", "street": "256 N MAIN ST", "postcode": "05701"}}},
{"geometry": {"type": "Point", "coordinates": [-72.9813328054, 43.6077300775]}, "type": "Feature", "properties": {"collection_times": [{"days": "Mon-Sat", "time": "6:30pm"}, {"days": "Sun", "time": "Closed"}], "id": "0570100022", "name": "USPS COLLECTION BOX - BLUE BOX", "address": {"city": "RUTLAND", "state": "VT", "street": "151 WEST ST", "postcode": "05701"}}},
{"geometry": {"type": "Point", "coordinates": [-72.9813328054, 43.6077300775]}, "type": "Feature", "properties": {"collection_times": [{"days": "Mon-Sat", "time": "6:30pm"}, {"days": "Sun", "time": "Closed"}], "id": "0570100025", "name": "USPS COLLECTION BOX - BLUE BOX", "address": {"city": "RUTLAND", "state": "VT", "street": "151 WEST ST", "postcode": "05701"}}},
{"geometry": {"type": "Point", "coordinates": [-72.6626876286, 44.0752034871]}, "type": "Feature", "properties": {"collection_times": [{"days": "Mon-Fri", "time": "5:15pm"}, {"days": "Sat", "time": "9:00am"}, {"days": "Sun", "time": "Closed"}], "id": "0570100031", "name": "USPS COLLECTION BOX - BLUE BOX", "address": {"city": "RUTLAND", "state": "VT", "street": "94 MERCHANTS ROW", "postcode": "05701"}}},
{"geometry": {"type": "Point", "coordinates": [-72.9791999304, 43.6058751979]}, "type": "Feature", "properties": {"collection_times": [{"days": "Mon-Fri", "time": "5:15pm"}, {"days": "Sat", "time": "9:00am"}, {"days": "Sun", "time": "Closed"}], "id": "0570100035", "name": "USPS COLLECTION BOX - BLUE BOX", "address": {"city": "RUTLAND", "state": "VT", "street": "122 MERCHANTS ROW", "postcode": "05701"}}},
{"geometry": {"type": "Point", "coordinates": [-72.9782133426, 43.6050447607]}, "type": "Feature", "properties": {"collection_times": [{"days": "Mon-Fri", "time": "5:15pm"}, {"days": "Sat-Sun", "time": "Closed"}], "id": "0570100037", "name": "USPS COLLECTION BOX - BLUE BOX", "address": {"city": "RUTLAND", "state": "VT", "street": "1 STRONGS AVE", "postcode": "05701"}}},
{"geometry": {"type": "Point", "coordinates": [-72.9758521565, 43.6068842619]}, "type": "Feature", "properties": {"collection_times": [{"days": "Mon-Fri", "time": "5:00pm"}, {"days": "Sat-Sun", "time": "Closed"}], "id": "0570100038", "name": "USPS COLLECTION BOX - BLUE BOX", "address": {"city": "RUTLAND", "state": "VT", "street": "83 CENTER ST", "postcode": "05701"}}},
{"geometry": {"type": "Point", "coordinates": [-72.9785291927, 43.6080175366]}, "type": "Feature", "properties": {"collection_times": [{"days": "Mon-Fri", "time": "5:00pm"}, {"days": "Sat", "time": "9:00am"}, {"days": "Sun", "time": "Closed"}], "id": "0570100040", "name": "USPS COLLECTION BOX - BLUE BOX", "address": {"city": "RUTLAND", "state": "VT", "street": "85 WEST ST", "postcode": "05701"}}},
{"geometry": {"type": "Point", "coordinates": [-72.9776189682, 43.6066149543]}, "type": "Feature", "properties": {"collection_times": [{"days": "Mon-Fri", "time": "5:00pm"}, {"days": "Sat", "time": "9:00am"}, {"days": "Sun", "time": "Closed"}], "id": "0570100041", "name": "USPS COLLECTION BOX - BLUE BOX", "address": {"city": "RUTLAND", "state": "VT", "street": "58 CENTER ST", "postcode": "05701"}}},
{"geometry": {"type": "Point", "coordinates": [-72.9630231919, 43.6127516352]}, "type": "Feature", "properties": {"collection_times": [{"days": "Mon-Fri", "time": "5:00pm"}, {"days": "Sat", "time": "9:00am"}, {"days": "Sun", "time": "Closed"}], "id": "0570100042", "name": "USPS COLLECTION BOX - BLUE BOX", "address": {"city": "RUTLAND", "state": "VT", "street": "1 RUTLAND SHOPPING PLZ", "postcode": "05701"}}},
{"geometry": {"type": "Point", "coordinates": [-72.9689431945, 43.591377449]}, "type": "Feature", "properties": {"collection_times": [{"days": "Mon-Sat", "time": "10:00am"}, {"days": "Sun", "time": "Closed"}], "id": "0570100052", "name": "USPS COLLECTION BOX - BLUE BOX", "address": {"city": "RUTLAND", "state": "VT", "street": "308 US ROUTE 7", "postcode": "05701"}}},
{"geometry": {"type": "Point", "coordinates": [-72.9676371359, 43.5831405123]}, "type": "Feature", "properties": {"collection_times": [{"days": "Mon-Sat", "time": "10:00am"}, {"days": "Sun", "time": "Closed"}], "id": "0570100067", "name": "USPS COLLECTION BOX - BLUE BOX", "address": {"city": "RUTLAND", "state": "VT", "street": "2149 US ROUTE 4", "postcode": "05701"}}},
{"geometry": {"type": "Point", "coordinates": [-72.9929084359, 43.6066873187]}, "type": "Feature", "properties": {"collection_times": [{"days": "Mon-Sat", "time": "8:45am"}, {"days": "Sun", "time": "Closed"}], "id": "0570100068", "name": "USPS COLLECTION BOX - BLUE BOX", "address": {"city": "RUTLAND", "state": "VT", "street": "210 COLUMBIAN AVE", "postcode": "05701"}}},
{"geometry": {"type": "Point", "coordinates": [-72.9782783362, 43.6050931973]}, "type": "Feature", "properties": {"collection_times": [{"days": "Mon-Sat", "time": "10:30am"}, {"days": "Sun", "time": "Closed"}], "id": "0570100072", "name": "USPS COLLECTION BOX - BLUE BOX", "address": {"city": "RUTLAND", "state": "VT", "street": "46 DIAMOND RUN PL", "postcode": "05701"}}},
{"geometry": {"type": "Point", "coordinates": [-72.9803627791, 43.6068168332]}, "type": "Feature", "properties": {"collection_times": [{"days": "Mon-Fri", "time": "4:15pm"}, {"days": "Sat-Sun", "time": "Closed"}], "id": "0570100075", "name": "USPS COLLECTION BOX - BLUE BOX", "address": {"city": "RUTLAND", "state": "VT", "street": "88 MERCHANTS ROW", "postcode": "05701"}}},
{"geometry": {"type": "Point", "coordinates": [-72.9813328054, 43.6077300775]}, "type": "Feature", "properties": {"collection_times": [{"days": "Mon-Fri", "time": "5:00pm"}, {"days": "Sat", "time": "12:30pm"}, {"days": "Sun", "time": "Closed"}], "id": "0570100076", "name": "USPS COLLECTION BOX - PO LOBBY", "address": {"city": "RUTLAND", "state": "VT", "street": "151 WEST ST LBBY METERED", "postcode": "05701"}}},
{"geometry": {"type": "Point", "coordinates": [-72.9813328054, 43.6077300775]}, "type": "Feature", "properties": {"collection_times": [{"days": "Mon-Fri", "time": "5:00pm"}, {"days": "Sat", "time": "12:30pm"}, {"days": "Sun", "time": "Closed"}], "id": "0570100077", "name": "USPS COLLECTION BOX - PO LOBBY", "address": {"city": "RUTLAND", "state": "VT", "street": "151 WEST ST LBBY STAMPED", "postcode": "05701"}}},
{"geometry": {"type": "Point", "coordinates": [-72.9569307279, 43.5995676607]}, "type": "Feature", "properties": {"collection_times": [{"days": "Mon-Fri", "time": "9:30am"}, {"days": "Sat", "time": "9:00am"}, {"days": "Sun", "time": "Closed"}], "id": "0570100079", "name": "USPS COLLECTION BOX - BLUE BOX", "address": {"city": "RUTLAND", "state": "VT", "street": "1 COMMONS ST", "postcode": "05701"}}},
{"geometry": {"type": "Point", "coordinates": [-72.9650801322, 43.6140127726]}, "type": "Feature", "properties": {"collection_times": [{"days": "Mon-Sat", "time": "10:00am"}, {"days": "Sun", "time": "Closed"}], "id": "0570100081", "name": "USPS COLLECTION BOX - BLUE BOX", "address": {"city": "RUTLAND", "state": "VT", "street": "5 TREMONT ST", "postcode": "05701"}}},
{"geometry": {"type": "Point", "coordinates": [-72.9758545225, 43.6280426659]}, "type": "Feature", "properties": {"collection_times": [{"days": "Mon-Sat", "time": "10:00am"}, {"days": "Sun", "time": "Closed"}], "id": "0570100082", "name": "USPS COLLECTION BOX - BLUE BOX", "address": {"city": "RUTLAND", "state": "VT", "street": "271 N MAIN ST", "postcode": "05701"}}},
{"geometry": {"type": "Point", "coordinates": [-72.8211684423, 43.4148675456]}, "type": "Feature", "properties": {"collection_times": [{"days": "Mon-Fri", "time": "4:45pm"}, {"days": "Sat", "time": "10:45am"}, {"days": "Sun", "time": "Closed"}], "id": "0573000000", "name": "USPS COLLECTION BOX - BLUE BOX", "address": {"city": "BELMONT", "state": "VT", "street": "2400 BELMONT RD", "postcode": "05730"}}},
{"geometry": {"type": "Point", "coordinates": [-72.8211684423, 43.4148675456]}, "type": "Feature", "properties": {"collection_times": [{"days": "Mon-Fri", "time": "4:45pm"}, {"days": "Sat", "time": "10:45am"}, {"days": "Sun", "time": "Closed"}], "id": "0573000001", "name": "USPS COLLECTION BOX - PO LOBBY", "address": {"city": "BELMONT", "state": "VT", "street": "2400 BELMONT RD", "postcode": "05730"}}},
{"geometry": {"type": "Point", "coordinates": [-73.2084368137, 43.6084710653]}, "type": "Feature", "properties": {"collection_times": [{"days": "Mon-Fri", "time": "4:30pm"}, {"days": "Sat", "time": "10:30am"}, {"days": "Sun", "time": "Closed"}], "id": "0573200000", "name": "USPS COLLECTION BOX - BLUE BOX", "address": {"city": "BOMOSEEN", "state": "VT", "street": "63 ROUTE 4A W", "postcode": "05732"}}},
{"geometry": {"type": "Point", "coordinates": [-73.2084368137, 43.6084710653]}, "type": "Feature", "properties": {"collection_times": [{"days": "Mon-Fri", "time": "4:45pm"}, {"days": "Sat", "time": "11:00am"}, {"days": "Sun", "time": "Closed"}], "id": "0573200002", "name": "USPS COLLECTION BOX - PO LOBBY", "address": {"city": "BOMOSEEN", "state": "VT", "street": "63 ROUTE 4A W", "postcode": "05732"}}},
{"geometry": {"type": "Point", "coordinates": [-73.0870810562, 43.7976198336]}, "type": "Feature", "properties": {"collection_times": [{"days": "Mon-Sat", "time": "12:00pm"}, {"days": "Sun", "time": "Closed"}], "id": "0573300002", "name": "USPS COLLECTION BOX - BLUE BOX", "address": {"city": "BRANDON", "state": "VT", "street": "5 CARVER ST", "postcode": "05733"}}},
{"geometry": {"type": "Point", "coordinates": [-73.087057397, 43.7982432529]}, "type": "Feature", "properties": {"collection_times": [{"days": "Mon-Sat", "time": "12:00pm"}, {"days": "Sun", "time": "Closed"}], "id": "0573300003", "name": "USPS COLLECTION BOX - BLUE BOX", "address": {"city": "BRANDON", "state": "VT", "street": "20 PARK ST", "postcode": "05733"}}},
{"geometry": {"type": "Point", "coordinates": [-73.0924363114, 43.8000082277]}, "type": "Feature", "properties": {"collection_times": [{"days": "Mon-Fri", "time": "4:30pm"}, {"days": "Sat", "time": "12:00pm"}, {"days": "Sun", "time": "Closed"}], "id": "0573300005", "name": "USPS COLLECTION BOX - BLUE BOX", "address": {"city": "BRANDON", "state": "VT", "street": "32 CONANT SQ", "postcode": "05733"}}},
{"geometry": {"type": "Point", "coordinates": [-73.0924363114, 43.8000082277]}, "type": "Feature", "properties": {"collection_times": [{"days": "Mon-Fri", "time": "4:30pm"}, {"days": "Sat", "time": "12:00pm"}, {"days": "Sun", "time": "Closed"}], "id": "0573300008", "name": "USPS COLLECTION BOX - PO LOBBY", "address": {"city": "BRANDON", "state": "VT", "street": "32 CONANT SQ", "postcode": "05733"}}},
{"geometry": {"type": "Point", "coordinates": [-73.3367681083, 43.9918809101]}, "type": "Feature", "properties": {"collection_times": [{"days": "Mon-Fri", "time": "3:45pm"}, {"days": "Sat", "time": "11:00am"}, {"days": "Sun", "time": "Closed"}], "id": "0573400000", "name": "USPS COLLECTION BOX - BLUE BOX", "address": {"city": "BRIDPORT", "state": "VT", "street": "3039 VT ROUTE 22A", "postcode": "05734"}}},
{"geometry": {"type": "Point", "coordinates": [-73.3367681083, 43.9918809101]}, "type": "Feature", "properties": {"collection_times": [{"days": "Mon-Fri", "time": "3:00pm"}, {"days": "Sat", "time": "11:00am"}, {"days": "Sun", "time": "Closed"}], "id": "0573400001", "name": "USPS COLLECTION BOX - PO LOBBY", "address": {"city": "BRIDPORT", "state": "VT", "street": "3039 VT ROUTE 22A", "postcode": "05734"}}},
{"geometry": {"type": "Point", "coordinates": [-73.1756197177, 43.6122837015]}, "type": "Feature", "properties": {"collection_times": [{"days": "Mon-Fri", "time": "5:00pm"}, {"days": "Sat", "time": "11:30am"}, {"days": "Sun", "time": "Closed"}], "id": "0573500000", "name": "USPS COLLECTION BOX - BLUE BOX", "address": {"city": "CASTLETON", "state": "VT", "street": "576 MAIN ST", "postcode": "05735"}}},
{"geometry": {"type": "Point", "coordinates": [-73.1756197177, 43.6122837015]}, "type": "Feature", "properties": {"collection_times": [{"days": "Mon-Fri", "time": "5:00pm"}, {"days": "Sat", "time": "11:30am"}, {"days": "Sun", "time": "Closed"}], "id": "0573500002", "name": "USPS COLLECTION BOX - PO LOBBY", "address": {"city": "CASTLETON", "state": "VT", "street": "576 MAIN ST", "postcode": "05735"}}},
{"geometry": {"type": "Point", "coordinates": [-73.2060252789, 44.7143245102]}, "type": "Feature", "properties": {"collection_times": [{"days": "Mon-Fri", "time": "4:30pm"}, {"days": "Sat", "time": "10:30am"}, {"days": "Sun", "time": "Closed"}], "id": "0573700000", "name": "USPS COLLECTION BOX - BLUE BOX", "address": {"city": "CHITTENDEN", "state": "VT", "street": "198 CHITTENDEN RD", "postcode": "05737"}}},
{"geometry": {"type": "Point", "coordinates": [-73.2060252789, 44.7143245102]}, "type": "Feature", "properties": {"collection_times": [{"days": "Mon-Fri", "time": "11:30am"}, {"days": "Sat", "time": "10:00am"}, {"days": "Sun", "time": "Closed"}], "id": "0573700001", "name": "USPS COLLECTION BOX - PO LOBBY", "address": {"city": "CHITTENDEN", "state": "VT", "street": "198 CHITTENDEN RD", "postcode": "05737"}}},
{"geometry": {"type": "Point", "coordinates": [-72.8773859697, 43.4806226266]}, "type": "Feature", "properties": {"collection_times": [{"days": "Mon-Fri", "time": "4:45pm"}, {"days": "Sat", "time": "10:15am"}, {"days": "Sun", "time": "Closed"}], "id": "0573800000", "name": "USPS COLLECTION BOX - BLUE BOX", "address": {"city": "CUTTINGSVILLE", "state": "VT", "street": "5446 VT ROUTE 103", "postcode": "05738"}}},
{"geometry": {"type": "Point", "coordinates": [-72.8773859697, 43.4806226266]}, "type": "Feature", "properties": {"collection_times": [{"days": "Mon-Fri", "time": "2:30pm"}, {"days": "Sat", "time": "10:15am"}, {"days": "Sun", "time": "Closed"}], "id": "0573800001", "name": "USPS COLLECTION BOX - PO LOBBY", "address": {"city": "CUTTINGSVILLE", "state": "VT", "street": "5446 VT ROUTE 103", "postcode": "05738"}}},
{"geometry": {"type": "Point", "coordinates": [-72.9967857984, 43.3498343765]}, "type": "Feature", "properties": {"collection_times": [{"days": "Mon-Fri", "time": "2:15pm"}, {"days": "Sat", "time": "10:30am"}, {"days": "Sun", "time": "Closed"}], "id": "0573900000", "name": "USPS COLLECTION BOX - BLUE BOX", "address": {"city": "DANBY", "state": "VT", "street": "214 N MAIN ST", "postcode": "05739"}}},
{"geometry": {"type": "Point", "coordinates": [-72.9967857984, 43.3498343765]}, "type": "Feature", "properties": {"collection_times": [{"days": "Mon-Fri", "time": "2:15pm"}, {"days": "Sat", "time": "10:45am"}, {"days": "Sun", "time": "Closed"}], "id": "0573900001", "name": "USPS COLLECTION BOX - PO LOBBY", "address": {"city": "DANBY", "state": "VT", "street": "214 N MAIN ST", "postcode": "05739"}}},
{"geometry": {"type": "Point", "coordinates": [-73.1056822285, 43.9732541816]}, "type": "Feature", "properties": {"collection_times": [{"days": "Mon-Fri", "time": "4:30pm"}, {"days": "Sat", "time": "11:30am"}, {"days": "Sun", "time": "Closed"}], "id": "0574000000", "name": "USPS COLLECTION BOX - BLUE BOX", "address": {"city": "EAST MIDDLEBURY", "state": "VT", "street": "1 CASE ST", "postcode": "05740"}}},
{"geometry": {"type": "Point", "coordinates": [-73.1056822285, 43.9732541816]}, "type": "Feature", "properties": {"collection_times": [{"days": "Mon-Fri", "time": "4:30pm"}, {"days": "Sat", "time": "11:30am"}, {"days": "Sun", "time": "Closed"}], "id": "0574000001", "name": "USPS COLLECTION BOX - PO LOBBY", "address": {"city": "EAST MIDDLEBURY", "state": "VT", "street": "1 CASE ST", "postcode": "05740"}}},
{"geometry": {"type": "Point", "coordinates": [-72.6626876286, 44.0752034871]}, "type": "Feature", "properties": {"collection_times": [{"days": "Mon-Fri", "time": "4:30pm"}, {"days": "Sat", "time": "9:45am"}, {"days": "Sun", "time": "Closed"}], "id": "0574200000", "name": "USPS COLLECTION BOX - BLUE BOX", "address": {"city": "E WALLINGFORD", "state": "VT", "street": "16 VILLAGE ST", "postcode": "05742"}}},
{"geometry": {"type": "Point", "coordinates": [-72.6626876286, 44.0752034871]}, "type": "Feature", "properties": {"collection_times": [{"days": "Mon-Fri", "time": "4:30pm"}, {"days": "Sat", "time": "9:45am"}, {"days": "Sun", "time": "Closed"}], "id": "0574200001", "name": "USPS COLLECTION BOX - PO LOBBY", "address": {"city": "E WALLINGFORD", "state": "VT", "street": "16 VILLAGE ST", "postcode": "05742"}}},
{"geometry": {"type": "Point", "coordinates": [-73.2655931129, 43.5913910483]}, "type": "Feature", "properties": {"collection_times": [{"days": "Mon-Fri", "time": "4:30pm"}, {"days": "Sat", "time": "3:15pm"}, {"days": "Sun", "time": "Closed"}], "id": "0574300000", "name": "USPS COLLECTION BOX - BLUE BOX", "address": {"city": "FAIR HAVEN", "state": "VT", "street": "1 MARBLE ST", "postcode": "05743"}}},
{"geometry": {"type": "Point", "coordinates": [-73.2655528923, 43.5931158025]}, "type": "Feature", "properties": {"collection_times": [{"days": "Mon-Sat", "time": "2:00pm"}, {"days": "Sun", "time": "Closed"}], "id": "0574300006", "name": "USPS COLLECTION BOX - BLUE BOX", "address": {"city": "FAIR HAVEN", "state": "VT", "street": "87 MAIN ST", "postcode": "05743"}}},
{"geometry": {"type": "Point", "coordinates": [-73.2674056328, 43.5949643894]}, "type": "Feature", "properties": {"collection_times": [{"days": "Mon-Sat", "time": "11:30am"}, {"days": "Sun", "time": "Closed"}], "id": "0574300010", "name": "USPS COLLECTION BOX - BLUE BOX", "address": {"city": "FAIR HAVEN", "state": "VT", "street": "60 WASHINGTON ST", "postcode": "05743"}}},
{"geometry": {"type": "Point", "coordinates": [-73.2655931129, 43.5913910483]}, "type": "Feature", "properties": {"collection_times": [{"days": "Mon-Fri", "time": "4:30pm"}, {"days": "Sat", "time": "3:15pm"}, {"days": "Sun", "time": "Closed"}], "id": "0574300012", "name": "USPS COLLECTION BOX - PO LOBBY", "address": {"city": "FAIR HAVEN", "state": "VT", "street": "1 MARBLE ST", "postcode": "05743"}}},
{"geometry": {"type": "Point", "coordinates": [-73.0565524342, 43.7103848906]}, "type": "Feature", "properties": {"collection_times": [{"days": "Mon-Fri", "time": "4:00pm"}, {"days": "Sat", "time": "10:00am"}, {"days": "Sun", "time": "Closed"}], "id": "0574400000", "name": "USPS COLLECTION BOX - BLUE BOX", "address": {"city": "FLORENCE", "state": "VT", "street": "1543 W CREEK RD", "postcode": "05744"}}},
{"geometry": {"type": "Point", "coordinates": [-73.0565524342, 43.7103848906]}, "type": "Feature", "properties": {"collection_times": [{"days": "Mon-Fri", "time": "4:00pm"}, {"days": "Sat", "time": "10:00am"}, {"days": "Sun", "time": "Closed"}], "id": "0574400001", "name": "USPS COLLECTION BOX - PO LOBBY", "address": {"city": "FLORENCE", "state": "VT", "street": "1543 W CREEK RD", "postcode": "05744"}}},
{"geometry": {"type": "Point", "coordinates": [-73.049730294, 43.8304937036]}, "type": "Feature", "properties": {"collection_times": [{"days": "Mon-Fri", "time": "4:30pm"}, {"days": "Sat", "time": "10:30am"}, {"days": "Sun", "time": "Closed"}], "id": "0574500000", "name": "USPS COLLECTION BOX - BLUE BOX", "address": {"city": "FOREST DALE", "state": "VT", "street": "233 NORTH ST", "postcode": "05745"}}},
{"geometry": {"type": "Point", "coordinates": [-73.049730294, 43.8304937036]}, "type": "Feature", "properties": {"collection_times": [{"days": "Mon-Fri", "time": "4:45pm"}, {"days": "Sat", "time": "10:45am"}, {"days": "Sun", "time": "Closed"}], "id": "0574500001", "name": "USPS COLLECTION BOX - PO LOBBY", "address": {"city": "FOREST DALE", "state": "VT", "street": "233 NORTH ST LBBY MIXED", "postcode": "05745"}}},
{"geometry": {"type": "Point", "coordinates": [-72.7513370256, 43.7134679045]}, "type": "Feature", "properties": {"collection_times": [{"days": "Mon-Fri", "time": "4:45pm"}, {"days": "Sat", "time": "10:45am"}, {"days": "Sun", "time": "Closed"}], "id": "0574600000", "name": "USPS COLLECTION BOX - BLUE BOX", "address": {"city": "GAYSVILLE", "state": "VT", "street": "35 BRIDGE ST", "postcode": "05746"}}},
{"geometry": {"type": "Point", "coordinates": [-72.7513370256, 43.7134679045]}, "type": "Feature", "properties": {"collection_times": [{"days": "Mon-Fri", "time": "4:45pm"}, {"days": "Sat", "time": "10:45am"}, {"days": "Sun", "time": "Closed"}], "id": "0574600001", "name": "USPS COLLECTION BOX - PO LOBBY", "address": {"city": "GAYSVILLE", "state": "VT", "street": "35 BRIDGE ST", "postcode": "05746"}}},
{"geometry": {"type": "Point", "coordinates": [-72.8402211794, 43.9216199582]}, "type": "Feature", "properties": {"collection_times": [{"days": "Mon-Fri", "time": "4:00pm"}, {"days": "Sat", "time": "10:00am"}, {"days": "Sun", "time": "Closed"}], "id": "0574800001", "name": "USPS COLLECTION BOX - BLUE BOX", "address": {"city": "HANCOCK", "state": "VT", "street": "882 VT ROUTE 100", "postcode": "05748"}}},
{"geometry": {"type": "Point", "coordinates": [-72.8402211794, 43.9216199582]}, "type": "Feature", "properties": {"collection_times": [{"days": "Mon-Fri", "time": "4:30pm"}, {"days": "Sat", "time": "10:00am"}, {"days": "Sun", "time": "Closed"}], "id": "0574800002", "name": "USPS COLLECTION BOX - PO LOBBY", "address": {"city": "HANCOCK", "state": "VT", "street": "882 VT ROUTE 100", "postcode": "05748"}}},
{"geometry": {"type": "Point", "coordinates": [-72.6626876286, 44.0752034871]}, "type": "Feature", "properties": {"collection_times": [{"days": "Mon-Fri", "time": "4:30pm"}, {"days": "Sat", "time": "11:30am"}, {"days": "Sun", "time": "Closed"}], "id": "0575000000", "name": "USPS COLLECTION BOX - BLUE BOX", "address": {"city": "HYDEVILLE", "state": "VT", "street": "912 ROUTE 4A W", "postcode": "05750"}}},
{"geometry": {"type": "Point", "coordinates": [-72.6626876286, 44.0752034871]}, "type": "Feature", "properties": {"collection_times": [{"days": "Mon-Fri", "time": "4:30pm"}, {"days": "Sat", "time": "11:30am"}, {"days": "Sun", "time": "Closed"}], "id": "0575000001", "name": "USPS COLLECTION BOX - PO LOBBY", "address": {"city": "HYDEVILLE", "state": "VT", "street": "912 ROUTE 4A W", "postcode": "05750"}}},
{"geometry": {"type": "Point", "coordinates": [-72.7885601784, 43.6443154494]}, "type": "Feature", "properties": {"collection_times": [{"days": "Mon-Sat", "time": "10:00am"}, {"days": "Sun", "time": "Closed"}], "id": "0575100001", "name": "USPS COLLECTION BOX - BLUE BOX", "address": {"city": "KILLINGTON", "state": "VT", "street": "2023 KILLINGTON RD", "postcode": "05751"}}},
{"geometry": {"type": "Point", "coordinates": [-72.7498873763, 43.600632765]}, "type": "Feature", "properties": {"collection_times": [{"days": "Mon-Fri", "time": "5:00pm"}, {"days": "Sat", "time": "12:00pm"}, {"days": "Sun", "time": "Closed"}], "id": "0575100003", "name": "USPS COLLECTION BOX - BLUE BOX", "address": {"city": "KILLINGTON", "state": "VT", "street": "2046 ROUTE 4", "postcode": "05751"}}},
{"geometry": {"type": "Point", "coordinates": [-72.7498873763, 43.600632765]}, "type": "Feature", "properties": {"collection_times": [{"days": "Mon-Fri", "time": "5:00pm"}, {"days": "Sat", "time": "12:00pm"}, {"days": "Sun", "time": "Closed"}], "id": "0575100005", "name": "USPS COLLECTION BOX - PO LOBBY", "address": {"city": "KILLINGTON", "state": "VT", "street": "2046 ROUTE 4", "postcode": "05751"}}},
{"geometry": {"type": "Point", "coordinates": [-73.1676346469, 44.0145603122]}, "type": "Feature", "properties": {"collection_times": [{"days": "Mon-Fri", "time": "4:45pm"}, {"days": "Sat", "time": "3:00pm"}, {"days": "Sun", "time": "Closed"}], "id": "0575300002", "name": "USPS COLLECTION BOX - BLUE BOX", "address": {"city": "MIDDLEBURY", "state": "VT", "street": "10 MAIN ST - OUT OF TOWN", "postcode": "05753"}}},
{"geometry": {"type": "Point", "coordinates": [-73.1697911811, 44.0147578664]}, "type": "Feature", "properties": {"collection_times": [{"days": "Mon-Fri", "time": "3:00pm"}, {"days": "Sat", "time": "12:00pm"}, {"days": "Sun", "time": "Closed"}], "id": "0575300006", "name": "USPS COLLECTION BOX - BLUE BOX", "address": {"city": "MIDDLEBURY", "state": "VT", "street": "137 MAPLE ST", "postcode": "05753"}}},
{"geometry": {"type": "Point", "coordinates": [-73.1692813258, 43.9992078708]}, "type": "Feature", "properties": {"collection_times": [{"days": "Mon-Fri", "time": "3:45pm"}, {"days": "Sat-Sun", "time": "Closed"}], "id": "0575300007", "name": "USPS COLLECTION BOX - BLUE BOX", "address": {"city": "MIDDLEBURY", "state": "VT", "street": "30 PORTER DR", "postcode": "05753"}}},
{"geometry": {"type": "Point", "coordinates": [-73.1764074706, 44.0082764342]}, "type": "Feature", "properties": {"collection_times": [{"days": "Mon-Fri", "time": "3:45pm"}, {"days": "Sat", "time": "12:00pm"}, {"days": "Sun", "time": "Closed"}], "id": "0575300008", "name": "USPS COLLECTION BOX - BLUE BOX", "address": {"city": "MIDDLEBURY", "state": "VT", "street": "14 OLD CHAPEL RD", "postcode": "05753"}}},
{"geometry": {"type": "Point", "coordinates": [-73.1671072325, 44.0149921386]}, "type": "Feature", "properties": {"collection_times": [{"days": "Mon-Fri", "time": "3:45pm"}, {"days": "Sat", "time": "12:00pm"}, {"days": "Sun", "time": "Closed"}], "id": "0575300011", "name": "USPS COLLECTION BOX - BLUE BOX", "address": {"city": "MIDDLEBURY", "state": "VT", "street": "356 COLLEGE ST", "postcode": "05753"}}},
{"geometry": {"type": "Point", "coordinates": [-73.170489696, 44.0110940074]}, "type": "Feature", "properties": {"collection_times": [{"days": "Mon-Fri", "time": "3:45pm"}, {"days": "Sat", "time": "12:00pm"}, {"days": "Sun", "time": "Closed"}], "id": "0575300012", "name": "USPS COLLECTION BOX - BLUE BOX", "address": {"city": "MIDDLEBURY", "state": "VT", "street": "94 MAIN ST", "postcode": "05753"}}},
{"geometry": {"type": "Point", "coordinates": [-73.1671072325, 44.0149921386]}, "type": "Feature", "properties": {"collection_times": [{"days": "Mon-Fri", "time": "4:00pm"}, {"days": "Sat", "time": "12:00pm"}, {"days": "Sun", "time": "Closed"}], "id": "0575300013", "name": "USPS COLLECTION BOX - BLUE BOX", "address": {"city": "MIDDLEBURY", "state": "VT", "street": "36 COURT ST PLZ", "postcode": "05753"}}},
{"geometry": {"type": "Point", "coordinates": [-73.1726485609, 44.0068103494]}, "type": "Feature", "properties": {"collection_times": [{"days": "Mon-Sat", "time": "11:30am"}, {"days": "Sun", "time": "Closed"}], "id": "0575300014", "name": "USPS COLLECTION BOX - BLUE BOX", "address": {"city": "MIDDLEBURY", "state": "VT", "street": "198 COURT ST", "postcode": "05753"}}},
{"geometry": {"type": "Point", "coordinates": [-73.1643282766, 44.0150216662]}, "type": "Feature", "properties": {"collection_times": [{"days": "Mon-Fri", "time": "4:00pm"}, {"days": "Sat", "time": "12:00pm"}, {"days": "Sun", "time": "Closed"}], "id": "0575300015", "name": "USPS COLLECTION BOX - BLUE BOX", "address": {"city": "MIDDLEBURY", "state": "VT", "street": "8 WASHINGTON ST", "postcode": "05753"}}},
{"geometry": {"type": "Point", "coordinates": [-73.1676346469, 44.0145603122]}, "type": "Feature", "properties": {"collection_times": [{"days": "Mon-Fri", "time": "4:45pm"}, {"days": "Sat", "time": "3:00pm"}, {"days": "Sun", "time": "Closed"}], "id": "0575300024", "name": "USPS COLLECTION BOX - BLUE BOX", "address": {"city": "MIDDLEBURY", "state": "VT", "street": "10 MAIN ST", "postcode": "05753"}}},
{"geometry": {"type": "Point", "coordinates": [-73.1726485609, 44.0068103494]}, "type": "Feature", "properties": {"collection_times": [{"days": "Mon-Fri", "time": "3:00pm"}, {"days": "Sat-Sun", "time": "Closed"}], "id": "0575300025", "name": "USPS COLLECTION BOX - BLUE BOX", "address": {"city": "MIDDLEBURY", "state": "VT", "street": "156 S VILLAGE GRN", "postcode": "05753"}}},
{"geometry": {"type": "Point", "coordinates": [-73.1676346469, 44.0145603122]}, "type": "Feature", "properties": {"collection_times": [{"days": "Mon-Fri", "time": "5:00pm"}, {"days": "Sat", "time": "3:00pm"}, {"days": "Sun", "time": "Closed"}], "id": "0575300026", "name": "USPS COLLECTION BOX - PO LOBBY", "address": {"city": "MIDDLEBURY", "state": "VT", "street": "10 MAIN ST", "postcode": "05753"}}},
{"geometry": {"type": "Point", "coordinates": [-73.1726485609, 44.0068103494]}, "type": "Feature", "properties": {"collection_times": [{"days": "Mon-Fri", "time": "4:45pm"}, {"days": "Sat", "time": "3:00pm"}, {"days": "Sun", "time": "Closed"}], "id": "0575300029", "name": "USPS COLLECTION BOX - BLUE BOX", "address": {"city": "MIDDLEBURY", "state": "VT", "street": "658 EXCHANGE ST", "postcode": "05753"}}},
{"geometry": {"type": "Point", "coordinates": [-73.1184779701, 43.4838671761]}, "type": "Feature", "properties": {"collection_times": [{"days": "Mon-Fri", "time": "4:45pm"}, {"days": "Sat", "time": "11:00am"}, {"days": "Sun", "time": "Closed"}], "id": "0575700000", "name": "USPS COLLECTION BOX - BLUE BOX", "address": {"city": "MIDDLETWN SPG", "state": "VT", "street": "17 SOUTH ST", "postcode": "05757"}}},
{"geometry": {"type": "Point", "coordinates": [-73.1184779701, 43.4838671761]}, "type": "Feature", "properties": {"collection_times": [{"days": "Mon-Fri", "time": "2:30pm"}, {"days": "Sat", "time": "11:00am"}, {"days": "Sun", "time": "Closed"}], "id": "0575700001", "name": "USPS COLLECTION BOX - PO LOBBY", "address": {"city": "MIDDLETWN SPG", "state": "VT", "street": "17 SOUTH ST", "postcode": "05757"}}},
{"geometry": {"type": "Point", "coordinates": [-72.8256140021, 43.4467589364]}, "type": "Feature", "properties": {"collection_times": [{"days": "Mon-Fri", "time": "4:15pm"}, {"days": "Sat", "time": "10:15am"}, {"days": "Sun", "time": "Closed"}], "id": "0575800000", "name": "USPS COLLECTION BOX - BLUE BOX", "address": {"city": "MOUNT HOLLY", "state": "VT", "street": "53 BELMONT RD", "postcode": "05758"}}},
{"geometry": {"type": "Point", "coordinates": [-72.8256140021, 43.4467589364]}, "type": "Feature", "properties": {"collection_times": [{"days": "Mon-Fri", "time": "4:15pm"}, {"days": "Sat", "time": "10:15am"}, {"days": "Sun", "time": "Closed"}], "id": "0575800001", "name": "USPS COLLECTION BOX - PO LOBBY", "address": {"city": "MOUNT HOLLY", "state": "VT", "street": "53 BELMONT RD", "postcode": "05758"}}},
{"geometry": {"type": "Point", "coordinates": [-72.967047393, 43.5648513639]}, "type": "Feature", "properties": {"collection_times": [{"days": "Mon-Fri", "time": "4:30pm"}, {"days": "Sat", "time": "10:00am"}, {"days": "Sun", "time": "Closed"}], "id": "0575900000", "name": "USPS COLLECTION BOX - BLUE BOX", "address": {"city": "NORTH CLARENDON", "state": "VT", "street": "47 MOULTON AVE", "postcode": "05759"}}},
{"geometry": {"type": "Point", "coordinates": [-72.967047393, 43.5648513639]}, "type": "Feature", "properties": {"collection_times": [{"days": "Mon-Fri", "time": "4:30pm"}, {"days": "Sat", "time": "10:00am"}, {"days": "Sun", "time": "Closed"}], "id": "0575900001", "name": "USPS COLLECTION BOX - PO LOBBY", "address": {"city": "NORTH CLARENDON", "state": "VT", "street": "47 MOULTON AVE", "postcode": "05759"}}},
{"geometry": {"type": "Point", "coordinates": [-73.2968930241, 43.8038433807]}, "type": "Feature", "properties": {"collection_times": [{"days": "Mon-Fri", "time": "4:00pm"}, {"days": "Sat", "time": "11:00am"}, {"days": "Sun", "time": "Closed"}], "id": "0576000000", "name": "USPS COLLECTION BOX - BLUE BOX", "address": {"city": "ORWELL", "state": "VT", "street": "538 MAIN ST", "postcode": "05760"}}},
{"geometry": {"type": "Point", "coordinates": [-73.2968930241, 43.8038433807]}, "type": "Feature", "properties": {"collection_times": [{"days": "Mon-Fri", "time": "2:15pm"}, {"days": "Sat", "time": "11:00am"}, {"days": "Sun", "time": "Closed"}], "id": "0576000001", "name": "USPS COLLECTION BOX - PO LOBBY", "address": {"city": "ORWELL", "state": "VT", "street": "538 MAIN ST", "postcode": "05760"}}},
{"geometry": {"type": "Point", "coordinates": [-73.1777347505, 43.3467716958]}, "type": "Feature", "properties": {"collection_times": [{"days": "Mon-Fri", "time": "2:00pm"}, {"days": "Sat", "time": "10:45am"}, {"days": "Sun", "time": "Closed"}], "id": "0576100000", "name": "USPS COLLECTION BOX - BLUE BOX", "address": {"city": "PAWLET", "state": "VT", "street": "5707 VT ROUTE 30", "postcode": "05761"}}},
{"geometry": {"type": "Point", "coordinates": [-73.1777347505, 43.3467716958]}, "type": "Feature", "properties": {"collection_times": [{"days": "Mon-Fri", "time": "2:00pm"}, {"days": "Sat", "time": "10:45am"}, {"days": "Sun", "time": "Closed"}], "id": "0576100002", "name": "USPS COLLECTION BOX - PO LOBBY", "address": {"city": "PAWLET", "state": "VT", "street": "5707 VT ROUTE 30 LBBY MIXED", "postcode": "05761"}}},
{"geometry": {"type": "Point", "coordinates": [-72.8245992226, 43.717861856]}, "type": "Feature", "properties": {"collection_times": [{"days": "Mon-Fri", "time": "4:30pm"}, {"days": "Sat", "time": "11:30am"}, {"days": "Sun", "time": "Closed"}], "id": "0576200000", "name": "USPS COLLECTION BOX - BLUE BOX", "address": {"city": "PITTSFIELD", "state": "VT", "street": "3934 ROUTE 100", "postcode": "05762"}}},
{"geometry": {"type": "Point", "coordinates": [-72.8245992226, 43.717861856]}, "type": "Feature", "properties": {"collection_times": [{"days": "Mon-Fri", "time": "4:30pm"}, {"days": "Sat", "time": "11:30am"}, {"days": "Sun", "time": "Closed"}], "id": "0576200001", "name": "USPS COLLECTION BOX - PO LOBBY", "address": {"city": "PITTSFIELD", "state": "VT", "street": "3934 ROUTE 100", "postcode": "05762"}}},
{"geometry": {"type": "Point", "coordinates": [-73.027239894, 43.7061380679]}, "type": "Feature", "properties": {"collection_times": [{"days": "Mon-Fri", "time": "4:30pm"}, {"days": "Sat", "time": "11:00am"}, {"days": "Sun", "time": "Closed"}], "id": "0576300001", "name": "USPS COLLECTION BOX - BLUE BOX", "address": {"city": "PITTSFORD", "state": "VT", "street": "853 ARCH ST", "postcode": "05763"}}},
{"geometry": {"type": "Point", "coordinates": [-73.027239894, 43.7061380679]}, "type": "Feature", "properties": {"collection_times": [{"days": "Mon-Fri", "time": "4:30pm"}, {"days": "Sat", "time": "11:00am"}, {"days": "Sun", "time": "Closed"}], "id": "0576300003", "name": "USPS COLLECTION BOX - PO LOBBY", "address": {"city": "PITTSFORD", "state": "VT", "street": "853 ARCH ST", "postcode": "05763"}}},
{"geometry": {"type": "Point", "coordinates": [-73.2353921705, 43.5170408944]}, "type": "Feature", "properties": {"collection_times": [{"days": "Mon-Fri", "time": "4:45pm"}, {"days": "Sat", "time": "1:00pm"}, {"days": "Sun", "time": "Closed"}], "id": "0576400001", "name": "USPS COLLECTION BOX - BLUE BOX", "address": {"city": "POULTNEY", "state": "VT", "street": "123 MAIN ST", "postcode": "05764"}}},
{"geometry": {"type": "Point", "coordinates": [-72.6626876286, 44.0752034871]}, "type": "Feature", "properties": {"collection_times": [{"days": "Mon-Sat", "time": "9:00am"}, {"days": "Sun", "time": "Closed"}], "id": "0576400003", "name": "USPS COLLECTION BOX - BLUE BOX", "address": {"city": "POULTNEY", "state": "VT", "street": "298 E MAIN ST", "postcode": "05764"}}},
{"geometry": {"type": "Point", "coordinates": [-73.191301575, 43.5298456494]}, "type": "Feature", "properties": {"collection_times": [{"days": "Mon-Sat", "time": "8:30am"}, {"days": "Sun", "time": "Closed"}], "id": "0576400004", "name": "USPS COLLECTION BOX - BLUE BOX", "address": {"city": "POULTNEY", "state": "VT", "street": "1 AUTUMN WAY", "postcode": "05764"}}},
{"geometry": {"type": "Point", "coordinates": [-73.2049984058, 43.5262466811]}, "type": "Feature", "properties": {"collection_times": [{"days": "Mon-Fri", "time": "4:15pm"}, {"days": "Sat", "time": "10:30am"}, {"days": "Sun", "time": "Closed"}], "id": "0576400007", "name": "USPS COLLECTION BOX - BLUE BOX", "address": {"city": "POULTNEY", "state": "VT", "street": "11 ON THE GRN", "postcode": "05764"}}},
{"geometry": {"type": "Point", "coordinates": [-73.2353921705, 43.5170408944]}, "type": "Feature", "properties": {"collection_times": [{"days": "Mon-Fri", "time": "4:45pm"}, {"days": "Sat", "time": "1:00pm"}, {"days": "Sun", "time": "Closed"}], "id": "0576400008", "name": "USPS COLLECTION BOX - PO LOBBY", "address": {"city": "POULTNEY", "state": "VT", "street": "123 MAIN ST LBBY MIXED", "postcode": "05764"}}},
{"geometry": {"type": "Point", "coordinates": [-73.032795869, 43.6566724256]}, "type": "Feature", "properties": {"collection_times": [{"days": "Mon-Fri", "time": "4:30pm"}, {"days": "Sat", "time": "11:00am"}, {"days": "Sun", "time": "Closed"}], "id": "0576500002", "name": "USPS COLLECTION BOX - BLUE BOX", "address": {"city": "PROCTOR", "state": "VT", "street": "29 MAIN ST", "postcode": "05765"}}},
{"geometry": {"type": "Point", "coordinates": [-73.0355318397, 43.6609824333]}, "type": "Feature", "properties": {"collection_times": [{"days": "Mon-Sat", "time": "2:45pm"}, {"days": "Sun", "time": "Closed"}], "id": "0576500010", "name": "USPS COLLECTION BOX - BLUE BOX", "address": {"city": "PROCTOR", "state": "VT", "street": "33 MAIN ST", "postcode": "05765"}}},
{"geometry": {"type": "Point", "coordinates": [-73.032795869, 43.6566724256]}, "type": "Feature", "properties": {"collection_times": [{"days": "Mon-Fri", "time": "4:30pm"}, {"days": "Sat", "time": "11:00am"}, {"days": "Sun", "time": "Closed"}], "id": "0576500011", "name": "USPS COLLECTION BOX - PO LOBBY", "address": {"city": "PROCTOR", "state": "VT", "street": "29 MAIN ST", "postcode": "05765"}}},
{"geometry": {"type": "Point", "coordinates": [-72.8082982146, 43.8745038707]}, "type": "Feature", "properties": {"collection_times": [{"days": "Mon-Fri", "time": "4:30pm"}, {"days": "Sat", "time": "11:00am"}, {"days": "Sun", "time": "Closed"}], "id": "0576700001", "name": "USPS COLLECTION BOX - BLUE BOX", "address": {"city": "ROCHESTER", "state": "VT", "street": "46 PARK ST", "postcode": "05767"}}},
{"geometry": {"type": "Point", "coordinates": [-72.8082982146, 43.8745038707]}, "type": "Feature", "properties": {"collection_times": [{"days": "Mon-Fri", "time": "4:45pm"}, {"days": "Sat", "time": "11:00am"}, {"days": "Sun", "time": "Closed"}], "id": "0576700002", "name": "USPS COLLECTION BOX - PO LOBBY", "address": {"city": "ROCHESTER", "state": "VT", "street": "46 PARK ST", "postcode": "05767"}}},
{"geometry": {"type": "Point", "coordinates": [-73.2239540561, 43.2606736665]}, "type": "Feature", "properties": {"collection_times": [{"days": "Mon-Fri", "time": "4:30pm"}, {"days": "Sat", "time": "11:00am"}, {"days": "Sun", "time": "Closed"}], "id": "0576800000", "name": "USPS COLLECTION BOX - BLUE BOX", "address": {"city": "RUPERT", "state": "VT", "street": "84 MAIN ST", "postcode": "05768"}}},
{"geometry": {"type": "Point", "coordinates": [-73.1007178869, 43.8962416293]}, "type": "Feature", "properties": {"collection_times": [{"days": "Mon-Fri", "time": "4:00pm"}, {"days": "Sat", "time": "10:15am"}, {"days": "Sun", "time": "Closed"}], "id": "0576900000", "name": "USPS COLLECTION BOX - BLUE BOX", "address": {"city": "SALISBURY", "state": "VT", "street": "935 MAPLE ST", "postcode": "05769"}}},
{"geometry": {"type": "Point", "coordinates": [-73.1007178869, 43.8962416293]}, "type": "Feature", "properties": {"collection_times": [{"days": "Mon-Fri", "time": "2:30pm"}, {"days": "Sat", "time": "10:15am"}, {"days": "Sun", "time": "Closed"}], "id": "0576900002", "name": "USPS COLLECTION BOX - PO LOBBY", "address": {"city": "SALISBURY", "state": "VT", "street": "935 MAPLE ST", "postcode": "05769"}}},
{"geometry": {"type": "Point", "coordinates": [-73.3105656638, 43.8941587488]}, "type": "Feature", "properties": {"collection_times": [{"days": "Mon-Fri", "time": "4:15pm"}, {"days": "Sat", "time": "11:00am"}, {"days": "Sun", "time": "Closed"}], "id": "0577000000", "name": "USPS COLLECTION BOX - BLUE BOX", "address": {"city": "SHOREHAM", "state": "VT", "street": "75 MAIN ST", "postcode": "05770"}}},
{"geometry": {"type": "Point", "coordinates": [-73.3105656638, 43.8941587488]}, "type": "Feature", "properties": {"collection_times": [{"days": "Mon-Fri", "time": "2:30pm"}, {"days": "Sat", "time": "11:00am"}, {"days": "Sun", "time": "Closed"}], "id": "0577000001", "name": "USPS COLLECTION BOX - PO LOBBY", "address": {"city": "SHOREHAM", "state": "VT", "street": "75 MAIN ST", "postcode": "05770"}}},
{"geometry": {"type": "Point", "coordinates": [-72.765479466, 43.7757611178]}, "type": "Feature", "properties": {"collection_times": [{"days": "Mon-Fri", "time": "4:15pm"}, {"days": "Sat", "time": "11:15am"}, {"days": "Sun", "time": "Closed"}], "id": "0577200000", "name": "USPS COLLECTION BOX - BLUE BOX", "address": {"city": "STOCKBRIDGE", "state": "VT", "street": "1720 VT ROUTE 100", "postcode": "05772"}}},
{"geometry": {"type": "Point", "coordinates": [-72.765479466, 43.7757611178]}, "type": "Feature", "properties": {"collection_times": [{"days": "Mon-Fri", "time": "4:15pm"}, {"days": "Sat", "time": "11:15am"}, {"days": "Sun", "time": "Closed"}], "id": "0577200001", "name": "USPS COLLECTION BOX - PO LOBBY", "address": {"city": "STOCKBRIDGE", "state": "VT", "street": "1720 VT ROUTE 100", "postcode": "05772"}}},
{"geometry": {"type": "Point", "coordinates": [-72.9769546743, 43.4735979094]}, "type": "Feature", "properties": {"collection_times": [{"days": "Mon-Fri", "time": "4:45pm"}, {"days": "Sat", "time": "12:00pm"}, {"days": "Sun", "time": "Closed"}], "id": "0577300000", "name": "USPS COLLECTION BOX - BLUE BOX", "address": {"city": "WALLINGFORD", "state": "VT", "street": "137 N MAIN ST UNIT A", "postcode": "05773"}}},
{"geometry": {"type": "Point", "coordinates": [-72.9770098193, 43.4736995015]}, "type": "Feature", "properties": {"collection_times": [{"days": "Mon-Fri", "time": "4:45pm"}, {"days": "Sat", "time": "12:00pm"}, {"days": "Sun", "time": "Closed"}], "id": "0577300002", "name": "USPS COLLECTION BOX - PO LOBBY", "address": {"city": "WALLINGFORD", "state": "VT", "street": "137 N MAIN ST UNIT A", "postcode": "05773"}}},
{"geometry": {"type": "Point", "coordinates": [-73.20505251, 43.4184065393]}, "type": "Feature", "properties": {"collection_times": [{"days": "Mon-Fri", "time": "4:15pm"}, {"days": "Sat", "time": "10:00am"}, {"days": "Sun", "time": "Closed"}], "id": "0577400002", "name": "USPS COLLECTION BOX - BLUE BOX", "address": {"city": "WELLS", "state": "VT", "street": "10 NORTH ST UNIT 2", "postcode": "05774"}}},
{"geometry": {"type": "Point", "coordinates": [-73.20505251, 43.4184065393]}, "type": "Feature", "properties": {"collection_times": [{"days": "Mon-Fri", "time": "4:15pm"}, {"days": "Sat", "time": "10:00am"}, {"days": "Sun", "time": "Closed"}], "id": "0577400003", "name": "USPS COLLECTION BOX - PO LOBBY", "address": {"city": "WELLS", "state": "VT", "street": "10 NORTH ST UNIT 2", "postcode": "05774"}}},
{"geometry": {"type": "Point", "coordinates": [-73.2516614051, 43.3532602257]}, "type": "Feature", "properties": {"collection_times": [{"days": "Mon-Fri", "time": "4:30pm"}, {"days": "Sat", "time": "10:15am"}, {"days": "Sun", "time": "Closed"}], "id": "0577500000", "name": "USPS COLLECTION BOX - BLUE BOX", "address": {"city": "WEST PAWLET", "state": "VT", "street": "2841 VT ROUTE 153", "postcode": "05775"}}},
{"geometry": {"type": "Point", "coordinates": [-73.2516614051, 43.3532602257]}, "type": "Feature", "properties": {"collection_times": [{"days": "Mon-Fri", "time": "4:45pm"}, {"days": "Sat", "time": "10:15am"}, {"days": "Sun", "time": "Closed"}], "id": "0577500001", "name": "USPS COLLECTION BOX - PO LOBBY", "address": {"city": "WEST PAWLET", "state": "VT", "street": "2841 VT ROUTE 153", "postcode": "05775"}}},
{"geometry": {"type": "Point", "coordinates": [-73.2428282505, 43.2392005052]}, "type": "Feature", "properties": {"collection_times": [{"days": "Mon-Fri", "time": "4:15pm"}, {"days": "Sat", "time": "11:30am"}, {"days": "Sun", "time": "Closed"}], "id": "0577600000", "name": "USPS COLLECTION BOX - BLUE BOX", "address": {"city": "WEST RUPERT", "state": "VT", "street": "1151 STATE HWY 153", "postcode": "05776"}}},
{"geometry": {"type": "Point", "coordinates": [-73.2428282505, 43.2392005052]}, "type": "Feature", "properties": {"collection_times": [{"days": "Mon-Fri", "time": "4:15pm"}, {"days": "Sat", "time": "11:30am"}, {"days": "Sun", "time": "Closed"}], "id": "0577600001", "name": "USPS COLLECTION BOX - PO LOBBY", "address": {"city": "WEST RUPERT", "state": "VT", "street": "1151 STATE HWY 153", "postcode": "05776"}}},
{"geometry": {"type": "Point", "coordinates": [-73.0432876415, 43.592543311]}, "type": "Feature", "properties": {"collection_times": [{"days": "Mon-Fri", "time": "4:45pm"}, {"days": "Sat", "time": "11:15am"}, {"days": "Sun", "time": "Closed"}], "id": "0577700001", "name": "USPS COLLECTION BOX - BLUE BOX", "address": {"city": "WEST RUTLAND", "state": "VT", "street": "66 WESTWAY MALL DR", "postcode": "05777"}}},
{"geometry": {"type": "Point", "coordinates": [-73.0432876415, 43.592543311]}, "type": "Feature", "properties": {"collection_times": [{"days": "Mon-Fri", "time": "5:00pm"}, {"days": "Sat", "time": "11:30am"}, {"days": "Sun", "time": "Closed"}], "id": "0577700004", "name": "USPS COLLECTION BOX - PO LOBBY", "address": {"city": "WEST RUTLAND", "state": "VT", "street": "66 WESTWAY MALL DR", "postcode": "05777"}}},
{"geometry": {"type": "Point", "coordinates": [-73.2005765052, 43.8638099365]}, "type": "Feature", "properties": {"collection_times": [{"days": "Mon-Fri", "time": "4:30pm"}, {"days": "Sat", "time": "11:00am"}, {"days": "Sun", "time": "Closed"}], "id": "0577800000", "name": "USPS COLLECTION BOX - BLUE BOX", "address": {"city": "WHITING", "state": "VT", "street": "3 S MAIN ST", "postcode": "05778"}}},
{"geometry": {"type": "Point", "coordinates": [-73.2005765052, 43.8638099365]}, "type": "Feature", "properties": {"collection_times": [{"days": "Mon-Fri", "time": "4:30pm"}, {"days": "Sat", "time": "11:00am"}, {"days": "Sun", "time": "Closed"}], "id": "0577800001", "name": "USPS COLLECTION BOX - PO LOBBY", "address": {"city": "WHITING", "state": "VT", "street": "3 S MAIN ST", "postcode": "05778"}}}
]}
