{"type": "FeatureCollection", "features": [
{"geometry": {"type": "Point", "coordinates": [-72.0208576648, 44.4182379613]}, "type": "Feature", "properties": {"collection_times": [{"days": "Mon-Fri", "time": "6:00pm"}, {"days": "Sat", "time": "5:45pm"}, {"days": "Sun", "time": "Closed"}], "id": "0581900000", "name": "USPS COLLECTION BOX - BLUE BOX", "address": {"city": "ST JOHNSBURY", "state": "VT", "street": "1153 MAIN ST", "postcode": "05819"}}},
{"geometry": {"type": "Point", "coordinates": [-72.0208576648, 44.4182379613]}, "type": "Feature", "properties": {"collection_times": [{"days": "Mon-Fri", "time": "6:00pm"}, {"days": "Sat", "time": "5:45pm"}, {"days": "Sun", "time": "Closed"}], "id": "0581900001", "name": "USPS COLLECTION BOX - BLUE BOX", "address": {"city": "ST JOHNSBURY", "state": "VT", "street": "1153 MAIN ST", "postcode": "05819"}}},
{"geometry": {"type": "Point", "coordinates": [-72.0094397449, 44.4452602929]}, "type": "Feature", "properties": {"collection_times": [{"days": "Mon-Fri", "time": "4:00pm"}, {"days": "Sat", "time": "9:30am"}, {"days": "Sun", "time": "Closed"}], "id": "0581900005", "name": "USPS COLLECTION BOX - BLUE BOX", "address": {"city": "ST JOHNSBURY", "state": "VT", "street": "1315 HOSPITAL DR", "postcode": "05819"}}},
{"geometry": {"type": "Point", "coordinates": [-72.0380011061, 44.4336306233]}, "type": "Feature", "properties": {"collection_times": [{"days": "Mon-Sat", "time": "10:00am"}, {"days": "Sun", "time": "Closed"}], "id": "0581900008", "name": "USPS COLLECTION BOX - BLUE BOX", "address": {"city": "ST JOHNSBURY", "state": "VT", "street": "347 EMERSON FALLS RD", "postcode": "05819"}}},
{"geometry": {"type": "Point", "coordinates": [-72.0199556036, 44.4028318963]}, "type": "Feature", "properties": {"collection_times": [{"days": "Mon-Fri", "time": "5:00pm"}, {"days": "Sat", "time": "9:00am"}, {"days": "Sun", "time": "Closed"}], "id": "0581900011", "name": "USPS COLLECTION BOX - BLUE BOX", "address": {"city": "ST JOHNSBURY", "state": "VT", "street": "1394 MAIN ST", "postcode": "05819"}}},
{"geometry": {"type": "Point", "coordinates": [-72.0062970097, 44.4208763381]}, "type": "Feature", "properties": {"collection_times": [{"days": "Mon-Fri", "time": "5:00pm"}, {"days": "Sat", "time": "8:30am"}, {"days": "Sun", "time": "Closed"}], "id": "0581900014", "name": "USPS COLLECTION BOX - BLUE BOX", "address": {"city": "ST JOHNSBURY", "state": "VT", "street": "364 RAILROAD ST", "postcode": "05819"}}},
{"geometry": {"type": "Point", "coordinates": [-72.0188910671, 44.4194804563]}, "type": "Feature", "properties": {"collection_times": [{"days": "Mon-Fri", "time": "5:00pm"}, {"days": "Sat-Sun", "time": "Closed"}], "id": "0581900018", "name": "USPS COLLECTION BOX - BLUE BOX", "address": {"city": "ST JOHNSBURY", "state": "VT", "street": "90 PROSPECT ST", "postcode": "05819"}}},
{"geometry": {"type": "Point", "coordinates": [-72.0196451319, 44.4188661125]}, "type": "Feature", "properties": {"collection_times": [{"days": "Mon-Fri", "time": "5:00pm"}, {"days": "Sat", "time": "8:30am"}, {"days": "Sun", "time": "Closed"}], "id": "0581900019", "name": "USPS COLLECTION BOX - BLUE BOX", "address": {"city": "ST JOHNSBURY", "state": "VT", "street": "204 EASTERN AVE", "postcode": "05819"}}},
{"geometry": {"type": "Point", "coordinates": [-72.0062970097, 44.4208763381]}, "type": "Feature", "properties": {"collection_times": [{"days": "Mon-Fri", "time": "5:00pm"}, {"days": "Sat", "time": "8:30am"}, {"days": "Sun", "time": "Closed"}], "id": "0581900020", "name": "USPS COLLECTION BOX - BLUE BOX", "address": {"city": "ST JOHNSBURY", "state": "VT", "street": "67 EASTERN AVE", "postcode": "05819"}}},
{"geometry": {"type": "Point", "coordinates": [-72.0154941289, 44.4198136626]}, "type": "Feature", "properties": {"collection_times": [{"days": "Mon-Fri", "time": "5:00pm"}, {"days": "Sat", "time": "8:30am"}, {"days": "Sun", "time": "Closed"}], "id": "0581900024", "name": "USPS COLLECTION BOX - BLUE BOX", "address": {"city": "ST JOHNSBURY", "state": "VT", "street": "502 RAILROAD ST", "postcode": "05819"}}},
{"geometry": {"type": "Point", "coordinates": [-72.0078131763, 44.4206618442]}, "type": "Feature", "properties": {"collection_times": [{"days": "Mon-Fri", "time": "5:00pm"}, {"days": "Sat", "time": "8:30am"}, {"days": "Sun", "time": "Closed"}], "id": "0581900026", "name": "USPS COLLECTION BOX - BLUE BOX", "address": {"city": "ST JOHNSBURY", "state": "VT", "street": "385 PORTLAND ST", "postcode": "05819"}}},
{"geometry": {"type": "Point", "coordinates": [-72.0014949925, 44.4213479604]}, "type": "Feature", "properties": {"collection_times": [{"days": "Mon-Fri", "time": "5:00pm"}, {"days": "Sat", "time": "9:00am"}, {"days": "Sun", "time": "Closed"}], "id": "0581900027", "name": "USPS COLLECTION BOX - BLUE BOX", "address": {"city": "ST JOHNSBURY", "state": "VT", "street": "702 PORTLAND ST", "postcode": "05819"}}},
{"geometry": {"type": "Point", "coordinates": [-72.0134393291, 44.4255817705]}, "type": "Feature", "properties": {"collection_times": [{"days": "Mon-Fri", "time": "5:00pm"}, {"days": "Sat", "time": "1:00pm"}, {"days": "Sun", "time": "Closed"}], "id": "0581900028", "name": "USPS COLLECTION BOX - BLUE BOX", "address": {"city": "ST JOHNSBURY", "state": "VT", "street": "77 CONCORD AVE", "postcode": "05819"}}},
{"geometry": {"type": "Point", "coordinates": [-72.0197243901, 44.4161074522]}, "type": "Feature", "properties": {"collection_times": [{"days": "Mon-Fri", "time": "5:00pm"}, {"days": "Sat-Sun", "time": "Closed"}], "id": "0581900029", "name": "USPS COLLECTION BOX - BLUE BOX", "address": {"city": "ST JOHNSBURY", "state": "VT", "street": "1000 MAIN ST", "postcode": "05819"}}},
{"geometry": {"type": "Point", "coordinates": [-72.0179982426, 44.4292739825]}, "type": "Feature", "properties": {"collection_times": [{"days": "Mon-Fri", "time": "4:00pm"}, {"days": "Sat", "time": "10:00am"}, {"days": "Sun", "time": "Closed"}], "id": "0581900031", "name": "USPS COLLECTION BOX - BLUE BOX", "address": {"city": "ST JOHNSBURY", "state": "VT", "street": "1998 MEMORIAL DR", "postcode": "05819"}}},
{"geometry": {"type": "Point", "coordinates": [-72.0154243343, 44.4446617157]}, "type": "Feature", "properties": {"collection_times": [{"days": "Mon-Fri", "time": "4:00pm"}, {"days": "Sat", "time": "9:30am"}, {"days": "Sun", "time": "Closed"}], "id": "0581900035", "name": "USPS COLLECTION BOX - BLUE BOX", "address": {"city": "ST JOHNSBURY", "state": "VT", "street": "857 MEMORIAL DR", "postcode": "05819"}}},
{"geometry": {"type": "Point", "coordinates": [-72.0062970097, 44.4208763381]}, "type": "Feature", "properties": {"collection_times": [{"days": "Mon-Fri", "time": "4:00pm"}, {"days": "Sat-Sun", "time": "Closed"}], "id": "0581900040", "name": "USPS COLLECTION BOX - BLUE BOX", "address": {"city": "ST JOHNSBURY", "state": "VT", "street": "2176 PORTLAND ST", "postcode": "05819"}}},
{"geometry": {"type": "Point", "coordinates": [-72.0208576648, 44.4182379613]}, "type": "Feature", "properties": {"collection_times": [{"days": "Mon-Fri", "time": "6:00pm"}, {"days": "Sat", "time": "5:45pm"}, {"days": "Sun", "time": "Closed"}], "id": "0581900042", "name": "USPS COLLECTION BOX - PO LOBBY", "address": {"city": "ST JOHNSBURY", "state": "VT", "street": "1153 MAIN ST LBBY MIXED", "postcode": "05819"}}},
{"geometry": {"type": "Point", "coordinates": [-72.3795674947, 44.7314523724]}, "type": "Feature", "properties": {"collection_times": [{"days": "Mon-Fri", "time": "4:30pm"}, {"days": "Sat", "time": "10:30am"}, {"days": "Sun", "time": "Closed"}], "id": "0582000000", "name": "USPS COLLECTION BOX - BLUE BOX", "address": {"city": "ALBANY", "state": "VT", "street": "803 MAIN ST", "postcode": "05820"}}},
{"geometry": {"type": "Point", "coordinates": [-72.3795674947, 44.7314523724]}, "type": "Feature", "properties": {"collection_times": [{"days": "Mon-Fri", "time": "4:30pm"}, {"days": "Sat", "time": "10:30am"}, {"days": "Sun", "time": "Closed"}], "id": "0582000001", "name": "USPS COLLECTION BOX - PO LOBBY", "address": {"city": "ALBANY", "state": "VT", "street": "803 MAIN ST", "postcode": "05820"}}},
{"geometry": {"type": "Point", "coordinates": [-72.0495527004, 44.2968060406]}, "type": "Feature", "properties": {"collection_times": [{"days": "Mon-Fri", "time": "4:40pm"}, {"days": "Sat", "time": "11:00am"}, {"days": "Sun", "time": "Closed"}], "id": "0582100000", "name": "USPS COLLECTION BOX - BLUE BOX", "address": {"city": "BARNET", "state": "VT", "street": "30 MONUMENT CIR", "postcode": "05821"}}},
{"geometry": {"type": "Point", "coordinates": [-72.0495527004, 44.2968060406]}, "type": "Feature", "properties": {"collection_times": [{"days": "Mon-Fri", "time": "2:30pm"}, {"days": "Sat", "time": "11:00am"}, {"days": "Sun", "time": "Closed"}], "id": "0582100002", "name": "USPS COLLECTION BOX - PO LOBBY", "address": {"city": "BARNET", "state": "VT", "street": "30 MONUMENT CIR", "postcode": "05821"}}},
{"geometry": {"type": "Point", "coordinates": [-72.1791091833, 44.7503004575]}, "type": "Feature", "properties": {"collection_times": [{"days": "Mon-Fri", "time": "5:00pm"}, {"days": "Sat", "time": "11:00am"}, {"days": "Sun", "time": "Closed"}], "id": "0582200001", "name": "USPS COLLECTION BOX - BLUE BOX", "address": {"city": "BARTON", "state": "VT", "street": "405 MAIN ST", "postcode": "05822"}}},
{"geometry": {"type": "Point", "coordinates": [-72.6626876286, 44.0752034871]}, "type": "Feature", "properties": {"collection_times": [{"days": "Mon-Sat", "time": "1:00pm"}, {"days": "Sun", "time": "Closed"}], "id": "0582200003", "name": "USPS COLLECTION BOX - BLUE BOX", "address": {"city": "BARTON", "state": "VT", "street": "2984 GLOVER ST", "postcode": "05822"}}},
{"geometry": {"type": "Point", "coordinates": [-72.1791091833, 44.7503004575]}, "type": "Feature", "properties": {"collection_times": [{"days": "Mon-Fri", "time": "4:45pm"}, {"days": "Sat", "time": "11:00am"}, {"days": "Sun", "time": "Closed"}], "id": "0582200004", "name": "USPS COLLECTION BOX - PO LOBBY", "address": {"city": "BARTON", "state": "VT", "street": "405 MAIN ST", "postcode": "05822"}}},
{"geometry": {"type": "Point", "coordinates": [-72.1421768723, 45.0051987519]}, "type": "Feature", "properties": {"collection_times": [{"days": "Mon-Fri", "time": "4:45pm"}, {"days": "Sat", "time": "11:45am"}, {"days": "Sun", "time": "Closed"}], "id": "0582300000", "name": "USPS COLLECTION BOX - BLUE BOX", "address": {"city": "BEEBE PLAIN", "state": "VT", "street": "3141 BEEBE RD", "postcode": "05823"}}},
{"geometry": {"type": "Point", "coordinates": [-72.1421768723, 45.0051987519]}, "type": "Feature", "properties": {"collection_times": [{"days": "Mon-Fri", "time": "12:00pm"}, {"days": "Sat", "time": "11:45am"}, {"days": "Sun", "time": "Closed"}], "id": "0582300001", "name": "USPS COLLECTION BOX - PO LOBBY", "address": {"city": "BEEBE PLAIN", "state": "VT", "street": "3141 BEEBE RD", "postcode": "05823"}}},
{"geometry": {"type": "Point", "coordinates": [-71.8888276147, 44.4287875893]}, "type": "Feature", "properties": {"collection_times": [{"days": "Mon-Fri", "time": "4:30pm"}, {"days": "Sat", "time": "11:15am"}, {"days": "Sun", "time": "Closed"}], "id": "0582400000", "name": "USPS COLLECTION BOX - BLUE BOX", "address": {"city": "CONCORD", "state": "VT", "street": "343 MAIN ST", "postcode": "05824"}}},
{"geometry": {"type": "Point", "coordinates": [-71.8888276147, 44.4287875893]}, "type": "Feature", "properties": {"collection_times": [{"days": "Mon-Fri", "time": "4:30pm"}, {"days": "Sat", "time": "11:15am"}, {"days": "Sun", "time": "Closed"}], "id": "0582400001", "name": "USPS COLLECTION BOX - PO LOBBY", "address": {"city": "CONCORD", "state": "VT", "street": "343 MAIN ST", "postcode": "05824"}}},
{"geometry": {"type": "Point", "coordinates": [-72.2643236323, 44.8664208925]}, "type": "Feature", "properties": {"collection_times": [{"days": "Mon-Fri", "time": "4:45pm"}, {"days": "Sat", "time": "11:00am"}, {"days": "Sun", "time": "Closed"}], "id": "0582500000", "name": "USPS COLLECTION BOX - BLUE BOX", "address": {"city": "COVENTRY", "state": "VT", "street": "177 MAIN ST", "postcode": "05825"}}},
{"geometry": {"type": "Point", "coordinates": [-72.2643236323, 44.8664208925]}, "type": "Feature", "properties": {"collection_times": [{"days": "Mon-Fri", "time": "4:50pm"}, {"days": "Sat", "time": "11:00am"}, {"days": "Sun", "time": "Closed"}], "id": "0582500001", "name": "USPS COLLECTION BOX - PO LOBBY", "address": {"city": "COVENTRY", "state": "VT", "street": "177 MAIN ST", "postcode": "05825"}}},
{"geometry": {"type": "Point", "coordinates": [-72.371748136, 44.6346603039]}, "type": "Feature", "properties": {"collection_times": [{"days": "Mon-Fri", "time": "2:30pm"}, {"days": "Sat", "time": "10:45am"}, {"days": "Sun", "time": "Closed"}], "id": "0582600000", "name": "USPS COLLECTION BOX - PO LOBBY", "address": {"city": "CRAFTSBURY", "state": "VT", "street": "118 S CRAFTSBURY RD", "postcode": "05826"}}},
{"geometry": {"type": "Point", "coordinates": [-72.371748136, 44.6346603039]}, "type": "Feature", "properties": {"collection_times": [{"days": "Mon-Fri", "time": "2:30pm"}, {"days": "Sat", "time": "10:45am"}, {"days": "Sun", "time": "Closed"}], "id": "0582600001", "name": "USPS COLLECTION BOX - BLUE BOX", "address": {"city": "CRAFTSBURY", "state": "VT", "street": "118 S CRAFTSBURY RD", "postcode": "05826"}}},
{"geometry": {"type": "Point", "coordinates": [-72.3820812825, 44.6532150153]}, "type": "Feature", "properties": {"collection_times": [{"days": "Mon-Fri", "time": "4:00pm"}, {"days": "Sat", "time": "11:15am"}, {"days": "Sun", "time": "Closed"}], "id": "0582700000", "name": "USPS COLLECTION BOX - BLUE BOX", "address": {"city": "CRAFTSBURY CM", "state": "VT", "street": "1354 N CRAFTSBURY RD", "postcode": "05827"}}},
{"geometry": {"type": "Point", "coordinates": [-72.3820812825, 44.6532150153]}, "type": "Feature", "properties": {"collection_times": [{"days": "Mon-Fri", "time": "4:15pm"}, {"days": "Sat", "time": "11:15am"}, {"days": "Sun", "time": "Closed"}], "id": "0582700001", "name": "USPS COLLECTION BOX - PO LOBBY", "address": {"city": "CRAFTSBURY CM", "state": "VT", "street": "1354 N CRAFTSBURY RD", "postcode": "05827"}}},
{"geometry": {"type": "Point", "coordinates": [-72.1396184642, 44.4105747531]}, "type": "Feature", "properties": {"collection_times": [{"days": "Mon-Fri", "time": "4:30pm"}, {"days": "Sat", "time": "10:45am"}, {"days": "Sun", "time": "Closed"}], "id": "0582800000", "name": "USPS COLLECTION BOX - BLUE BOX", "address": {"city": "DANVILLE", "state": "VT", "street": "35 PARK ST", "postcode": "05828"}}},
{"geometry": {"type": "Point", "coordinates": [-72.1396184642, 44.4105747531]}, "type": "Feature", "properties": {"collection_times": [{"days": "Mon-Fri", "time": "4:45pm"}, {"days": "Sat", "time": "10:45am"}, {"days": "Sun", "time": "Closed"}], "id": "0582800001", "name": "USPS COLLECTION BOX - PO LOBBY", "address": {"city": "DANVILLE", "state": "VT", "street": "35 PARK ST LBBY", "postcode": "05828"}}},
{"geometry": {"type": "Point", "coordinates": [-72.1334162103, 44.9539764173]}, "type": "Feature", "properties": {"collection_times": [{"days": "Mon-Fri", "time": "4:45pm"}, {"days": "Sat", "time": "11:15am"}, {"days": "Sun", "time": "Closed"}], "id": "0582900000", "name": "USPS COLLECTION BOX - BLUE BOX", "address": {"city": "DERBY", "state": "VT", "street": "3275 US ROUTE 5", "postcode": "05829"}}},
{"geometry": {"type": "Point", "coordinates": [-72.1334162103, 44.9539764173]}, "type": "Feature", "properties": {"collection_times": [{"days": "Mon-Fri", "time": "4:45pm"}, {"days": "Sat", "time": "11:15am"}, {"days": "Sun", "time": "Closed"}], "id": "0582900001", "name": "USPS COLLECTION BOX - PO LOBBY", "address": {"city": "DERBY", "state": "VT", "street": "3275 US ROUTE 5", "postcode": "05829"}}},
{"geometry": {"type": "Point", "coordinates": [-72.1001762464, 45.0046567453]}, "type": "Feature", "properties": {"collection_times": [{"days": "Mon-Fri", "time": "4:45pm"}, {"days": "Sat", "time": "12:00pm"}, {"days": "Sun", "time": "Closed"}], "id": "0583000000", "name": "USPS COLLECTION BOX - BLUE BOX", "address": {"city": "DERBY LINE", "state": "VT", "street": "84 MAIN ST", "postcode": "05830"}}},
{"geometry": {"type": "Point", "coordinates": [-72.1001762464, 45.0046567453]}, "type": "Feature", "properties": {"collection_times": [{"days": "Mon-Fri", "time": "4:45pm"}, {"days": "Sat", "time": "12:00pm"}, {"days": "Sun", "time": "Closed"}], "id": "0583000001", "name": "USPS COLLECTION BOX - PO LOBBY", "address": {"city": "DERBY LINE", "state": "VT", "street": "84 MAIN ST", "postcode": "05830"}}},
{"geometry": {"type": "Point", "coordinates": [-71.9432070554, 44.5883178865]}, "type": "Feature", "properties": {"collection_times": [{"days": "Mon-Fri", "time": "4:45pm"}, {"days": "Sat", "time": "11:30am"}, {"days": "Sun", "time": "Closed"}], "id": "0583200000", "name": "USPS COLLECTION BOX - BLUE BOX", "address": {"city": "EAST BURKE", "state": "VT", "street": "552 VT ROUTE 114", "postcode": "05832"}}},
{"geometry": {"type": "Point", "coordinates": [-71.9432070554, 44.5883178865]}, "type": "Feature", "properties": {"collection_times": [{"days": "Mon-Fri", "time": "4:45pm"}, {"days": "Sat", "time": "11:30am"}, {"days": "Sun", "time": "Closed"}], "id": "0583200001", "name": "USPS COLLECTION BOX - PO LOBBY", "address": {"city": "EAST BURKE", "state": "VT", "street": "552 VT ROUTE 114 LBBY", "postcode": "05832"}}},
{"geometry": {"type": "Point", "coordinates": [-71.9893897734, 44.8381079526]}, "type": "Feature", "properties": {"collection_times": [{"days": "Mon-Fri", "time": "4:15pm"}, {"days": "Sat", "time": "10:45am"}, {"days": "Sun", "time": "Closed"}], "id": "0583300000", "name": "USPS COLLECTION BOX - BLUE BOX", "address": {"city": "EAST CHARLESTON", "state": "VT", "street": "5 MILL ST", "postcode": "05833"}}},
{"geometry": {"type": "Point", "coordinates": [-71.9893897734, 44.8381079526]}, "type": "Feature", "properties": {"collection_times": [{"days": "Mon-Fri", "time": "4:30pm"}, {"days": "Sat", "time": "10:45am"}, {"days": "Sun", "time": "Closed"}], "id": "0583300001", "name": "USPS COLLECTION BOX - PO LOBBY", "address": {"city": "EAST CHARLESTON", "state": "VT", "street": "5 MILL ST", "postcode": "05833"}}},
{"geometry": {"type": "Point", "coordinates": [-72.3075607825, 44.520787491]}, "type": "Feature", "properties": {"collection_times": [{"days": "Mon-Fri", "time": "4:45pm"}, {"days": "Sat", "time": "10:45am"}, {"days": "Sun", "time": "Closed"}], "id": "0583600000", "name": "USPS COLLECTION BOX - BLUE BOX", "address": {"city": "EAST HARDWICK", "state": "VT", "street": "45 MAIN ST", "postcode": "05836"}}},
{"geometry": {"type": "Point", "coordinates": [-72.3075607825, 44.520787491]}, "type": "Feature", "properties": {"collection_times": [{"days": "Mon-Fri", "time": "4:45pm"}, {"days": "Sat", "time": "10:45am"}, {"days": "Sun", "time": "Closed"}], "id": "0583600001", "name": "USPS COLLECTION BOX - PO LOBBY", "address": {"city": "EAST HARDWICK", "state": "VT", "street": "45 MAIN ST", "postcode": "05836"}}},
{"geometry": {"type": "Point", "coordinates": [-71.8909025247, 44.6447414802]}, "type": "Feature", "properties": {"collection_times": [{"days": "Mon-Fri", "time": "4:30pm"}, {"days": "Sat", "time": "11:00am"}, {"days": "Sun", "time": "Closed"}], "id": "0583700000", "name": "USPS COLLECTION BOX - BLUE BOX", "address": {"city": "EAST HAVEN", "state": "VT", "street": "472 SCHOOL ST", "postcode": "05837"}}},
{"geometry": {"type": "Point", "coordinates": [-71.8909025247, 44.6447414802]}, "type": "Feature", "properties": {"collection_times": [{"days": "Mon-Fri", "time": "4:45pm"}, {"days": "Sat", "time": "11:00am"}, {"days": "Sun", "time": "Closed"}], "id": "0583700001", "name": "USPS COLLECTION BOX - PO LOBBY", "address": {"city": "EAST HAVEN", "state": "VT", "street": "472 SCHOOL ST LBBY", "postcode": "05837"}}},
{"geometry": {"type": "Point", "coordinates": [-72.6626876286, 44.0752034871]}, "type": "Feature", "properties": {"collection_times": [{"days": "Mon-Fri", "time": "4:30pm"}, {"days": "Sat", "time": "11:15am"}, {"days": "Sun", "time": "Closed"}], "id": "0583800000", "name": "USPS COLLECTION BOX - BLUE BOX", "address": {"city": "EAST JOHNSBURY", "state": "VT", "street": "1064 US RT 2 EAST", "postcode": "05838"}}},
{"geometry": {"type": "Point", "coordinates": [-72.6626876286, 44.0752034871]}, "type": "Feature", "properties": {"collection_times": [{"days": "Mon-Fri", "time": "4:45pm"}, {"days": "Sat", "time": "11:00am"}, {"days": "Sun", "time": "Closed"}], "id": "0583800001", "name": "USPS COLLECTION BOX - PO LOBBY", "address": {"city": "EAST JOHNSBURY", "state": "VT", "street": "1064 US RT 2 EAST", "postcode": "05838"}}},
{"geometry": {"type": "Point", "coordinates": [-72.2941507597, 44.576021028]}, "type": "Feature", "properties": {"collection_times": [{"days": "Mon-Fri", "time": "4:15pm"}, {"days": "Sat", "time": "11:15am"}, {"days": "Sun", "time": "Closed"}], "id": "0584100000", "name": "USPS COLLECTION BOX - BLUE BOX", "address": {"city": "GREENSBORO", "state": "VT", "street": "12 CEMETERY RDG", "postcode": "05841"}}},
{"geometry": {"type": "Point", "coordinates": [-72.2941507597, 44.576021028]}, "type": "Feature", "properties": {"collection_times": [{"days": "Mon-Fri", "time": "4:00pm"}, {"days": "Sat", "time": "11:15am"}, {"days": "Sun", "time": "Closed"}], "id": "0584100001", "name": "USPS COLLECTION BOX - PO LOBBY", "address": {"city": "GREENSBORO", "state": "VT", "street": "12 CEMETERY RDG", "postcode": "05841"}}},
{"geometry": {"type": "Point", "coordinates": [-72.2648161413, 44.543066621]}, "type": "Feature", "properties": {"collection_times": [{"days": "Mon-Fri", "time": "4:30pm"}, {"days": "Sat", "time": "11:00am"}, {"days": "Sun", "time": "Closed"}], "id": "0584200000", "name": "USPS COLLECTION BOX - BLUE BOX", "address": {"city": "GREENSBORO BEND", "state": "VT", "street": "975 MAIN ST", "postcode": "05842"}}},
{"geometry": {"type": "Point", "coordinates": [-72.2648161413, 44.543066621]}, "type": "Feature", "properties": {"collection_times": [{"days": "Mon-Fri", "time": "4:45pm"}, {"days": "Sat", "time": "11:00am"}, {"days": "Sun", "time": "Closed"}], "id": "0584200001", "name": "USPS COLLECTION BOX - PO LOBBY", "address": {"city": "GREENSBORO BEND", "state": "VT", "street": "975 MAIN ST", "postcode": "05842"}}},
{"geometry": {"type": "Point", "coordinates": [-72.3652454105, 44.5042142359]}, "type": "Feature", "properties": {"collection_times": [{"days": "Mon-Fri", "time": "5:00pm"}, {"days": "Sat", "time": "12:00pm"}, {"days": "Sun", "time": "Closed"}], "id": "0584300000", "name": "USPS COLLECTION BOX - BLUE BOX", "address": {"city": "HARDWICK", "state": "VT", "street": "52 MILL ST", "postcode": "05843"}}},
{"geometry": {"type": "Point", "coordinates": [-72.3737130308, 44.5131786989]}, "type": "Feature", "properties": {"collection_times": [{"days": "Mon-Fri", "time": "2:00pm"}, {"days": "Sat-Sun", "time": "Closed"}], "id": "0584300001", "name": "USPS COLLECTION BOX - BLUE BOX", "address": {"city": "HARDWICK", "state": "VT", "street": "82 VT ROUTE 15 W", "postcode": "05843"}}},
{"geometry": {"type": "Point", "coordinates": [-72.3652454105, 44.5042142359]}, "type": "Feature", "properties": {"collection_times": [{"days": "Mon-Fri", "time": "5:00pm"}, {"days": "Sat", "time": "12:00pm"}, {"days": "Sun", "time": "Closed"}], "id": "0584300003", "name": "USPS COLLECTION BOX - PO LOBBY", "address": {"city": "HARDWICK", "state": "VT", "street": "52 MILL ST", "postcode": "05843"}}},
{"geometry": {"type": "Point", "coordinates": [-72.3000889009, 44.787299342]}, "type": "Feature", "properties": {"collection_times": [{"days": "Mon-Fri", "time": "4:45pm"}, {"days": "Sat", "time": "11:15am"}, {"days": "Sun", "time": "Closed"}], "id": "0584500000", "name": "USPS COLLECTION BOX - BLUE BOX", "address": {"city": "IRASBURG", "state": "VT", "street": "94 PARK AVE", "postcode": "05845"}}},
{"geometry": {"type": "Point", "coordinates": [-72.3000889009, 44.787299342]}, "type": "Feature", "properties": {"collection_times": [{"days": "Mon-Fri", "time": "3:00pm"}, {"days": "Sat", "time": "11:15am"}, {"days": "Sun", "time": "Closed"}], "id": "0584500001", "name": "USPS COLLECTION BOX - PO LOBBY", "address": {"city": "IRASBURG", "state": "VT", "street": "94 PARK AVE", "postcode": "05845"}}},
{"geometry": {"type": "Point", "coordinates": [-71.8803777388, 44.8151195111]}, "type": "Feature", "properties": {"collection_times": [{"days": "Mon-Fri", "time": "4:45pm"}, {"days": "Sat", "time": "11:45am"}, {"days": "Sun", "time": "Closed"}], "id": "0584600001", "name": "USPS COLLECTION BOX - BLUE BOX", "address": {"city": "ISLAND POND", "state": "VT", "street": "32 MAIN ST", "postcode": "05846"}}},
{"geometry": {"type": "Point", "coordinates": [-71.8803711111, 44.8150923161]}, "type": "Feature", "properties": {"collection_times": [{"days": "Mon-Fri", "time": "4:45pm"}, {"days": "Sat", "time": "11:45am"}, {"days": "Sun", "time": "Closed"}], "id": "0584600002", "name": "USPS COLLECTION BOX - PO LOBBY", "address": {"city": "ISLAND POND", "state": "VT", "street": "32 MAIN ST", "postcode": "05846"}}},
{"geometry": {"type": "Point", "coordinates": [-72.4475769673, 44.799228482]}, "type": "Feature", "properties": {"collection_times": [{"days": "Mon-Fri", "time": "4:00pm"}, {"days": "Sat", "time": "11:00am"}, {"days": "Sun", "time": "Closed"}], "id": "0584700000", "name": "USPS COLLECTION BOX - BLUE BOX", "address": {"city": "LOWELL", "state": "VT", "street": "296 HAZEN NOTCH RD", "postcode": "05847"}}},
{"geometry": {"type": "Point", "coordinates": [-72.4475769673, 44.799228482]}, "type": "Feature", "properties": {"collection_times": [{"days": "Mon-Fri", "time": "4:00pm"}, {"days": "Sat", "time": "11:00am"}, {"days": "Sun", "time": "Closed"}], "id": "0584700001", "name": "USPS COLLECTION BOX - PO LOBBY", "address": {"city": "LOWELL", "state": "VT", "street": "296 HAZEN NOTCH RD", "postcode": "05847"}}},
{"geometry": {"type": "Point", "coordinates": [-71.9065808808, 44.3549679662]}, "type": "Feature", "properties": {"collection_times": [{"days": "Mon-Fri", "time": "4:30pm"}, {"days": "Sat", "time": "11:30am"}, {"days": "Sun", "time": "Closed"}], "id": "0584800000", "name": "USPS COLLECTION BOX - BLUE BOX", "address": {"city": "LOWER WATERFORD", "state": "VT", "street": "532 MAPLE ST", "postcode": "05848"}}},
{"geometry": {"type": "Point", "coordinates": [-71.9065808808, 44.3549679662]}, "type": "Feature", "properties": {"collection_times": [{"days": "Mon-Fri", "time": "5:00pm"}, {"days": "Sat", "time": "11:30am"}, {"days": "Sun", "time": "Closed"}], "id": "0584800001", "name": "USPS COLLECTION BOX - PO LOBBY", "address": {"city": "LOWER WATERFORD", "state": "VT", "street": "532 MAPLE ST", "postcode": "05848"}}},
{"geometry": {"type": "Point", "coordinates": [-72.0119772779, 44.5144329562]}, "type": "Feature", "properties": {"collection_times": [{"days": "Mon-Fri", "time": "4:30pm"}, {"days": "Sat", "time": "11:30am"}, {"days": "Sun", "time": "Closed"}], "id": "0584900000", "name": "USPS COLLECTION BOX - BLUE BOX", "address": {"city": "LYNDON", "state": "VT", "street": "5992 MEMORIAL DR", "postcode": "05849"}}},
{"geometry": {"type": "Point", "coordinates": [-72.0119772779, 44.5144329562]}, "type": "Feature", "properties": {"collection_times": [{"days": "Mon-Fri", "time": "4:30pm"}, {"days": "Sat", "time": "11:30am"}, {"days": "Sun", "time": "Closed"}], "id": "0584900001", "name": "USPS COLLECTION BOX - PO LOBBY", "address": {"city": "LYNDON", "state": "VT", "street": "5992 MEMORIAL DR", "postcode": "05849"}}},
{"geometry": {"type": "Point", "coordinates": [-72.0124184355, 44.5379143709]}, "type": "Feature", "properties": {"collection_times": [{"days": "Mon-Fri", "time": "4:30pm"}, {"days": "Sat", "time": "10:45am"}, {"days": "Sun", "time": "Closed"}], "id": "0585000000", "name": "USPS COLLECTION BOX - BLUE BOX", "address": {"city": "LYNDON CENTER", "state": "VT", "street": "325 CENTER ST", "postcode": "05850"}}},
{"geometry": {"type": "Point", "coordinates": [-72.0124184355, 44.5379143709]}, "type": "Feature", "properties": {"collection_times": [{"days": "Mon-Fri", "time": "4:30pm"}, {"days": "Sat", "time": "10:45am"}, {"days": "Sun", "time": "Closed"}], "id": "0585000001", "name": "USPS COLLECTION BOX - PO LOBBY", "address": {"city": "LYNDON CENTER", "state": "VT", "street": "325 CENTER ST", "postcode": "05850"}}},
{"geometry": {"type": "Point", "coordinates": [-72.0029074455, 44.5339668368]}, "type": "Feature", "properties": {"collection_times": [{"days": "Mon-Fri", "time": "5:00pm"}, {"days": "Sat", "time": "12:30pm"}, {"days": "Sun", "time": "Closed"}], "id": "0585100000", "name": "USPS COLLECTION BOX - BLUE BOX", "address": {"city": "LYNDONVILLE", "state": "VT", "street": "1025 BROAD ST", "postcode": "05851"}}},
{"geometry": {"type": "Point", "coordinates": [-72.0029074455, 44.5339668368]}, "type": "Feature", "properties": {"collection_times": [{"days": "Mon-Fri", "time": "5:00pm"}, {"days": "Sat", "time": "12:30pm"}, {"days": "Sun", "time": "Closed"}], "id": "0585100005", "name": "USPS COLLECTION BOX - PO LOBBY", "address": {"city": "LYNDONVILLE", "state": "VT", "street": "1025 BROAD ST", "postcode": "05851"}}},
{"geometry": {"type": "Point", "coordinates": [-72.0145879823, 44.9132849949]}, "type": "Feature", "properties": {"collection_times": [{"days": "Mon-Fri", "time": "4:15pm"}, {"days": "Sat", "time": "11:00am"}, {"days": "Sun", "time": "Closed"}], "id": "0585300000", "name": "USPS COLLECTION BOX - BLUE BOX", "address": {"city": "MORGAN", "state": "VT", "street": "8411 VT RTE 111", "postcode": "05853"}}},
{"geometry": {"type": "Point", "coordinates": [-72.0145879823, 44.9132849949]}, "type": "Feature", "properties": {"collection_times": [{"days": "Mon-Fri", "time": "4:15pm"}, {"days": "Sat", "time": "11:00am"}, {"days": "Sun", "time": "Closed"}], "id": "0585300001", "name": "USPS COLLECTION BOX - PO LOBBY", "address": {"city": "MORGAN", "state": "VT", "street": "8411 VT RTE 111", "postcode": "05853"}}},
{"geometry": {"type": "Point", "coordinates": [-72.1985982631, 44.9380058581]}, "type": "Feature", "properties": {"collection_times": [{"days": "Mon-Fri", "time": "5:30pm"}, {"days": "Sat", "time": "5:00pm"}, {"days": "Sun", "time": "Closed"}], "id": "0585500000", "name": "USPS COLLECTION BOX - BLUE BOX", "address": {"city": "NEWPORT", "state": "VT", "street": "59 COVENTRY ST", "postcode": "05855"}}},
{"geometry": {"type": "Point", "coordinates": [-72.2106183093, 44.9353364958]}, "type": "Feature", "properties": {"collection_times": [{"days": "Mon-Fri", "time": "3:00pm"}, {"days": "Sat", "time": "12:00pm"}, {"days": "Sun", "time": "Closed"}], "id": "0585500002", "name": "USPS COLLECTION BOX - BLUE BOX", "address": {"city": "NEWPORT", "state": "VT", "street": "59 WATER FRONT PLZ", "postcode": "05855"}}},
{"geometry": {"type": "Point", "coordinates": [-72.6626876286, 44.0752034871]}, "type": "Feature", "properties": {"collection_times": [{"days": "Mon-Fri", "time": "4:00pm"}, {"days": "Sat", "time": "12:00pm"}, {"days": "Sun", "time": "Closed"}], "id": "0585500003", "name": "USPS COLLECTION BOX - BLUE BOX", "address": {"city": "NEWPORT", "state": "VT", "street": "189 PROUTY DR", "postcode": "05855"}}},
{"geometry": {"type": "Point", "coordinates": [-72.2099382769, 44.9350194999]}, "type": "Feature", "properties": {"collection_times": [{"days": "Mon-Fri", "time": "4:30pm"}, {"days": "Sat", "time": "12:00pm"}, {"days": "Sun", "time": "Closed"}], "id": "0585500006", "name": "USPS COLLECTION BOX - BLUE BOX", "address": {"city": "NEWPORT", "state": "VT", "street": "32 2ND ST", "postcode": "05855"}}},
{"geometry": {"type": "Point", "coordinates": [-72.1948910389, 44.943030498]}, "type": "Feature", "properties": {"collection_times": [{"days": "Mon-Fri", "time": "3:00pm"}, {"days": "Sat", "time": "12:00pm"}, {"days": "Sun", "time": "Closed"}], "id": "0585500007", "name": "USPS COLLECTION BOX - BLUE BOX", "address": {"city": "NEWPORT", "state": "VT", "street": "444 E MAIN ST", "postcode": "05855"}}},
{"geometry": {"type": "Point", "coordinates": [-72.2105794406, 44.9353388989]}, "type": "Feature", "properties": {"collection_times": [{"days": "Mon-Fri", "time": "4:30pm"}, {"days": "Sat", "time": "12:00pm"}, {"days": "Sun", "time": "Closed"}], "id": "0585500009", "name": "USPS COLLECTION BOX - BLUE BOX", "address": {"city": "NEWPORT", "state": "VT", "street": "222 MAIN ST", "postcode": "05855"}}},
{"geometry": {"type": "Point", "coordinates": [-72.1760819913, 44.9464977508]}, "type": "Feature", "properties": {"collection_times": [{"days": "Mon-Fri", "time": "4:00pm"}, {"days": "Sat", "time": "12:00pm"}, {"days": "Sun", "time": "Closed"}], "id": "0585500014", "name": "USPS COLLECTION BOX - BLUE BOX", "address": {"city": "NEWPORT", "state": "VT", "street": "5452 US ROUTE 5", "postcode": "05855"}}},
{"geometry": {"type": "Point", "coordinates": [-72.2083815029, 44.936084163]}, "type": "Feature", "properties": {"collection_times": [{"days": "Mon-Fri", "time": "4:30pm"}, {"days": "Sat", "time": "12:00pm"}, {"days": "Sun", "time": "Closed"}], "id": "0585500016", "name": "USPS COLLECTION BOX - BLUE BOX", "address": {"city": "NEWPORT", "state": "VT", "street": "100 MAIN ST", "postcode": "05855"}}},
{"geometry": {"type": "Point", "coordinates": [-72.2083815029, 44.936084163]}, "type": "Feature", "properties": {"collection_times": [{"days": "Mon-Fri", "time": "4:30pm"}, {"days": "Sat", "time": "12:00pm"}, {"days": "Sun", "time": "Closed"}], "id": "0585500017", "name": "USPS COLLECTION BOX - BLUE BOX", "address": {"city": "NEWPORT", "state": "VT", "street": "100 MAIN ST", "postcode": "05855"}}},
{"geometry": {"type": "Point", "coordinates": [-72.1985982631, 44.9380058581]}, "type": "Feature", "properties": {"collection_times": [{"days": "Mon-Fri", "time": "5:30pm"}, {"days": "Sat", "time": "5:00pm"}, {"days": "Sun", "time": "Closed"}], "id": "0585500018", "name": "USPS COLLECTION BOX - PO LOBBY", "address": {"city": "NEWPORT", "state": "VT", "street": "59 COVENTRY ST", "postcode": "05855"}}},
{"geometry": {"type": "Point", "coordinates": [-72.2876092103, 44.9302476685]}, "type": "Feature", "properties": {"collection_times": [{"days": "Mon-Fri", "time": "4:45pm"}, {"days": "Sat", "time": "11:00am"}, {"days": "Sun", "time": "Closed"}], "id": "0585700000", "name": "USPS COLLECTION BOX - BLUE BOX", "address": {"city": "NEWPORT CENTER", "state": "VT", "street": "4168 VT ROUTE 105", "postcode": "05857"}}},
{"geometry": {"type": "Point", "coordinates": [-72.2876092103, 44.9302476685]}, "type": "Feature", "properties": {"collection_times": [{"days": "Mon-Fri", "time": "4:30pm"}, {"days": "Sat", "time": "11:00am"}, {"days": "Sun", "time": "Closed"}], "id": "0585700001", "name": "USPS COLLECTION BOX - PO LOBBY", "address": {"city": "NEWPORT CENTER", "state": "VT", "street": "4168 VT ROUTE 105", "postcode": "05857"}}},
{"geometry": {"type": "Point", "coordinates": [-71.8586621611, 44.4695535382]}, "type": "Feature", "properties": {"collection_times": [{"days": "Mon-Fri", "time": "4:15pm"}, {"days": "Sat", "time": "10:15am"}, {"days": "Sun", "time": "Closed"}], "id": "0585800000", "name": "USPS COLLECTION BOX - BLUE BOX", "address": {"city": "GRANBY", "state": "VT", "street": "131 VICTORY RD", "postcode": "05858"}}},
{"geometry": {"type": "Point", "coordinates": [-71.8537889294, 44.5970994814]}, "type": "Feature", "properties": {"collection_times": [{"days": "Mon-Fri", "time": "11:45am"}, {"days": "Sat", "time": "10:15am"}, {"days": "Sun", "time": "Closed"}], "id": "0585800002", "name": "USPS COLLECTION BOX - PO LOBBY", "address": {"city": "GRANBY", "state": "VT", "street": "131 VICTORY RD", "postcode": "05858"}}},
{"geometry": {"type": "Point", "coordinates": [-72.4076872556, 44.9940172638]}, "type": "Feature", "properties": {"collection_times": [{"days": "Mon-Fri", "time": "4:30pm"}, {"days": "Sat", "time": "11:30am"}, {"days": "Sun", "time": "Closed"}], "id": "0585900002", "name": "USPS COLLECTION BOX - BLUE BOX", "address": {"city": "NORTH TROY", "state": "VT", "street": "66 SOUTH ST", "postcode": "05859"}}},
{"geometry": {"type": "Point", "coordinates": [-72.4076872556, 44.9940172638]}, "type": "Feature", "properties": {"collection_times": [{"days": "Mon-Fri", "time": "4:30pm"}, {"days": "Sat", "time": "11:45am"}, {"days": "Sun", "time": "Closed"}], "id": "0585900003", "name": "USPS COLLECTION BOX - PO LOBBY", "address": {"city": "NORTH TROY", "state": "VT", "street": "66 SOUTH ST", "postcode": "05859"}}},
{"geometry": {"type": "Point", "coordinates": [-72.202065685, 44.8106313648]}, "type": "Feature", "properties": {"collection_times": [{"days": "Mon-Fri", "time": "4:45pm"}, {"days": "Sat", "time": "11:30am"}, {"days": "Sun", "time": "Closed"}], "id": "0586000001", "name": "USPS COLLECTION BOX - BLUE BOX", "address": {"city": "ORLEANS", "state": "VT", "street": "2 WATER ST", "postcode": "05860"}}},
{"geometry": {"type": "Point", "coordinates": [-72.2034923335, 44.8105686679]}, "type": "Feature", "properties": {"collection_times": [{"days": "Mon-Sat", "time": "9:00am"}, {"days": "Sun", "time": "Closed"}], "id": "0586000005", "name": "USPS COLLECTION BOX - BLUE BOX", "address": {"city": "ORLEANS", "state": "VT", "street": "38 MAIN ST", "postcode": "05860"}}},
{"geometry": {"type": "Point", "coordinates": [-72.202065685, 44.8106313648]}, "type": "Feature", "properties": {"collection_times": [{"days": "Mon-Fri", "time": "4:45pm"}, {"days": "Sat", "time": "11:30am"}, {"days": "Sun", "time": "Closed"}], "id": "0586000007", "name": "USPS COLLECTION BOX - PO LOBBY", "address": {"city": "ORLEANS", "state": "VT", "street": "2 WATER ST", "postcode": "05860"}}},
{"geometry": {"type": "Point", "coordinates": [-72.0540372979, 44.7716102803]}, "type": "Feature", "properties": {"collection_times": [{"days": "Mon-Sat", "time": "10:15am"}, {"days": "Sun", "time": "Closed"}], "id": "0586000008", "name": "USPS COLLECTION BOX - BLUE BOX", "address": {"city": "ORLEANS", "state": "VT", "street": "54 HINTON HILL RD", "postcode": "05860"}}},
{"geometry": {"type": "Point", "coordinates": [-72.0277525306, 44.3761405045]}, "type": "Feature", "properties": {"collection_times": [{"days": "Mon-Fri", "time": "4:45pm"}, {"days": "Sat", "time": "11:45am"}, {"days": "Sun", "time": "Closed"}], "id": "0586100000", "name": "USPS COLLECTION BOX - BLUE BOX", "address": {"city": "PASSUMPSIC", "state": "VT", "street": "32 BRIDGE ST", "postcode": "05861"}}},
{"geometry": {"type": "Point", "coordinates": [-72.0277525306, 44.3761405045]}, "type": "Feature", "properties": {"collection_times": [{"days": "Mon-Fri", "time": "4:45pm"}, {"days": "Sat", "time": "11:45am"}, {"days": "Sun", "time": "Closed"}], "id": "0586100001", "name": "USPS COLLECTION BOX - PO LOBBY", "address": {"city": "PASSUMPSIC", "state": "VT", "street": "32 BRIDGE ST", "postcode": "05861"}}},
{"geometry": {"type": "Point", "coordinates": [-72.1616179211, 44.3357142302]}, "type": "Feature", "properties": {"collection_times": [{"days": "Mon-Fri", "time": "4:30pm"}, {"days": "Sat", "time": "11:30am"}, {"days": "Sun", "time": "Closed"}], "id": "0586200000", "name": "USPS COLLECTION BOX - BLUE BOX", "address": {"city": "PEACHAM", "state": "VT", "street": "79 CHURCH ST", "postcode": "05862"}}},
{"geometry": {"type": "Point", "coordinates": [-72.1616179211, 44.3357142302]}, "type": "Feature", "properties": {"collection_times": [{"days": "Mon-Fri", "time": "4:45pm"}, {"days": "Sat", "time": "11:15am"}, {"days": "Sun", "time": "Closed"}], "id": "0586200001", "name": "USPS COLLECTION BOX - PO LOBBY", "address": {"city": "PEACHAM", "state": "VT", "street": "79 CHURCH ST", "postcode": "05862"}}},
{"geometry": {"type": "Point", "coordinates": [-72.0162079667, 44.4555581721]}, "type": "Feature", "properties": {"collection_times": [{"days": "Mon-Fri", "time": "4:45pm"}, {"days": "Sat", "time": "11:00am"}, {"days": "Sun", "time": "Closed"}], "id": "0586300000", "name": "USPS COLLECTION BOX - BLUE BOX", "address": {"city": "ST JHNSBRY CT", "state": "VT", "street": "1616 MEMORIAL DR", "postcode": "05863"}}},
{"geometry": {"type": "Point", "coordinates": [-72.0162079667, 44.4555581721]}, "type": "Feature", "properties": {"collection_times": [{"days": "Mon-Fri", "time": "4:45pm"}, {"days": "Sat", "time": "11:00am"}, {"days": "Sun", "time": "Closed"}], "id": "0586300001", "name": "USPS COLLECTION BOX - PO LOBBY", "address": {"city": "ST JHNSBRY CT", "state": "VT", "street": "1616 MEMORIAL DR", "postcode": "05863"}}},
{"geometry": {"type": "Point", "coordinates": [-72.114169468, 44.601879328]}, "type": "Feature", "properties": {"collection_times": [{"days": "Mon-Fri", "time": "4:30pm"}, {"days": "Sat", "time": "11:30am"}, {"days": "Sun", "time": "Closed"}], "id": "0586600000", "name": "USPS COLLECTION BOX - BLUE BOX", "address": {"city": "SHEFFIELD", "state": "VT", "street": "3037 MAIN ST", "postcode": "05866"}}},
{"geometry": {"type": "Point", "coordinates": [-72.114169468, 44.601879328]}, "type": "Feature", "properties": {"collection_times": [{"days": "Mon-Fri", "time": "4:30pm"}, {"days": "Sat", "time": "11:30am"}, {"days": "Sun", "time": "Closed"}], "id": "0586600001", "name": "USPS COLLECTION BOX - PO LOBBY", "address": {"city": "SHEFFIELD", "state": "VT", "street": "3037 MAIN ST", "postcode": "05866"}}},
{"geometry": {"type": "Point", "coordinates": [-72.4286781687, 44.8895093124]}, "type": "Feature", "properties": {"collection_times": [{"days": "Mon-Fri", "time": "4:00pm"}, {"days": "Sat", "time": "11:30am"}, {"days": "Sun", "time": "Closed"}], "id": "0586800000", "name": "USPS COLLECTION BOX - BLUE BOX", "address": {"city": "WESTFIELD", "state": "VT", "street": "6694 VT ROUTE 100", "postcode": "05868"}}},
{"geometry": {"type": "Point", "coordinates": [-72.4286981465, 44.8895075197]}, "type": "Feature", "properties": {"collection_times": [{"days": "Mon-Fri", "time": "4:00pm"}, {"days": "Sat", "time": "10:15am"}, {"days": "Sun", "time": "Closed"}], "id": "0586800001", "name": "USPS COLLECTION BOX - BLUE BOX", "address": {"city": "WESTFIELD", "state": "VT", "street": "31 N HILL RD", "postcode": "05868"}}},
{"geometry": {"type": "Point", "coordinates": [-72.4286781687, 44.8895093124]}, "type": "Feature", "properties": {"collection_times": [{"days": "Mon-Fri", "time": "4:00pm"}, {"days": "Sat", "time": "11:30am"}, {"days": "Sun", "time": "Closed"}], "id": "0586800002", "name": "USPS COLLECTION BOX - PO LOBBY", "address": {"city": "WESTFIELD", "state": "VT", "street": "6694 VT ROUTE 100", "postcode": "05868"}}},
{"geometry": {"type": "Point", "coordinates": [-71.9805008743, 44.6430139467]}, "type": "Feature", "properties": {"collection_times": [{"days": "Mon-Fri", "time": "4:30pm"}, {"days": "Sat", "time": "11:30am"}, {"days": "Sun", "time": "Closed"}], "id": "0587100000", "name": "USPS COLLECTION BOX - BLUE BOX", "address": {"city": "WEST BURKE", "state": "VT", "street": "30 POST OFFICE RD", "postcode": "05871"}}},
{"geometry": {"type": "Point", "coordinates": [-71.9805008743, 44.6430139467]}, "type": "Feature", "properties": {"collection_times": [{"days": "Mon-Fri", "time": "4:30pm"}, {"days": "Sat", "time": "11:30am"}, {"days": "Sun", "time": "Closed"}], "id": "0587100001", "name": "USPS COLLECTION BOX - PO LOBBY", "address": {"city": "WEST BURKE", "state": "VT", "street": "30 POST OFFICE RD", "postcode": "05871"}}},
{"geometry": {"type": "Point", "coordinates": [-72.0259162543, 44.8504077134]}, "type": "Feature", "properties": {"collection_times": [{"days": "Mon-Fri", "time": "4:30pm"}, {"days": "Sat", "time": "11:30am"}, {"days": "Sun", "time": "Closed"}], "id": "0587200000", "name": "USPS COLLECTION BOX - BLUE BOX", "address": {"city": "WEST CHARLESTON", "state": "VT", "street": "1165 VT ROUTE 105", "postcode": "05872"}}},
{"geometry": {"type": "Point", "coordinates": [-72.0259162543, 44.8504077134]}, "type": "Feature", "properties": {"collection_times": [{"days": "Mon-Fri", "time": "4:45pm"}, {"days": "Sat", "time": "11:45am"}, {"days": "Sun", "time": "Closed"}], "id": "0587200001", "name": "USPS COLLECTION BOX - PO LOBBY", "address": {"city": "WEST CHARLESTON", "state": "VT", "street": "1165 VT ROUTE 105", "postcode": "05872"}}},
{"geometry": {"type": "Point", "coordinates": [-72.1946954645, 44.408857736]}, "type": "Feature", "properties": {"collection_times": [{"days": "Mon-Fri", "time": "5:00pm"}, {"days": "Sat", "time": "11:00am"}, {"days": "Sun", "time": "Closed"}], "id": "0587300000", "name": "USPS COLLECTION BOX - BLUE BOX", "address": {"city": "WEST DANVILLE", "state": "VT", "street": "2748 US ROUTE 2 W", "postcode": "05873"}}},
{"geometry": {"type": "Point", "coordinates": [-72.1946954645, 44.408857736]}, "type": "Feature", "properties": {"collection_times": [{"days": "Mon-Fri", "time": "5:00pm"}, {"days": "Sat", "time": "11:00am"}, {"days": "Sun", "time": "Closed"}], "id": "0587300001", "name": "USPS COLLECTION BOX - PO LOBBY", "address": {"city": "WEST DANVILLE", "state": "VT", "street": "2748 US ROUTE 2 W", "postcode": "05873"}}}
]}
