{"type": "FeatureCollection", "features": [
{"geometry": {"type": "Point", "coordinates": [-71.5076238201, 45.0084445799]}, "type": "Feature", "properties": {"collection_times": [{"days": "Mon-Fri", "time": "4:00pm"}, {"days": "Sat", "time": "11:30am"}, {"days": "Sun", "time": "Closed"}], "id": "0590200000", "name": "USPS COLLECTION BOX - BLUE BOX", "address": {"city": "BEECHER FALLS", "state": "VT", "street": "1110 VT ROUTE 253", "postcode": "05902"}}},
{"geometry": {"type": "Point", "coordinates": [-71.5076379035, 45.0084117882]}, "type": "Feature", "properties": {"collection_times": [{"days": "Mon-Fri", "time": "4:00pm"}, {"days": "Sat", "time": "11:30am"}, {"days": "Sun", "time": "Closed"}], "id": "0590200001", "name": "USPS COLLECTION BOX - PO LOBBY", "address": {"city": "BEECHER FALLS", "state": "VT", "street": "1110 VT ROUTE 253", "postcode": "05902"}}},
{"geometry": {"type": "Point", "coordinates": [-71.533167453, 44.9994505429]}, "type": "Feature", "properties": {"collection_times": [{"days": "Mon-Fri", "time": "3:00pm"}, {"days": "Sat", "time": "11:45am"}, {"days": "Sun", "time": "Closed"}], "id": "0590300000", "name": "USPS COLLECTION BOX - BLUE BOX", "address": {"city": "CANAAN", "state": "VT", "street": "350 CHRISTIAN HL", "postcode": "05903"}}},
{"geometry": {"type": "Point", "coordinates": [-71.628870851, 45.0096161327]}, "type": "Feature", "properties": {"collection_times": [{"days": "Mon-Sat", "time": "11:15am"}, {"days": "Sun", "time": "Closed"}], "id": "0590300001", "name": "USPS COLLECTION BOX - BLUE BOX", "address": {"city": "CANAAN", "state": "VT", "street": "4531 VT ROUTE 114", "postcode": "05903"}}},
{"geometry": {"type": "Point", "coordinates": [-71.533167453, 44.9994505429]}, "type": "Feature", "properties": {"collection_times": [{"days": "Mon-Fri", "time": "3:00pm"}, {"days": "Sat", "time": "11:45am"}, {"days": "Sun", "time": "Closed"}], "id": "0590300002", "name": "USPS COLLECTION BOX - PO LOBBY", "address": {"city": "CANAAN", "state": "VT", "street": "350 CHRISTIAN HL", "postcode": "05903"}}},
{"geometry": {"type": "Point", "coordinates": [-71.7881740786, 44.41479154]}, "type": "Feature", "properties": {"collection_times": [{"days": "Mon-Fri", "time": "3:15pm"}, {"days": "Sat", "time": "11:15am"}, {"days": "Sun", "time": "Closed"}], "id": "0590400000", "name": "USPS COLLECTION BOX - BLUE BOX", "address": {"city": "GILMAN", "state": "VT", "street": "5 PARRISH ST", "postcode": "05904"}}},
{"geometry": {"type": "Point", "coordinates": [-71.7881740786, 44.41479154]}, "type": "Feature", "properties": {"collection_times": [{"days": "Mon-Fri", "time": "4:15pm"}, {"days": "Sat", "time": "11:15am"}, {"days": "Sun", "time": "Closed"}], "id": "0590400001", "name": "USPS COLLECTION BOX - PO LOBBY", "address": {"city": "GILMAN", "state": "VT", "street": "5 PARRISH ST", "postcode": "05904"}}},
{"geometry": {"type": "Point", "coordinates": [-71.5640758048, 44.5647994793]}, "type": "Feature", "properties": {"collection_times": [{"days": "Mon-Fri", "time": "4:30pm"}, {"days": "Sat", "time": "11:00am"}, {"days": "Sun", "time": "Closed"}], "id": "0590500000", "name": "USPS COLLECTION BOX - BLUE BOX", "address": {"city": "GUILDHALL", "state": "VT", "street": "7031 ROUTE 102", "postcode": "05905"}}},
{"geometry": {"type": "Point", "coordinates": [-71.5640758048, 44.5647994793]}, "type": "Feature", "properties": {"collection_times": [{"days": "Mon-Fri", "time": "4:30pm"}, {"days": "Sat", "time": "11:00am"}, {"days": "Sun", "time": "Closed"}], "id": "0590500001", "name": "USPS COLLECTION BOX - PO LOBBY", "address": {"city": "GUILDHALL", "state": "VT", "street": "7031 ROUTE 102 LBBY", "postcode": "05905"}}},
{"geometry": {"type": "Point", "coordinates": [-71.6825536889, 44.463024626]}, "type": "Feature", "properties": {"collection_times": [{"days": "Mon-Fri", "time": "5:00pm"}, {"days": "Sat", "time": "11:30am"}, {"days": "Sun", "time": "Closed"}], "id": "0590600000", "name": "USPS COLLECTION BOX - BLUE BOX", "address": {"city": "LUNENBURG", "state": "VT", "street": "10 S LUNENBURG RD", "postcode": "05906"}}},
{"geometry": {"type": "Point", "coordinates": [-71.6825536889, 44.463024626]}, "type": "Feature", "properties": {"collection_times": [{"days": "Mon-Fri", "time": "3:00pm"}, {"days": "Sat", "time": "11:30am"}, {"days": "Sun", "time": "Closed"}], "id": "0590600001", "name": "USPS COLLECTION BOX - PO LOBBY", "address": {"city": "LUNENBURG", "state": "VT", "street": "10 S LUNENBURG RD", "postcode": "05906"}}},
{"geometry": {"type": "Point", "coordinates": [-71.7994855368, 45.0032368904]}, "type": "Feature", "properties": {"collection_times": [{"days": "Mon-Fri", "time": "4:00pm"}, {"days": "Sat", "time": "11:30am"}, {"days": "Sun", "time": "Closed"}], "id": "0590700000", "name": "USPS COLLECTION BOX - BLUE BOX", "address": {"city": "NORTON", "state": "VT", "street": "445 VT ROUTE 114 S", "postcode": "05907"}}},
{"geometry": {"type": "Point", "coordinates": [-71.7994550649, 45.0031910592]}, "type": "Feature", "properties": {"collection_times": [{"days": "Mon-Fri", "time": "4:15pm"}, {"days": "Sat", "time": "11:30am"}, {"days": "Sun", "time": "Closed"}], "id": "0590700001", "name": "USPS COLLECTION BOX - PO LOBBY", "address": {"city": "NORTON", "state": "VT", "street": "445 VT ROUTE 114 S", "postcode": "05907"}}}
]}
