{"type": "FeatureCollection", "features": [
{"geometry": {"type": "Point", "coordinates": [-77.4562523867, 39.0011261002]}, "type": "Feature", "properties": {"collection_times": [{"days": "Mon-Sat", "time": "6:00pm"}, {"days": "Sun", "time": "Closed"}], "id": "2010100004", "name": "USPS COLLECTION BOX - BLUE BOX", "address": {"city": "DULLES", "state": "VA", "street": "44715 PRENTICE DR", "postcode": "20101"}}},
{"geometry": {"type": "Point", "coordinates": [-77.4539562803, 39.0011058518]}, "type": "Feature", "properties": {"collection_times": [{"days": "Mon-Sat", "time": "6:00pm"}, {"days": "Sun", "time": "Closed"}], "id": "2010100008", "name": "USPS COLLECTION BOX - EXPRESS", "address": {"city": "DULLES", "state": "VA", "street": "44715 PRENTICE DR", "postcode": "20101"}}},
{"geometry": {"type": "Point", "coordinates": [-77.4562523867, 39.0011261002]}, "type": "Feature", "properties": {"collection_times": [{"days": "Mon-Sat", "time": "6:00pm"}, {"days": "Sun", "time": "Closed"}], "id": "2010100022", "name": "USPS COLLECTION BOX - PO LOBBY", "address": {"city": "DULLES", "state": "VA", "street": "44715 PRENTICE DR", "postcode": "20101"}}},
{"geometry": {"type": "Point", "coordinates": [-77.4562523867, 39.0011261002]}, "type": "Feature", "properties": {"collection_times": [{"days": "Mon-Sat", "time": "6:00pm"}, {"days": "Sun", "time": "Closed"}], "id": "2010100023", "name": "USPS COLLECTION BOX - APC", "address": {"city": "DULLES", "state": "VA", "street": "44715 PRENTICE DR", "postcode": "20101"}}},
{"geometry": {"type": "Point", "coordinates": [-77.4562523867, 39.0011261002]}, "type": "Feature", "properties": {"collection_times": [{"days": "Mon-Sat", "time": "6:00pm"}, {"days": "Sun", "time": "Closed"}], "id": "2010100024", "name": "USPS COLLECTION BOX - PO LOBBY", "address": {"city": "DULLES", "state": "VA", "street": "44715 PRENTICE DR", "postcode": "20101"}}},
{"geometry": {"type": "Point", "coordinates": [-77.6432640713, 38.975914581]}, "type": "Feature", "properties": {"collection_times": [{"days": "Mon-Fri", "time": "4:45pm"}, {"days": "Sat", "time": "11:45am"}, {"days": "Sun", "time": "Closed"}], "id": "2010500000", "name": "USPS COLLECTION BOX - BLUE BOX", "address": {"city": "ALDIE", "state": "VA", "street": "39344 JOHN MOSBY HWY", "postcode": "20105"}}},
{"geometry": {"type": "Point", "coordinates": [-77.6432640713, 38.975914581]}, "type": "Feature", "properties": {"collection_times": [{"days": "Mon-Fri", "time": "5:00pm"}, {"days": "Sat", "time": "12:00pm"}, {"days": "Sun", "time": "Closed"}], "id": "2010500002", "name": "USPS COLLECTION BOX - PO LOBBY", "address": {"city": "ALDIE", "state": "VA", "street": "39344 JOHN MOSBY HWY", "postcode": "20105"}}},
{"geometry": {"type": "Point", "coordinates": [-77.9973659855, 38.666891556]}, "type": "Feature", "properties": {"collection_times": [{"days": "Mon-Fri", "time": "4:45pm"}, {"days": "Sat", "time": "12:00pm"}, {"days": "Sun", "time": "Closed"}], "id": "2010600000", "name": "USPS COLLECTION BOX - BLUE BOX", "address": {"city": "AMISSVILLE", "state": "VA", "street": "768 VIEWTOWN RD", "postcode": "20106"}}},
{"geometry": {"type": "Point", "coordinates": [-77.9973659855, 38.666891556]}, "type": "Feature", "properties": {"collection_times": [{"days": "Mon-Fri", "time": "4:45pm"}, {"days": "Sat", "time": "12:00pm"}, {"days": "Sun", "time": "Closed"}], "id": "2010600002", "name": "USPS COLLECTION BOX - PO LOBBY", "address": {"city": "AMISSVILLE", "state": "VA", "street": "768 VIEWTOWN RD", "postcode": "20106"}}},
{"geometry": {"type": "Point", "coordinates": [-77.5117462425, 38.779192054]}, "type": "Feature", "properties": {"collection_times": [{"days": "Mon-Sat", "time": "2:30pm"}, {"days": "Sun", "time": "Closed"}], "id": "2010900002", "name": "USPS COLLECTION BOX - BLUE BOX", "address": {"city": "MANASSAS", "state": "VA", "street": "10529 CRESTWOOD DR", "postcode": "20109"}}},
{"geometry": {"type": "Point", "coordinates": [-77.5105822598, 38.7805742762]}, "type": "Feature", "properties": {"collection_times": [{"days": "Mon-Fri", "time": "1:00pm"}, {"days": "Sat", "time": "1:30pm"}, {"days": "Sun", "time": "Closed"}], "id": "2010900003", "name": "USPS COLLECTION BOX - BLUE BOX", "address": {"city": "MANASSAS", "state": "VA", "street": "8079 SUDLEY RD", "postcode": "20109"}}},
{"geometry": {"type": "Point", "coordinates": [-77.5220633906, 38.7932783945]}, "type": "Feature", "properties": {"collection_times": [{"days": "Mon-Sat", "time": "9:00am"}, {"days": "Sun", "time": "Closed"}], "id": "2010900004", "name": "USPS COLLECTION BOX - BLUE BOX", "address": {"city": "MANASSAS", "state": "VA", "street": "10930 COVERSTONE DR", "postcode": "20109"}}},
{"geometry": {"type": "Point", "coordinates": [-77.5189507137, 38.7879501674]}, "type": "Feature", "properties": {"collection_times": [{"days": "Mon-Fri", "time": "1:00pm"}, {"days": "Sat", "time": "2:15pm"}, {"days": "Sun", "time": "Closed"}], "id": "2010900005", "name": "USPS COLLECTION BOX - BLUE BOX", "address": {"city": "MANASSAS", "state": "VA", "street": "7930 DONEGAN DR", "postcode": "20109"}}},
{"geometry": {"type": "Point", "coordinates": [-77.5046739033, 38.7788126112]}, "type": "Feature", "properties": {"collection_times": [{"days": "Mon-Fri", "time": "9:00am"}, {"days": "Sat-Sun", "time": "Closed"}], "id": "2010900006", "name": "USPS COLLECTION BOX - BLUE BOX", "address": {"city": "MANASSAS", "state": "VA", "street": "10356 FESTIVAL LN", "postcode": "20109"}}},
{"geometry": {"type": "Point", "coordinates": [-77.5174468314, 38.8055467336]}, "type": "Feature", "properties": {"collection_times": [{"days": "Mon-Fri", "time": "1:00pm"}, {"days": "Sat-Sun", "time": "Closed"}], "id": "2010900007", "name": "USPS COLLECTION BOX - BLUE BOX", "address": {"city": "MANASSAS", "state": "VA", "street": "10511 BATTLEVIEW PKWY", "postcode": "20109"}}},
{"geometry": {"type": "Point", "coordinates": [-77.4984391371, 38.7739136911]}, "type": "Feature", "properties": {"collection_times": [{"days": "Mon-Sat", "time": "9:00am"}, {"days": "Sun", "time": "Closed"}], "id": "2010900008", "name": "USPS COLLECTION BOX - BLUE BOX", "address": {"city": "MANASSAS", "state": "VA", "street": "8441 IRONGATE WAY", "postcode": "20109"}}},
{"geometry": {"type": "Point", "coordinates": [-77.5176432929, 38.7937885846]}, "type": "Feature", "properties": {"collection_times": [{"days": "Mon-Fri", "time": "1:00pm"}, {"days": "Sat-Sun", "time": "Closed"}], "id": "2010900009", "name": "USPS COLLECTION BOX - BLUE BOX", "address": {"city": "MANASSAS", "state": "VA", "street": "7521 PRESIDENTIAL LN", "postcode": "20109"}}},
{"geometry": {"type": "Point", "coordinates": [-77.5234590602, 38.7973253431]}, "type": "Feature", "properties": {"collection_times": [{"days": "Mon-Fri", "time": "1:30pm"}, {"days": "Sat", "time": "2:00pm"}, {"days": "Sun", "time": "Closed"}], "id": "2010900011", "name": "USPS COLLECTION BOX - BLUE BOX", "address": {"city": "MANASSAS", "state": "VA", "street": "7412 STREAM WALK LN", "postcode": "20109"}}},
{"geometry": {"type": "Point", "coordinates": [-77.5166162428, 38.7866825531]}, "type": "Feature", "properties": {"collection_times": [{"days": "Mon-Fri", "time": "1:00pm"}, {"days": "Sat", "time": "2:15pm"}, {"days": "Sun", "time": "Closed"}], "id": "2010900013", "name": "USPS COLLECTION BOX - BLUE BOX", "address": {"city": "MANASSAS", "state": "VA", "street": "10800 SUDLEY MANOR DR", "postcode": "20109"}}},
{"geometry": {"type": "Point", "coordinates": [-77.5144220956, 38.7890638465]}, "type": "Feature", "properties": {"collection_times": [{"days": "Mon-Fri", "time": "1:00pm"}, {"days": "Sat", "time": "1:45pm"}, {"days": "Sun", "time": "Closed"}], "id": "2010900015", "name": "USPS COLLECTION BOX - BLUE BOX", "address": {"city": "MANASSAS", "state": "VA", "street": "7723 SUDLEY RD", "postcode": "20109"}}},
{"geometry": {"type": "Point", "coordinates": [-77.5131762165, 38.7861661485]}, "type": "Feature", "properties": {"collection_times": [{"days": "Mon-Fri", "time": "1:00pm"}, {"days": "Sat", "time": "1:30pm"}, {"days": "Sun", "time": "Closed"}], "id": "2010900016", "name": "USPS COLLECTION BOX - BLUE BOX", "address": {"city": "MANASSAS", "state": "VA", "street": "7849 SUDLEY RD", "postcode": "20109"}}},
{"geometry": {"type": "Point", "coordinates": [-77.5016213468, 38.7745564172]}, "type": "Feature", "properties": {"collection_times": [{"days": "Mon-Sat", "time": "9:00am"}, {"days": "Sun", "time": "Closed"}], "id": "2010900019", "name": "USPS COLLECTION BOX - BLUE BOX", "address": {"city": "MANASSAS", "state": "VA", "street": "8369 SUDLEY RD", "postcode": "20109"}}},
{"geometry": {"type": "Point", "coordinates": [-77.4817227439, 38.7653845569]}, "type": "Feature", "properties": {"collection_times": [{"days": "Mon-Fri", "time": "5:00pm"}, {"days": "Sat", "time": "3:30pm"}, {"days": "Sun", "time": "Closed"}], "id": "2011000001", "name": "USPS COLLECTION BOX - BLUE BOX", "address": {"city": "MANASSAS", "state": "VA", "street": "8801 SUDLEY RD", "postcode": "20110"}}},
{"geometry": {"type": "Point", "coordinates": [-77.4817227439, 38.7653845569]}, "type": "Feature", "properties": {"collection_times": [{"days": "Mon-Fri", "time": "5:00pm"}, {"days": "Sat", "time": "3:30pm"}, {"days": "Sun", "time": "Closed"}], "id": "2011000002", "name": "USPS COLLECTION BOX - BLUE BOX", "address": {"city": "MANASSAS", "state": "VA", "street": "8801 SUDLEY RD", "postcode": "20110"}}},
{"geometry": {"type": "Point", "coordinates": [-77.4766893489, 38.7520041013]}, "type": "Feature", "properties": {"collection_times": [{"days": "Mon-Fri", "time": "5:00pm"}, {"days": "Sat", "time": "3:30pm"}, {"days": "Sun", "time": "Closed"}], "id": "2011000004", "name": "USPS COLLECTION BOX - EXPRESS", "address": {"city": "MANASSAS", "state": "VA", "street": "8801 SUDLEY RD", "postcode": "20110"}}},
{"geometry": {"type": "Point", "coordinates": [-77.4737120755, 38.7359567695]}, "type": "Feature", "properties": {"collection_times": [{"days": "Mon-Sat", "time": "12:00pm"}, {"days": "Sun", "time": "Closed"}], "id": "2011000010", "name": "USPS COLLECTION BOX - BLUE BOX", "address": {"city": "MANASSAS", "state": "VA", "street": "10100 DUMFRIES RD", "postcode": "20110"}}},
{"geometry": {"type": "Point", "coordinates": [-77.4588767294, 38.7632201674]}, "type": "Feature", "properties": {"collection_times": [{"days": "Mon-Sat", "time": "9:00am"}, {"days": "Sun", "time": "Closed"}], "id": "2011000014", "name": "USPS COLLECTION BOX - BLUE BOX", "address": {"city": "MANASSAS", "state": "VA", "street": "8815 CENTREVILLE RD", "postcode": "20110"}}},
{"geometry": {"type": "Point", "coordinates": [-77.4726389589, 38.7518013189]}, "type": "Feature", "properties": {"collection_times": [{"days": "Mon-Fri", "time": "5:00pm"}, {"days": "Sat", "time": "3:00pm"}, {"days": "Sun", "time": "Closed"}], "id": "2011000016", "name": "USPS COLLECTION BOX - BLUE BOX", "address": {"city": "MANASSAS", "state": "VA", "street": "9108 CHURCH ST", "postcode": "20110"}}},
{"geometry": {"type": "Point", "coordinates": [-77.4766893489, 38.7520041013]}, "type": "Feature", "properties": {"collection_times": [{"days": "Mon-Fri", "time": "4:45pm"}, {"days": "Sat", "time": "3:00pm"}, {"days": "Sun", "time": "Closed"}], "id": "2011000017", "name": "USPS COLLECTION BOX - EXPRESS", "address": {"city": "MANASSAS", "state": "VA", "street": "9108 CHURCH ST", "postcode": "20110"}}},
{"geometry": {"type": "Point", "coordinates": [-77.4914111778, 38.7540872988]}, "type": "Feature", "properties": {"collection_times": [{"days": "Mon-Sat", "time": "9:00am"}, {"days": "Sun", "time": "Closed"}], "id": "2011000018", "name": "USPS COLLECTION BOX - BLUE BOX", "address": {"city": "MANASSAS", "state": "VA", "street": "9807 COCKRELL RD", "postcode": "20110"}}},
{"geometry": {"type": "Point", "coordinates": [-77.4774932808, 38.7517941198]}, "type": "Feature", "properties": {"collection_times": [{"days": "Mon-Fri", "time": "2:30pm"}, {"days": "Sat-Sun", "time": "Closed"}], "id": "2011000021", "name": "USPS COLLECTION BOX - BLUE BOX", "address": {"city": "MANASSAS", "state": "VA", "street": "9311 LEE AVE", "postcode": "20110"}}},
{"geometry": {"type": "Point", "coordinates": [-77.4508342558, 38.7419594338]}, "type": "Feature", "properties": {"collection_times": [{"days": "Mon-Sat", "time": "9:00am"}, {"days": "Sun", "time": "Closed"}], "id": "2011000022", "name": "USPS COLLECTION BOX - BLUE BOX", "address": {"city": "MANASSAS", "state": "VA", "street": "9930 LIBERIA AVE", "postcode": "20110"}}},
{"geometry": {"type": "Point", "coordinates": [-77.4554929948, 38.7690623764]}, "type": "Feature", "properties": {"collection_times": [{"days": "Mon-Fri", "time": "12:00pm"}, {"days": "Sat", "time": "1:30pm"}, {"days": "Sun", "time": "Closed"}], "id": "2011000024", "name": "USPS COLLECTION BOX - BLUE BOX", "address": {"city": "MANASSAS", "state": "VA", "street": "8601 MATHIS AVE", "postcode": "20110"}}},
{"geometry": {"type": "Point", "coordinates": [-77.4652896577, 38.7585466978]}, "type": "Feature", "properties": {"collection_times": [{"days": "Mon-Sat", "time": "9:00am"}, {"days": "Sun", "time": "Closed"}], "id": "2011000025", "name": "USPS COLLECTION BOX - BLUE BOX", "address": {"city": "MANASSAS", "state": "VA", "street": "9100 MATHIS AVE", "postcode": "20110"}}},
{"geometry": {"type": "Point", "coordinates": [-77.4642468911, 38.7631996317]}, "type": "Feature", "properties": {"collection_times": [{"days": "Mon-Fri", "time": "9:00am"}, {"days": "Sat-Sun", "time": "Closed"}], "id": "2011000026", "name": "USPS COLLECTION BOX - BLUE BOX", "address": {"city": "MANASSAS", "state": "VA", "street": "8817 PORTNER AVE", "postcode": "20110"}}},
{"geometry": {"type": "Point", "coordinates": [-77.4724808433, 38.7297737553]}, "type": "Feature", "properties": {"collection_times": [{"days": "Mon-Sat", "time": "9:00am"}, {"days": "Sun", "time": "Closed"}], "id": "2011000027", "name": "USPS COLLECTION BOX - BLUE BOX", "address": {"city": "MANASSAS", "state": "VA", "street": "10438 DUMFRIES RD", "postcode": "20110"}}},
{"geometry": {"type": "Point", "coordinates": [-77.4817227439, 38.7653845569]}, "type": "Feature", "properties": {"collection_times": [{"days": "Mon-Sat", "time": "5:00pm"}, {"days": "Sun", "time": "Closed"}], "id": "2011000031", "name": "USPS COLLECTION BOX - APC", "address": {"city": "MANASSAS", "state": "VA", "street": "8801 SUDLEY RD", "postcode": "20110"}}},
{"geometry": {"type": "Point", "coordinates": [-77.4817227439, 38.7653845569]}, "type": "Feature", "properties": {"collection_times": [{"days": "Mon-Sat", "time": "5:00pm"}, {"days": "Sun", "time": "Closed"}], "id": "2011000033", "name": "USPS COLLECTION BOX - PO LOBBY", "address": {"city": "MANASSAS", "state": "VA", "street": "8801 SUDLEY RD", "postcode": "20110"}}},
{"geometry": {"type": "Point", "coordinates": [-77.4726389589, 38.7518013189]}, "type": "Feature", "properties": {"collection_times": [{"days": "Mon-Fri", "time": "5:00pm"}, {"days": "Sat", "time": "12:00pm"}, {"days": "Sun", "time": "Closed"}], "id": "2011000034", "name": "USPS COLLECTION BOX - PO LOBBY", "address": {"city": "MANASSAS", "state": "VA", "street": "9108 CHURCH ST", "postcode": "20110"}}},
{"geometry": {"type": "Point", "coordinates": [-77.472712088, 38.751766353]}, "type": "Feature", "properties": {"collection_times": [{"days": "Mon-Fri", "time": "5:00pm"}, {"days": "Sat", "time": "3:00pm"}, {"days": "Sun", "time": "Closed"}], "id": "2011000037", "name": "USPS COLLECTION BOX - BLUE BOX", "address": {"city": "MANASSAS", "state": "VA", "street": "9108 CHURCH ST", "postcode": "20110"}}},
{"geometry": {"type": "Point", "coordinates": [-77.452546244, 38.7617611536]}, "type": "Feature", "properties": {"collection_times": [{"days": "Mon-Fri", "time": "4:20pm"}, {"days": "Sat", "time": "2:45pm"}, {"days": "Sun", "time": "Closed"}], "id": "2011100002", "name": "USPS COLLECTION BOX - BLUE BOX", "address": {"city": "MANASSAS", "state": "VA", "street": "9020 EUCLID AVE", "postcode": "20111"}}},
{"geometry": {"type": "Point", "coordinates": [-77.473133235, 38.7822142239]}, "type": "Feature", "properties": {"collection_times": [{"days": "Mon-Sat", "time": "9:00am"}, {"days": "Sun", "time": "Closed"}], "id": "2011100003", "name": "USPS COLLECTION BOX - BLUE BOX", "address": {"city": "MANASSAS", "state": "VA", "street": "327 MANASSAS DR", "postcode": "20111"}}},
{"geometry": {"type": "Point", "coordinates": [-77.4305432819, 38.7496173165]}, "type": "Feature", "properties": {"collection_times": [{"days": "Mon-Fri", "time": "5:00pm"}, {"days": "Sat", "time": "2:30pm"}, {"days": "Sun", "time": "Closed"}], "id": "2011100004", "name": "USPS COLLECTION BOX - BLUE BOX", "address": {"city": "MANASSAS", "state": "VA", "street": "2049 OLD CENTREVILLE RD", "postcode": "20111"}}},
{"geometry": {"type": "Point", "coordinates": [-77.427808037, 38.7464511843]}, "type": "Feature", "properties": {"collection_times": [{"days": "Mon-Fri", "time": "4:20pm"}, {"days": "Sat", "time": "2:45pm"}, {"days": "Sun", "time": "Closed"}], "id": "2011100005", "name": "USPS COLLECTION BOX - EXPRESS", "address": {"city": "MANASSAS", "state": "VA", "street": "9020 EUCLID AVE", "postcode": "20111"}}},
{"geometry": {"type": "Point", "coordinates": [-77.4305432819, 38.7496173165]}, "type": "Feature", "properties": {"collection_times": [{"days": "Mon-Fri", "time": "5:00pm"}, {"days": "Sat", "time": "12:00pm"}, {"days": "Sun", "time": "Closed"}], "id": "2011100008", "name": "USPS COLLECTION BOX - PO LOBBY", "address": {"city": "MANASSAS", "state": "VA", "street": "2049 OLD CENTREVILLE RD", "postcode": "20111"}}},
{"geometry": {"type": "Point", "coordinates": [-77.4395457963, 38.6627153564]}, "type": "Feature", "properties": {"collection_times": [{"days": "Mon-Sat", "time": "4:00pm"}, {"days": "Sun", "time": "Closed"}], "id": "2011200001", "name": "USPS COLLECTION BOX - BLUE BOX", "address": {"city": "MANASSAS", "state": "VA", "street": "13456 DUMFRIES RD", "postcode": "20112"}}},
{"geometry": {"type": "Point", "coordinates": [-77.8571158441, 38.8651221932]}, "type": "Feature", "properties": {"collection_times": [{"days": "Mon-Fri", "time": "4:45pm"}, {"days": "Sat", "time": "11:45am"}, {"days": "Sun", "time": "Closed"}], "id": "2011500000", "name": "USPS COLLECTION BOX - BLUE BOX", "address": {"city": "MARSHALL", "state": "VA", "street": "8361 W MAIN ST", "postcode": "20115"}}},
{"geometry": {"type": "Point", "coordinates": [-77.8571158441, 38.8651221932]}, "type": "Feature", "properties": {"collection_times": [{"days": "Mon-Fri", "time": "5:00pm"}, {"days": "Sat", "time": "12:00pm"}, {"days": "Sun", "time": "Closed"}], "id": "2011500001", "name": "USPS COLLECTION BOX - PO LOBBY", "address": {"city": "MARSHALL", "state": "VA", "street": "8361 W MAIN ST", "postcode": "20115"}}},
{"geometry": {"type": "Point", "coordinates": [-77.7376653797, 38.9681685657]}, "type": "Feature", "properties": {"collection_times": [{"days": "Mon-Fri", "time": "5:00pm"}, {"days": "Sat", "time": "11:45am"}, {"days": "Sun", "time": "Closed"}], "id": "2011700004", "name": "USPS COLLECTION BOX - PO LOBBY", "address": {"city": "MIDDLEBURG", "state": "VA", "street": "113 W WASHINGTON ST", "postcode": "20117"}}},
{"geometry": {"type": "Point", "coordinates": [-77.6436367034, 38.6533713555]}, "type": "Feature", "properties": {"collection_times": [{"days": "Mon-Fri", "time": "4:30pm"}, {"days": "Sat", "time": "12:00pm"}, {"days": "Sun", "time": "Closed"}], "id": "2011900000", "name": "USPS COLLECTION BOX - BLUE BOX", "address": {"city": "CATLETT", "state": "VA", "street": "3584 CATLETT RD", "postcode": "20119"}}},
{"geometry": {"type": "Point", "coordinates": [-77.6436367034, 38.6533713555]}, "type": "Feature", "properties": {"collection_times": [{"days": "Mon-Fri", "time": "4:45pm"}, {"days": "Sat", "time": "12:00pm"}, {"days": "Sun", "time": "Closed"}], "id": "2011900001", "name": "USPS COLLECTION BOX - PO LOBBY", "address": {"city": "CATLETT", "state": "VA", "street": "3584 CATLETT RD", "postcode": "20119"}}},
{"geometry": {"type": "Point", "coordinates": [-77.4336078183, 38.8388182232]}, "type": "Feature", "properties": {"collection_times": [{"days": "Mon-Fri", "time": "4:45pm"}, {"days": "Sat", "time": "1:30pm"}, {"days": "Sun", "time": "Closed"}], "id": "2012000001", "name": "USPS COLLECTION BOX - BLUE BOX", "address": {"city": "CENTREVILLE", "state": "VA", "street": "14120A LEE HWY", "postcode": "20120"}}},
{"geometry": {"type": "Point", "coordinates": [-77.4511191317, 38.8530890519]}, "type": "Feature", "properties": {"collection_times": [{"days": "Mon-Fri", "time": "4:30pm"}, {"days": "Sat", "time": "12:45pm"}, {"days": "Sun", "time": "Closed"}], "id": "2012000010", "name": "USPS COLLECTION BOX - BLUE BOX", "address": {"city": "CENTREVILLE", "state": "VA", "street": "5617 STONE RD", "postcode": "20120"}}},
{"geometry": {"type": "Point", "coordinates": [-77.4483653113, 38.8698925477]}, "type": "Feature", "properties": {"collection_times": [{"days": "Mon-Fri", "time": "5:00pm"}, {"days": "Sat", "time": "1:00pm"}, {"days": "Sun", "time": "Closed"}], "id": "2012000015", "name": "USPS COLLECTION BOX - BLUE BOX", "address": {"city": "CENTREVILLE", "state": "VA", "street": "5003 WESTFIELDS BLVD", "postcode": "20120"}}},
{"geometry": {"type": "Point", "coordinates": [-77.4381255963, 38.8429202177]}, "type": "Feature", "properties": {"collection_times": [{"days": "Mon-Fri", "time": "4:15pm"}, {"days": "Sat", "time": "12:30pm"}, {"days": "Sun", "time": "Closed"}], "id": "2012000017", "name": "USPS COLLECTION BOX - BLUE BOX", "address": {"city": "CENTREVILLE", "state": "VA", "street": "5900 TRINITY PKWY", "postcode": "20120"}}},
{"geometry": {"type": "Point", "coordinates": [-77.4336078183, 38.8388182232]}, "type": "Feature", "properties": {"collection_times": [{"days": "Mon-Fri", "time": "4:45pm"}, {"days": "Sat", "time": "1:30pm"}, {"days": "Sun", "time": "Closed"}], "id": "2012000018", "name": "USPS COLLECTION BOX - APC", "address": {"city": "CENTREVILLE", "state": "VA", "street": "14120A LEE HWY", "postcode": "20120"}}},
{"geometry": {"type": "Point", "coordinates": [-77.4336078183, 38.8388182232]}, "type": "Feature", "properties": {"collection_times": [{"days": "Mon-Fri", "time": "4:45pm"}, {"days": "Sat", "time": "1:30pm"}, {"days": "Sun", "time": "Closed"}], "id": "2012000019", "name": "USPS COLLECTION BOX - PO LOBBY", "address": {"city": "CENTREVILLE", "state": "VA", "street": "14120A LEE HWY", "postcode": "20120"}}},
{"geometry": {"type": "Point", "coordinates": [-77.4483653113, 38.8698925477]}, "type": "Feature", "properties": {"collection_times": [{"days": "Mon-Fri", "time": "5:00pm"}, {"days": "Sat", "time": "1:00pm"}, {"days": "Sun", "time": "Closed"}], "id": "2012000020", "name": "USPS COLLECTION BOX - PO LOBBY", "address": {"city": "CENTREVILLE", "state": "VA", "street": "5003 WESTFIELDS BLVD", "postcode": "20120"}}},
{"geometry": {"type": "Point", "coordinates": [-77.4483653113, 38.8698925477]}, "type": "Feature", "properties": {"collection_times": [{"days": "Mon-Fri", "time": "5:00pm"}, {"days": "Sat", "time": "1:00pm"}, {"days": "Sun", "time": "Closed"}], "id": "2012000021", "name": "USPS COLLECTION BOX - APC", "address": {"city": "CENTREVILLE", "state": "VA", "street": "5003 WESTFIELDS BLVD", "postcode": "20120"}}},
{"geometry": {"type": "Point", "coordinates": [-77.4336078183, 38.8388182232]}, "type": "Feature", "properties": {"collection_times": [{"days": "Mon-Fri", "time": "4:45pm"}, {"days": "Sat", "time": "1:30pm"}, {"days": "Sun", "time": "Closed"}], "id": "2012000024", "name": "USPS COLLECTION BOX - APC", "address": {"city": "CENTREVILLE", "state": "VA", "street": "14120A LEE HWY", "postcode": "20120"}}},
{"geometry": {"type": "Point", "coordinates": [-77.4250783502, 38.8357521391]}, "type": "Feature", "properties": {"collection_times": [{"days": "Mon-Fri", "time": "3:30pm"}, {"days": "Sat", "time": "12:00pm"}, {"days": "Sun", "time": "Closed"}], "id": "2012100001", "name": "USPS COLLECTION BOX - BLUE BOX", "address": {"city": "CENTREVILLE", "state": "VA", "street": "13822 BRADDOCK RD", "postcode": "20121"}}},
{"geometry": {"type": "Point", "coordinates": [-77.4283684486, 38.8361556631]}, "type": "Feature", "properties": {"collection_times": [{"days": "Mon-Fri", "time": "3:30pm"}, {"days": "Sat", "time": "12:00pm"}, {"days": "Sun", "time": "Closed"}], "id": "2012100002", "name": "USPS COLLECTION BOX - BLUE BOX", "address": {"city": "CENTREVILLE", "state": "VA", "street": "13880 BRADDOCK RD", "postcode": "20121"}}},
{"geometry": {"type": "Point", "coordinates": [-77.4591408754, 38.8308164355]}, "type": "Feature", "properties": {"collection_times": [{"days": "Mon-Fri", "time": "4:15pm"}, {"days": "Sat", "time": "12:45pm"}, {"days": "Sun", "time": "Closed"}], "id": "2012100005", "name": "USPS COLLECTION BOX - BLUE BOX", "address": {"city": "CENTREVILLE", "state": "VA", "street": "6401 PADDINGTON CT", "postcode": "20121"}}},
{"geometry": {"type": "Point", "coordinates": [-77.4403100081, 38.8371502297]}, "type": "Feature", "properties": {"collection_times": [{"days": "Mon-Fri", "time": "4:00pm"}, {"days": "Sat", "time": "12:00pm"}, {"days": "Sun", "time": "Closed"}], "id": "2012100010", "name": "USPS COLLECTION BOX - BLUE BOX", "address": {"city": "CENTREVILLE", "state": "VA", "street": "14010 SAINT GERMAIN DR", "postcode": "20121"}}},
{"geometry": {"type": "Point", "coordinates": [-77.4407690042, 38.8368812588]}, "type": "Feature", "properties": {"collection_times": [{"days": "Mon-Fri", "time": "4:00pm"}, {"days": "Sat", "time": "12:00pm"}, {"days": "Sun", "time": "Closed"}], "id": "2012100011", "name": "USPS COLLECTION BOX - BLUE BOX", "address": {"city": "CENTREVILLE", "state": "VA", "street": "14125 SAINT GERMAIN DR", "postcode": "20121"}}},
{"geometry": {"type": "Point", "coordinates": [-77.4601993275, 38.8175876715]}, "type": "Feature", "properties": {"collection_times": [{"days": "Mon-Fri", "time": "3:45pm"}, {"days": "Sat", "time": "12:00pm"}, {"days": "Sun", "time": "Closed"}], "id": "2012100012", "name": "USPS COLLECTION BOX - BLUE BOX", "address": {"city": "CENTREVILLE", "state": "VA", "street": "6101 REDWOOD SQUARE CTR", "postcode": "20121"}}},
{"geometry": {"type": "Point", "coordinates": [-77.4213350547, 38.8360012923]}, "type": "Feature", "properties": {"collection_times": [{"days": "Mon-Fri", "time": "3:30pm"}, {"days": "Sat", "time": "12:00pm"}, {"days": "Sun", "time": "Closed"}], "id": "2012100013", "name": "USPS COLLECTION BOX - BLUE BOX", "address": {"city": "CENTREVILLE", "state": "VA", "street": "13630 BENT TREE CIR", "postcode": "20121"}}},
{"geometry": {"type": "Point", "coordinates": [-77.3850395077, 38.7810256404]}, "type": "Feature", "properties": {"collection_times": [{"days": "Mon-Fri", "time": "5:00pm"}, {"days": "Sat", "time": "12:00pm"}, {"days": "Sun", "time": "Closed"}], "id": "2012400000", "name": "USPS COLLECTION BOX - BLUE BOX", "address": {"city": "CLIFTON", "state": "VA", "street": "12644 CHAPEL RD", "postcode": "20124"}}},
{"geometry": {"type": "Point", "coordinates": [-77.4120989911, 38.8360454936]}, "type": "Feature", "properties": {"collection_times": [{"days": "Mon-Fri", "time": "4:30pm"}, {"days": "Sat", "time": "12:00pm"}, {"days": "Sun", "time": "Closed"}], "id": "2012400001", "name": "USPS COLLECTION BOX - BLUE BOX", "address": {"city": "CLIFTON", "state": "VA", "street": "5746 UNION MILL RD", "postcode": "20124"}}},
{"geometry": {"type": "Point", "coordinates": [-77.3850395077, 38.7810256404]}, "type": "Feature", "properties": {"collection_times": [{"days": "Mon-Fri", "time": "5:00pm"}, {"days": "Sat", "time": "12:00pm"}, {"days": "Sun", "time": "Closed"}], "id": "2012400002", "name": "USPS COLLECTION BOX - PO LOBBY", "address": {"city": "CLIFTON", "state": "VA", "street": "12644 CHAPEL RD", "postcode": "20124"}}},
{"geometry": {"type": "Point", "coordinates": [-77.963758214, 38.7520738537]}, "type": "Feature", "properties": {"collection_times": [{"days": "Mon-Fri", "time": "4:30pm"}, {"days": "Sat", "time": "12:30pm"}, {"days": "Sun", "time": "Closed"}], "id": "2012800000", "name": "USPS COLLECTION BOX - BLUE BOX", "address": {"city": "ORLEAN", "state": "VA", "street": "6864 LEEDS MANOR RD", "postcode": "20128"}}},
{"geometry": {"type": "Point", "coordinates": [-77.6191553676, 39.147527621]}, "type": "Feature", "properties": {"collection_times": [{"days": "Mon-Fri", "time": "4:45pm"}, {"days": "Sat", "time": "11:45am"}, {"days": "Sun", "time": "Closed"}], "id": "2012900000", "name": "USPS COLLECTION BOX - BLUE BOX", "address": {"city": "PAEONIAN SPGS", "state": "VA", "street": "16948 SIMPSON CIR", "postcode": "20129"}}},
{"geometry": {"type": "Point", "coordinates": [-77.7393011769, 39.0566873189]}, "type": "Feature", "properties": {"collection_times": [{"days": "Mon-Sat", "time": "12:45pm"}, {"days": "Sun", "time": "Closed"}], "id": "2013100000", "name": "USPS COLLECTION BOX - BLUE BOX", "address": {"city": "PHILOMONT", "state": "VA", "street": "36550 JEB STUART RD", "postcode": "20131"}}},
{"geometry": {"type": "Point", "coordinates": [-77.7135921647, 39.139108502]}, "type": "Feature", "properties": {"collection_times": [{"days": "Mon-Fri", "time": "4:45pm"}, {"days": "Sat", "time": "12:00pm"}, {"days": "Sun", "time": "Closed"}], "id": "2013200000", "name": "USPS COLLECTION BOX - BLUE BOX", "address": {"city": "PURCELLVILLE", "state": "VA", "street": "220 N HATCHER AVE", "postcode": "20132"}}},
{"geometry": {"type": "Point", "coordinates": [-77.7039344877, 39.1365225537]}, "type": "Feature", "properties": {"collection_times": [{"days": "Mon-Sat", "time": "11:00am"}, {"days": "Sun", "time": "Closed"}], "id": "2013200002", "name": "USPS COLLECTION BOX - BLUE BOX", "address": {"city": "PURCELLVILLE", "state": "VA", "street": "715 E MAIN ST", "postcode": "20132"}}},
{"geometry": {"type": "Point", "coordinates": [-77.7072006374, 39.1365994461]}, "type": "Feature", "properties": {"collection_times": [{"days": "Mon-Sat", "time": "11:00am"}, {"days": "Sun", "time": "Closed"}], "id": "2013200003", "name": "USPS COLLECTION BOX - BLUE BOX", "address": {"city": "PURCELLVILLE", "state": "VA", "street": "609 E MAIN ST", "postcode": "20132"}}},
{"geometry": {"type": "Point", "coordinates": [-77.7192579709, 39.1459005749]}, "type": "Feature", "properties": {"collection_times": [{"days": "Mon-Sat", "time": "11:30am"}, {"days": "Sun", "time": "Closed"}], "id": "2013200007", "name": "USPS COLLECTION BOX - BLUE BOX", "address": {"city": "PURCELLVILLE", "state": "VA", "street": "36933 CHARLES TOWN PIKE", "postcode": "20132"}}},
{"geometry": {"type": "Point", "coordinates": [-77.7135921647, 39.139108502]}, "type": "Feature", "properties": {"collection_times": [{"days": "Mon-Fri", "time": "5:00pm"}, {"days": "Sat", "time": "12:00pm"}, {"days": "Sun", "time": "Closed"}], "id": "2013200009", "name": "USPS COLLECTION BOX - PO LOBBY", "address": {"city": "PURCELLVILLE", "state": "VA", "street": "220 N HATCHER AVE", "postcode": "20132"}}},
{"geometry": {"type": "Point", "coordinates": [-77.8807965854, 39.1011730883]}, "type": "Feature", "properties": {"collection_times": [{"days": "Mon-Fri", "time": "4:30pm"}, {"days": "Sat", "time": "12:00pm"}, {"days": "Sun", "time": "Closed"}], "id": "2013500000", "name": "USPS COLLECTION BOX - BLUE BOX", "address": {"city": "BLUEMONT", "state": "VA", "street": "33775 SNICKERSVILLE TPKE", "postcode": "20135"}}},
{"geometry": {"type": "Point", "coordinates": [-77.8320927131, 39.110280975]}, "type": "Feature", "properties": {"collection_times": [{"days": "Mon-Fri", "time": "4:30pm"}, {"days": "Sat", "time": "12:00pm"}, {"days": "Sun", "time": "Closed"}], "id": "2013500001", "name": "USPS COLLECTION BOX - PO LOBBY", "address": {"city": "BLUEMONT", "state": "VA", "street": "33775 SNICKERSVILLE TPKE", "postcode": "20135"}}},
{"geometry": {"type": "Point", "coordinates": [-77.5300265073, 38.7140417719]}, "type": "Feature", "properties": {"collection_times": [{"days": "Mon-Fri", "time": "4:30pm"}, {"days": "Sat", "time": "11:30am"}, {"days": "Sun", "time": "Closed"}], "id": "2013600000", "name": "USPS COLLECTION BOX - BLUE BOX", "address": {"city": "BRISTOW", "state": "VA", "street": "11151 VALLEY VIEW DR", "postcode": "20136"}}},
{"geometry": {"type": "Point", "coordinates": [-77.5710872574, 38.7491608734]}, "type": "Feature", "properties": {"collection_times": [{"days": "Mon-Sat", "time": "10:00am"}, {"days": "Sun", "time": "Closed"}], "id": "2013600001", "name": "USPS COLLECTION BOX - BLUE BOX", "address": {"city": "BRISTOW", "state": "VA", "street": "12821 BRAEMAR VILLAGE PLZ", "postcode": "20136"}}},
{"geometry": {"type": "Point", "coordinates": [-77.5300265073, 38.7140417719]}, "type": "Feature", "properties": {"collection_times": [{"days": "Mon-Fri", "time": "4:30pm"}, {"days": "Sat", "time": "11:30am"}, {"days": "Sun", "time": "Closed"}], "id": "2013600003", "name": "USPS COLLECTION BOX - PO LOBBY", "address": {"city": "BRISTOW", "state": "VA", "street": "11151 VALLEY VIEW DR", "postcode": "20136"}}},
{"geometry": {"type": "Point", "coordinates": [-77.726116292, 38.8065282809]}, "type": "Feature", "properties": {"collection_times": [{"days": "Mon-Fri", "time": "4:30pm"}, {"days": "Sat", "time": "12:00pm"}, {"days": "Sun", "time": "Closed"}], "id": "2013700000", "name": "USPS COLLECTION BOX - BLUE BOX", "address": {"city": "BROAD RUN", "state": "VA", "street": "5073 JOHN MARSH HWY", "postcode": "20137"}}},
{"geometry": {"type": "Point", "coordinates": [-77.7129521839, 38.8237612159]}, "type": "Feature", "properties": {"collection_times": [{"days": "Mon-Fri", "time": "4:30pm"}, {"days": "Sat", "time": "12:00pm"}, {"days": "Sun", "time": "Closed"}], "id": "2013700001", "name": "USPS COLLECTION BOX - PO LOBBY", "address": {"city": "BROAD RUN", "state": "VA", "street": "5073 JOHN MARSHALL HWY", "postcode": "20137"}}},
{"geometry": {"type": "Point", "coordinates": [-77.6744110838, 38.6358209617]}, "type": "Feature", "properties": {"collection_times": [{"days": "Mon-Fri", "time": "4:30pm"}, {"days": "Sat", "time": "11:45am"}, {"days": "Sun", "time": "Closed"}], "id": "2013800000", "name": "USPS COLLECTION BOX - BLUE BOX", "address": {"city": "CALVERTON", "state": "VA", "street": "4115 CATLETT RD", "postcode": "20138"}}},
{"geometry": {"type": "Point", "coordinates": [-77.6744110838, 38.6358209617]}, "type": "Feature", "properties": {"collection_times": [{"days": "Mon-Fri", "time": "12:00pm"}, {"days": "Sat", "time": "11:45am"}, {"days": "Sun", "time": "Closed"}], "id": "2013800001", "name": "USPS COLLECTION BOX - PO LOBBY", "address": {"city": "CALVERTON", "state": "VA", "street": "4115 CATLETT RD", "postcode": "20138"}}},
{"geometry": {"type": "Point", "coordinates": [-77.7171525593, 38.6582295829]}, "type": "Feature", "properties": {"collection_times": [{"days": "Mon-Fri", "time": "4:45pm"}, {"days": "Sat", "time": "11:45am"}, {"days": "Sun", "time": "Closed"}], "id": "2013900000", "name": "USPS COLLECTION BOX - BLUE BOX", "address": {"city": "CASANOVA", "state": "VA", "street": "5137 WESTON RD", "postcode": "20139"}}},
{"geometry": {"type": "Point", "coordinates": [-77.7171525593, 38.6582295829]}, "type": "Feature", "properties": {"collection_times": [{"days": "Mon-Fri", "time": "4:45pm"}, {"days": "Sat", "time": "11:45am"}, {"days": "Sun", "time": "Closed"}], "id": "2013900001", "name": "USPS COLLECTION BOX - PO LOBBY", "address": {"city": "CASANOVA", "state": "VA", "street": "5137 WESTON RD", "postcode": "20139"}}},
{"geometry": {"type": "Point", "coordinates": [-77.8620683683, 38.9213504425]}, "type": "Feature", "properties": {"collection_times": [{"days": "Mon-Fri", "time": "4:30pm"}, {"days": "Sat", "time": "11:30am"}, {"days": "Sun", "time": "Closed"}], "id": "2014000000", "name": "USPS COLLECTION BOX - BLUE BOX", "address": {"city": "RECTORTOWN", "state": "VA", "street": "2975 RECTORTOWN RD", "postcode": "20140"}}},
{"geometry": {"type": "Point", "coordinates": [-77.8620683683, 38.9213504425]}, "type": "Feature", "properties": {"collection_times": [{"days": "Mon-Fri", "time": "4:45pm"}, {"days": "Sat", "time": "12:00pm"}, {"days": "Sun", "time": "Closed"}], "id": "2014000001", "name": "USPS COLLECTION BOX - PO LOBBY", "address": {"city": "RECTORTOWN", "state": "VA", "street": "2975 RECTORTOWN RD", "postcode": "20140"}}},
{"geometry": {"type": "Point", "coordinates": [-77.7686529898, 39.1331688651]}, "type": "Feature", "properties": {"collection_times": [{"days": "Mon-Fri", "time": "4:00pm"}, {"days": "Sat", "time": "12:00pm"}, {"days": "Sun", "time": "Closed"}], "id": "2014100000", "name": "USPS COLLECTION BOX - BLUE BOX", "address": {"city": "ROUNDHILL", "state": "VA", "street": "2 MAIN ST", "postcode": "20141"}}},
{"geometry": {"type": "Point", "coordinates": [-77.7686529898, 39.1331688651]}, "type": "Feature", "properties": {"collection_times": [{"days": "Mon-Fri", "time": "5:00pm"}, {"days": "Sat", "time": "12:00pm"}, {"days": "Sun", "time": "Closed"}], "id": "2014100001", "name": "USPS COLLECTION BOX - PO LOBBY", "address": {"city": "ROUNDHILL", "state": "VA", "street": "2 MAIN ST", "postcode": "20141"}}},
{"geometry": {"type": "Point", "coordinates": [-77.5722978181, 38.8542980061]}, "type": "Feature", "properties": {"collection_times": [{"days": "Mon-Fri", "time": "4:45pm"}, {"days": "Sat", "time": "11:45am"}, {"days": "Sun", "time": "Closed"}], "id": "2014300000", "name": "USPS COLLECTION BOX - BLUE BOX", "address": {"city": "CATHARPIN", "state": "VA", "street": "4625 SUDLEY RD", "postcode": "20143"}}},
{"geometry": {"type": "Point", "coordinates": [-77.570527545, 38.8542637155]}, "type": "Feature", "properties": {"collection_times": [{"days": "Mon-Sat", "time": "10:45am"}, {"days": "Sun", "time": "Closed"}], "id": "2014300001", "name": "USPS COLLECTION BOX - BLUE BOX", "address": {"city": "CATHARPIN", "state": "VA", "street": "4661 SUDLEY RD", "postcode": "20143"}}},
{"geometry": {"type": "Point", "coordinates": [-77.9206312769, 38.9150347808]}, "type": "Feature", "properties": {"collection_times": [{"days": "Mon-Fri", "time": "4:30pm"}, {"days": "Sat", "time": "12:00pm"}, {"days": "Sun", "time": "Closed"}], "id": "2014400000", "name": "USPS COLLECTION BOX - BLUE BOX", "address": {"city": "DELAPLANE", "state": "VA", "street": "3046 DELAPLANE GRADE RD", "postcode": "20144"}}},
{"geometry": {"type": "Point", "coordinates": [-77.9206312769, 38.9150347808]}, "type": "Feature", "properties": {"collection_times": [{"days": "Mon-Fri", "time": "4:30pm"}, {"days": "Sat", "time": "12:00pm"}, {"days": "Sun", "time": "Closed"}], "id": "2014400001", "name": "USPS COLLECTION BOX - PO LOBBY", "address": {"city": "DELAPLANE", "state": "VA", "street": "3046 DELAPLANE GRADE RD", "postcode": "20144"}}},
{"geometry": {"type": "Point", "coordinates": [-77.4737969189, 39.0449970186]}, "type": "Feature", "properties": {"collection_times": [{"days": "Mon-Sat", "time": "9:00am"}, {"days": "Sun", "time": "Closed"}], "id": "2014700000", "name": "USPS COLLECTION BOX - BLUE BOX", "address": {"city": "ASHBURN", "state": "VA", "street": "44110 ASHBURN SHOPPING PLZ", "postcode": "20147"}}},
{"geometry": {"type": "Point", "coordinates": [-77.4371015318, 39.0538550153]}, "type": "Feature", "properties": {"collection_times": [{"days": "Mon-Sat", "time": "9:00am"}, {"days": "Sun", "time": "Closed"}], "id": "2014700006", "name": "USPS COLLECTION BOX - BLUE BOX", "address": {"city": "ASHBURN", "state": "VA", "street": "20300 RIVER RIDGE TER", "postcode": "20147"}}},
{"geometry": {"type": "Point", "coordinates": [-77.4750366599, 39.0459351051]}, "type": "Feature", "properties": {"collection_times": [{"days": "Mon-Sat", "time": "9:00am"}, {"days": "Sun", "time": "Closed"}], "id": "2014700008", "name": "USPS COLLECTION BOX - BLUE BOX", "address": {"city": "ASHBURN", "state": "VA", "street": "20606 CORNSTALK TER", "postcode": "20147"}}},
{"geometry": {"type": "Point", "coordinates": [-77.4808982215, 39.0232140122]}, "type": "Feature", "properties": {"collection_times": [{"days": "Mon-Sat", "time": "9:00am"}, {"days": "Sun", "time": "Closed"}], "id": "2014700009", "name": "USPS COLLECTION BOX - BLUE BOX", "address": {"city": "ASHBURN", "state": "VA", "street": "43930 FARMWELL HUNT PLZ", "postcode": "20147"}}},
{"geometry": {"type": "Point", "coordinates": [-77.5021039439, 39.0372959557]}, "type": "Feature", "properties": {"collection_times": [{"days": "Mon-Sat", "time": "9:00am"}, {"days": "Sun", "time": "Closed"}], "id": "2014700016", "name": "USPS COLLECTION BOX - BLUE BOX", "address": {"city": "ASHBURN", "state": "VA", "street": "43330 JUNCTION PLZ", "postcode": "20147"}}},
{"geometry": {"type": "Point", "coordinates": [-77.4866414873, 39.0293985217]}, "type": "Feature", "properties": {"collection_times": [{"days": "Mon-Sat", "time": "9:00am"}, {"days": "Sun", "time": "Closed"}], "id": "2014700020", "name": "USPS COLLECTION BOX - BLUE BOX", "address": {"city": "ASHBURN", "state": "VA", "street": "43761 PARKHURST PLZ", "postcode": "20147"}}},
{"geometry": {"type": "Point", "coordinates": [-77.508268315, 39.026412562]}, "type": "Feature", "properties": {"collection_times": [{"days": "Mon-Fri", "time": "5:00pm"}, {"days": "Sat", "time": "12:00pm"}, {"days": "Sun", "time": "Closed"}], "id": "2014800001", "name": "USPS COLLECTION BOX - PO LOBBY", "address": {"city": "ASHBURN", "state": "VA", "street": "43150 BROADLANDS CENTER PLZ STE 124", "postcode": "20148"}}},
{"geometry": {"type": "Point", "coordinates": [-77.4387340151, 38.885769559]}, "type": "Feature", "properties": {"collection_times": [{"days": "Mon-Fri", "time": "5:00pm"}, {"days": "Sat", "time": "3:30pm"}, {"days": "Sun", "time": "Closed"}], "id": "2015100001", "name": "USPS COLLECTION BOX - BLUE BOX", "address": {"city": "FAIRFAX", "state": "VA", "street": "4410 BROOKFIELD CORPORATE DR", "postcode": "20151"}}},
{"geometry": {"type": "Point", "coordinates": [-77.4769271172, 38.9068168131]}, "type": "Feature", "properties": {"collection_times": [{"days": "Mon-Fri", "time": "2:30pm"}, {"days": "Sat", "time": "2:00pm"}, {"days": "Sun", "time": "Closed"}], "id": "2015100008", "name": "USPS COLLECTION BOX - BLUE BOX", "address": {"city": "FAIRFAX", "state": "VA", "street": "4230 LAFAYETTE CENTER DR", "postcode": "20151"}}},
{"geometry": {"type": "Point", "coordinates": [-77.4387340151, 38.885769559]}, "type": "Feature", "properties": {"collection_times": [{"days": "Mon-Fri", "time": "5:00pm"}, {"days": "Sat", "time": "2:00pm"}, {"days": "Sun", "time": "Closed"}], "id": "2015100022", "name": "USPS COLLECTION BOX - APC", "address": {"city": "FAIRFAX", "state": "VA", "street": "4410 BROOKFIELD CORPORATE DR", "postcode": "20151"}}},
{"geometry": {"type": "Point", "coordinates": [-77.4387340151, 38.885769559]}, "type": "Feature", "properties": {"collection_times": [{"days": "Mon-Fri", "time": "5:00pm"}, {"days": "Sat", "time": "2:00pm"}, {"days": "Sun", "time": "Closed"}], "id": "2015100025", "name": "USPS COLLECTION BOX - PO LOBBY", "address": {"city": "FAIRFAX", "state": "VA", "street": "4410 BROOKFIELD CORPORATE DR", "postcode": "20151"}}},
{"geometry": {"type": "Point", "coordinates": [-77.4457513647, 38.8909513264]}, "type": "Feature", "properties": {"collection_times": [{"days": "Mon-Fri", "time": "2:30pm"}, {"days": "Sat", "time": "2:00pm"}, {"days": "Sun", "time": "Closed"}], "id": "2015100028", "name": "USPS COLLECTION BOX - BLUE BOX", "address": {"city": "FAIRFAX", "state": "VA", "street": "43063 PEACOCK MARKET PLZ", "postcode": "20151"}}},
{"geometry": {"type": "Point", "coordinates": [-77.629262569, 38.7914226667]}, "type": "Feature", "properties": {"collection_times": [{"days": "Mon-Fri", "time": "4:45pm"}, {"days": "Sat", "time": "12:00pm"}, {"days": "Sun", "time": "Closed"}], "id": "2015500001", "name": "USPS COLLECTION BOX - BLUE BOX", "address": {"city": "GAINESVILLE", "state": "VA", "street": "14689 LEE HWY", "postcode": "20155"}}},
{"geometry": {"type": "Point", "coordinates": [-77.6099328757, 38.7931858085]}, "type": "Feature", "properties": {"collection_times": [{"days": "Mon-Sat", "time": "10:00am"}, {"days": "Sun", "time": "Closed"}], "id": "2015500004", "name": "USPS COLLECTION BOX - BLUE BOX", "address": {"city": "GAINESVILLE", "state": "VA", "street": "7575 LINTON HALL RD", "postcode": "20155"}}},
{"geometry": {"type": "Point", "coordinates": [-77.629262569, 38.7914226667]}, "type": "Feature", "properties": {"collection_times": [{"days": "Mon-Fri", "time": "4:45pm"}, {"days": "Sat", "time": "12:00pm"}, {"days": "Sun", "time": "Closed"}], "id": "2015500005", "name": "USPS COLLECTION BOX - PO LOBBY", "address": {"city": "GAINESVILLE", "state": "VA", "street": "14689 LEE HWY", "postcode": "20155"}}},
{"geometry": {"type": "Point", "coordinates": [-77.5992329043, 38.7946802864]}, "type": "Feature", "properties": {"collection_times": [{"days": "Mon-Sat", "time": "10:00am"}, {"days": "Sun", "time": "Closed"}], "id": "2015500006", "name": "USPS COLLECTION BOX - BLUE BOX", "address": {"city": "GAINESVILLE", "state": "VA", "street": "7454 LIMESTONE DR", "postcode": "20155"}}},
{"geometry": {"type": "Point", "coordinates": [-77.6666026687, 39.1354389633]}, "type": "Feature", "properties": {"collection_times": [{"days": "Mon-Fri", "time": "4:45pm"}, {"days": "Sat", "time": "11:45am"}, {"days": "Sun", "time": "Closed"}], "id": "2015800000", "name": "USPS COLLECTION BOX - BLUE BOX", "address": {"city": "HAMILTON", "state": "VA", "street": "53 W COLONIAL HWY", "postcode": "20158"}}},
{"geometry": {"type": "Point", "coordinates": [-77.6666026687, 39.1354389633]}, "type": "Feature", "properties": {"collection_times": [{"days": "Mon-Fri", "time": "4:45pm"}, {"days": "Sat", "time": "11:45am"}, {"days": "Sun", "time": "Closed"}], "id": "2015800004", "name": "USPS COLLECTION BOX - PO LOBBY", "address": {"city": "HAMILTON", "state": "VA", "street": "53 W COLONIAL HWY", "postcode": "20158"}}},
{"geometry": {"type": "Point", "coordinates": [-77.6950291727, 39.11385706]}, "type": "Feature", "properties": {"collection_times": [{"days": "Mon-Fri", "time": "12:00pm"}, {"days": "Sat", "time": "11:00am"}, {"days": "Sun", "time": "Closed"}], "id": "2016000000", "name": "USPS COLLECTION BOX - BLUE BOX", "address": {"city": "PURCELLVILLE", "state": "VA", "street": "18196 LINCOLN RD", "postcode": "20160"}}},
{"geometry": {"type": "Point", "coordinates": [-77.383675556, 39.0374213494]}, "type": "Feature", "properties": {"collection_times": [{"days": "Mon-Fri", "time": "4:00pm"}, {"days": "Sat", "time": "1:15pm"}, {"days": "Sun", "time": "Closed"}], "id": "2016400003", "name": "USPS COLLECTION BOX - BLUE BOX", "address": {"city": "STERLING", "state": "VA", "street": "65 SUGARLAND RUN DR", "postcode": "20164"}}},
{"geometry": {"type": "Point", "coordinates": [-77.4223192765, 38.9905063798]}, "type": "Feature", "properties": {"collection_times": [{"days": "Mon-Fri", "time": "2:30pm"}, {"days": "Sat", "time": "2:15pm"}, {"days": "Sun", "time": "Closed"}], "id": "2016400004", "name": "USPS COLLECTION BOX - BLUE BOX", "address": {"city": "STERLING", "state": "VA", "street": "109 CARPENTER DR", "postcode": "20164"}}},
{"geometry": {"type": "Point", "coordinates": [-77.3962676421, 39.0105319286]}, "type": "Feature", "properties": {"collection_times": [{"days": "Mon-Fri", "time": "5:00pm"}, {"days": "Sat", "time": "3:00pm"}, {"days": "Sun", "time": "Closed"}], "id": "2016400007", "name": "USPS COLLECTION BOX - EXPRESS", "address": {"city": "STERLING", "state": "VA", "street": "150 S STERLING BLVD", "postcode": "20164"}}},
{"geometry": {"type": "Point", "coordinates": [-77.4207589537, 38.9976893066]}, "type": "Feature", "properties": {"collection_times": [{"days": "Mon-Sat", "time": "9:00am"}, {"days": "Sun", "time": "Closed"}], "id": "2016400021", "name": "USPS COLLECTION BOX - BLUE BOX", "address": {"city": "STERLING", "state": "VA", "street": "892 HOLBORN CT", "postcode": "20164"}}},
{"geometry": {"type": "Point", "coordinates": [-77.4231355182, 38.9929006888]}, "type": "Feature", "properties": {"collection_times": [{"days": "Mon-Sat", "time": "2:15pm"}, {"days": "Sun", "time": "Closed"}], "id": "2016400025", "name": "USPS COLLECTION BOX - BLUE BOX", "address": {"city": "STERLING", "state": "VA", "street": "1334 SHEPARD DR", "postcode": "20164"}}},
{"geometry": {"type": "Point", "coordinates": [-77.372922459, 39.0133942699]}, "type": "Feature", "properties": {"collection_times": [{"days": "Mon-Fri", "time": "3:45pm"}, {"days": "Sat", "time": "1:00pm"}, {"days": "Sun", "time": "Closed"}], "id": "2016400027", "name": "USPS COLLECTION BOX - BLUE BOX", "address": {"city": "STERLING", "state": "VA", "street": "21800 TOWN CENTER PLZ", "postcode": "20164"}}},
{"geometry": {"type": "Point", "coordinates": [-77.4050634541, 39.0002977312]}, "type": "Feature", "properties": {"collection_times": [{"days": "Mon-Fri", "time": "5:00pm"}, {"days": "Sat", "time": "3:00pm"}, {"days": "Sun", "time": "Closed"}], "id": "2016400032", "name": "USPS COLLECTION BOX - BLUE BOX", "address": {"city": "STERLING", "state": "VA", "street": "150 S STERLING BLVD", "postcode": "20164"}}},
{"geometry": {"type": "Point", "coordinates": [-77.4050634541, 39.0002977312]}, "type": "Feature", "properties": {"collection_times": [{"days": "Mon-Fri", "time": "5:00pm"}, {"days": "Sat", "time": "3:00pm"}, {"days": "Sun", "time": "Closed"}], "id": "2016400035", "name": "USPS COLLECTION BOX - PO LOBBY", "address": {"city": "STERLING", "state": "VA", "street": "150 S STERLING BLVD", "postcode": "20164"}}},
{"geometry": {"type": "Point", "coordinates": [-77.4173614955, 38.9944184251]}, "type": "Feature", "properties": {"collection_times": [{"days": "Mon-Sat", "time": "9:00am"}, {"days": "Sun", "time": "Closed"}], "id": "2016400037", "name": "USPS COLLECTION BOX - BLUE BOX", "address": {"city": "STERLING", "state": "VA", "street": "1212 CHASE HERITAGE CIR", "postcode": "20164"}}},
{"geometry": {"type": "Point", "coordinates": [-77.4006107966, 39.0273413561]}, "type": "Feature", "properties": {"collection_times": [{"days": "Mon-Fri", "time": "4:45pm"}, {"days": "Sat", "time": "1:45pm"}, {"days": "Sun", "time": "Closed"}], "id": "2016400039", "name": "USPS COLLECTION BOX - BLUE BOX", "address": {"city": "STERLING", "state": "VA", "street": "46220 POTOMAC RUN PLZ", "postcode": "20164"}}},
{"geometry": {"type": "Point", "coordinates": [-77.3849011015, 39.035413868]}, "type": "Feature", "properties": {"collection_times": [{"days": "Mon-Fri", "time": "4:00pm"}, {"days": "Sat", "time": "1:15pm"}, {"days": "Sun", "time": "Closed"}], "id": "2016400042", "name": "USPS COLLECTION BOX - BLUE BOX", "address": {"city": "STERLING", "state": "VA", "street": "1300 SANDERSON DR", "postcode": "20164"}}},
{"geometry": {"type": "Point", "coordinates": [-77.3797161924, 39.0158997769]}, "type": "Feature", "properties": {"collection_times": [{"days": "Mon-Fri", "time": "1:45pm"}, {"days": "Sat", "time": "2:00pm"}, {"days": "Sun", "time": "Closed"}], "id": "2016400043", "name": "USPS COLLECTION BOX - BLUE BOX", "address": {"city": "STERLING", "state": "VA", "street": "21680 THOMAS JEFFERSON DR", "postcode": "20164"}}},
{"geometry": {"type": "Point", "coordinates": [-77.3779157288, 39.0081111751]}, "type": "Feature", "properties": {"collection_times": [{"days": "Mon-Sat", "time": "9:00am"}, {"days": "Sun", "time": "Closed"}], "id": "2016400044", "name": "USPS COLLECTION BOX - BLUE BOX", "address": {"city": "STERLING", "state": "VA", "street": "21940 MUIRFIELD CIR", "postcode": "20164"}}},
{"geometry": {"type": "Point", "coordinates": [-77.3764240176, 39.0151012796]}, "type": "Feature", "properties": {"collection_times": [{"days": "Mon-Sat", "time": "9:00am"}, {"days": "Sun", "time": "Closed"}], "id": "2016400045", "name": "USPS COLLECTION BOX - BLUE BOX", "address": {"city": "STERLING", "state": "VA", "street": "47100 COMMUNITY PLZ", "postcode": "20164"}}},
{"geometry": {"type": "Point", "coordinates": [-77.4050634541, 39.0002977312]}, "type": "Feature", "properties": {"collection_times": [{"days": "Mon-Fri", "time": "5:00pm"}, {"days": "Sat", "time": "3:00pm"}, {"days": "Sun", "time": "Closed"}], "id": "2016400048", "name": "USPS COLLECTION BOX - PO LOBBY", "address": {"city": "STERLING", "state": "VA", "street": "150 S STERLING BLVD", "postcode": "20164"}}},
{"geometry": {"type": "Point", "coordinates": [-77.4050634541, 39.0002977312]}, "type": "Feature", "properties": {"collection_times": [{"days": "Mon-Fri", "time": "5:00pm"}, {"days": "Sat", "time": "3:00pm"}, {"days": "Sun", "time": "Closed"}], "id": "2016400049", "name": "USPS COLLECTION BOX - APC", "address": {"city": "STERLING", "state": "VA", "street": "150 S STERLING BLVD", "postcode": "20164"}}},
{"geometry": {"type": "Point", "coordinates": [-77.3962676421, 39.0105319286]}, "type": "Feature", "properties": {"collection_times": [{"days": "Mon-Fri", "time": "3:45pm"}, {"days": "Sat", "time": "1:00pm"}, {"days": "Sun", "time": "Closed"}], "id": "2016400050", "name": "USPS COLLECTION BOX - EXPRESS", "address": {"city": "STERLING", "state": "VA", "street": "21800 TOWN CENTER PLZ", "postcode": "20164"}}},
{"geometry": {"type": "Point", "coordinates": [-77.4126272937, 39.0397943651]}, "type": "Feature", "properties": {"collection_times": [{"days": "Mon-Fri", "time": "4:15pm"}, {"days": "Sat", "time": "1:30pm"}, {"days": "Sun", "time": "Closed"}], "id": "2016500001", "name": "USPS COLLECTION BOX - BLUE BOX", "address": {"city": "STERLING", "state": "VA", "street": "46 PIDGEON HILL DR", "postcode": "20165"}}},
{"geometry": {"type": "Point", "coordinates": [-77.3978722466, 39.0346567743]}, "type": "Feature", "properties": {"collection_times": [{"days": "Mon-Fri", "time": "4:00pm"}, {"days": "Sat", "time": "1:15pm"}, {"days": "Sun", "time": "Closed"}], "id": "2016500004", "name": "USPS COLLECTION BOX - BLUE BOX", "address": {"city": "STERLING", "state": "VA", "street": "21012 SOUTHBANK ST", "postcode": "20165"}}},
{"geometry": {"type": "Point", "coordinates": [-77.4132672745, 39.0382588843]}, "type": "Feature", "properties": {"collection_times": [{"days": "Mon-Fri", "time": "4:15pm"}, {"days": "Sat", "time": "1:30pm"}, {"days": "Sun", "time": "Closed"}], "id": "2016500007", "name": "USPS COLLECTION BOX - BLUE BOX", "address": {"city": "STERLING", "state": "VA", "street": "2 PIDGEON HILL DR", "postcode": "20165"}}},
{"geometry": {"type": "Point", "coordinates": [-77.3579225394, 39.0400806412]}, "type": "Feature", "properties": {"collection_times": [{"days": "Mon-Fri", "time": "3:30pm"}, {"days": "Sat", "time": "12:45pm"}, {"days": "Sun", "time": "Closed"}], "id": "2016500010", "name": "USPS COLLECTION BOX - BLUE BOX", "address": {"city": "STERLING", "state": "VA", "street": "20789 GREAT FALLS PLZ", "postcode": "20165"}}},
{"geometry": {"type": "Point", "coordinates": [-77.4024834206, 39.0352872914]}, "type": "Feature", "properties": {"collection_times": [{"days": "Mon-Fri", "time": "5:30pm"}, {"days": "Sat", "time": "2:00pm"}, {"days": "Sun", "time": "Closed"}], "id": "2016500011", "name": "USPS COLLECTION BOX - BLUE BOX", "address": {"city": "STERLING", "state": "VA", "street": "46164 WESTLAKE DR", "postcode": "20165"}}},
{"geometry": {"type": "Point", "coordinates": [-77.4024834206, 39.0352872914]}, "type": "Feature", "properties": {"collection_times": [{"days": "Mon-Fri", "time": "5:30pm"}, {"days": "Sat", "time": "2:00pm"}, {"days": "Sun", "time": "Closed"}], "id": "2016500013", "name": "USPS COLLECTION BOX - PO LOBBY", "address": {"city": "STERLING", "state": "VA", "street": "46164 WESTLAKE DR", "postcode": "20165"}}},
{"geometry": {"type": "Point", "coordinates": [-77.4024834206, 39.0352872914]}, "type": "Feature", "properties": {"collection_times": [{"days": "Mon-Fri", "time": "5:30pm"}, {"days": "Sat", "time": "2:00pm"}, {"days": "Sun", "time": "Closed"}], "id": "2016500014", "name": "USPS COLLECTION BOX - PO LOBBY", "address": {"city": "STERLING", "state": "VA", "street": "46164 WESTLAKE DR", "postcode": "20165"}}},
{"geometry": {"type": "Point", "coordinates": [-77.4024834206, 39.0352872914]}, "type": "Feature", "properties": {"collection_times": [{"days": "Mon-Fri", "time": "5:30pm"}, {"days": "Sat", "time": "2:00pm"}, {"days": "Sun", "time": "Closed"}], "id": "2016500015", "name": "USPS COLLECTION BOX - APC", "address": {"city": "STERLING", "state": "VA", "street": "46164 WESTLAKE DR", "postcode": "20165"}}},
{"geometry": {"type": "Point", "coordinates": [-77.4279584419, 39.0207723849]}, "type": "Feature", "properties": {"collection_times": [{"days": "Mon-Fri", "time": "2:00pm"}, {"days": "Sat-Sun", "time": "Closed"}], "id": "2016600005", "name": "USPS COLLECTION BOX - BLUE BOX", "address": {"city": "STERLING", "state": "VA", "street": "45449 SEVERN WAY", "postcode": "20166"}}},
{"geometry": {"type": "Point", "coordinates": [-77.4440798067, 38.9848269938]}, "type": "Feature", "properties": {"collection_times": [{"days": "Mon-Fri", "time": "3:45pm"}, {"days": "Sat", "time": "2:30pm"}, {"days": "Sun", "time": "Closed"}], "id": "2016600008", "name": "USPS COLLECTION BOX - BLUE BOX", "address": {"city": "STERLING", "state": "VA", "street": "101 EXECUTIVE DR", "postcode": "20166"}}},
{"geometry": {"type": "Point", "coordinates": [-77.4269860497, 38.9880198001]}, "type": "Feature", "properties": {"collection_times": [{"days": "Mon-Sat", "time": "2:15pm"}, {"days": "Sun", "time": "Closed"}], "id": "2016600010", "name": "USPS COLLECTION BOX - BLUE BOX", "address": {"city": "STERLING", "state": "VA", "street": "506 SHAW RD", "postcode": "20166"}}},
{"geometry": {"type": "Point", "coordinates": [-77.4362249592, 38.9808167629]}, "type": "Feature", "properties": {"collection_times": [{"days": "Mon-Sat", "time": "9:00am"}, {"days": "Sun", "time": "Closed"}], "id": "2016600012", "name": "USPS COLLECTION BOX - BLUE BOX", "address": {"city": "STERLING", "state": "VA", "street": "45240 BUSINESS CT", "postcode": "20166"}}},
{"geometry": {"type": "Point", "coordinates": [-77.4071750359, 39.0303543525]}, "type": "Feature", "properties": {"collection_times": [{"days": "Mon-Fri", "time": "4:30pm"}, {"days": "Sat", "time": "1:45pm"}, {"days": "Sun", "time": "Closed"}], "id": "2016600015", "name": "USPS COLLECTION BOX - BLUE BOX", "address": {"city": "STERLING", "state": "VA", "street": "21495 RIDGETOP CIR", "postcode": "20166"}}},
{"geometry": {"type": "Point", "coordinates": [-77.4489867205, 38.9581299759]}, "type": "Feature", "properties": {"collection_times": [{"days": "Mon-Fri", "time": "4:00pm"}, {"days": "Sat", "time": "2:30pm"}, {"days": "Sun", "time": "Closed"}], "id": "2016600030", "name": "USPS COLLECTION BOX - BLUE BOX", "address": {"city": "STERLING", "state": "VA", "street": "45005 AVIATION DR", "postcode": "20166"}}},
{"geometry": {"type": "Point", "coordinates": [-77.4489867205, 38.9581299759]}, "type": "Feature", "properties": {"collection_times": [{"days": "Mon-Fri", "time": "4:00pm"}, {"days": "Sat", "time": "2:30pm"}, {"days": "Sun", "time": "Closed"}], "id": "2016600031", "name": "USPS COLLECTION BOX - BLUE BOX", "address": {"city": "STERLING", "state": "VA", "street": "45005 AVIATION DR", "postcode": "20166"}}},
{"geometry": {"type": "Point", "coordinates": [-77.4390485662, 38.9980834878]}, "type": "Feature", "properties": {"collection_times": [{"days": "Mon-Fri", "time": "4:00pm"}, {"days": "Sat", "time": "2:30pm"}, {"days": "Sun", "time": "Closed"}], "id": "2016600032", "name": "USPS COLLECTION BOX - EXPRESS", "address": {"city": "STERLING", "state": "VA", "street": "45005 AVIATION DR", "postcode": "20166"}}},
{"geometry": {"type": "Point", "coordinates": [-77.4488979986, 38.980093975]}, "type": "Feature", "properties": {"collection_times": [{"days": "Mon-Fri", "time": "3:45pm"}, {"days": "Sat", "time": "2:30pm"}, {"days": "Sun", "time": "Closed"}], "id": "2016600038", "name": "USPS COLLECTION BOX - BLUE BOX", "address": {"city": "STERLING", "state": "VA", "street": "44880 FALCON PL", "postcode": "20166"}}},
{"geometry": {"type": "Point", "coordinates": [-77.4041799576, 39.0276570569]}, "type": "Feature", "properties": {"collection_times": [{"days": "Mon-Fri", "time": "4:30pm"}, {"days": "Sat", "time": "1:45pm"}, {"days": "Sun", "time": "Closed"}], "id": "2016600040", "name": "USPS COLLECTION BOX - BLUE BOX", "address": {"city": "STERLING", "state": "VA", "street": "21260 HUNTINGTON SQ", "postcode": "20166"}}},
{"geometry": {"type": "Point", "coordinates": [-77.452519036, 38.960232094]}, "type": "Feature", "properties": {"collection_times": [{"days": "Mon-Fri", "time": "4:00pm"}, {"days": "Sat", "time": "2:30pm"}, {"days": "Sun", "time": "Closed"}], "id": "2016600043", "name": "USPS COLLECTION BOX - BLUE BOX", "address": {"city": "STERLING", "state": "VA", "street": "23723 AIR FREIGHT LN", "postcode": "20166"}}},
{"geometry": {"type": "Point", "coordinates": [-77.4099419769, 39.031407186]}, "type": "Feature", "properties": {"collection_times": [{"days": "Mon-Fri", "time": "4:30pm"}, {"days": "Sat", "time": "1:45pm"}, {"days": "Sun", "time": "Closed"}], "id": "2016600045", "name": "USPS COLLECTION BOX - BLUE BOX", "address": {"city": "STERLING", "state": "VA", "street": "21400 RIDGETOP CIR", "postcode": "20166"}}},
{"geometry": {"type": "Point", "coordinates": [-77.6458646713, 38.8703726762]}, "type": "Feature", "properties": {"collection_times": [{"days": "Mon-Fri", "time": "4:00pm"}, {"days": "Sat", "time": "12:00pm"}, {"days": "Sun", "time": "Closed"}], "id": "2016900004", "name": "USPS COLLECTION BOX - BLUE BOX", "address": {"city": "HAYMARKET", "state": "VA", "street": "14658 GAP WAY", "postcode": "20169"}}},
{"geometry": {"type": "Point", "coordinates": [-77.6364549595, 38.8121800477]}, "type": "Feature", "properties": {"collection_times": [{"days": "Mon-Fri", "time": "10:00am"}, {"days": "Sat", "time": "9:30am"}, {"days": "Sun", "time": "Closed"}], "id": "2016900005", "name": "USPS COLLECTION BOX - BLUE BOX", "address": {"city": "HAYMARKET", "state": "VA", "street": "15000 WASHINGTON ST", "postcode": "20169"}}},
{"geometry": {"type": "Point", "coordinates": [-77.6458646713, 38.8703726762]}, "type": "Feature", "properties": {"collection_times": [{"days": "Mon-Fri", "time": "4:00pm"}, {"days": "Sat", "time": "12:00pm"}, {"days": "Sun", "time": "Closed"}], "id": "2016900007", "name": "USPS COLLECTION BOX - PO LOBBY", "address": {"city": "HAYMARKET", "state": "VA", "street": "14658 GAP WAY", "postcode": "20169"}}},
{"geometry": {"type": "Point", "coordinates": [-77.3885519838, 38.9673981811]}, "type": "Feature", "properties": {"collection_times": [{"days": "Mon-Fri", "time": "4:05pm"}, {"days": "Sat", "time": "3:10pm"}, {"days": "Sun", "time": "Closed"}], "id": "2017000000", "name": "USPS COLLECTION BOX - BLUE BOX", "address": {"city": "HERNDON", "state": "VA", "street": "623 CENTER ST", "postcode": "20170"}}},
{"geometry": {"type": "Point", "coordinates": [-77.3660956028, 38.9663550896]}, "type": "Feature", "properties": {"collection_times": [{"days": "Mon-Fri", "time": "4:45pm"}, {"days": "Sat", "time": "3:50pm"}, {"days": "Sun", "time": "Closed"}], "id": "2017000002", "name": "USPS COLLECTION BOX - BLUE BOX", "address": {"city": "HERNDON", "state": "VA", "street": "100 ELDEN ST", "postcode": "20170"}}},
{"geometry": {"type": "Point", "coordinates": [-77.3689185513, 38.9663683479]}, "type": "Feature", "properties": {"collection_times": [{"days": "Mon-Fri", "time": "4:40pm"}, {"days": "Sat", "time": "3:30pm"}, {"days": "Sun", "time": "Closed"}], "id": "2017000004", "name": "USPS COLLECTION BOX - BLUE BOX", "address": {"city": "HERNDON", "state": "VA", "street": "199 ELDEN ST", "postcode": "20170"}}},
{"geometry": {"type": "Point", "coordinates": [-77.3747904156, 38.9675785728]}, "type": "Feature", "properties": {"collection_times": [{"days": "Mon-Fri", "time": "3:30pm"}, {"days": "Sat", "time": "2:30pm"}, {"days": "Sun", "time": "Closed"}], "id": "2017000006", "name": "USPS COLLECTION BOX - BLUE BOX", "address": {"city": "HERNDON", "state": "VA", "street": "381 ELDEN ST", "postcode": "20170"}}},
{"geometry": {"type": "Point", "coordinates": [-77.3715305608, 38.9640597071]}, "type": "Feature", "properties": {"collection_times": [{"days": "Mon-Fri", "time": "4:40pm"}, {"days": "Sat", "time": "3:25pm"}, {"days": "Sun", "time": "Closed"}], "id": "2017000007", "name": "USPS COLLECTION BOX - BLUE BOX", "address": {"city": "HERNDON", "state": "VA", "street": "365 HERNDON PKWY", "postcode": "20170"}}},
{"geometry": {"type": "Point", "coordinates": [-77.3855935398, 38.9697334238]}, "type": "Feature", "properties": {"collection_times": [{"days": "Mon-Fri", "time": "4:10pm"}, {"days": "Sat", "time": "3:35pm"}, {"days": "Sun", "time": "Closed"}], "id": "2017000009", "name": "USPS COLLECTION BOX - BLUE BOX", "address": {"city": "HERNDON", "state": "VA", "street": "730 ELDEN ST", "postcode": "20170"}}},
{"geometry": {"type": "Point", "coordinates": [-77.3954613762, 38.9679189613]}, "type": "Feature", "properties": {"collection_times": [{"days": "Mon-Fri", "time": "4:10pm"}, {"days": "Sat", "time": "3:40pm"}, {"days": "Sun", "time": "Closed"}], "id": "2017000010", "name": "USPS COLLECTION BOX - BLUE BOX", "address": {"city": "HERNDON", "state": "VA", "street": "1020 ELDEN ST", "postcode": "20170"}}},
{"geometry": {"type": "Point", "coordinates": [-77.3958858571, 38.9674094786]}, "type": "Feature", "properties": {"collection_times": [{"days": "Mon-Fri", "time": "4:15pm"}, {"days": "Sat", "time": "3:45pm"}, {"days": "Sun", "time": "Closed"}], "id": "2017000011", "name": "USPS COLLECTION BOX - BLUE BOX", "address": {"city": "HERNDON", "state": "VA", "street": "1064 ELDEN ST", "postcode": "20170"}}},
{"geometry": {"type": "Point", "coordinates": [-77.3998022173, 38.9620991456]}, "type": "Feature", "properties": {"collection_times": [{"days": "Mon-Fri", "time": "4:25pm"}, {"days": "Sat", "time": "3:50pm"}, {"days": "Sun", "time": "Closed"}], "id": "2017000012", "name": "USPS COLLECTION BOX - BLUE BOX", "address": {"city": "HERNDON", "state": "VA", "street": "1238 ELDEN ST", "postcode": "20170"}}},
{"geometry": {"type": "Point", "coordinates": [-77.378986216, 38.9671721251]}, "type": "Feature", "properties": {"collection_times": [{"days": "Mon-Fri", "time": "5:00pm"}, {"days": "Sat", "time": "4:00pm"}, {"days": "Sun", "time": "Closed"}], "id": "2017000015", "name": "USPS COLLECTION BOX - BLUE BOX", "address": {"city": "HERNDON", "state": "VA", "street": "590 GROVE ST", "postcode": "20170"}}},
{"geometry": {"type": "Point", "coordinates": [-77.3853151372, 38.9551512852]}, "type": "Feature", "properties": {"collection_times": [{"days": "Mon-Fri", "time": "3:50pm"}, {"days": "Sat", "time": "3:00pm"}, {"days": "Sun", "time": "Closed"}], "id": "2017000016", "name": "USPS COLLECTION BOX - BLUE BOX", "address": {"city": "HERNDON", "state": "VA", "street": "570 HERNDON PKWY", "postcode": "20170"}}},
{"geometry": {"type": "Point", "coordinates": [-77.3858874239, 38.973742767]}, "type": "Feature", "properties": {"collection_times": [{"days": "Mon-Fri", "time": "5:00pm"}, {"days": "Sat", "time": "4:00pm"}, {"days": "Sun", "time": "Closed"}], "id": "2017000018", "name": "USPS COLLECTION BOX - EXPRESS", "address": {"city": "HERNDON", "state": "VA", "street": "590 GROVE ST", "postcode": "20170"}}},
{"geometry": {"type": "Point", "coordinates": [-77.3883128301, 38.956468496]}, "type": "Feature", "properties": {"collection_times": [{"days": "Mon-Fri", "time": "4:00pm"}, {"days": "Sat", "time": "3:20pm"}, {"days": "Sun", "time": "Closed"}], "id": "2017000022", "name": "USPS COLLECTION BOX - BLUE BOX", "address": {"city": "HERNDON", "state": "VA", "street": "196 VAN BUREN ST", "postcode": "20170"}}},
{"geometry": {"type": "Point", "coordinates": [-77.4045376135, 38.9755003999]}, "type": "Feature", "properties": {"collection_times": [{"days": "Mon-Fri", "time": "4:20pm"}, {"days": "Sat", "time": "3:50pm"}, {"days": "Sun", "time": "Closed"}], "id": "2017000027", "name": "USPS COLLECTION BOX - BLUE BOX", "address": {"city": "HERNDON", "state": "VA", "street": "1175 HERNDON PKWY", "postcode": "20170"}}},
{"geometry": {"type": "Point", "coordinates": [-77.3729934366, 38.9582246126]}, "type": "Feature", "properties": {"collection_times": [{"days": "Mon-Fri", "time": "3:40pm"}, {"days": "Sat", "time": "2:50pm"}, {"days": "Sun", "time": "Closed"}], "id": "2017000029", "name": "USPS COLLECTION BOX - BLUE BOX", "address": {"city": "HERNDON", "state": "VA", "street": "139 SPRING ST", "postcode": "20170"}}},
{"geometry": {"type": "Point", "coordinates": [-77.3746744213, 38.9591532354]}, "type": "Feature", "properties": {"collection_times": [{"days": "Mon-Fri", "time": "3:35pm"}, {"days": "Sat", "time": "2:40pm"}, {"days": "Sun", "time": "Closed"}], "id": "2017000031", "name": "USPS COLLECTION BOX - BLUE BOX", "address": {"city": "HERNDON", "state": "VA", "street": "200 SPRING ST", "postcode": "20170"}}},
{"geometry": {"type": "Point", "coordinates": [-77.393159338, 38.9559284893]}, "type": "Feature", "properties": {"collection_times": [{"days": "Mon-Fri", "time": "3:55pm"}, {"days": "Sat", "time": "3:20pm"}, {"days": "Sun", "time": "Closed"}], "id": "2017000032", "name": "USPS COLLECTION BOX - BLUE BOX", "address": {"city": "HERNDON", "state": "VA", "street": "2203 WESTCOURT LN", "postcode": "20170"}}},
{"geometry": {"type": "Point", "coordinates": [-77.378986216, 38.9671721251]}, "type": "Feature", "properties": {"collection_times": [{"days": "Mon-Fri", "time": "5:00pm"}, {"days": "Sat", "time": "4:00pm"}, {"days": "Sun", "time": "Closed"}], "id": "2017000037", "name": "USPS COLLECTION BOX - APC", "address": {"city": "HERNDON", "state": "VA", "street": "590 GROVE ST", "postcode": "20170"}}},
{"geometry": {"type": "Point", "coordinates": [-77.378986216, 38.9671721251]}, "type": "Feature", "properties": {"collection_times": [{"days": "Mon-Fri", "time": "5:00pm"}, {"days": "Sat", "time": "4:00pm"}, {"days": "Sun", "time": "Closed"}], "id": "2017000038", "name": "USPS COLLECTION BOX - PO LOBBY", "address": {"city": "HERNDON", "state": "VA", "street": "590 GROVE ST", "postcode": "20170"}}},
{"geometry": {"type": "Point", "coordinates": [-77.4082058339, 38.9529232178]}, "type": "Feature", "properties": {"collection_times": [{"days": "Mon-Fri", "time": "3:15pm"}, {"days": "Sat", "time": "2:20pm"}, {"days": "Sun", "time": "Closed"}], "id": "2017100000", "name": "USPS COLLECTION BOX - BLUE BOX", "address": {"city": "HERNDON", "state": "VA", "street": "2443 CENTREVILLE RD", "postcode": "20171"}}},
{"geometry": {"type": "Point", "coordinates": [-77.3978211823, 38.9242857843]}, "type": "Feature", "properties": {"collection_times": [{"days": "Mon-Fri", "time": "3:45pm"}, {"days": "Sat", "time": "2:35pm"}, {"days": "Sun", "time": "Closed"}], "id": "2017100002", "name": "USPS COLLECTION BOX - BLUE BOX", "address": {"city": "HERNDON", "state": "VA", "street": "13655 DULLES TECH DR", "postcode": "20171"}}},
{"geometry": {"type": "Point", "coordinates": [-77.4057648158, 38.9072097597]}, "type": "Feature", "properties": {"collection_times": [{"days": "Mon-Fri", "time": "2:45pm"}, {"days": "Sat", "time": "2:00pm"}, {"days": "Sun", "time": "Closed"}], "id": "2017100004", "name": "USPS COLLECTION BOX - BLUE BOX", "address": {"city": "HERNDON", "state": "VA", "street": "13300 FRANKLIN FARM RD STE B", "postcode": "20171"}}},
{"geometry": {"type": "Point", "coordinates": [-77.4215069772, 38.9572598368]}, "type": "Feature", "properties": {"collection_times": [{"days": "Mon-Fri", "time": "3:30pm"}, {"days": "Sat", "time": "2:30pm"}, {"days": "Sun", "time": "Closed"}], "id": "2017100005", "name": "USPS COLLECTION BOX - BLUE BOX", "address": {"city": "HERNDON", "state": "VA", "street": "13712 SHREWSBURY CT", "postcode": "20171"}}},
{"geometry": {"type": "Point", "coordinates": [-77.3764708165, 38.9277987804]}, "type": "Feature", "properties": {"collection_times": [{"days": "Mon-Fri", "time": "3:00pm"}, {"days": "Sat", "time": "2:10pm"}, {"days": "Sun", "time": "Closed"}], "id": "2017100006", "name": "USPS COLLECTION BOX - BLUE BOX", "address": {"city": "HERNDON", "state": "VA", "street": "2553 JOHN MILTON DR", "postcode": "20171"}}},
{"geometry": {"type": "Point", "coordinates": [-77.4013773686, 38.9362323345]}, "type": "Feature", "properties": {"collection_times": [{"days": "Mon-Fri", "time": "5:00pm"}, {"days": "Sat", "time": "3:00pm"}, {"days": "Sun", "time": "Closed"}], "id": "2017100010", "name": "USPS COLLECTION BOX - EXPRESS", "address": {"city": "HERNDON", "state": "VA", "street": "13520 MCLEAREN RD", "postcode": "20171"}}},
{"geometry": {"type": "Point", "coordinates": [-77.4105606567, 38.9227784817]}, "type": "Feature", "properties": {"collection_times": [{"days": "Mon-Fri", "time": "5:00pm"}, {"days": "Sat", "time": "3:00pm"}, {"days": "Sun", "time": "Closed"}], "id": "2017100011", "name": "USPS COLLECTION BOX - BLUE BOX", "address": {"city": "HERNDON", "state": "VA", "street": "13520 MCLEAREN RD", "postcode": "20171"}}},
{"geometry": {"type": "Point", "coordinates": [-77.4105606567, 38.9227784817]}, "type": "Feature", "properties": {"collection_times": [{"days": "Mon-Fri", "time": "5:00pm"}, {"days": "Sat", "time": "3:00pm"}, {"days": "Sun", "time": "Closed"}], "id": "2017100013", "name": "USPS COLLECTION BOX - PO LOBBY", "address": {"city": "HERNDON", "state": "VA", "street": "13520 MCLEAREN RD", "postcode": "20171"}}},
{"geometry": {"type": "Point", "coordinates": [-77.571663114, 39.1036126353]}, "type": "Feature", "properties": {"collection_times": [{"days": "Mon-Sat", "time": "9:00am"}, {"days": "Sun", "time": "Closed"}], "id": "2017500005", "name": "USPS COLLECTION BOX - BLUE BOX", "address": {"city": "LEESBURG", "state": "VA", "street": "821 S KING ST", "postcode": "20175"}}},
{"geometry": {"type": "Point", "coordinates": [-77.5655365696, 39.1068823339]}, "type": "Feature", "properties": {"collection_times": [{"days": "Mon-Sat", "time": "3:00pm"}, {"days": "Sun", "time": "Closed"}], "id": "2017500007", "name": "USPS COLLECTION BOX - BLUE BOX", "address": {"city": "LEESBURG", "state": "VA", "street": "32 CATOCTIN CIR SE", "postcode": "20175"}}},
{"geometry": {"type": "Point", "coordinates": [-77.5657885398, 39.1069615922]}, "type": "Feature", "properties": {"collection_times": [{"days": "Mon-Sat", "time": "5:00pm"}, {"days": "Sun", "time": "Closed"}], "id": "2017500014", "name": "USPS COLLECTION BOX - BLUE BOX", "address": {"city": "LEESBURG", "state": "VA", "street": "25 CATOCTIN CIR SE", "postcode": "20175"}}},
{"geometry": {"type": "Point", "coordinates": [-77.5550378087, 39.0810252168]}, "type": "Feature", "properties": {"collection_times": [{"days": "Mon-Sat", "time": "9:00am"}, {"days": "Sun", "time": "Closed"}], "id": "2017500018", "name": "USPS COLLECTION BOX - BLUE BOX", "address": {"city": "LEESBURG", "state": "VA", "street": "741 MILLER DR SE", "postcode": "20175"}}},
{"geometry": {"type": "Point", "coordinates": [-77.5657885398, 39.1069615922]}, "type": "Feature", "properties": {"collection_times": [{"days": "Mon-Sat", "time": "5:00pm"}, {"days": "Sun", "time": "Closed"}], "id": "2017500020", "name": "USPS COLLECTION BOX - BLUE BOX", "address": {"city": "LEESBURG", "state": "VA", "street": "25 CATOCTIN CIR SE", "postcode": "20175"}}},
{"geometry": {"type": "Point", "coordinates": [-77.5791489236, 39.0816900837]}, "type": "Feature", "properties": {"collection_times": [{"days": "Mon-Sat", "time": "5:00pm"}, {"days": "Sun", "time": "Closed"}], "id": "2017500021", "name": "USPS COLLECTION BOX - EXPRESS", "address": {"city": "LEESBURG", "state": "VA", "street": "25 CATOCTIN CIR SE", "postcode": "20175"}}},
{"geometry": {"type": "Point", "coordinates": [-77.561688404, 39.1136938116]}, "type": "Feature", "properties": {"collection_times": [{"days": "Mon-Sat", "time": "4:30pm"}, {"days": "Sun", "time": "Closed"}], "id": "2017500023", "name": "USPS COLLECTION BOX - BLUE BOX", "address": {"city": "LEESBURG", "state": "VA", "street": "1 HARRISON ST SE", "postcode": "20175"}}},
{"geometry": {"type": "Point", "coordinates": [-77.475205823, 39.0745485165]}, "type": "Feature", "properties": {"collection_times": [{"days": "Mon-Sat", "time": "3:20pm"}, {"days": "Sun", "time": "Closed"}], "id": "2017500024", "name": "USPS COLLECTION BOX - BLUE BOX", "address": {"city": "LEESBURG", "state": "VA", "street": "44045 RIVERSIDE PKWY", "postcode": "20175"}}},
{"geometry": {"type": "Point", "coordinates": [-77.4951638136, 39.0813162861]}, "type": "Feature", "properties": {"collection_times": [{"days": "Mon-Sat", "time": "10:30am"}, {"days": "Sun", "time": "Closed"}], "id": "2017500025", "name": "USPS COLLECTION BOX - BLUE BOX", "address": {"city": "LEESBURG", "state": "VA", "street": "19350 WINMEADE DR", "postcode": "20175"}}},
{"geometry": {"type": "Point", "coordinates": [-77.5657885398, 39.1069615922]}, "type": "Feature", "properties": {"collection_times": [{"days": "Mon-Sat", "time": "5:00pm"}, {"days": "Sun", "time": "Closed"}], "id": "2017500028", "name": "USPS COLLECTION BOX - APC", "address": {"city": "LEESBURG", "state": "VA", "street": "25 CATOCTIN CIR SE", "postcode": "20175"}}},
{"geometry": {"type": "Point", "coordinates": [-77.5650480075, 39.1143976722]}, "type": "Feature", "properties": {"collection_times": [{"days": "Mon-Sat", "time": "4:30pm"}, {"days": "Sun", "time": "Closed"}], "id": "2017500029", "name": "USPS COLLECTION BOX - BLUE BOX", "address": {"city": "LEESBURG", "state": "VA", "street": "29 S KING ST", "postcode": "20175"}}},
{"geometry": {"type": "Point", "coordinates": [-77.5657885398, 39.1069615922]}, "type": "Feature", "properties": {"collection_times": [{"days": "Mon-Sat", "time": "5:00pm"}, {"days": "Sun", "time": "Closed"}], "id": "2017500030", "name": "USPS COLLECTION BOX - PO LOBBY", "address": {"city": "LEESBURG", "state": "VA", "street": "25 CATOCTIN CIR SE", "postcode": "20175"}}},
{"geometry": {"type": "Point", "coordinates": [-77.5657885398, 39.1069615922]}, "type": "Feature", "properties": {"collection_times": [{"days": "Mon-Sat", "time": "5:00pm"}, {"days": "Sun", "time": "Closed"}], "id": "2017500032", "name": "USPS COLLECTION BOX - APC", "address": {"city": "LEESBURG", "state": "VA", "street": "25 CATOCTIN CIR SE", "postcode": "20175"}}},
{"geometry": {"type": "Point", "coordinates": [-77.5339421015, 39.1136867139]}, "type": "Feature", "properties": {"collection_times": [{"days": "Mon-Sat", "time": "9:00am"}, {"days": "Sun", "time": "Closed"}], "id": "2017600000", "name": "USPS COLLECTION BOX - BLUE BOX", "address": {"city": "LEESBURG", "state": "VA", "street": "1043 EDWARDS FERRY RD NE", "postcode": "20176"}}},
{"geometry": {"type": "Point", "coordinates": [-77.5408079953, 39.1136713354]}, "type": "Feature", "properties": {"collection_times": [{"days": "Mon-Sat", "time": "4:00pm"}, {"days": "Sun", "time": "Closed"}], "id": "2017600001", "name": "USPS COLLECTION BOX - BLUE BOX", "address": {"city": "LEESBURG", "state": "VA", "street": "932 EDWARDS FERRY RD NE", "postcode": "20176"}}},
{"geometry": {"type": "Point", "coordinates": [-77.5471380088, 39.1076772823]}, "type": "Feature", "properties": {"collection_times": [{"days": "Mon-Sat", "time": "4:15pm"}, {"days": "Sun", "time": "Closed"}], "id": "2017600002", "name": "USPS COLLECTION BOX - BLUE BOX", "address": {"city": "LEESBURG", "state": "VA", "street": "17 FORT EVANS RD NE", "postcode": "20176"}}},
{"geometry": {"type": "Point", "coordinates": [-77.5481908422, 39.106561752]}, "type": "Feature", "properties": {"collection_times": [{"days": "Mon-Sat", "time": "9:00am"}, {"days": "Sun", "time": "Closed"}], "id": "2017600003", "name": "USPS COLLECTION BOX - BLUE BOX", "address": {"city": "LEESBURG", "state": "VA", "street": "707 E MARKET ST", "postcode": "20176"}}},
{"geometry": {"type": "Point", "coordinates": [-77.551686486, 39.1086153688]}, "type": "Feature", "properties": {"collection_times": [{"days": "Mon-Sat", "time": "4:15pm"}, {"days": "Sun", "time": "Closed"}], "id": "2017600004", "name": "USPS COLLECTION BOX - BLUE BOX", "address": {"city": "LEESBURG", "state": "VA", "street": "534 E MARKET ST", "postcode": "20176"}}},
{"geometry": {"type": "Point", "coordinates": [-77.5692617073, 39.1167493946]}, "type": "Feature", "properties": {"collection_times": [{"days": "Mon-Sat", "time": "4:30pm"}, {"days": "Sun", "time": "Closed"}], "id": "2017600006", "name": "USPS COLLECTION BOX - BLUE BOX", "address": {"city": "LEESBURG", "state": "VA", "street": "232 W MARKET ST", "postcode": "20176"}}},
{"geometry": {"type": "Point", "coordinates": [-77.563504246, 39.1151630467]}, "type": "Feature", "properties": {"collection_times": [{"days": "Mon-Sat", "time": "5:00pm"}, {"days": "Sun", "time": "Closed"}], "id": "2017600008", "name": "USPS COLLECTION BOX - BLUE BOX", "address": {"city": "LEESBURG", "state": "VA", "street": "15 E MARKET ST", "postcode": "20176"}}},
{"geometry": {"type": "Point", "coordinates": [-77.5347299324, 39.1302237951]}, "type": "Feature", "properties": {"collection_times": [{"days": "Mon-Sat", "time": "5:00pm"}, {"days": "Sun", "time": "Closed"}], "id": "2017600009", "name": "USPS COLLECTION BOX - EXPRESS", "address": {"city": "LEESBURG", "state": "VA", "street": "15 E MARKET ST", "postcode": "20176"}}},
{"geometry": {"type": "Point", "coordinates": [-77.5642920967, 39.116738748]}, "type": "Feature", "properties": {"collection_times": [{"days": "Mon-Sat", "time": "4:45pm"}, {"days": "Sun", "time": "Closed"}], "id": "2017600010", "name": "USPS COLLECTION BOX - BLUE BOX", "address": {"city": "LEESBURG", "state": "VA", "street": "1 CORNWALL ST NW", "postcode": "20176"}}},
{"geometry": {"type": "Point", "coordinates": [-77.5470895075, 39.1254938273]}, "type": "Feature", "properties": {"collection_times": [{"days": "Mon-Sat", "time": "3:45pm"}, {"days": "Sun", "time": "Closed"}], "id": "2017600012", "name": "USPS COLLECTION BOX - BLUE BOX", "address": {"city": "LEESBURG", "state": "VA", "street": "700 FIELDSTONE DR NE", "postcode": "20176"}}},
{"geometry": {"type": "Point", "coordinates": [-77.5345513254, 39.1085337446]}, "type": "Feature", "properties": {"collection_times": [{"days": "Mon-Sat", "time": "9:00am"}, {"days": "Sun", "time": "Closed"}], "id": "2017600015", "name": "USPS COLLECTION BOX - BLUE BOX", "address": {"city": "LEESBURG", "state": "VA", "street": "241 FORT EVANS RD NE", "postcode": "20176"}}},
{"geometry": {"type": "Point", "coordinates": [-77.4721431422, 39.0779424258]}, "type": "Feature", "properties": {"collection_times": [{"days": "Mon-Sat", "time": "3:20pm"}, {"days": "Sun", "time": "Closed"}], "id": "2017600016", "name": "USPS COLLECTION BOX - BLUE BOX", "address": {"city": "LEESBURG", "state": "VA", "street": "44115 WOODRIDGE PKWY", "postcode": "20176"}}},
{"geometry": {"type": "Point", "coordinates": [-77.563504246, 39.1151630467]}, "type": "Feature", "properties": {"collection_times": [{"days": "Mon-Sat", "time": "5:00pm"}, {"days": "Sun", "time": "Closed"}], "id": "2017600017", "name": "USPS COLLECTION BOX - PO LOBBY", "address": {"city": "LEESBURG", "state": "VA", "street": "15 E MARKET ST", "postcode": "20176"}}},
{"geometry": {"type": "Point", "coordinates": [-77.6434253623, 39.2715175504]}, "type": "Feature", "properties": {"collection_times": [{"days": "Mon-Fri", "time": "4:30pm"}, {"days": "Sat", "time": "12:00pm"}, {"days": "Sun", "time": "Closed"}], "id": "2018000000", "name": "USPS COLLECTION BOX - BLUE BOX", "address": {"city": "LOVETTSVILLE", "state": "VA", "street": "15 N CHURCH ST", "postcode": "20180"}}},
{"geometry": {"type": "Point", "coordinates": [-77.6434253623, 39.2715175504]}, "type": "Feature", "properties": {"collection_times": [{"days": "Mon-Fri", "time": "4:45pm"}, {"days": "Sat", "time": "12:00pm"}, {"days": "Sun", "time": "Closed"}], "id": "2018000001", "name": "USPS COLLECTION BOX - PO LOBBY", "address": {"city": "LOVETTSVILLE", "state": "VA", "street": "15 N CHURCH ST", "postcode": "20180"}}},
{"geometry": {"type": "Point", "coordinates": [-77.5798184331, 38.6989188245]}, "type": "Feature", "properties": {"collection_times": [{"days": "Mon-Fri", "time": "4:30pm"}, {"days": "Sat", "time": "12:30pm"}, {"days": "Sun", "time": "Closed"}], "id": "2018100000", "name": "USPS COLLECTION BOX - BLUE BOX", "address": {"city": "NOKESVILLE", "state": "VA", "street": "12913 MARSTELLER DR", "postcode": "20181"}}},
{"geometry": {"type": "Point", "coordinates": [-77.5798184331, 38.6989188245]}, "type": "Feature", "properties": {"collection_times": [{"days": "Mon-Fri", "time": "4:30pm"}, {"days": "Sat", "time": "12:30pm"}, {"days": "Sun", "time": "Closed"}], "id": "2018100001", "name": "USPS COLLECTION BOX - PO LOBBY", "address": {"city": "NOKESVILLE", "state": "VA", "street": "12913 MARSTELLER DR", "postcode": "20181"}}},
{"geometry": {"type": "Point", "coordinates": [-77.8806378002, 38.9933159073]}, "type": "Feature", "properties": {"collection_times": [{"days": "Mon-Fri", "time": "5:00pm"}, {"days": "Sat", "time": "12:00pm"}, {"days": "Sun", "time": "Closed"}], "id": "2018400000", "name": "USPS COLLECTION BOX - PO LOBBY", "address": {"city": "UPPERVILLE", "state": "VA", "street": "9090 JOHN S MOSBY HWY", "postcode": "20184"}}},
{"geometry": {"type": "Point", "coordinates": [-77.8804938008, 38.9933278717]}, "type": "Feature", "properties": {"collection_times": [{"days": "Mon-Fri", "time": "5:00pm"}, {"days": "Sat", "time": "12:00pm"}, {"days": "Sun", "time": "Closed"}], "id": "2018400001", "name": "USPS COLLECTION BOX - BLUE BOX", "address": {"city": "UPPERVILLE", "state": "VA", "street": "9090 JOHN S MOSBY HWY", "postcode": "20184"}}},
{"geometry": {"type": "Point", "coordinates": [-77.7953464588, 38.7137306537]}, "type": "Feature", "properties": {"collection_times": [{"days": "Mon-Fri", "time": "4:00pm"}, {"days": "Sat", "time": "1:00pm"}, {"days": "Sun", "time": "Closed"}], "id": "2018600005", "name": "USPS COLLECTION BOX - BLUE BOX", "address": {"city": "WARRENTON", "state": "VA", "street": "14 MAIN ST", "postcode": "20186"}}},
{"geometry": {"type": "Point", "coordinates": [-77.7942013545, 38.7131533697]}, "type": "Feature", "properties": {"collection_times": [{"days": "Mon-Fri", "time": "5:00pm"}, {"days": "Sat", "time": "1:00pm"}, {"days": "Sun", "time": "Closed"}], "id": "2018600006", "name": "USPS COLLECTION BOX - BLUE BOX", "address": {"city": "WARRENTON", "state": "VA", "street": "53 MAIN ST", "postcode": "20186"}}},
{"geometry": {"type": "Point", "coordinates": [-77.8011362785, 38.7158682368]}, "type": "Feature", "properties": {"collection_times": [{"days": "Mon-Fri", "time": "3:30pm"}, {"days": "Sat", "time": "1:00pm"}, {"days": "Sun", "time": "Closed"}], "id": "2018600008", "name": "USPS COLLECTION BOX - BLUE BOX", "address": {"city": "WARRENTON", "state": "VA", "street": "27 OAK ST", "postcode": "20186"}}},
{"geometry": {"type": "Point", "coordinates": [-77.798610883, 38.7287442404]}, "type": "Feature", "properties": {"collection_times": [{"days": "Mon-Fri", "time": "4:00pm"}, {"days": "Sat", "time": "1:00pm"}, {"days": "Sun", "time": "Closed"}], "id": "2018600012", "name": "USPS COLLECTION BOX - BLUE BOX", "address": {"city": "WARRENTON", "state": "VA", "street": "251 W LEE HWY", "postcode": "20186"}}},
{"geometry": {"type": "Point", "coordinates": [-77.8059434052, 38.7214388143]}, "type": "Feature", "properties": {"collection_times": [{"days": "Mon-Fri", "time": "3:00pm"}, {"days": "Sat", "time": "1:00pm"}, {"days": "Sun", "time": "Closed"}], "id": "2018600015", "name": "USPS COLLECTION BOX - BLUE BOX", "address": {"city": "WARRENTON", "state": "VA", "street": "155 BROADVIEW AVE", "postcode": "20186"}}},
{"geometry": {"type": "Point", "coordinates": [-77.8115754728, 38.7166856852]}, "type": "Feature", "properties": {"collection_times": [{"days": "Mon-Fri", "time": "4:00pm"}, {"days": "Sat", "time": "1:00pm"}, {"days": "Sun", "time": "Closed"}], "id": "2018600017", "name": "USPS COLLECTION BOX - BLUE BOX", "address": {"city": "WARRENTON", "state": "VA", "street": "589 FROST AVE", "postcode": "20186"}}},
{"geometry": {"type": "Point", "coordinates": [-77.8097679115, 38.7120591327]}, "type": "Feature", "properties": {"collection_times": [{"days": "Mon-Fri", "time": "4:00pm"}, {"days": "Sat", "time": "1:00pm"}, {"days": "Sun", "time": "Closed"}], "id": "2018600018", "name": "USPS COLLECTION BOX - BLUE BOX", "address": {"city": "WARRENTON", "state": "VA", "street": "500 HOSPITAL DR", "postcode": "20186"}}},
{"geometry": {"type": "Point", "coordinates": [-77.7992443086, 38.714471186]}, "type": "Feature", "properties": {"collection_times": [{"days": "Mon-Fri", "time": "4:00pm"}, {"days": "Sat", "time": "1:00pm"}, {"days": "Sun", "time": "Closed"}], "id": "2018600019", "name": "USPS COLLECTION BOX - BLUE BOX", "address": {"city": "WARRENTON", "state": "VA", "street": "16 S CHESTNUT ST", "postcode": "20186"}}},
{"geometry": {"type": "Point", "coordinates": [-77.7937388176, 38.7161983061]}, "type": "Feature", "properties": {"collection_times": [{"days": "Mon-Fri", "time": "4:00pm"}, {"days": "Sat", "time": "1:00pm"}, {"days": "Sun", "time": "Closed"}], "id": "2018600020", "name": "USPS COLLECTION BOX - BLUE BOX", "address": {"city": "WARRENTON", "state": "VA", "street": "98 ALEXANDRIA PIKE", "postcode": "20186"}}},
{"geometry": {"type": "Point", "coordinates": [-77.7957782388, 38.7126801862]}, "type": "Feature", "properties": {"collection_times": [{"days": "Mon-Fri", "time": "4:00pm"}, {"days": "Sat", "time": "1:00pm"}, {"days": "Sun", "time": "Closed"}], "id": "2018600023", "name": "USPS COLLECTION BOX - BLUE BOX", "address": {"city": "WARRENTON", "state": "VA", "street": "40 CULPEPER ST", "postcode": "20186"}}},
{"geometry": {"type": "Point", "coordinates": [-77.7973728675, 38.7285708739]}, "type": "Feature", "properties": {"collection_times": [{"days": "Mon-Fri", "time": "3:30pm"}, {"days": "Sat", "time": "1:00pm"}, {"days": "Sun", "time": "Closed"}], "id": "2018600026", "name": "USPS COLLECTION BOX - BLUE BOX", "address": {"city": "WARRENTON", "state": "VA", "street": "171 W LEE HWY", "postcode": "20186"}}},
{"geometry": {"type": "Point", "coordinates": [-77.7822936896, 38.7195437141]}, "type": "Feature", "properties": {"collection_times": [{"days": "Mon-Fri", "time": "3:30pm"}, {"days": "Sat", "time": "1:00pm"}, {"days": "Sun", "time": "Closed"}], "id": "2018600032", "name": "USPS COLLECTION BOX - BLUE BOX", "address": {"city": "WARRENTON", "state": "VA", "street": "419 BELLEAIR LN", "postcode": "20186"}}},
{"geometry": {"type": "Point", "coordinates": [-77.7934513585, 38.7136454807]}, "type": "Feature", "properties": {"collection_times": [{"days": "Mon-Fri", "time": "4:30pm"}, {"days": "Sat", "time": "1:00pm"}, {"days": "Sun", "time": "Closed"}], "id": "2018600033", "name": "USPS COLLECTION BOX - BLUE BOX", "address": {"city": "WARRENTON", "state": "VA", "street": "25 N 3RD ST", "postcode": "20186"}}},
{"geometry": {"type": "Point", "coordinates": [-77.7942013545, 38.7131533697]}, "type": "Feature", "properties": {"collection_times": [{"days": "Mon-Fri", "time": "5:00pm"}, {"days": "Sat", "time": "1:00pm"}, {"days": "Sun", "time": "Closed"}], "id": "2018600034", "name": "USPS COLLECTION BOX - PO LOBBY", "address": {"city": "WARRENTON", "state": "VA", "street": "53 MAIN ST", "postcode": "20186"}}},
{"geometry": {"type": "Point", "coordinates": [-77.6832802562, 38.7444175152]}, "type": "Feature", "properties": {"collection_times": [{"days": "Mon-Fri", "time": "3:00pm"}, {"days": "Sat-Sun", "time": "Closed"}], "id": "2018700004", "name": "USPS COLLECTION BOX - BLUE BOX", "address": {"city": "WARRENTON", "state": "VA", "street": "4257 AIKEN DR", "postcode": "20187"}}},
{"geometry": {"type": "Point", "coordinates": [-77.3537135714, 38.9621567682]}, "type": "Feature", "properties": {"collection_times": [{"days": "Mon-Sat", "time": "9:00am"}, {"days": "Sun", "time": "Closed"}], "id": "2019000002", "name": "USPS COLLECTION BOX - BLUE BOX", "address": {"city": "RESTON", "state": "VA", "street": "11741 BOWMAN GREEN DR", "postcode": "20190"}}},
{"geometry": {"type": "Point", "coordinates": [-77.35668484, 38.9621476319]}, "type": "Feature", "properties": {"collection_times": [{"days": "Mon-Fri", "time": "2:30pm"}, {"days": "Sat", "time": "2:00pm"}, {"days": "Sun", "time": "Closed"}], "id": "2019000003", "name": "USPS COLLECTION BOX - BLUE BOX", "address": {"city": "RESTON", "state": "VA", "street": "11925 BOWMAN TOWNE DR", "postcode": "20190"}}},
{"geometry": {"type": "Point", "coordinates": [-77.3261142917, 38.9494863096]}, "type": "Feature", "properties": {"collection_times": [{"days": "Mon-Sat", "time": "9:00am"}, {"days": "Sun", "time": "Closed"}], "id": "2019000004", "name": "USPS COLLECTION BOX - BLUE BOX", "address": {"city": "RESTON", "state": "VA", "street": "1770 BUSINESS CENTER DR", "postcode": "20190"}}},
{"geometry": {"type": "Point", "coordinates": [-77.3383798509, 38.954056196]}, "type": "Feature", "properties": {"collection_times": [{"days": "Mon-Fri", "time": "4:00pm"}, {"days": "Sat", "time": "3:15pm"}, {"days": "Sun", "time": "Closed"}], "id": "2019000012", "name": "USPS COLLECTION BOX - BLUE BOX", "address": {"city": "RESTON", "state": "VA", "street": "1930 ISAAC NEWTON SQ W", "postcode": "20190"}}},
{"geometry": {"type": "Point", "coordinates": [-77.3627282837, 38.9619038575]}, "type": "Feature", "properties": {"collection_times": [{"days": "Mon-Fri", "time": "2:45pm"}, {"days": "Sat", "time": "2:15pm"}, {"days": "Sun", "time": "Closed"}], "id": "2019000019", "name": "USPS COLLECTION BOX - BLUE BOX", "address": {"city": "RESTON", "state": "VA", "street": "1850A TOWN CENTER PKWY", "postcode": "20190"}}},
{"geometry": {"type": "Point", "coordinates": [-77.3339143872, 38.9513752802]}, "type": "Feature", "properties": {"collection_times": [{"days": "Mon-Fri", "time": "3:55pm"}, {"days": "Sat", "time": "3:15pm"}, {"days": "Sun", "time": "Closed"}], "id": "2019000022", "name": "USPS COLLECTION BOX - BLUE BOX", "address": {"city": "RESTON", "state": "VA", "street": "11250 ROGER BACON DR", "postcode": "20190"}}},
{"geometry": {"type": "Point", "coordinates": [-77.3319880639, 38.9592383195]}, "type": "Feature", "properties": {"collection_times": [{"days": "Mon-Fri", "time": "4:00pm"}, {"days": "Sat", "time": "3:30pm"}, {"days": "Sun", "time": "Closed"}], "id": "2019000026", "name": "USPS COLLECTION BOX - BLUE BOX", "address": {"city": "RESTON", "state": "VA", "street": "12050 NORTH SHORE DR", "postcode": "20190"}}},
{"geometry": {"type": "Point", "coordinates": [-77.3437191456, 38.9638318095]}, "type": "Feature", "properties": {"collection_times": [{"days": "Mon-Fri", "time": "5:00pm"}, {"days": "Sat", "time": "4:00pm"}, {"days": "Sun", "time": "Closed"}], "id": "2019000027", "name": "USPS COLLECTION BOX - EXPRESS", "address": {"city": "RESTON", "state": "VA", "street": "11110 SUNSET HILLS RD", "postcode": "20190"}}},
{"geometry": {"type": "Point", "coordinates": [-77.3293860202, 38.9470799562]}, "type": "Feature", "properties": {"collection_times": [{"days": "Mon-Fri", "time": "5:00pm"}, {"days": "Sat", "time": "4:00pm"}, {"days": "Sun", "time": "Closed"}], "id": "2019000028", "name": "USPS COLLECTION BOX - BLUE BOX", "address": {"city": "RESTON", "state": "VA", "street": "11110 SUNSET HILLS RD", "postcode": "20190"}}},
{"geometry": {"type": "Point", "coordinates": [-77.3293860202, 38.9470799562]}, "type": "Feature", "properties": {"collection_times": [{"days": "Mon-Fri", "time": "5:00pm"}, {"days": "Sat", "time": "4:00pm"}, {"days": "Sun", "time": "Closed"}], "id": "2019000029", "name": "USPS COLLECTION BOX - BLUE BOX", "address": {"city": "RESTON", "state": "VA", "street": "11110 SUNSET HILLS RD", "postcode": "20190"}}},
{"geometry": {"type": "Point", "coordinates": [-77.3383504833, 38.9507211039]}, "type": "Feature", "properties": {"collection_times": [{"days": "Mon-Fri", "time": "3:40pm"}, {"days": "Sat", "time": "3:15pm"}, {"days": "Sun", "time": "Closed"}], "id": "2019000031", "name": "USPS COLLECTION BOX - BLUE BOX", "address": {"city": "RESTON", "state": "VA", "street": "11359 SUNSET HILLS RD", "postcode": "20190"}}},
{"geometry": {"type": "Point", "coordinates": [-77.3627197766, 38.9619164809]}, "type": "Feature", "properties": {"collection_times": [{"days": "Mon-Fri", "time": "2:45pm"}, {"days": "Sat", "time": "2:15pm"}, {"days": "Sun", "time": "Closed"}], "id": "2019000037", "name": "USPS COLLECTION BOX - BLUE BOX", "address": {"city": "RESTON", "state": "VA", "street": "1850 TOWN CENTER PKWY", "postcode": "20190"}}},
{"geometry": {"type": "Point", "coordinates": [-77.346123925, 38.9646013225]}, "type": "Feature", "properties": {"collection_times": [{"days": "Mon-Fri", "time": "2:30pm"}, {"days": "Sat", "time": "3:00pm"}, {"days": "Sun", "time": "Closed"}], "id": "2019000038", "name": "USPS COLLECTION BOX - BLUE BOX", "address": {"city": "RESTON", "state": "VA", "street": "11659 NORTH SHORE DR", "postcode": "20190"}}},
{"geometry": {"type": "Point", "coordinates": [-77.3420247538, 38.9692273139]}, "type": "Feature", "properties": {"collection_times": [{"days": "Mon-Fri", "time": "5:00pm"}, {"days": "Sat", "time": "1:45pm"}, {"days": "Sun", "time": "Closed"}], "id": "2019000039", "name": "USPS COLLECTION BOX - BLUE BOX", "address": {"city": "RESTON", "state": "VA", "street": "1601 WASHINGTON PLZ", "postcode": "20190"}}},
{"geometry": {"type": "Point", "coordinates": [-77.3582608656, 38.954754994]}, "type": "Feature", "properties": {"collection_times": [{"days": "Mon-Fri", "time": "3:30pm"}, {"days": "Sat", "time": "3:00pm"}, {"days": "Sun", "time": "Closed"}], "id": "2019000042", "name": "USPS COLLECTION BOX - BLUE BOX", "address": {"city": "RESTON", "state": "VA", "street": "12011 SUNSET HILLS RD", "postcode": "20190"}}},
{"geometry": {"type": "Point", "coordinates": [-77.359979243, 38.9586814319]}, "type": "Feature", "properties": {"collection_times": [{"days": "Mon-Fri", "time": "3:00pm"}, {"days": "Sat", "time": "2:15pm"}, {"days": "Sun", "time": "Closed"}], "id": "2019000045", "name": "USPS COLLECTION BOX - BLUE BOX", "address": {"city": "RESTON", "state": "VA", "street": "11951 MARKET ST", "postcode": "20190"}}},
{"geometry": {"type": "Point", "coordinates": [-77.3480314998, 38.9529655401]}, "type": "Feature", "properties": {"collection_times": [{"days": "Mon-Fri", "time": "3:20pm"}, {"days": "Sat", "time": "3:00pm"}, {"days": "Sun", "time": "Closed"}], "id": "2019000046", "name": "USPS COLLECTION BOX - BLUE BOX", "address": {"city": "RESTON", "state": "VA", "street": "11694 PLAZA AMERICA DR", "postcode": "20190"}}},
{"geometry": {"type": "Point", "coordinates": [-77.3293860202, 38.9470799562]}, "type": "Feature", "properties": {"collection_times": [{"days": "Mon-Fri", "time": "5:00pm"}, {"days": "Sat", "time": "4:00pm"}, {"days": "Sun", "time": "Closed"}], "id": "2019000048", "name": "USPS COLLECTION BOX - APC", "address": {"city": "RESTON", "state": "VA", "street": "11110 SUNSET HILLS RD", "postcode": "20190"}}},
{"geometry": {"type": "Point", "coordinates": [-77.3293860202, 38.9470799562]}, "type": "Feature", "properties": {"collection_times": [{"days": "Mon-Fri", "time": "5:00pm"}, {"days": "Sat", "time": "4:00pm"}, {"days": "Sun", "time": "Closed"}], "id": "2019000049", "name": "USPS COLLECTION BOX - PO LOBBY", "address": {"city": "RESTON", "state": "VA", "street": "11110 SUNSET HILLS RD", "postcode": "20190"}}},
{"geometry": {"type": "Point", "coordinates": [-77.3613661329, 38.9511351395]}, "type": "Feature", "properties": {"collection_times": [{"days": "Mon-Fri", "time": "4:10pm"}, {"days": "Sat", "time": "3:15pm"}, {"days": "Sun", "time": "Closed"}], "id": "2019100011", "name": "USPS COLLECTION BOX - BLUE BOX", "address": {"city": "RESTON", "state": "VA", "street": "2000 EDMUND HALLEY DR", "postcode": "20191"}}},
{"geometry": {"type": "Point", "coordinates": [-77.3513185602, 38.9380224768]}, "type": "Feature", "properties": {"collection_times": [{"days": "Mon-Fri", "time": "2:40pm"}, {"days": "Sat", "time": "3:40pm"}, {"days": "Sun", "time": "Closed"}], "id": "2019100013", "name": "USPS COLLECTION BOX - BLUE BOX", "address": {"city": "RESTON", "state": "VA", "street": "11921 TRAVISTOCK CT", "postcode": "20191"}}},
{"geometry": {"type": "Point", "coordinates": [-77.3515249026, 38.9345339066]}, "type": "Feature", "properties": {"collection_times": [{"days": "Mon-Sat", "time": "9:00am"}, {"days": "Sun", "time": "Closed"}], "id": "2019100014", "name": "USPS COLLECTION BOX - BLUE BOX", "address": {"city": "RESTON", "state": "VA", "street": "12056 GLADE DR", "postcode": "20191"}}},
{"geometry": {"type": "Point", "coordinates": [-77.3485440407, 38.9443331255]}, "type": "Feature", "properties": {"collection_times": [{"days": "Mon-Fri", "time": "2:30pm"}, {"days": "Sat", "time": "3:50pm"}, {"days": "Sun", "time": "Closed"}], "id": "2019100015", "name": "USPS COLLECTION BOX - BLUE BOX", "address": {"city": "RESTON", "state": "VA", "street": "11601 GOLF COURSE SQ", "postcode": "20191"}}},
{"geometry": {"type": "Point", "coordinates": [-77.360653937, 38.9416029667]}, "type": "Feature", "properties": {"collection_times": [{"days": "Mon-Sat", "time": "9:00am"}, {"days": "Sun", "time": "Closed"}], "id": "2019100016", "name": "USPS COLLECTION BOX - BLUE BOX", "address": {"city": "RESTON", "state": "VA", "street": "12066 GREYWING SQ", "postcode": "20191"}}},
{"geometry": {"type": "Point", "coordinates": [-77.3636487757, 38.9355568455]}, "type": "Feature", "properties": {"collection_times": [{"days": "Mon-Fri", "time": "2:45pm"}, {"days": "Sat", "time": "3:35pm"}, {"days": "Sun", "time": "Closed"}], "id": "2019100017", "name": "USPS COLLECTION BOX - BLUE BOX", "address": {"city": "RESTON", "state": "VA", "street": "2342 HUNTERS WOODS PLZ", "postcode": "20191"}}},
{"geometry": {"type": "Point", "coordinates": [-77.3287992726, 38.9431276903]}, "type": "Feature", "properties": {"collection_times": [{"days": "Mon-Fri", "time": "3:35pm"}, {"days": "Sat-Sun", "time": "Closed"}], "id": "2019100020", "name": "USPS COLLECTION BOX - BLUE BOX", "address": {"city": "RESTON", "state": "VA", "street": "1891 PRESTON WHITE DR", "postcode": "20191"}}},
{"geometry": {"type": "Point", "coordinates": [-77.3609651098, 38.9436612048]}, "type": "Feature", "properties": {"collection_times": [{"days": "Mon-Sat", "time": "9:00am"}, {"days": "Sun", "time": "Closed"}], "id": "2019100024", "name": "USPS COLLECTION BOX - BLUE BOX", "address": {"city": "RESTON", "state": "VA", "street": "2100 RESTON PKWY", "postcode": "20191"}}},
{"geometry": {"type": "Point", "coordinates": [-77.3232287188, 38.9421044308]}, "type": "Feature", "properties": {"collection_times": [{"days": "Mon-Fri", "time": "3:25pm"}, {"days": "Sat", "time": "3:05pm"}, {"days": "Sun", "time": "Closed"}], "id": "2019100025", "name": "USPS COLLECTION BOX - BLUE BOX", "address": {"city": "RESTON", "state": "VA", "street": "1800 ROBERT FULTON DR", "postcode": "20191"}}},
{"geometry": {"type": "Point", "coordinates": [-77.3292383701, 38.9405272039]}, "type": "Feature", "properties": {"collection_times": [{"days": "Mon-Fri", "time": "3:15pm"}, {"days": "Sat", "time": "3:00pm"}, {"days": "Sun", "time": "Closed"}], "id": "2019100027", "name": "USPS COLLECTION BOX - BLUE BOX", "address": {"city": "RESTON", "state": "VA", "street": "11130 SOUTH LAKES DR", "postcode": "20191"}}},
{"geometry": {"type": "Point", "coordinates": [-77.3485345237, 38.9325406681]}, "type": "Feature", "properties": {"collection_times": [{"days": "Mon-Fri", "time": "2:35pm"}, {"days": "Sat", "time": "3:45pm"}, {"days": "Sun", "time": "Closed"}], "id": "2019100028", "name": "USPS COLLECTION BOX - BLUE BOX", "address": {"city": "RESTON", "state": "VA", "street": "11639 STONEVIEW SQ", "postcode": "20191"}}},
{"geometry": {"type": "Point", "coordinates": [-77.3580391071, 38.9458449957]}, "type": "Feature", "properties": {"collection_times": [{"days": "Mon-Sat", "time": "9:00am"}, {"days": "Sun", "time": "Closed"}], "id": "2019100033", "name": "USPS COLLECTION BOX - BLUE BOX", "address": {"city": "RESTON", "state": "VA", "street": "11872 SUNRISE VALLEY DR", "postcode": "20191"}}},
{"geometry": {"type": "Point", "coordinates": [-77.3174700746, 38.9436304479]}, "type": "Feature", "properties": {"collection_times": [{"days": "Mon-Fri", "time": "4:15pm"}, {"days": "Sat-Sun", "time": "Closed"}], "id": "2019100035", "name": "USPS COLLECTION BOX - BLUE BOX", "address": {"city": "RESTON", "state": "VA", "street": "12007 SUNRISE VALLEY DR", "postcode": "20191"}}},
{"geometry": {"type": "Point", "coordinates": [-77.3724563732, 38.950919841]}, "type": "Feature", "properties": {"collection_times": [{"days": "Mon-Fri", "time": "4:05pm"}, {"days": "Sat-Sun", "time": "Closed"}], "id": "2019100037", "name": "USPS COLLECTION BOX - BLUE BOX", "address": {"city": "RESTON", "state": "VA", "street": "12355 SUNRISE VALLEY DR", "postcode": "20191"}}},
{"geometry": {"type": "Point", "coordinates": [-77.3502180906, 38.9780301384]}, "type": "Feature", "properties": {"collection_times": [{"days": "Mon-Fri", "time": "4:05pm"}, {"days": "Sat", "time": "2:20pm"}, {"days": "Sun", "time": "Closed"}], "id": "2019400001", "name": "USPS COLLECTION BOX - BLUE BOX", "address": {"city": "RESTON", "state": "VA", "street": "1488 NORTHPOINT VILLAGE CTR", "postcode": "20194"}}},
{"geometry": {"type": "Point", "coordinates": [-77.6116234679, 39.1884497205]}, "type": "Feature", "properties": {"collection_times": [{"days": "Mon-Fri", "time": "4:45pm"}, {"days": "Sat", "time": "11:45am"}, {"days": "Sun", "time": "Closed"}], "id": "2019700000", "name": "USPS COLLECTION BOX - BLUE BOX", "address": {"city": "WATERFORD", "state": "VA", "street": "40175 MAIN ST", "postcode": "20197"}}},
{"geometry": {"type": "Point", "coordinates": [-77.6116234679, 39.1884497205]}, "type": "Feature", "properties": {"collection_times": [{"days": "Mon-Fri", "time": "4:45pm"}, {"days": "Sat", "time": "11:45am"}, {"days": "Sun", "time": "Closed"}], "id": "2019700001", "name": "USPS COLLECTION BOX - PO LOBBY", "address": {"city": "WATERFORD", "state": "VA", "street": "40175 MAIN ST", "postcode": "20197"}}},
{"geometry": {"type": "Point", "coordinates": [-77.7751249583, 38.8614218975]}, "type": "Feature", "properties": {"collection_times": [{"days": "Mon-Fri", "time": "4:45pm"}, {"days": "Sat", "time": "11:45am"}, {"days": "Sun", "time": "Closed"}], "id": "2019800000", "name": "USPS COLLECTION BOX - BLUE BOX", "address": {"city": "THE PLAINS", "state": "VA", "street": "4314 FAUQUIER AVE", "postcode": "20198"}}},
{"geometry": {"type": "Point", "coordinates": [-77.7751249583, 38.8614218975]}, "type": "Feature", "properties": {"collection_times": [{"days": "Mon-Fri", "time": "5:00pm"}, {"days": "Sat", "time": "12:00pm"}, {"days": "Sun", "time": "Closed"}], "id": "2019800001", "name": "USPS COLLECTION BOX - PO LOBBY", "address": {"city": "THE PLAINS", "state": "VA", "street": "4314 FAUQUIER AVE", "postcode": "20198"}}}
]}
