{"type": "FeatureCollection", "features": [
{"geometry": {"type": "Point", "coordinates": [-77.211378968, 38.8312439666]}, "type": "Feature", "properties": {"collection_times": [{"days": "Mon-Fri", "time": "1:00pm"}, {"days": "Sat", "time": "3:00pm"}, {"days": "Sun", "time": "Closed"}], "id": "2200300005", "name": "USPS COLLECTION BOX - BLUE BOX", "address": {"city": "ANNANDALE", "state": "VA", "street": "7001 LITTLE RIVER TPKE", "postcode": "22003"}}},
{"geometry": {"type": "Point", "coordinates": [-77.2177525676, 38.8177003684]}, "type": "Feature", "properties": {"collection_times": [{"days": "Mon-Fri", "time": "12:00pm"}, {"days": "Sat", "time": "2:00pm"}, {"days": "Sun", "time": "Closed"}], "id": "2200300011", "name": "USPS COLLECTION BOX - BLUE BOX", "address": {"city": "ANNANDALE", "state": "VA", "street": "4901 AMERICANA DR", "postcode": "22003"}}},
{"geometry": {"type": "Point", "coordinates": [-77.253718409, 38.8115222303]}, "type": "Feature", "properties": {"collection_times": [{"days": "Mon-Fri", "time": "12:30pm"}, {"days": "Sat", "time": "2:30pm"}, {"days": "Sun", "time": "Closed"}], "id": "2200300013", "name": "USPS COLLECTION BOX - BLUE BOX", "address": {"city": "ANNANDALE", "state": "VA", "street": "4706 RED FOX DR", "postcode": "22003"}}},
{"geometry": {"type": "Point", "coordinates": [-77.2140160662, 38.8288935078]}, "type": "Feature", "properties": {"collection_times": [{"days": "Mon-Fri", "time": "12:00pm"}, {"days": "Sat", "time": "2:00pm"}, {"days": "Sun", "time": "Closed"}], "id": "2200300014", "name": "USPS COLLECTION BOX - BLUE BOX", "address": {"city": "ANNANDALE", "state": "VA", "street": "4306 IVYMOUNT CT", "postcode": "22003"}}},
{"geometry": {"type": "Point", "coordinates": [-77.2173976609, 38.8254173585]}, "type": "Feature", "properties": {"collection_times": [{"days": "Mon-Fri", "time": "12:00pm"}, {"days": "Sat", "time": "2:00pm"}, {"days": "Sun", "time": "Closed"}], "id": "2200300015", "name": "USPS COLLECTION BOX - BLUE BOX", "address": {"city": "ANNANDALE", "state": "VA", "street": "7931 PATRIOT DR", "postcode": "22003"}}},
{"geometry": {"type": "Point", "coordinates": [-77.211378968, 38.8312439666]}, "type": "Feature", "properties": {"collection_times": [{"days": "Mon-Fri", "time": "1:00pm"}, {"days": "Sat", "time": "3:00pm"}, {"days": "Sun", "time": "Closed"}], "id": "2200300018", "name": "USPS COLLECTION BOX - BLUE BOX", "address": {"city": "ANNANDALE", "state": "VA", "street": "6761 LITTLE RIVER TPKE", "postcode": "22003"}}},
{"geometry": {"type": "Point", "coordinates": [-77.2434819061, 38.8295186772]}, "type": "Feature", "properties": {"collection_times": [{"days": "Mon-Fri", "time": "12:15pm"}, {"days": "Sat", "time": "2:15pm"}, {"days": "Sun", "time": "Closed"}], "id": "2200300022", "name": "USPS COLLECTION BOX - BLUE BOX", "address": {"city": "ANNANDALE", "state": "VA", "street": "4310 WAKEFIELD DR", "postcode": "22003"}}},
{"geometry": {"type": "Point", "coordinates": [-77.1973536042, 38.8340482271]}, "type": "Feature", "properties": {"collection_times": [{"days": "Mon-Fri", "time": "1:15pm"}, {"days": "Sat", "time": "3:15pm"}, {"days": "Sun", "time": "Closed"}], "id": "2200300027", "name": "USPS COLLECTION BOX - BLUE BOX", "address": {"city": "ANNANDALE", "state": "VA", "street": "4115 ANNANDALE RD", "postcode": "22003"}}},
{"geometry": {"type": "Point", "coordinates": [-77.198212412, 38.8286655639]}, "type": "Feature", "properties": {"collection_times": [{"days": "Mon-Fri", "time": "2:00pm"}, {"days": "Sat", "time": "4:00pm"}, {"days": "Sun", "time": "Closed"}], "id": "2200300032", "name": "USPS COLLECTION BOX - BLUE BOX", "address": {"city": "ANNANDALE", "state": "VA", "street": "7300 MCWHORTER PL", "postcode": "22003"}}},
{"geometry": {"type": "Point", "coordinates": [-77.2135311583, 38.8308421748]}, "type": "Feature", "properties": {"collection_times": [{"days": "Mon-Fri", "time": "12:45pm"}, {"days": "Sat", "time": "2:45pm"}, {"days": "Sun", "time": "Closed"}], "id": "2200300033", "name": "USPS COLLECTION BOX - BLUE BOX", "address": {"city": "ANNANDALE", "state": "VA", "street": "6920L BRADDOCK RD", "postcode": "22003"}}},
{"geometry": {"type": "Point", "coordinates": [-77.1894762805, 38.8330557245]}, "type": "Feature", "properties": {"collection_times": [{"days": "Mon-Fri", "time": "2:15pm"}, {"days": "Sat", "time": "4:15pm"}, {"days": "Sun", "time": "Closed"}], "id": "2200300040", "name": "USPS COLLECTION BOX - BLUE BOX", "address": {"city": "ANNANDALE", "state": "VA", "street": "7031 COLUMBIA PIKE", "postcode": "22003"}}},
{"geometry": {"type": "Point", "coordinates": [-77.194534613, 38.8325991024]}, "type": "Feature", "properties": {"collection_times": [{"days": "Mon-Fri", "time": "1:15pm"}, {"days": "Sat", "time": "3:15pm"}, {"days": "Sun", "time": "Closed"}], "id": "2200300041", "name": "USPS COLLECTION BOX - BLUE BOX", "address": {"city": "ANNANDALE", "state": "VA", "street": "7203 POPLAR ST", "postcode": "22003"}}},
{"geometry": {"type": "Point", "coordinates": [-77.211378968, 38.8312439666]}, "type": "Feature", "properties": {"collection_times": [{"days": "Mon-Fri", "time": "2:15pm"}, {"days": "Sat", "time": "4:15pm"}, {"days": "Sun", "time": "Closed"}], "id": "2200300042", "name": "USPS COLLECTION BOX - BLUE BOX", "address": {"city": "ANNANDALE", "state": "VA", "street": "7006 LITTLE RIVER TPKE", "postcode": "22003"}}},
{"geometry": {"type": "Point", "coordinates": [-77.1900275394, 38.8303207234]}, "type": "Feature", "properties": {"collection_times": [{"days": "Mon-Sat", "time": "5:00pm"}, {"days": "Sun", "time": "Closed"}], "id": "2200300049", "name": "USPS COLLECTION BOX - BLUE BOX", "address": {"city": "ANNANDALE", "state": "VA", "street": "4270 JOHN MARR DR", "postcode": "22003"}}},
{"geometry": {"type": "Point", "coordinates": [-77.1900275394, 38.8303207234]}, "type": "Feature", "properties": {"collection_times": [{"days": "Mon-Sat", "time": "5:00pm"}, {"days": "Sun", "time": "Closed"}], "id": "2200300050", "name": "USPS COLLECTION BOX - BLUE BOX", "address": {"city": "ANNANDALE", "state": "VA", "street": "4270 JOHN MARR DR", "postcode": "22003"}}},
{"geometry": {"type": "Point", "coordinates": [-77.1867180757, 38.8326610845]}, "type": "Feature", "properties": {"collection_times": [{"days": "Mon-Fri", "time": "2:15pm"}, {"days": "Sat", "time": "4:15pm"}, {"days": "Sun", "time": "Closed"}], "id": "2200300056", "name": "USPS COLLECTION BOX - BLUE BOX", "address": {"city": "ANNANDALE", "state": "VA", "street": "4208 EVERGREEN LN", "postcode": "22003"}}},
{"geometry": {"type": "Point", "coordinates": [-77.1863272437, 38.8305549493]}, "type": "Feature", "properties": {"collection_times": [{"days": "Mon-Fri", "time": "2:15pm"}, {"days": "Sat", "time": "4:15pm"}, {"days": "Sun", "time": "Closed"}], "id": "2200300060", "name": "USPS COLLECTION BOX - BLUE BOX", "address": {"city": "ANNANDALE", "state": "VA", "street": "4324 EVERGREEN LN", "postcode": "22003"}}},
{"geometry": {"type": "Point", "coordinates": [-77.211378968, 38.8312439666]}, "type": "Feature", "properties": {"collection_times": [{"days": "Mon-Fri", "time": "12:00pm"}, {"days": "Sat", "time": "2:00pm"}, {"days": "Sun", "time": "Closed"}], "id": "2200300064", "name": "USPS COLLECTION BOX - BLUE BOX", "address": {"city": "ANNANDALE", "state": "VA", "street": "7898 HERITAGE DR", "postcode": "22003"}}},
{"geometry": {"type": "Point", "coordinates": [-77.211378968, 38.8312439666]}, "type": "Feature", "properties": {"collection_times": [{"days": "Mon-Fri", "time": "2:00pm"}, {"days": "Sat", "time": "4:00pm"}, {"days": "Sun", "time": "Closed"}], "id": "2200300073", "name": "USPS COLLECTION BOX - BLUE BOX", "address": {"city": "ANNANDALE", "state": "VA", "street": "7611 LITTLE RIVER TPKE", "postcode": "22003"}}},
{"geometry": {"type": "Point", "coordinates": [-77.211378968, 38.8312439666]}, "type": "Feature", "properties": {"collection_times": [{"days": "Mon-Fri", "time": "1:45pm"}, {"days": "Sat", "time": "3:45pm"}, {"days": "Sun", "time": "Closed"}], "id": "2200300075", "name": "USPS COLLECTION BOX - BLUE BOX", "address": {"city": "ANNANDALE", "state": "VA", "street": "7630 LITTLE RIVER TPKE", "postcode": "22003"}}},
{"geometry": {"type": "Point", "coordinates": [-77.211378968, 38.8312439666]}, "type": "Feature", "properties": {"collection_times": [{"days": "Mon-Fri", "time": "1:45pm"}, {"days": "Sat", "time": "3:45pm"}, {"days": "Sun", "time": "Closed"}], "id": "2200300077", "name": "USPS COLLECTION BOX - BLUE BOX", "address": {"city": "ANNANDALE", "state": "VA", "street": "7700 LITTLE RIVER TPKE", "postcode": "22003"}}},
{"geometry": {"type": "Point", "coordinates": [-77.2343967813, 38.8253617594]}, "type": "Feature", "properties": {"collection_times": [{"days": "Mon-Fri", "time": "12:15pm"}, {"days": "Sat", "time": "2:15pm"}, {"days": "Sun", "time": "Closed"}], "id": "2200300090", "name": "USPS COLLECTION BOX - BLUE BOX", "address": {"city": "ANNANDALE", "state": "VA", "street": "4504 HOLBORN AVE", "postcode": "22003"}}},
{"geometry": {"type": "Point", "coordinates": [-77.2254488797, 38.8545962243]}, "type": "Feature", "properties": {"collection_times": [{"days": "Mon-Fri", "time": "1:30pm"}, {"days": "Sat", "time": "3:30pm"}, {"days": "Sun", "time": "Closed"}], "id": "2200300097", "name": "USPS COLLECTION BOX - BLUE BOX", "address": {"city": "ANNANDALE", "state": "VA", "street": "3301 WOODBURN RD", "postcode": "22003"}}},
{"geometry": {"type": "Point", "coordinates": [-77.1753103469, 38.8366519198]}, "type": "Feature", "properties": {"collection_times": [{"days": "Mon-Fri", "time": "1:00pm"}, {"days": "Sat", "time": "3:00pm"}, {"days": "Sun", "time": "Closed"}], "id": "2200300104", "name": "USPS COLLECTION BOX - BLUE BOX", "address": {"city": "ANNANDALE", "state": "VA", "street": "6700 COLUMBIA PIKE", "postcode": "22003"}}},
{"geometry": {"type": "Point", "coordinates": [-77.2547081867, 38.826412227]}, "type": "Feature", "properties": {"collection_times": [{"days": "Mon-Fri", "time": "12:30pm"}, {"days": "Sat", "time": "2:30pm"}, {"days": "Sun", "time": "Closed"}], "id": "2200300105", "name": "USPS COLLECTION BOX - BLUE BOX", "address": {"city": "ANNANDALE", "state": "VA", "street": "4500 WILLET DR", "postcode": "22003"}}},
{"geometry": {"type": "Point", "coordinates": [-77.1865082365, 38.8140112681]}, "type": "Feature", "properties": {"collection_times": [{"days": "Mon-Fri", "time": "12:45pm"}, {"days": "Sat", "time": "2:45pm"}, {"days": "Sun", "time": "Closed"}], "id": "2200300106", "name": "USPS COLLECTION BOX - BLUE BOX", "address": {"city": "ANNANDALE", "state": "VA", "street": "5101 BACKLICK RD", "postcode": "22003"}}},
{"geometry": {"type": "Point", "coordinates": [-77.2060848153, 38.8318111411]}, "type": "Feature", "properties": {"collection_times": [{"days": "Mon-Fri", "time": "2:00pm"}, {"days": "Sat", "time": "4:00pm"}, {"days": "Sun", "time": "Closed"}], "id": "2200300107", "name": "USPS COLLECTION BOX - BLUE BOX", "address": {"city": "ANNANDALE", "state": "VA", "street": "7535 LITTLE RIVER TNPK", "postcode": "22003"}}},
{"geometry": {"type": "Point", "coordinates": [-77.1900275394, 38.8303207234]}, "type": "Feature", "properties": {"collection_times": [{"days": "Mon-Sat", "time": "5:00pm"}, {"days": "Sun", "time": "Closed"}], "id": "2200300110", "name": "USPS COLLECTION BOX - PO LOBBY", "address": {"city": "ANNANDALE", "state": "VA", "street": "4270 JOHN MARR DR", "postcode": "22003"}}},
{"geometry": {"type": "Point", "coordinates": [-77.211378968, 38.8312439666]}, "type": "Feature", "properties": {"collection_times": [{"days": "Mon-Fri", "time": "1:30pm"}, {"days": "Sat", "time": "3:30pm"}, {"days": "Sun", "time": "Closed"}], "id": "2200300111", "name": "USPS COLLECTION BOX - BLUE BOX", "address": {"city": "ANNANDALE", "state": "VA", "street": "7446 LITTLE RIVER TPKE", "postcode": "22003"}}},
{"geometry": {"type": "Point", "coordinates": [-77.1900275394, 38.8303207234]}, "type": "Feature", "properties": {"collection_times": [{"days": "Mon-Sat", "time": "5:00pm"}, {"days": "Sun", "time": "Closed"}], "id": "2200300113", "name": "USPS COLLECTION BOX - APC", "address": {"city": "ANNANDALE", "state": "VA", "street": "4270 JOHN MARR DR", "postcode": "22003"}}},
{"geometry": {"type": "Point", "coordinates": [-77.1962428058, 38.8486483066]}, "type": "Feature", "properties": {"collection_times": [{"days": "Mon-Fri", "time": "1:15pm"}, {"days": "Sat", "time": "3:15pm"}, {"days": "Sun", "time": "Closed"}], "id": "2200300114", "name": "USPS COLLECTION BOX - BLUE BOX", "address": {"city": "ANNANDALE", "state": "VA", "street": "7213 STATECREST DR", "postcode": "22003"}}},
{"geometry": {"type": "Point", "coordinates": [-77.2675184493, 38.776163679]}, "type": "Feature", "properties": {"collection_times": [{"days": "Mon-Fri", "time": "1:30pm"}, {"days": "Sat", "time": "2:00pm"}, {"days": "Sun", "time": "Closed"}], "id": "2201500001", "name": "USPS COLLECTION BOX - BLUE BOX", "address": {"city": "BURKE", "state": "VA", "street": "9318 OLD KEENE MILL RD", "postcode": "22015"}}},
{"geometry": {"type": "Point", "coordinates": [-77.2661313129, 38.7775508679]}, "type": "Feature", "properties": {"collection_times": [{"days": "Mon-Fri", "time": "1:30pm"}, {"days": "Sat", "time": "2:00pm"}, {"days": "Sun", "time": "Closed"}], "id": "2201500002", "name": "USPS COLLECTION BOX - BLUE BOX", "address": {"city": "BURKE", "state": "VA", "street": "6407 SHIPLETT BLVD", "postcode": "22015"}}},
{"geometry": {"type": "Point", "coordinates": [-77.2666395108, 38.7757697537]}, "type": "Feature", "properties": {"collection_times": [{"days": "Mon-Fri", "time": "1:30pm"}, {"days": "Sat", "time": "2:00pm"}, {"days": "Sun", "time": "Closed"}], "id": "2201500003", "name": "USPS COLLECTION BOX - BLUE BOX", "address": {"city": "BURKE", "state": "VA", "street": "9289 OLD KEENE MILL RD", "postcode": "22015"}}},
{"geometry": {"type": "Point", "coordinates": [-77.2857632255, 38.8026217392]}, "type": "Feature", "properties": {"collection_times": [{"days": "Mon-Fri", "time": "1:15pm"}, {"days": "Sat", "time": "3:00pm"}, {"days": "Sun", "time": "Closed"}], "id": "2201500005", "name": "USPS COLLECTION BOX - BLUE BOX", "address": {"city": "BURKE", "state": "VA", "street": "9828 LAKEPOINTE DR", "postcode": "22015"}}},
{"geometry": {"type": "Point", "coordinates": [-77.3011409578, 38.787158386]}, "type": "Feature", "properties": {"collection_times": [{"days": "Mon-Fri", "time": "1:15pm"}, {"days": "Sat", "time": "3:00pm"}, {"days": "Sun", "time": "Closed"}], "id": "2201500006", "name": "USPS COLLECTION BOX - BLUE BOX", "address": {"city": "BURKE", "state": "VA", "street": "6011 BURKE CENTRE PKWY", "postcode": "22015"}}},
{"geometry": {"type": "Point", "coordinates": [-77.2748182957, 38.7769515561]}, "type": "Feature", "properties": {"collection_times": [{"days": "Mon-Fri", "time": "1:30pm"}, {"days": "Sat", "time": "2:00pm"}, {"days": "Sun", "time": "Closed"}], "id": "2201500007", "name": "USPS COLLECTION BOX - BLUE BOX", "address": {"city": "BURKE", "state": "VA", "street": "9574 OLD KEENE MILL RD", "postcode": "22015"}}},
{"geometry": {"type": "Point", "coordinates": [-77.299063799, 38.7886912771]}, "type": "Feature", "properties": {"collection_times": [{"days": "Mon-Sat", "time": "9:00am"}, {"days": "Sun", "time": "Closed"}], "id": "2201500008", "name": "USPS COLLECTION BOX - BLUE BOX", "address": {"city": "BURKE", "state": "VA", "street": "6050 BURKE COMMONS RD", "postcode": "22015"}}},
{"geometry": {"type": "Point", "coordinates": [-77.271995949, 38.7941340087]}, "type": "Feature", "properties": {"collection_times": [{"days": "Mon-Fri", "time": "5:00pm"}, {"days": "Sat", "time": "4:00pm"}, {"days": "Sun", "time": "Closed"}], "id": "2201500011", "name": "USPS COLLECTION BOX - BLUE BOX", "address": {"city": "BURKE", "state": "VA", "street": "9501 BURKE RD", "postcode": "22015"}}},
{"geometry": {"type": "Point", "coordinates": [-77.2561127057, 38.8095579823]}, "type": "Feature", "properties": {"collection_times": [{"days": "Mon-Fri", "time": "12:30pm"}, {"days": "Sat", "time": "3:00pm"}, {"days": "Sun", "time": "Closed"}], "id": "2201500014", "name": "USPS COLLECTION BOX - BLUE BOX", "address": {"city": "BURKE", "state": "VA", "street": "5218 ROLLING RD", "postcode": "22015"}}},
{"geometry": {"type": "Point", "coordinates": [-77.3063999446, 38.7913587869]}, "type": "Feature", "properties": {"collection_times": [{"days": "Mon-Fri", "time": "1:15pm"}, {"days": "Sat", "time": "3:00pm"}, {"days": "Sun", "time": "Closed"}], "id": "2201500016", "name": "USPS COLLECTION BOX - BLUE BOX", "address": {"city": "BURKE", "state": "VA", "street": "5930 COVE LANDING RD", "postcode": "22015"}}},
{"geometry": {"type": "Point", "coordinates": [-77.2829169494, 38.7675177313]}, "type": "Feature", "properties": {"collection_times": [{"days": "Mon-Fri", "time": "1:30pm"}, {"days": "Sat", "time": "2:00pm"}, {"days": "Sun", "time": "Closed"}], "id": "2201500017", "name": "USPS COLLECTION BOX - BLUE BOX", "address": {"city": "BURKE", "state": "VA", "street": "9734 IRONMASTER DR", "postcode": "22015"}}},
{"geometry": {"type": "Point", "coordinates": [-77.3186990317, 38.7983538824]}, "type": "Feature", "properties": {"collection_times": [{"days": "Mon-Fri", "time": "1:15pm"}, {"days": "Sat", "time": "3:00pm"}, {"days": "Sun", "time": "Closed"}], "id": "2201500019", "name": "USPS COLLECTION BOX - BLUE BOX", "address": {"city": "BURKE", "state": "VA", "street": "5765 BURKE CENTRE PKWY STE X", "postcode": "22015"}}},
{"geometry": {"type": "Point", "coordinates": [-77.2715682466, 38.7933853496]}, "type": "Feature", "properties": {"collection_times": [{"days": "Mon-Fri", "time": "5:00pm"}, {"days": "Sat", "time": "4:00pm"}, {"days": "Sun", "time": "Closed"}], "id": "2201500021", "name": "USPS COLLECTION BOX - APC", "address": {"city": "BURKE", "state": "VA", "street": "9501 BURKE RD", "postcode": "22015"}}},
{"geometry": {"type": "Point", "coordinates": [-77.271995949, 38.7941340087]}, "type": "Feature", "properties": {"collection_times": [{"days": "Mon-Fri", "time": "5:00pm"}, {"days": "Sat", "time": "4:00pm"}, {"days": "Sun", "time": "Closed"}], "id": "2201500023", "name": "USPS COLLECTION BOX - PO LOBBY", "address": {"city": "BURKE", "state": "VA", "street": "9501 BURKE RD", "postcode": "22015"}}},
{"geometry": {"type": "Point", "coordinates": [-77.271995949, 38.7941340087]}, "type": "Feature", "properties": {"collection_times": [{"days": "Mon-Fri", "time": "5:00pm"}, {"days": "Sat", "time": "4:00pm"}, {"days": "Sun", "time": "Closed"}], "id": "2201500024", "name": "USPS COLLECTION BOX - PO LOBBY", "address": {"city": "BURKE", "state": "VA", "street": "9501 BURKE RD", "postcode": "22015"}}},
{"geometry": {"type": "Point", "coordinates": [-77.2827760984, 38.7893537686]}, "type": "Feature", "properties": {"collection_times": [{"days": "Mon-Fri", "time": "5:00pm"}, {"days": "Sat", "time": "4:00pm"}, {"days": "Sun", "time": "Closed"}], "id": "2201500025", "name": "USPS COLLECTION BOX - APC", "address": {"city": "BURKE", "state": "VA", "street": "9501 BURKE RD", "postcode": "22015"}}},
{"geometry": {"type": "Point", "coordinates": [-77.2827760984, 38.7893537686]}, "type": "Feature", "properties": {"collection_times": [{"days": "Mon-Fri", "time": "1:15pm"}, {"days": "Sat", "time": "3:00pm"}, {"days": "Sun", "time": "Closed"}], "id": "2201500026", "name": "USPS COLLECTION BOX - BLUE BOX", "address": {"city": "BURKE", "state": "VA", "street": "5935 FREDS OAK RD", "postcode": "22015"}}},
{"geometry": {"type": "Point", "coordinates": [-77.3419066833, 38.6030180615]}, "type": "Feature", "properties": {"collection_times": [{"days": "Mon-Fri", "time": "11:00am"}, {"days": "Sat", "time": "2:00pm"}, {"days": "Sun", "time": "Closed"}], "id": "2202500002", "name": "USPS COLLECTION BOX - BLUE BOX", "address": {"city": "DUMFRIES", "state": "VA", "street": "4384 KEVIN WALKER DR", "postcode": "22025"}}},
{"geometry": {"type": "Point", "coordinates": [-77.3419066833, 38.6030180615]}, "type": "Feature", "properties": {"collection_times": [{"days": "Mon-Fri", "time": "11:00am"}, {"days": "Sat", "time": "2:00pm"}, {"days": "Sun", "time": "Closed"}], "id": "2202500003", "name": "USPS COLLECTION BOX - BLUE BOX", "address": {"city": "DUMFRIES", "state": "VA", "street": "4384 KEVIN WALKER DR", "postcode": "22025"}}},
{"geometry": {"type": "Point", "coordinates": [-77.3304755255, 38.5628537014]}, "type": "Feature", "properties": {"collection_times": [{"days": "Mon-Fri", "time": "5:00pm"}, {"days": "Sat", "time": "2:00pm"}, {"days": "Sun", "time": "Closed"}], "id": "2202600008", "name": "USPS COLLECTION BOX - BLUE BOX", "address": {"city": "DUMFRIES", "state": "VA", "street": "17949 MAIN ST", "postcode": "22026"}}},
{"geometry": {"type": "Point", "coordinates": [-77.3304755255, 38.5628537014]}, "type": "Feature", "properties": {"collection_times": [{"days": "Mon-Fri", "time": "5:00pm"}, {"days": "Sat", "time": "2:00pm"}, {"days": "Sun", "time": "Closed"}], "id": "2202600010", "name": "USPS COLLECTION BOX - BLUE BOX", "address": {"city": "DUMFRIES", "state": "VA", "street": "17949 MAIN ST", "postcode": "22026"}}},
{"geometry": {"type": "Point", "coordinates": [-77.3304755255, 38.5628537014]}, "type": "Feature", "properties": {"collection_times": [{"days": "Mon-Fri", "time": "5:00pm"}, {"days": "Sat", "time": "2:00pm"}, {"days": "Sun", "time": "Closed"}], "id": "2202600014", "name": "USPS COLLECTION BOX - PO LOBBY", "address": {"city": "DUMFRIES", "state": "VA", "street": "17949 MAIN ST", "postcode": "22026"}}},
{"geometry": {"type": "Point", "coordinates": [-77.2245498308, 38.8976843217]}, "type": "Feature", "properties": {"collection_times": [{"days": "Mon-Sat", "time": "4:45pm"}, {"days": "Sun", "time": "Closed"}], "id": "2202700002", "name": "USPS COLLECTION BOX - BLUE BOX", "address": {"city": "DUNN LORING", "state": "VA", "street": "2302 GALLOWS RD", "postcode": "22027"}}},
{"geometry": {"type": "Point", "coordinates": [-77.2245498308, 38.8976843217]}, "type": "Feature", "properties": {"collection_times": [{"days": "Mon-Sat", "time": "4:45pm"}, {"days": "Sun", "time": "Closed"}], "id": "2202700003", "name": "USPS COLLECTION BOX - BLUE BOX", "address": {"city": "DUNN LORING", "state": "VA", "street": "2302 GALLOWS RD", "postcode": "22027"}}},
{"geometry": {"type": "Point", "coordinates": [-77.2245498308, 38.8976843217]}, "type": "Feature", "properties": {"collection_times": [{"days": "Mon-Fri", "time": "5:00pm"}, {"days": "Sat", "time": "12:00pm"}, {"days": "Sun", "time": "Closed"}], "id": "2202700004", "name": "USPS COLLECTION BOX - PO LOBBY", "address": {"city": "DUNN LORING", "state": "VA", "street": "2302 GALLOWS RD", "postcode": "22027"}}},
{"geometry": {"type": "Point", "coordinates": [-77.3265708843, 38.8439729852]}, "type": "Feature", "properties": {"collection_times": [{"days": "Mon-Sat", "time": "9:00am"}, {"days": "Sun", "time": "Closed"}], "id": "2203000001", "name": "USPS COLLECTION BOX - BLUE BOX", "address": {"city": "FAIRFAX", "state": "VA", "street": "4324 ANDES DR", "postcode": "22030"}}},
{"geometry": {"type": "Point", "coordinates": [-77.3084425515, 38.8417351937]}, "type": "Feature", "properties": {"collection_times": [{"days": "Mon-Fri", "time": "2:30pm"}, {"days": "Sat-Sun", "time": "Closed"}], "id": "2203000003", "name": "USPS COLLECTION BOX - BLUE BOX", "address": {"city": "FAIRFAX", "state": "VA", "street": "10486 ARMSTRONG ST", "postcode": "22030"}}},
{"geometry": {"type": "Point", "coordinates": [-77.3265457358, 38.8587472273]}, "type": "Feature", "properties": {"collection_times": [{"days": "Mon-Fri", "time": "12:15pm"}, {"days": "Sat", "time": "3:15pm"}, {"days": "Sun", "time": "Closed"}], "id": "2203000006", "name": "USPS COLLECTION BOX - BLUE BOX", "address": {"city": "FAIRFAX", "state": "VA", "street": "3804 BEVAN DR", "postcode": "22030"}}},
{"geometry": {"type": "Point", "coordinates": [-77.3006827039, 38.8500903336]}, "type": "Feature", "properties": {"collection_times": [{"days": "Mon-Fri", "time": "3:00pm"}, {"days": "Sat", "time": "4:15pm"}, {"days": "Sun", "time": "Closed"}], "id": "2203000010", "name": "USPS COLLECTION BOX - BLUE BOX", "address": {"city": "FAIRFAX", "state": "VA", "street": "10301 DEMOCRACY LN", "postcode": "22030"}}},
{"geometry": {"type": "Point", "coordinates": [-77.2882249631, 38.8567220016]}, "type": "Feature", "properties": {"collection_times": [{"days": "Mon-Fri", "time": "3:45pm"}, {"days": "Sat", "time": "4:15pm"}, {"days": "Sun", "time": "Closed"}], "id": "2203000022", "name": "USPS COLLECTION BOX - BLUE BOX", "address": {"city": "FAIRFAX", "state": "VA", "street": "3500 QUEEN ANNE DR", "postcode": "22030"}}},
{"geometry": {"type": "Point", "coordinates": [-77.3414316459, 38.8397092941]}, "type": "Feature", "properties": {"collection_times": [{"days": "Mon-Fri", "time": "1:45pm"}, {"days": "Sat", "time": "4:00pm"}, {"days": "Sun", "time": "Closed"}], "id": "2203000026", "name": "USPS COLLECTION BOX - BLUE BOX", "address": {"city": "FAIRFAX", "state": "VA", "street": "4500 POHICK LN", "postcode": "22030"}}},
{"geometry": {"type": "Point", "coordinates": [-77.3072945156, 38.8580853872]}, "type": "Feature", "properties": {"collection_times": [{"days": "Mon-Fri", "time": "1:00pm"}, {"days": "Sat", "time": "4:30pm"}, {"days": "Sun", "time": "Closed"}], "id": "2203000036", "name": "USPS COLLECTION BOX - BLUE BOX", "address": {"city": "FAIRFAX", "state": "VA", "street": "3601 CHAIN BRIDGE RD", "postcode": "22030"}}},
{"geometry": {"type": "Point", "coordinates": [-77.3105462158, 38.8475386911]}, "type": "Feature", "properties": {"collection_times": [{"days": "Mon-Fri", "time": "2:30pm"}, {"days": "Sat", "time": "3:00pm"}, {"days": "Sun", "time": "Closed"}], "id": "2203000042", "name": "USPS COLLECTION BOX - BLUE BOX", "address": {"city": "FAIRFAX", "state": "VA", "street": "10560 MAIN ST", "postcode": "22030"}}},
{"geometry": {"type": "Point", "coordinates": [-77.3076952847, 38.8414665628]}, "type": "Feature", "properties": {"collection_times": [{"days": "Mon-Fri", "time": "2:25pm"}, {"days": "Sat-Sun", "time": "Closed"}], "id": "2203000053", "name": "USPS COLLECTION BOX - BLUE BOX", "address": {"city": "FAIRFAX", "state": "VA", "street": "10455 ARMSTRONG ST", "postcode": "22030"}}},
{"geometry": {"type": "Point", "coordinates": [-77.3414316459, 38.8397092941]}, "type": "Feature", "properties": {"collection_times": [{"days": "Mon-Fri", "time": "4:30pm"}, {"days": "Sat-Sun", "time": "Closed"}], "id": "2203000064", "name": "USPS COLLECTION BOX - BLUE BOX", "address": {"city": "FAIRFAX", "state": "VA", "street": "12000 GOVERNMENT CENTER PKWY", "postcode": "22030"}}},
{"geometry": {"type": "Point", "coordinates": [-77.3147349521, 38.8454474805]}, "type": "Feature", "properties": {"collection_times": [{"days": "Mon-Fri", "time": "5:00pm"}, {"days": "Sat", "time": "4:30pm"}, {"days": "Sun", "time": "Closed"}], "id": "2203000071", "name": "USPS COLLECTION BOX - BLUE BOX", "address": {"city": "FAIRFAX", "state": "VA", "street": "10660 PAGE AVE", "postcode": "22030"}}},
{"geometry": {"type": "Point", "coordinates": [-77.3613140827, 38.854000013]}, "type": "Feature", "properties": {"collection_times": [{"days": "Mon-Fri", "time": "4:30pm"}, {"days": "Sat-Sun", "time": "Closed"}], "id": "2203000078", "name": "USPS COLLECTION BOX - BLUE BOX", "address": {"city": "FAIRFAX", "state": "VA", "street": "12011 GOVERNMENT CENTER PKWY", "postcode": "22030"}}},
{"geometry": {"type": "Point", "coordinates": [-77.3109062557, 38.8433823343]}, "type": "Feature", "properties": {"collection_times": [{"days": "Mon-Fri", "time": "4:15pm"}, {"days": "Sat", "time": "3:45pm"}, {"days": "Sun", "time": "Closed"}], "id": "2203000084", "name": "USPS COLLECTION BOX - BLUE BOX", "address": {"city": "FAIRFAX", "state": "VA", "street": "10521 JUDICIAL DR", "postcode": "22030"}}},
{"geometry": {"type": "Point", "coordinates": [-77.3144287111, 38.844373766]}, "type": "Feature", "properties": {"collection_times": [{"days": "Mon-Fri", "time": "4:15pm"}, {"days": "Sat", "time": "3:45pm"}, {"days": "Sun", "time": "Closed"}], "id": "2203000085", "name": "USPS COLLECTION BOX - BLUE BOX", "address": {"city": "FAIRFAX", "state": "VA", "street": "10617 JUDICIAL DR", "postcode": "22030"}}},
{"geometry": {"type": "Point", "coordinates": [-77.3171660541, 38.849878584]}, "type": "Feature", "properties": {"collection_times": [{"days": "Mon-Fri", "time": "4:30pm"}, {"days": "Sat", "time": "3:30pm"}, {"days": "Sun", "time": "Closed"}], "id": "2203000095", "name": "USPS COLLECTION BOX - BLUE BOX", "address": {"city": "FAIRFAX", "state": "VA", "street": "10777 MAIN ST", "postcode": "22030"}}},
{"geometry": {"type": "Point", "coordinates": [-77.3012393725, 38.8476564798]}, "type": "Feature", "properties": {"collection_times": [{"days": "Mon-Fri", "time": "2:45pm"}, {"days": "Sat", "time": "4:00pm"}, {"days": "Sun", "time": "Closed"}], "id": "2203000101", "name": "USPS COLLECTION BOX - BLUE BOX", "address": {"city": "FAIRFAX", "state": "VA", "street": "3913 OLD LEE HWY", "postcode": "22030"}}},
{"geometry": {"type": "Point", "coordinates": [-77.3338158034, 38.8602092158]}, "type": "Feature", "properties": {"collection_times": [{"days": "Mon-Fri", "time": "3:30pm"}, {"days": "Sat", "time": "3:15pm"}, {"days": "Sun", "time": "Closed"}], "id": "2203000108", "name": "USPS COLLECTION BOX - BLUE BOX", "address": {"city": "FAIRFAX", "state": "VA", "street": "3928 PENDER DR", "postcode": "22030"}}},
{"geometry": {"type": "Point", "coordinates": [-77.3048396217, 38.8472642447]}, "type": "Feature", "properties": {"collection_times": [{"days": "Mon-Fri", "time": "3:00pm"}, {"days": "Sat-Sun", "time": "Closed"}], "id": "2203000116", "name": "USPS COLLECTION BOX - BLUE BOX", "address": {"city": "FAIRFAX", "state": "VA", "street": "3975 UNIVERSITY DR", "postcode": "22030"}}},
{"geometry": {"type": "Point", "coordinates": [-77.3058829915, 38.8443305064]}, "type": "Feature", "properties": {"collection_times": [{"days": "Mon-Fri", "time": "2:45pm"}, {"days": "Sat", "time": "4:00pm"}, {"days": "Sun", "time": "Closed"}], "id": "2203000117", "name": "USPS COLLECTION BOX - BLUE BOX", "address": {"city": "FAIRFAX", "state": "VA", "street": "4020 UNIVERSITY DR", "postcode": "22030"}}},
{"geometry": {"type": "Point", "coordinates": [-77.3363252575, 38.863398622]}, "type": "Feature", "properties": {"collection_times": [{"days": "Mon-Fri", "time": "11:45am"}, {"days": "Sat", "time": "3:30pm"}, {"days": "Sun", "time": "Closed"}], "id": "2203000127", "name": "USPS COLLECTION BOX - BLUE BOX", "address": {"city": "FAIRFAX", "state": "VA", "street": "11250 WAPLES MILL RD", "postcode": "22030"}}},
{"geometry": {"type": "Point", "coordinates": [-77.307511926, 38.85993965]}, "type": "Feature", "properties": {"collection_times": [{"days": "Mon-Fri", "time": "1:00pm"}, {"days": "Sat-Sun", "time": "Closed"}], "id": "2203000128", "name": "USPS COLLECTION BOX - BLUE BOX", "address": {"city": "FAIRFAX", "state": "VA", "street": "3554 CHAIN BRIDGE RD", "postcode": "22030"}}},
{"geometry": {"type": "Point", "coordinates": [-77.3078762774, 38.8439661551]}, "type": "Feature", "properties": {"collection_times": [{"days": "Mon-Fri", "time": "2:30pm"}, {"days": "Sat-Sun", "time": "Closed"}], "id": "2203000131", "name": "USPS COLLECTION BOX - BLUE BOX", "address": {"city": "FAIRFAX", "state": "VA", "street": "4085 CHAIN BRIDGE RD", "postcode": "22030"}}},
{"geometry": {"type": "Point", "coordinates": [-77.3322729457, 38.8562433853]}, "type": "Feature", "properties": {"collection_times": [{"days": "Mon-Fri", "time": "11:00am"}, {"days": "Sat-Sun", "time": "Closed"}], "id": "2203000149", "name": "USPS COLLECTION BOX - BLUE BOX", "address": {"city": "FAIRFAX", "state": "VA", "street": "11200 FAIRFAX BLVD", "postcode": "22030"}}},
{"geometry": {"type": "Point", "coordinates": [-77.2898900578, 38.8629607759]}, "type": "Feature", "properties": {"collection_times": [{"days": "Mon-Fri", "time": "3:45pm"}, {"days": "Sat", "time": "4:15pm"}, {"days": "Sun", "time": "Closed"}], "id": "2203000160", "name": "USPS COLLECTION BOX - BLUE BOX", "address": {"city": "FAIRFAX", "state": "VA", "street": "9990 FAIRFAX BLVD", "postcode": "22030"}}},
{"geometry": {"type": "Point", "coordinates": [-77.3133107909, 38.8454140968]}, "type": "Feature", "properties": {"collection_times": [{"days": "Mon-Fri", "time": "5:00pm"}, {"days": "Sat", "time": "4:30pm"}, {"days": "Sun", "time": "Closed"}], "id": "2203000163", "name": "USPS COLLECTION BOX - APC", "address": {"city": "FAIRFAX", "state": "VA", "street": "10660 PAGE AVE", "postcode": "22030"}}},
{"geometry": {"type": "Point", "coordinates": [-77.3133107909, 38.8454140968]}, "type": "Feature", "properties": {"collection_times": [{"days": "Mon-Fri", "time": "5:00pm"}, {"days": "Sat", "time": "4:45pm"}, {"days": "Sun", "time": "Closed"}], "id": "2203000194", "name": "USPS COLLECTION BOX - PO LOBBY", "address": {"city": "FAIRFAX", "state": "VA", "street": "10660 PAGE AVE", "postcode": "22030"}}},
{"geometry": {"type": "Point", "coordinates": [-77.2389276166, 38.8676828859]}, "type": "Feature", "properties": {"collection_times": [{"days": "Mon-Fri", "time": "4:00pm"}, {"days": "Sat", "time": "3:00pm"}, {"days": "Sun", "time": "Closed"}], "id": "2203100006", "name": "USPS COLLECTION BOX - BLUE BOX", "address": {"city": "FAIRFAX", "state": "VA", "street": "8500 EXECUTIVE PARK AVE", "postcode": "22031"}}},
{"geometry": {"type": "Point", "coordinates": [-77.2339605643, 38.8763946198]}, "type": "Feature", "properties": {"collection_times": [{"days": "Mon-Fri", "time": "2:00pm"}, {"days": "Sat", "time": "3:15pm"}, {"days": "Sun", "time": "Closed"}], "id": "2203100008", "name": "USPS COLLECTION BOX - BLUE BOX", "address": {"city": "FAIRFAX", "state": "VA", "street": "2810 DORR AVE", "postcode": "22031"}}},
{"geometry": {"type": "Point", "coordinates": [-77.2808688676, 38.8421546274]}, "type": "Feature", "properties": {"collection_times": [{"days": "Mon-Fri", "time": "12:00pm"}, {"days": "Sat", "time": "4:15pm"}, {"days": "Sun", "time": "Closed"}], "id": "2203100012", "name": "USPS COLLECTION BOX - BLUE BOX", "address": {"city": "FAIRFAX", "state": "VA", "street": "9697 MAIN ST", "postcode": "22031"}}},
{"geometry": {"type": "Point", "coordinates": [-77.2626156288, 38.867794723]}, "type": "Feature", "properties": {"collection_times": [{"days": "Mon-Fri", "time": "2:00pm"}, {"days": "Sat", "time": "3:30pm"}, {"days": "Sun", "time": "Closed"}], "id": "2203100013", "name": "USPS COLLECTION BOX - BLUE BOX", "address": {"city": "FAIRFAX", "state": "VA", "street": "3045 NUTLEY ST", "postcode": "22031"}}},
{"geometry": {"type": "Point", "coordinates": [-77.2654873088, 38.8652818926]}, "type": "Feature", "properties": {"collection_times": [{"days": "Mon-Fri", "time": "1:00pm"}, {"days": "Sat", "time": "3:00pm"}, {"days": "Sun", "time": "Closed"}], "id": "2203100035", "name": "USPS COLLECTION BOX - BLUE BOX", "address": {"city": "FAIRFAX", "state": "VA", "street": "9300 ARLINGTON BLVD", "postcode": "22031"}}},
{"geometry": {"type": "Point", "coordinates": [-77.2717373844, 38.8648218912]}, "type": "Feature", "properties": {"collection_times": [{"days": "Mon-Fri", "time": "1:30pm"}, {"days": "Sat", "time": "4:00pm"}, {"days": "Sun", "time": "Closed"}], "id": "2203100042", "name": "USPS COLLECTION BOX - BLUE BOX", "address": {"city": "FAIRFAX", "state": "VA", "street": "9471 ARLINGTON BLVD", "postcode": "22031"}}},
{"geometry": {"type": "Point", "coordinates": [-77.2743545963, 38.8677253798]}, "type": "Feature", "properties": {"collection_times": [{"days": "Mon-Fri", "time": "1:00pm"}, {"days": "Sat", "time": "4:00pm"}, {"days": "Sun", "time": "Closed"}], "id": "2203100044", "name": "USPS COLLECTION BOX - BLUE BOX", "address": {"city": "FAIRFAX", "state": "VA", "street": "9516 BLAKE LN", "postcode": "22031"}}},
{"geometry": {"type": "Point", "coordinates": [-77.2351006419, 38.8669782558]}, "type": "Feature", "properties": {"collection_times": [{"days": "Mon-Fri", "time": "4:00pm"}, {"days": "Sat", "time": "3:00pm"}, {"days": "Sun", "time": "Closed"}], "id": "2203100047", "name": "USPS COLLECTION BOX - BLUE BOX", "address": {"city": "FAIRFAX", "state": "VA", "street": "3026 JAVIER RD", "postcode": "22031"}}},
{"geometry": {"type": "Point", "coordinates": [-77.2715759986, 38.868384794]}, "type": "Feature", "properties": {"collection_times": [{"days": "Mon-Fri", "time": "1:00pm"}, {"days": "Sat", "time": "3:30pm"}, {"days": "Sun", "time": "Closed"}], "id": "2203100051", "name": "USPS COLLECTION BOX - BLUE BOX", "address": {"city": "FAIRFAX", "state": "VA", "street": "9401 LEE HWY", "postcode": "22031"}}},
{"geometry": {"type": "Point", "coordinates": [-77.2744103277, 38.8416686093]}, "type": "Feature", "properties": {"collection_times": [{"days": "Mon-Fri", "time": "11:00am"}, {"days": "Sat", "time": "4:15pm"}, {"days": "Sun", "time": "Closed"}], "id": "2203100053", "name": "USPS COLLECTION BOX - BLUE BOX", "address": {"city": "FAIRFAX", "state": "VA", "street": "9520 MAIN ST", "postcode": "22031"}}},
{"geometry": {"type": "Point", "coordinates": [-77.3119846939, 38.8250222502]}, "type": "Feature", "properties": {"collection_times": [{"days": "Mon-Fri", "time": "1:15pm"}, {"days": "Sat", "time": "3:50pm"}, {"days": "Sun", "time": "Closed"}], "id": "2203100058", "name": "USPS COLLECTION BOX - BLUE BOX", "address": {"city": "FAIRFAX", "state": "VA", "street": "10521 BRADDOCK RD", "postcode": "22031"}}},
{"geometry": {"type": "Point", "coordinates": [-77.2723543856, 38.8510840191]}, "type": "Feature", "properties": {"collection_times": [{"days": "Mon-Sat", "time": "5:00pm"}, {"days": "Sun", "time": "Closed"}], "id": "2203100060", "name": "USPS COLLECTION BOX - BLUE BOX", "address": {"city": "FAIRFAX", "state": "VA", "street": "3601 PICKETT RD", "postcode": "22031"}}},
{"geometry": {"type": "Point", "coordinates": [-77.3135260326, 38.8260171387]}, "type": "Feature", "properties": {"collection_times": [{"days": "Mon-Fri", "time": "1:15pm"}, {"days": "Sat", "time": "3:50pm"}, {"days": "Sun", "time": "Closed"}], "id": "2203100066", "name": "USPS COLLECTION BOX - BLUE BOX", "address": {"city": "FAIRFAX", "state": "VA", "street": "10653 BRADDOCK RD", "postcode": "22031"}}},
{"geometry": {"type": "Point", "coordinates": [-77.2380251371, 38.8653741261]}, "type": "Feature", "properties": {"collection_times": [{"days": "Mon-Sat", "time": "3:00pm"}, {"days": "Sun", "time": "Closed"}], "id": "2203100070", "name": "USPS COLLECTION BOX - BLUE BOX", "address": {"city": "FAIRFAX", "state": "VA", "street": "8503 ARLINGTON BLVD", "postcode": "22031"}}},
{"geometry": {"type": "Point", "coordinates": [-77.2680273577, 38.8731566772]}, "type": "Feature", "properties": {"collection_times": [{"days": "Mon-Fri", "time": "1:00pm"}, {"days": "Sat", "time": "3:30pm"}, {"days": "Sun", "time": "Closed"}], "id": "2203100071", "name": "USPS COLLECTION BOX - BLUE BOX", "address": {"city": "FAIRFAX", "state": "VA", "street": "9333 CLOCKTOWER PL", "postcode": "22031"}}},
{"geometry": {"type": "Point", "coordinates": [-77.2723543856, 38.8510840191]}, "type": "Feature", "properties": {"collection_times": [{"days": "Mon-Sat", "time": "5:00pm"}, {"days": "Sun", "time": "Closed"}], "id": "2203100072", "name": "USPS COLLECTION BOX - APC", "address": {"city": "FAIRFAX", "state": "VA", "street": "3601 PICKETT RD", "postcode": "22031"}}},
{"geometry": {"type": "Point", "coordinates": [-77.2723543856, 38.8510840191]}, "type": "Feature", "properties": {"collection_times": [{"days": "Mon-Sat", "time": "5:00pm"}, {"days": "Sun", "time": "Closed"}], "id": "2203100081", "name": "USPS COLLECTION BOX - PO LOBBY", "address": {"city": "FAIRFAX", "state": "VA", "street": "3601 PICKETT RD", "postcode": "22031"}}},
{"geometry": {"type": "Point", "coordinates": [-77.2869043376, 38.8446782793]}, "type": "Feature", "properties": {"collection_times": [{"days": "Mon-Fri", "time": "11:30am"}, {"days": "Sat", "time": "4:15pm"}, {"days": "Sun", "time": "Closed"}], "id": "2203100089", "name": "USPS COLLECTION BOX - BLUE BOX", "address": {"city": "FAIRFAX", "state": "VA", "street": "9860 FAIRFAX SQ", "postcode": "22031"}}},
{"geometry": {"type": "Point", "coordinates": [-77.3790939724, 38.8847203134]}, "type": "Feature", "properties": {"collection_times": [{"days": "Mon-Fri", "time": "11:00am"}, {"days": "Sat", "time": "12:00pm"}, {"days": "Sun", "time": "Closed"}], "id": "2203300005", "name": "USPS COLLECTION BOX - BLUE BOX", "address": {"city": "FAIRFAX", "state": "VA", "street": "3600 JOSEPH SIEWICK DR", "postcode": "22033"}}},
{"geometry": {"type": "Point", "coordinates": [-77.3946549623, 38.8589615815]}, "type": "Feature", "properties": {"collection_times": [{"days": "Mon-Fri", "time": "1:45pm"}, {"days": "Sat", "time": "1:00pm"}, {"days": "Sun", "time": "Closed"}], "id": "2203300015", "name": "USPS COLLECTION BOX - BLUE BOX", "address": {"city": "FAIRFAX", "state": "VA", "street": "12900 FEDERAL SYSTEMS PARK DR", "postcode": "22033"}}},
{"geometry": {"type": "Point", "coordinates": [-77.3671556314, 38.8667011506]}, "type": "Feature", "properties": {"collection_times": [{"days": "Mon-Fri", "time": "12:30pm"}, {"days": "Sat", "time": "1:00pm"}, {"days": "Sun", "time": "Closed"}], "id": "2203300051", "name": "USPS COLLECTION BOX - BLUE BOX", "address": {"city": "FAIRFAX", "state": "VA", "street": "12200 FAIRFAX TOWNE CTR", "postcode": "22033"}}},
{"geometry": {"type": "Point", "coordinates": [-77.3919642527, 38.8576998927]}, "type": "Feature", "properties": {"collection_times": [{"days": "Mon-Fri", "time": "1:30pm"}, {"days": "Sat", "time": "1:00pm"}, {"days": "Sun", "time": "Closed"}], "id": "2203300055", "name": "USPS COLLECTION BOX - BLUE BOX", "address": {"city": "FAIRFAX", "state": "VA", "street": "13007 FAIR LAKES SHOPPING CTR", "postcode": "22033"}}},
{"geometry": {"type": "Point", "coordinates": [-78.6979451561, 37.5128225857]}, "type": "Feature", "properties": {"collection_times": [{"days": "Mon-Fri", "time": "2:00pm"}, {"days": "Sat", "time": "12:00pm"}, {"days": "Sun", "time": "Closed"}], "id": "2203300059", "name": "USPS COLLECTION BOX - BLUE BOX", "address": {"city": "FAIRFAX", "state": "VA", "street": "13039 LEE JACKSON HWY", "postcode": "22033"}}},
{"geometry": {"type": "Point", "coordinates": [-77.3688605661, 38.8591331751]}, "type": "Feature", "properties": {"collection_times": [{"days": "Mon-Fri", "time": "12:30pm"}, {"days": "Sat", "time": "1:00pm"}, {"days": "Sun", "time": "Closed"}], "id": "2203300061", "name": "USPS COLLECTION BOX - BLUE BOX", "address": {"city": "FAIRFAX", "state": "VA", "street": "12199 FAIR LAKES PROMENADE DR", "postcode": "22033"}}},
{"geometry": {"type": "Point", "coordinates": [-77.3256108067, 38.8014890114]}, "type": "Feature", "properties": {"collection_times": [{"days": "Mon-Fri", "time": "5:00pm"}, {"days": "Sat", "time": "12:00pm"}, {"days": "Sun", "time": "Closed"}], "id": "2203900000", "name": "USPS COLLECTION BOX - BLUE BOX", "address": {"city": "FAIRFAX STATION", "state": "VA", "street": "5616I OX RD", "postcode": "22039"}}},
{"geometry": {"type": "Point", "coordinates": [-77.3256108067, 38.8014890114]}, "type": "Feature", "properties": {"collection_times": [{"days": "Mon-Fri", "time": "5:00pm"}, {"days": "Sat", "time": "12:00pm"}, {"days": "Sun", "time": "Closed"}], "id": "2203900001", "name": "USPS COLLECTION BOX - BLUE BOX", "address": {"city": "FAIRFAX STATION", "state": "VA", "street": "5616E OX RD", "postcode": "22039"}}},
{"geometry": {"type": "Point", "coordinates": [-77.3256108067, 38.8014890114]}, "type": "Feature", "properties": {"collection_times": [{"days": "Mon-Fri", "time": "5:00pm"}, {"days": "Sat", "time": "12:00pm"}, {"days": "Sun", "time": "Closed"}], "id": "2203900002", "name": "USPS COLLECTION BOX - PO LOBBY", "address": {"city": "FAIRFAX STATION", "state": "VA", "street": "5616I OX RD", "postcode": "22039"}}},
{"geometry": {"type": "Point", "coordinates": [-77.256019776, 38.7280681748]}, "type": "Feature", "properties": {"collection_times": [{"days": "Mon-Fri", "time": "10:00am"}, {"days": "Sat-Sun", "time": "Closed"}], "id": "2203900005", "name": "USPS COLLECTION BOX - BLUE BOX", "address": {"city": "FAIRFAX STATION", "state": "VA", "street": "9009 SILVERBROOK RD", "postcode": "22039"}}},
{"geometry": {"type": "Point", "coordinates": [-77.1376805765, 38.8460174486]}, "type": "Feature", "properties": {"collection_times": [{"days": "Mon-Fri", "time": "1:30pm"}, {"days": "Sat", "time": "3:00pm"}, {"days": "Sun", "time": "Closed"}], "id": "2204100002", "name": "USPS COLLECTION BOX - BLUE BOX", "address": {"city": "FALLS CHURCH", "state": "VA", "street": "3601 BARCROFT VIEW TER", "postcode": "22041"}}},
{"geometry": {"type": "Point", "coordinates": [-77.1507243946, 38.8413335466]}, "type": "Feature", "properties": {"collection_times": [{"days": "Mon-Fri", "time": "1:20pm"}, {"days": "Sat", "time": "2:45pm"}, {"days": "Sun", "time": "Closed"}], "id": "2204100003", "name": "USPS COLLECTION BOX - BLUE BOX", "address": {"city": "FALLS CHURCH", "state": "VA", "street": "6319 AQUA TER", "postcode": "22041"}}},
{"geometry": {"type": "Point", "coordinates": [-77.1483487048, 38.859966133]}, "type": "Feature", "properties": {"collection_times": [{"days": "Mon-Fri", "time": "12:45pm"}, {"days": "Sat", "time": "2:30pm"}, {"days": "Sun", "time": "Closed"}], "id": "2204100010", "name": "USPS COLLECTION BOX - BLUE BOX", "address": {"city": "FALLS CHURCH", "state": "VA", "street": "3245 RIO DR", "postcode": "22041"}}},
{"geometry": {"type": "Point", "coordinates": [-77.1191328086, 38.8417433752]}, "type": "Feature", "properties": {"collection_times": [{"days": "Mon-Fri", "time": "1:30pm"}, {"days": "Sat", "time": "3:30pm"}, {"days": "Sun", "time": "Closed"}], "id": "2204100011", "name": "USPS COLLECTION BOX - BLUE BOX", "address": {"city": "FALLS CHURCH", "state": "VA", "street": "3819 S GEORGE MASON DR", "postcode": "22041"}}},
{"geometry": {"type": "Point", "coordinates": [-77.1231927238, 38.8479503609]}, "type": "Feature", "properties": {"collection_times": [{"days": "Mon-Fri", "time": "1:40pm"}, {"days": "Sat", "time": "3:00pm"}, {"days": "Sun", "time": "Closed"}], "id": "2204100029", "name": "USPS COLLECTION BOX - BLUE BOX", "address": {"city": "FALLS CHURCH", "state": "VA", "street": "5613 LEESBURG PIKE", "postcode": "22041"}}},
{"geometry": {"type": "Point", "coordinates": [-77.1669917794, 38.8383932354]}, "type": "Feature", "properties": {"collection_times": [{"days": "Mon-Fri", "time": "1:15pm"}, {"days": "Sat", "time": "2:45pm"}, {"days": "Sun", "time": "Closed"}], "id": "2204100037", "name": "USPS COLLECTION BOX - BLUE BOX", "address": {"city": "FALLS CHURCH", "state": "VA", "street": "3914 WHISPERING LN", "postcode": "22041"}}},
{"geometry": {"type": "Point", "coordinates": [-77.1242601687, 38.8525847186]}, "type": "Feature", "properties": {"collection_times": [{"days": "Mon-Fri", "time": "2:10pm"}, {"days": "Sat", "time": "4:15pm"}, {"days": "Sun", "time": "Closed"}], "id": "2204100039", "name": "USPS COLLECTION BOX - BLUE BOX", "address": {"city": "FALLS CHURCH", "state": "VA", "street": "5639 COLUMBIA PIKE", "postcode": "22041"}}},
{"geometry": {"type": "Point", "coordinates": [-77.1423967151, 38.8486559773]}, "type": "Feature", "properties": {"collection_times": [{"days": "Mon-Fri", "time": "2:00pm"}, {"days": "Sat", "time": "4:15pm"}, {"days": "Sun", "time": "Closed"}], "id": "2204100050", "name": "USPS COLLECTION BOX - BLUE BOX", "address": {"city": "FALLS CHURCH", "state": "VA", "street": "5800 CROSSROADS CTR", "postcode": "22041"}}},
{"geometry": {"type": "Point", "coordinates": [-77.1386928342, 38.8554134617]}, "type": "Feature", "properties": {"collection_times": [{"days": "Mon-Fri", "time": "5:00pm"}, {"days": "Sat", "time": "4:30pm"}, {"days": "Sun", "time": "Closed"}], "id": "2204100054", "name": "USPS COLLECTION BOX - BLUE BOX", "address": {"city": "FALLS CHURCH", "state": "VA", "street": "6021 LEESBURG PIKE", "postcode": "22041"}}},
{"geometry": {"type": "Point", "coordinates": [-77.1422674599, 38.8514279687]}, "type": "Feature", "properties": {"collection_times": [{"days": "Mon-Fri", "time": "11:45am"}, {"days": "Sat", "time": "2:40pm"}, {"days": "Sun", "time": "Closed"}], "id": "2204100056", "name": "USPS COLLECTION BOX - BLUE BOX", "address": {"city": "FALLS CHURCH", "state": "VA", "street": "6101 KNOLLWOOD DR", "postcode": "22041"}}},
{"geometry": {"type": "Point", "coordinates": [-77.1386928342, 38.8554134617]}, "type": "Feature", "properties": {"collection_times": [{"days": "Mon-Fri", "time": "5:00pm"}, {"days": "Sat", "time": "4:30pm"}, {"days": "Sun", "time": "Closed"}], "id": "2204100058", "name": "USPS COLLECTION BOX - BLUE BOX", "address": {"city": "FALLS CHURCH", "state": "VA", "street": "6021 LEESBURG PIKE", "postcode": "22041"}}},
{"geometry": {"type": "Point", "coordinates": [-77.1386928342, 38.8554134617]}, "type": "Feature", "properties": {"collection_times": [{"days": "Mon-Fri", "time": "5:00pm"}, {"days": "Sat", "time": "4:30pm"}, {"days": "Sun", "time": "Closed"}], "id": "2204100065", "name": "USPS COLLECTION BOX - BLUE BOX", "address": {"city": "FALLS CHURCH", "state": "VA", "street": "6021 LEESBURG PIKE", "postcode": "22041"}}},
{"geometry": {"type": "Point", "coordinates": [-77.1386928342, 38.8554134617]}, "type": "Feature", "properties": {"collection_times": [{"days": "Mon-Fri", "time": "5:00pm"}, {"days": "Sat", "time": "4:30pm"}, {"days": "Sun", "time": "Closed"}], "id": "2204100066", "name": "USPS COLLECTION BOX - APC", "address": {"city": "FALLS CHURCH", "state": "VA", "street": "6021 LEESBURG PIKE", "postcode": "22041"}}},
{"geometry": {"type": "Point", "coordinates": [-77.1160961529, 38.8452685929]}, "type": "Feature", "properties": {"collection_times": [{"days": "Mon-Fri", "time": "1:45pm"}, {"days": "Sat-Sun", "time": "Closed"}], "id": "2204100071", "name": "USPS COLLECTION BOX - BLUE BOX", "address": {"city": "FALLS CHURCH", "state": "VA", "street": "5107 LEESBURG PIKE", "postcode": "22041"}}},
{"geometry": {"type": "Point", "coordinates": [-77.1386928342, 38.8554134617]}, "type": "Feature", "properties": {"collection_times": [{"days": "Mon-Fri", "time": "5:00pm"}, {"days": "Sat", "time": "4:30pm"}, {"days": "Sun", "time": "Closed"}], "id": "2204100072", "name": "USPS COLLECTION BOX - PO LOBBY", "address": {"city": "FALLS CHURCH", "state": "VA", "street": "6021 LEESBURG PIKE", "postcode": "22041"}}},
{"geometry": {"type": "Point", "coordinates": [-77.1386928342, 38.8554134617]}, "type": "Feature", "properties": {"collection_times": [{"days": "Mon-Fri", "time": "5:00pm"}, {"days": "Sat", "time": "4:30pm"}, {"days": "Sun", "time": "Closed"}], "id": "2204100073", "name": "USPS COLLECTION BOX - PO LOBBY", "address": {"city": "FALLS CHURCH", "state": "VA", "street": "6021 LEESBURG PIKE", "postcode": "22041"}}},
{"geometry": {"type": "Point", "coordinates": [-77.2101807423, 38.8660558315]}, "type": "Feature", "properties": {"collection_times": [{"days": "Mon-Fri", "time": "2:45pm"}, {"days": "Sat", "time": "4:00pm"}, {"days": "Sun", "time": "Closed"}], "id": "2204200010", "name": "USPS COLLECTION BOX - BLUE BOX", "address": {"city": "FALLS CHURCH", "state": "VA", "street": "8124 ARLINGTON BLVD", "postcode": "22042"}}},
{"geometry": {"type": "Point", "coordinates": [-77.2243995951, 38.8689396018]}, "type": "Feature", "properties": {"collection_times": [{"days": "Mon-Fri", "time": "2:15pm"}, {"days": "Sat", "time": "4:15pm"}, {"days": "Sun", "time": "Closed"}], "id": "2204200013", "name": "USPS COLLECTION BOX - BLUE BOX", "address": {"city": "FALLS CHURCH", "state": "VA", "street": "8111 GATEHOUSE RD", "postcode": "22042"}}},
{"geometry": {"type": "Point", "coordinates": [-77.1912105845, 38.8757620876]}, "type": "Feature", "properties": {"collection_times": [{"days": "Mon-Fri", "time": "1:30pm"}, {"days": "Sat", "time": "3:50pm"}, {"days": "Sun", "time": "Closed"}], "id": "2204200014", "name": "USPS COLLECTION BOX - BLUE BOX", "address": {"city": "FALLS CHURCH", "state": "VA", "street": "2800 GRAHAM RD", "postcode": "22042"}}},
{"geometry": {"type": "Point", "coordinates": [-77.1699550713, 38.8701905732]}, "type": "Feature", "properties": {"collection_times": [{"days": "Mon-Fri", "time": "1:30pm"}, {"days": "Sat", "time": "3:50pm"}, {"days": "Sun", "time": "Closed"}], "id": "2204200047", "name": "USPS COLLECTION BOX - BLUE BOX", "address": {"city": "FALLS CHURCH", "state": "VA", "street": "6565 ARLINGTON BLVD", "postcode": "22042"}}},
{"geometry": {"type": "Point", "coordinates": [-77.1937696079, 38.866743002]}, "type": "Feature", "properties": {"collection_times": [{"days": "Mon-Fri", "time": "2:00pm"}, {"days": "Sat", "time": "3:50pm"}, {"days": "Sun", "time": "Closed"}], "id": "2204200048", "name": "USPS COLLECTION BOX - BLUE BOX", "address": {"city": "FALLS CHURCH", "state": "VA", "street": "7202 ARLINGTON BLVD", "postcode": "22042"}}},
{"geometry": {"type": "Point", "coordinates": [-77.1968517183, 38.8658876447]}, "type": "Feature", "properties": {"collection_times": [{"days": "Mon-Fri", "time": "1:45pm"}, {"days": "Sat", "time": "4:30pm"}, {"days": "Sun", "time": "Closed"}], "id": "2204200049", "name": "USPS COLLECTION BOX - BLUE BOX", "address": {"city": "FALLS CHURCH", "state": "VA", "street": "7283 ARLINGTON BLVD", "postcode": "22042"}}},
{"geometry": {"type": "Point", "coordinates": [-77.1982027292, 38.8760966864]}, "type": "Feature", "properties": {"collection_times": [{"days": "Mon-Fri", "time": "1:45pm"}, {"days": "Sat", "time": "3:50pm"}, {"days": "Sun", "time": "Closed"}], "id": "2204200058", "name": "USPS COLLECTION BOX - BLUE BOX", "address": {"city": "FALLS CHURCH", "state": "VA", "street": "7395 LEE HWY", "postcode": "22042"}}},
{"geometry": {"type": "Point", "coordinates": [-77.1683559835, 38.8705130671]}, "type": "Feature", "properties": {"collection_times": [{"days": "Mon-Fri", "time": "5:00pm"}, {"days": "Sat", "time": "2:00pm"}, {"days": "Sun", "time": "Closed"}], "id": "2204200066", "name": "USPS COLLECTION BOX - PO LOBBY", "address": {"city": "FALLS CHURCH", "state": "VA", "street": "6533 ARLINGTON BLVD", "postcode": "22042"}}},
{"geometry": {"type": "Point", "coordinates": [-77.2263667236, 38.8594478612]}, "type": "Feature", "properties": {"collection_times": [{"days": "Mon-Fri", "time": "2:15pm"}, {"days": "Sat", "time": "4:15pm"}, {"days": "Sun", "time": "Closed"}], "id": "2204200071", "name": "USPS COLLECTION BOX - BLUE BOX", "address": {"city": "FALLS CHURCH", "state": "VA", "street": "3300 GALLOWS RD", "postcode": "22042"}}},
{"geometry": {"type": "Point", "coordinates": [-77.1747247822, 38.8676324321]}, "type": "Feature", "properties": {"collection_times": [{"days": "Mon-Fri", "time": "5:00pm"}, {"days": "Sat", "time": "2:00pm"}, {"days": "Sun", "time": "Closed"}], "id": "2204200072", "name": "USPS COLLECTION BOX - BLUE BOX", "address": {"city": "FALLS CHURCH", "state": "VA", "street": "6533 ARLINGTON BLVD", "postcode": "22042"}}},
{"geometry": {"type": "Point", "coordinates": [-77.2086906994, 38.9016810919]}, "type": "Feature", "properties": {"collection_times": [{"days": "Mon-Fri", "time": "12:15pm"}, {"days": "Sat", "time": "3:45pm"}, {"days": "Sun", "time": "Closed"}], "id": "2204300004", "name": "USPS COLLECTION BOX - BLUE BOX", "address": {"city": "FALLS CHURCH", "state": "VA", "street": "2206 PIMMIT RUN LN", "postcode": "22043"}}},
{"geometry": {"type": "Point", "coordinates": [-77.2095889488, 38.907100675]}, "type": "Feature", "properties": {"collection_times": [{"days": "Mon-Fri", "time": "12:00pm"}, {"days": "Sat", "time": "3:45pm"}, {"days": "Sun", "time": "Closed"}], "id": "2204300010", "name": "USPS COLLECTION BOX - BLUE BOX", "address": {"city": "FALLS CHURCH", "state": "VA", "street": "7653 LEESBURG PIKE", "postcode": "22043"}}},
{"geometry": {"type": "Point", "coordinates": [-77.2224832015, 38.8763685841]}, "type": "Feature", "properties": {"collection_times": [{"days": "Mon-Fri", "time": "2:00pm"}, {"days": "Sat", "time": "5:45pm"}, {"days": "Sun", "time": "Closed"}], "id": "2204300016", "name": "USPS COLLECTION BOX - BLUE BOX", "address": {"city": "FALLS CHURCH", "state": "VA", "street": "2841 HARTLAND RD", "postcode": "22043"}}},
{"geometry": {"type": "Point", "coordinates": [-77.2142017306, 38.8767701438]}, "type": "Feature", "properties": {"collection_times": [{"days": "Mon-Fri", "time": "2:00pm"}, {"days": "Sat", "time": "5:45pm"}, {"days": "Sun", "time": "Closed"}], "id": "2204300024", "name": "USPS COLLECTION BOX - BLUE BOX", "address": {"city": "FALLS CHURCH", "state": "VA", "street": "2820 HYSON LN", "postcode": "22043"}}},
{"geometry": {"type": "Point", "coordinates": [-77.1552341413, 38.8701612379]}, "type": "Feature", "properties": {"collection_times": [{"days": "Mon-Fri", "time": "12:15pm"}, {"days": "Sat", "time": "1:45pm"}, {"days": "Sun", "time": "Closed"}], "id": "2204400001", "name": "USPS COLLECTION BOX - BLUE BOX", "address": {"city": "FALLS CHURCH", "state": "VA", "street": "6313 CASTLE PL", "postcode": "22044"}}},
{"geometry": {"type": "Point", "coordinates": [-77.1566015366, 38.8711769644]}, "type": "Feature", "properties": {"collection_times": [{"days": "Mon-Fri", "time": "12:15pm"}, {"days": "Sat", "time": "1:45pm"}, {"days": "Sun", "time": "Closed"}], "id": "2204400002", "name": "USPS COLLECTION BOX - BLUE BOX", "address": {"city": "FALLS CHURCH", "state": "VA", "street": "2946 SLEEPY HOLLOW RD", "postcode": "22044"}}},
{"geometry": {"type": "Point", "coordinates": [-77.1531036282, 38.8730190803]}, "type": "Feature", "properties": {"collection_times": [{"days": "Mon-Fri", "time": "12:00pm"}, {"days": "Sat", "time": "2:15pm"}, {"days": "Sun", "time": "Closed"}], "id": "2204400004", "name": "USPS COLLECTION BOX - BLUE BOX", "address": {"city": "FALLS CHURCH", "state": "VA", "street": "6769 WILSON BLVD", "postcode": "22044"}}},
{"geometry": {"type": "Point", "coordinates": [-77.1511010648, 38.8673717007]}, "type": "Feature", "properties": {"collection_times": [{"days": "Mon-Fri", "time": "5:00pm"}, {"days": "Sat", "time": "2:20pm"}, {"days": "Sun", "time": "Closed"}], "id": "2204400009", "name": "USPS COLLECTION BOX - BLUE BOX", "address": {"city": "FALLS CHURCH", "state": "VA", "street": "6375 SEVEN CORNERS CTR", "postcode": "22044"}}},
{"geometry": {"type": "Point", "coordinates": [-77.1434661474, 38.8676165292]}, "type": "Feature", "properties": {"collection_times": [{"days": "Mon-Fri", "time": "11:45am"}, {"days": "Sat", "time": "1:45pm"}, {"days": "Sun", "time": "Closed"}], "id": "2204400016", "name": "USPS COLLECTION BOX - BLUE BOX", "address": {"city": "FALLS CHURCH", "state": "VA", "street": "6112 ARLINGTON BLVD", "postcode": "22044"}}},
{"geometry": {"type": "Point", "coordinates": [-77.151234766, 38.865933703]}, "type": "Feature", "properties": {"collection_times": [{"days": "Mon-Fri", "time": "12:30pm"}, {"days": "Sat", "time": "1:45pm"}, {"days": "Sun", "time": "Closed"}], "id": "2204400032", "name": "USPS COLLECTION BOX - BLUE BOX", "address": {"city": "FALLS CHURCH", "state": "VA", "street": "6201 LEESBURG PIKE", "postcode": "22044"}}},
{"geometry": {"type": "Point", "coordinates": [-77.1511010648, 38.8673717007]}, "type": "Feature", "properties": {"collection_times": [{"days": "Mon-Fri", "time": "5:00pm"}, {"days": "Sat", "time": "2:20pm"}, {"days": "Sun", "time": "Closed"}], "id": "2204400049", "name": "USPS COLLECTION BOX - PO LOBBY", "address": {"city": "FALLS CHURCH", "state": "VA", "street": "6375 SEVEN CORNERS CTR", "postcode": "22044"}}},
{"geometry": {"type": "Point", "coordinates": [-77.1719897811, 38.8813784153]}, "type": "Feature", "properties": {"collection_times": [{"days": "Mon-Fri", "time": "1:15pm"}, {"days": "Sat", "time": "4:45pm"}, {"days": "Sun", "time": "Closed"}], "id": "2204600009", "name": "USPS COLLECTION BOX - BLUE BOX", "address": {"city": "FALLS CHURCH", "state": "VA", "street": "150 S WASHINGTON ST", "postcode": "22046"}}},
{"geometry": {"type": "Point", "coordinates": [-77.1716945257, 38.8790076788]}, "type": "Feature", "properties": {"collection_times": [{"days": "Mon-Fri", "time": "1:15pm"}, {"days": "Sat", "time": "5:00pm"}, {"days": "Sun", "time": "Closed"}], "id": "2204600010", "name": "USPS COLLECTION BOX - BLUE BOX", "address": {"city": "FALLS CHURCH", "state": "VA", "street": "161 HILLWOOD AVE", "postcode": "22046"}}},
{"geometry": {"type": "Point", "coordinates": [-77.1594019147, 38.8813169014]}, "type": "Feature", "properties": {"collection_times": [{"days": "Mon-Fri", "time": "1:15pm"}, {"days": "Sat", "time": "4:45pm"}, {"days": "Sun", "time": "Closed"}], "id": "2204600013", "name": "USPS COLLECTION BOX - BLUE BOX", "address": {"city": "FALLS CHURCH", "state": "VA", "street": "600 E COLUMBIA ST", "postcode": "22046"}}},
{"geometry": {"type": "Point", "coordinates": [-77.1789491287, 38.9001921947]}, "type": "Feature", "properties": {"collection_times": [{"days": "Mon-Fri", "time": "12:30pm"}, {"days": "Sat", "time": "4:00pm"}, {"days": "Sun", "time": "Closed"}], "id": "2204600015", "name": "USPS COLLECTION BOX - BLUE BOX", "address": {"city": "FALLS CHURCH", "state": "VA", "street": "2221 GREAT FALLS ST", "postcode": "22046"}}},
{"geometry": {"type": "Point", "coordinates": [-77.1891806666, 38.8940304973]}, "type": "Feature", "properties": {"collection_times": [{"days": "Mon-Fri", "time": "12:30pm"}, {"days": "Sat", "time": "4:15pm"}, {"days": "Sun", "time": "Closed"}], "id": "2204600024", "name": "USPS COLLECTION BOX - BLUE BOX", "address": {"city": "FALLS CHURCH", "state": "VA", "street": "1226 W BROAD ST", "postcode": "22046"}}},
{"geometry": {"type": "Point", "coordinates": [-77.1653493432, 38.8854505632]}, "type": "Feature", "properties": {"collection_times": [{"days": "Mon-Fri", "time": "1:00pm"}, {"days": "Sat", "time": "4:45pm"}, {"days": "Sun", "time": "Closed"}], "id": "2204600030", "name": "USPS COLLECTION BOX - BLUE BOX", "address": {"city": "FALLS CHURCH", "state": "VA", "street": "467 N WASHINGTON ST", "postcode": "22046"}}},
{"geometry": {"type": "Point", "coordinates": [-77.1855668465, 38.8914535207]}, "type": "Feature", "properties": {"collection_times": [{"days": "Mon-Fri", "time": "12:45pm"}, {"days": "Sat", "time": "4:15pm"}, {"days": "Sun", "time": "Closed"}], "id": "2204600031", "name": "USPS COLLECTION BOX - BLUE BOX", "address": {"city": "FALLS CHURCH", "state": "VA", "street": "1057 W BROAD ST", "postcode": "22046"}}},
{"geometry": {"type": "Point", "coordinates": [-77.1726153238, 38.8849322784]}, "type": "Feature", "properties": {"collection_times": [{"days": "Mon-Fri", "time": "1:00pm"}, {"days": "Sat", "time": "4:30pm"}, {"days": "Sun", "time": "Closed"}], "id": "2204600034", "name": "USPS COLLECTION BOX - BLUE BOX", "address": {"city": "FALLS CHURCH", "state": "VA", "street": "300 PARK AVE", "postcode": "22046"}}},
{"geometry": {"type": "Point", "coordinates": [-77.178276025, 38.8833847137]}, "type": "Feature", "properties": {"collection_times": [{"days": "Mon-Fri", "time": "12:45pm"}, {"days": "Sat", "time": "4:30pm"}, {"days": "Sun", "time": "Closed"}], "id": "2204600041", "name": "USPS COLLECTION BOX - BLUE BOX", "address": {"city": "FALLS CHURCH", "state": "VA", "street": "413 HAMPTON CT", "postcode": "22046"}}},
{"geometry": {"type": "Point", "coordinates": [-77.1705169972, 38.8834994607]}, "type": "Feature", "properties": {"collection_times": [{"days": "Mon-Fri", "time": "1:00pm"}, {"days": "Sat", "time": "4:30pm"}, {"days": "Sun", "time": "Closed"}], "id": "2204600048", "name": "USPS COLLECTION BOX - BLUE BOX", "address": {"city": "FALLS CHURCH", "state": "VA", "street": "105 PARK AVE", "postcode": "22046"}}},
{"geometry": {"type": "Point", "coordinates": [-77.1726153238, 38.8849322784]}, "type": "Feature", "properties": {"collection_times": [{"days": "Mon-Fri", "time": "1:00pm"}, {"days": "Sat", "time": "4:30pm"}, {"days": "Sun", "time": "Closed"}], "id": "2204600057", "name": "USPS COLLECTION BOX - BLUE BOX", "address": {"city": "FALLS CHURCH", "state": "VA", "street": "300 PARK AVE", "postcode": "22046"}}},
{"geometry": {"type": "Point", "coordinates": [-77.1803379225, 38.8882159181]}, "type": "Feature", "properties": {"collection_times": [{"days": "Mon-Fri", "time": "12:45pm"}, {"days": "Sat", "time": "4:30pm"}, {"days": "Sun", "time": "Closed"}], "id": "2204600058", "name": "USPS COLLECTION BOX - BLUE BOX", "address": {"city": "FALLS CHURCH", "state": "VA", "street": "803 W BROAD ST", "postcode": "22046"}}},
{"geometry": {"type": "Point", "coordinates": [-77.1802231755, 38.8881425746]}, "type": "Feature", "properties": {"collection_times": [{"days": "Mon-Fri", "time": "5:00pm"}, {"days": "Sat", "time": "12:30pm"}, {"days": "Sun", "time": "Closed"}], "id": "2204600061", "name": "USPS COLLECTION BOX - PO LOBBY", "address": {"city": "FALLS CHURCH", "state": "VA", "street": "800 W BROAD ST", "postcode": "22046"}}},
{"geometry": {"type": "Point", "coordinates": [-77.1912921225, 38.8951433258]}, "type": "Feature", "properties": {"collection_times": [{"days": "Mon-Fri", "time": "12:30pm"}, {"days": "Sat", "time": "4:00pm"}, {"days": "Sun", "time": "Closed"}], "id": "2204600062", "name": "USPS COLLECTION BOX - BLUE BOX", "address": {"city": "FALLS CHURCH", "state": "VA", "street": "7115 LEESBURG PIKE", "postcode": "22046"}}},
{"geometry": {"type": "Point", "coordinates": [-77.1830149586, 38.8790373395]}, "type": "Feature", "properties": {"collection_times": [{"days": "Mon-Fri", "time": "1:30pm"}, {"days": "Sat", "time": "5:30pm"}, {"days": "Sun", "time": "Closed"}], "id": "2204600063", "name": "USPS COLLECTION BOX - BLUE BOX", "address": {"city": "FALLS CHURCH", "state": "VA", "street": "900 S WASHINGTON ST", "postcode": "22046"}}},
{"geometry": {"type": "Point", "coordinates": [-77.1802231755, 38.8881425746]}, "type": "Feature", "properties": {"collection_times": [{"days": "Mon-Fri", "time": "5:00pm"}, {"days": "Sat", "time": "12:30pm"}, {"days": "Sun", "time": "Closed"}], "id": "2204600064", "name": "USPS COLLECTION BOX - APC", "address": {"city": "FALLS CHURCH", "state": "VA", "street": "800 W BROAD ST", "postcode": "22046"}}},
{"geometry": {"type": "Point", "coordinates": [-77.1337730653, 38.6859363961]}, "type": "Feature", "properties": {"collection_times": [{"days": "Mon-Sat", "time": "9:00am"}, {"days": "Sun", "time": "Closed"}], "id": "2206000001", "name": "USPS COLLECTION BOX - BLUE BOX", "address": {"city": "FORT BELVOIR", "state": "VA", "street": "10010 FORNEY LOOP", "postcode": "22060"}}},
{"geometry": {"type": "Point", "coordinates": [-77.1376601335, 38.6938476525]}, "type": "Feature", "properties": {"collection_times": [{"days": "Mon-Sat", "time": "9:00am"}, {"days": "Sun", "time": "Closed"}], "id": "2206000002", "name": "USPS COLLECTION BOX - BLUE BOX", "address": {"city": "FORT BELVOIR", "state": "VA", "street": "9800 BELVOIR RD", "postcode": "22060"}}},
{"geometry": {"type": "Point", "coordinates": [-77.1323699396, 38.6932566656]}, "type": "Feature", "properties": {"collection_times": [{"days": "Mon-Sat", "time": "9:00am"}, {"days": "Sun", "time": "Closed"}], "id": "2206000004", "name": "USPS COLLECTION BOX - BLUE BOX", "address": {"city": "FORT BELVOIR", "state": "VA", "street": "9775 GAILLARD RD", "postcode": "22060"}}},
{"geometry": {"type": "Point", "coordinates": [-77.1310164133, 38.7091919358]}, "type": "Feature", "properties": {"collection_times": [{"days": "Mon-Sat", "time": "9:00am"}, {"days": "Sun", "time": "Closed"}], "id": "2206000008", "name": "USPS COLLECTION BOX - BLUE BOX", "address": {"city": "FORT BELVOIR", "state": "VA", "street": "5454 HUDSON RD", "postcode": "22060"}}},
{"geometry": {"type": "Point", "coordinates": [-77.1617845204, 38.7082879192]}, "type": "Feature", "properties": {"collection_times": [{"days": "Mon-Sat", "time": "9:00am"}, {"days": "Sun", "time": "Closed"}], "id": "2206000009", "name": "USPS COLLECTION BOX - BLUE BOX", "address": {"city": "FORT BELVOIR", "state": "VA", "street": "9196 RICHMOND HWY", "postcode": "22060"}}},
{"geometry": {"type": "Point", "coordinates": [-77.1300416953, 38.6978672484]}, "type": "Feature", "properties": {"collection_times": [{"days": "Mon-Sat", "time": "9:00am"}, {"days": "Sun", "time": "Closed"}], "id": "2206000010", "name": "USPS COLLECTION BOX - BLUE BOX", "address": {"city": "FORT BELVOIR", "state": "VA", "street": "9585 BARLOW RD", "postcode": "22060"}}},
{"geometry": {"type": "Point", "coordinates": [-77.1412197514, 38.6959026107]}, "type": "Feature", "properties": {"collection_times": [{"days": "Mon-Sat", "time": "9:00am"}, {"days": "Sun", "time": "Closed"}], "id": "2206000012", "name": "USPS COLLECTION BOX - BLUE BOX", "address": {"city": "FORT BELVOIR", "state": "VA", "street": "9625 MIDDLETON RD", "postcode": "22060"}}},
{"geometry": {"type": "Point", "coordinates": [-77.1283367175, 38.6820895816]}, "type": "Feature", "properties": {"collection_times": [{"days": "Mon-Sat", "time": "9:00am"}, {"days": "Sun", "time": "Closed"}], "id": "2206000014", "name": "USPS COLLECTION BOX - BLUE BOX", "address": {"city": "FORT BELVOIR", "state": "VA", "street": "10170 BELVOIR DR", "postcode": "22060"}}},
{"geometry": {"type": "Point", "coordinates": [-77.1483440298, 38.7037269414]}, "type": "Feature", "properties": {"collection_times": [{"days": "Mon-Fri", "time": "3:00pm"}, {"days": "Sat", "time": "1:00pm"}, {"days": "Sun", "time": "Closed"}], "id": "2206000015", "name": "USPS COLLECTION BOX - BLUE BOX", "address": {"city": "FORT BELVOIR", "state": "VA", "street": "9325 GUNSTON RD", "postcode": "22060"}}},
{"geometry": {"type": "Point", "coordinates": [-77.1590093616, 38.7166398953]}, "type": "Feature", "properties": {"collection_times": [{"days": "Mon-Sat", "time": "9:00am"}, {"days": "Sun", "time": "Closed"}], "id": "2206000016", "name": "USPS COLLECTION BOX - BLUE BOX", "address": {"city": "FORT BELVOIR", "state": "VA", "street": "8825 BEULAH ST", "postcode": "22060"}}},
{"geometry": {"type": "Point", "coordinates": [-77.153499793, 38.715016233]}, "type": "Feature", "properties": {"collection_times": [{"days": "Mon-Fri", "time": "5:00pm"}, {"days": "Sat", "time": "1:00pm"}, {"days": "Sun", "time": "Closed"}], "id": "2206000017", "name": "USPS COLLECTION BOX - BLUE BOX", "address": {"city": "FORT BELVOIR", "state": "VA", "street": "9001 GUNSTON RD", "postcode": "22060"}}},
{"geometry": {"type": "Point", "coordinates": [-77.1337427616, 38.6889319684]}, "type": "Feature", "properties": {"collection_times": [{"days": "Mon-Fri", "time": "5:00pm"}, {"days": "Sat", "time": "3:00pm"}, {"days": "Sun", "time": "Closed"}], "id": "2206000018", "name": "USPS COLLECTION BOX - BLUE BOX", "address": {"city": "FORT BELVOIR", "state": "VA", "street": "5875 21ST ST", "postcode": "22060"}}},
{"geometry": {"type": "Point", "coordinates": [-77.1457800804, 38.7196068084]}, "type": "Feature", "properties": {"collection_times": [{"days": "Mon-Sat", "time": "9:00am"}, {"days": "Sun", "time": "Closed"}], "id": "2206000020", "name": "USPS COLLECTION BOX - BLUE BOX", "address": {"city": "FORT BELVOIR", "state": "VA", "street": "6050 GORGAS RD", "postcode": "22060"}}},
{"geometry": {"type": "Point", "coordinates": [-77.1380160667, 38.7011854414]}, "type": "Feature", "properties": {"collection_times": [{"days": "Mon-Sat", "time": "9:00am"}, {"days": "Sun", "time": "Closed"}], "id": "2206000021", "name": "USPS COLLECTION BOX - BLUE BOX", "address": {"city": "FORT BELVOIR", "state": "VA", "street": "9501 FARRELL RD", "postcode": "22060"}}},
{"geometry": {"type": "Point", "coordinates": [-77.1623959274, 38.7217943306]}, "type": "Feature", "properties": {"collection_times": [{"days": "Mon-Fri", "time": "3:00pm"}, {"days": "Sat", "time": "1:00pm"}, {"days": "Sun", "time": "Closed"}], "id": "2206000022", "name": "USPS COLLECTION BOX - BLUE BOX", "address": {"city": "FORT BELVOIR", "state": "VA", "street": "8725 JOHN J KINGMAN RD", "postcode": "22060"}}},
{"geometry": {"type": "Point", "coordinates": [-77.1623959274, 38.7217943306]}, "type": "Feature", "properties": {"collection_times": [{"days": "Mon-Fri", "time": "3:00pm"}, {"days": "Sat", "time": "1:00pm"}, {"days": "Sun", "time": "Closed"}], "id": "2206000023", "name": "USPS COLLECTION BOX - BLUE BOX", "address": {"city": "FORT BELVOIR", "state": "VA", "street": "8725 JOHN J KINGMAN RD", "postcode": "22060"}}},
{"geometry": {"type": "Point", "coordinates": [-77.1457069393, 38.7194489778]}, "type": "Feature", "properties": {"collection_times": [{"days": "Mon-Sat", "time": "9:00am"}, {"days": "Sun", "time": "Closed"}], "id": "2206000025", "name": "USPS COLLECTION BOX - BLUE BOX", "address": {"city": "FORT BELVOIR", "state": "VA", "street": "6020 GORGAS RD", "postcode": "22060"}}},
{"geometry": {"type": "Point", "coordinates": [-77.153499793, 38.715016233]}, "type": "Feature", "properties": {"collection_times": [{"days": "Mon-Fri", "time": "3:30pm"}, {"days": "Sat", "time": "1:00pm"}, {"days": "Sun", "time": "Closed"}], "id": "2206000026", "name": "USPS COLLECTION BOX - PO LOBBY", "address": {"city": "FORT BELVOIR", "state": "VA", "street": "9001 GUNSTON RD", "postcode": "22060"}}},
{"geometry": {"type": "Point", "coordinates": [-77.1560220434, 38.7076231738]}, "type": "Feature", "properties": {"collection_times": [{"days": "Mon-Sat", "time": "9:00am"}, {"days": "Sun", "time": "Closed"}], "id": "2206000028", "name": "USPS COLLECTION BOX - BLUE BOX", "address": {"city": "FORT BELVOIR", "state": "VA", "street": "9301 CHAPEK RD", "postcode": "22060"}}},
{"geometry": {"type": "Point", "coordinates": [-77.1337427616, 38.6889319684]}, "type": "Feature", "properties": {"collection_times": [{"days": "Mon-Fri", "time": "5:00pm"}, {"days": "Sat", "time": "1:00pm"}, {"days": "Sun", "time": "Closed"}], "id": "2206000030", "name": "USPS COLLECTION BOX - PO LOBBY", "address": {"city": "FORT BELVOIR", "state": "VA", "street": "5875 21ST ST", "postcode": "22060"}}},
{"geometry": {"type": "Point", "coordinates": [-77.1560220434, 38.7076231738]}, "type": "Feature", "properties": {"collection_times": [{"days": "Mon-Fri", "time": "3:00pm"}, {"days": "Sat", "time": "1:00pm"}, {"days": "Sun", "time": "Closed"}], "id": "2206000032", "name": "USPS COLLECTION BOX - BLUE BOX", "address": {"city": "FORT BELVOIR", "state": "VA", "street": "9300 DEWITT LOOP", "postcode": "22060"}}},
{"geometry": {"type": "Point", "coordinates": [-77.2876816183, 38.9977857455]}, "type": "Feature", "properties": {"collection_times": [{"days": "Mon-Sat", "time": "10:00am"}, {"days": "Sun", "time": "Closed"}], "id": "2206600002", "name": "USPS COLLECTION BOX - BLUE BOX", "address": {"city": "GREAT FALLS", "state": "VA", "street": "9871 GEORGETOWN PIKE", "postcode": "22066"}}},
{"geometry": {"type": "Point", "coordinates": [-77.2919406895, 38.9983123281]}, "type": "Feature", "properties": {"collection_times": [{"days": "Mon-Fri", "time": "4:45pm"}, {"days": "Sat", "time": "2:15pm"}, {"days": "Sun", "time": "Closed"}], "id": "2206600004", "name": "USPS COLLECTION BOX - BLUE BOX", "address": {"city": "GREAT FALLS", "state": "VA", "street": "10001 GEORGETOWN PIKE", "postcode": "22066"}}},
{"geometry": {"type": "Point", "coordinates": [-77.2961425074, 38.974298659]}, "type": "Feature", "properties": {"collection_times": [{"days": "Mon-Fri", "time": "11:30am"}, {"days": "Sat", "time": "10:00am"}, {"days": "Sun", "time": "Closed"}], "id": "2206600006", "name": "USPS COLLECTION BOX - BLUE BOX", "address": {"city": "GREAT FALLS", "state": "VA", "street": "1146 WALKER RD", "postcode": "22066"}}},
{"geometry": {"type": "Point", "coordinates": [-77.3439305007, 39.0015836076]}, "type": "Feature", "properties": {"collection_times": [{"days": "Mon-Sat", "time": "10:00am"}, {"days": "Sun", "time": "Closed"}], "id": "2206600007", "name": "USPS COLLECTION BOX - BLUE BOX", "address": {"city": "GREAT FALLS", "state": "VA", "street": "1025 SENECA RD STE H", "postcode": "22066"}}},
{"geometry": {"type": "Point", "coordinates": [-77.2919406895, 38.9983123281]}, "type": "Feature", "properties": {"collection_times": [{"days": "Mon-Fri", "time": "4:45pm"}, {"days": "Sat", "time": "2:15pm"}, {"days": "Sun", "time": "Closed"}], "id": "2206600009", "name": "USPS COLLECTION BOX - PO LOBBY", "address": {"city": "GREAT FALLS", "state": "VA", "street": "10001 GEORGETOWN PIKE", "postcode": "22066"}}},
{"geometry": {"type": "Point", "coordinates": [-77.199017464, 38.7282610191]}, "type": "Feature", "properties": {"collection_times": [{"days": "Mon-Fri", "time": "12:15pm"}, {"days": "Sat", "time": "2:15pm"}, {"days": "Sun", "time": "Closed"}], "id": "2207900002", "name": "USPS COLLECTION BOX - BLUE BOX", "address": {"city": "LORTON", "state": "VA", "street": "8219 TERMINAL RD", "postcode": "22079"}}},
{"geometry": {"type": "Point", "coordinates": [-77.1936337302, 38.7171620779]}, "type": "Feature", "properties": {"collection_times": [{"days": "Mon-Fri", "time": "12:15pm"}, {"days": "Sat", "time": "2:30pm"}, {"days": "Sun", "time": "Closed"}], "id": "2207900003", "name": "USPS COLLECTION BOX - BLUE BOX", "address": {"city": "LORTON", "state": "VA", "street": "7200 TELEGRAPH SQUARE DR", "postcode": "22079"}}},
{"geometry": {"type": "Point", "coordinates": [-77.2144595769, 38.7040526206]}, "type": "Feature", "properties": {"collection_times": [{"days": "Mon-Fri", "time": "4:45pm"}, {"days": "Sat", "time": "2:30pm"}, {"days": "Sun", "time": "Closed"}], "id": "2207900004", "name": "USPS COLLECTION BOX - BLUE BOX", "address": {"city": "LORTON", "state": "VA", "street": "7726 GUNSTON PLZ", "postcode": "22079"}}},
{"geometry": {"type": "Point", "coordinates": [-77.2144595769, 38.7040526206]}, "type": "Feature", "properties": {"collection_times": [{"days": "Mon-Fri", "time": "4:45pm"}, {"days": "Sat", "time": "2:30pm"}, {"days": "Sun", "time": "Closed"}], "id": "2207900006", "name": "USPS COLLECTION BOX - EXPRESS", "address": {"city": "LORTON", "state": "VA", "street": "7726 GUNSTON PLZ", "postcode": "22079"}}},
{"geometry": {"type": "Point", "coordinates": [-77.2144595769, 38.7040526206]}, "type": "Feature", "properties": {"collection_times": [{"days": "Mon-Fri", "time": "12:15pm"}, {"days": "Sat", "time": "2:15pm"}, {"days": "Sun", "time": "Closed"}], "id": "2207900007", "name": "USPS COLLECTION BOX - BLUE BOX", "address": {"city": "LORTON", "state": "VA", "street": "8500 CINDER BED RD", "postcode": "22079"}}},
{"geometry": {"type": "Point", "coordinates": [-77.1930985008, 38.7310882106]}, "type": "Feature", "properties": {"collection_times": [{"days": "Mon-Fri", "time": "12:15pm"}, {"days": "Sat", "time": "2:15pm"}, {"days": "Sun", "time": "Closed"}], "id": "2207900008", "name": "USPS COLLECTION BOX - BLUE BOX", "address": {"city": "LORTON", "state": "VA", "street": "8219 TERMINAL RD", "postcode": "22079"}}},
{"geometry": {"type": "Point", "coordinates": [-77.2070917224, 38.7071309257]}, "type": "Feature", "properties": {"collection_times": [{"days": "Mon-Fri", "time": "12:00pm"}, {"days": "Sat", "time": "2:00pm"}, {"days": "Sun", "time": "Closed"}], "id": "2207900009", "name": "USPS COLLECTION BOX - BLUE BOX", "address": {"city": "LORTON", "state": "VA", "street": "7630 FAIRFIELD WOODS CT", "postcode": "22079"}}},
{"geometry": {"type": "Point", "coordinates": [-77.2136316406, 38.6978597397]}, "type": "Feature", "properties": {"collection_times": [{"days": "Mon-Fri", "time": "12:00pm"}, {"days": "Sat", "time": "2:00pm"}, {"days": "Sun", "time": "Closed"}], "id": "2207900011", "name": "USPS COLLECTION BOX - BLUE BOX", "address": {"city": "LORTON", "state": "VA", "street": "9600 RICHMOND HWY", "postcode": "22079"}}},
{"geometry": {"type": "Point", "coordinates": [-77.2135530367, 38.7133362939]}, "type": "Feature", "properties": {"collection_times": [{"days": "Mon-Fri", "time": "12:00pm"}, {"days": "Sat-Sun", "time": "Closed"}], "id": "2207900018", "name": "USPS COLLECTION BOX - BLUE BOX", "address": {"city": "LORTON", "state": "VA", "street": "8988 LORTON STATION BLVD", "postcode": "22079"}}},
{"geometry": {"type": "Point", "coordinates": [-77.2144595769, 38.7040526206]}, "type": "Feature", "properties": {"collection_times": [{"days": "Mon-Sat", "time": "2:15pm"}, {"days": "Sun", "time": "Closed"}], "id": "2207900020", "name": "USPS COLLECTION BOX - PO LOBBY", "address": {"city": "LORTON", "state": "VA", "street": "7726 GUNSTON PLZ", "postcode": "22079"}}},
{"geometry": {"type": "Point", "coordinates": [-77.2144595769, 38.7040526206]}, "type": "Feature", "properties": {"collection_times": [{"days": "Mon-Sat", "time": "2:15pm"}, {"days": "Sun", "time": "Closed"}], "id": "2207900021", "name": "USPS COLLECTION BOX - PO LOBBY", "address": {"city": "LORTON", "state": "VA", "street": "7726 GUNSTON PLZ", "postcode": "22079"}}},
{"geometry": {"type": "Point", "coordinates": [-77.234689923, 38.87357994]}, "type": "Feature", "properties": {"collection_times": [{"days": "Mon-Sat", "time": "7:00pm"}, {"days": "Sun", "time": "Closed"}], "id": "2208100002", "name": "USPS COLLECTION BOX - EXPRESS", "address": {"city": "MERRIFIELD", "state": "VA", "street": "8409 LEE HWY", "postcode": "22081"}}},
{"geometry": {"type": "Point", "coordinates": [-77.234689923, 38.87357994]}, "type": "Feature", "properties": {"collection_times": [{"days": "Mon-Fri", "time": "8:00pm"}, {"days": "Sat", "time": "7:00pm"}, {"days": "Sun", "time": "Closed"}], "id": "2208100003", "name": "USPS COLLECTION BOX - BLUE BOX", "address": {"city": "MERRIFIELD", "state": "VA", "street": "8409 LEE HWY", "postcode": "22081"}}},
{"geometry": {"type": "Point", "coordinates": [-77.234689923, 38.87357994]}, "type": "Feature", "properties": {"collection_times": [{"days": "Mon-Fri", "time": "8:00pm"}, {"days": "Sat", "time": "7:00pm"}, {"days": "Sun", "time": "Closed"}], "id": "2208100004", "name": "USPS COLLECTION BOX - BLUE BOX", "address": {"city": "MERRIFIELD", "state": "VA", "street": "8409 LEE HWY", "postcode": "22081"}}},
{"geometry": {"type": "Point", "coordinates": [-77.234689923, 38.87357994]}, "type": "Feature", "properties": {"collection_times": [{"days": "Mon-Fri", "time": "8:00pm"}, {"days": "Sat", "time": "7:00pm"}, {"days": "Sun", "time": "Closed"}], "id": "2208100005", "name": "USPS COLLECTION BOX - BLUE BOX", "address": {"city": "MERRIFIELD", "state": "VA", "street": "8409 LEE HWY", "postcode": "22081"}}},
{"geometry": {"type": "Point", "coordinates": [-77.234689923, 38.87357994]}, "type": "Feature", "properties": {"collection_times": [{"days": "Mon-Sat", "time": "8:00pm"}, {"days": "Sun", "time": "Closed"}], "id": "2208100006", "name": "USPS COLLECTION BOX - APC", "address": {"city": "MERRIFIELD", "state": "VA", "street": "8409 LEE HWY", "postcode": "22081"}}},
{"geometry": {"type": "Point", "coordinates": [-77.234689923, 38.87357994]}, "type": "Feature", "properties": {"collection_times": [{"days": "Mon-Sat", "time": "8:00pm"}, {"days": "Sun", "time": "Closed"}], "id": "2208100007", "name": "USPS COLLECTION BOX - APC", "address": {"city": "MERRIFIELD", "state": "VA", "street": "8409 LEE HWY", "postcode": "22081"}}},
{"geometry": {"type": "Point", "coordinates": [-77.234689923, 38.87357994]}, "type": "Feature", "properties": {"collection_times": [{"days": "Mon-Sat", "time": "8:00pm"}, {"days": "Sun", "time": "Closed"}], "id": "2208100008", "name": "USPS COLLECTION BOX - PO LOBBY", "address": {"city": "MERRIFIELD", "state": "VA", "street": "8409 LEE HWY", "postcode": "22081"}}},
{"geometry": {"type": "Point", "coordinates": [-77.234689923, 38.87357994]}, "type": "Feature", "properties": {"collection_times": [{"days": "Mon-Sat", "time": "8:00pm"}, {"days": "Sun", "time": "Closed"}], "id": "2208100009", "name": "USPS COLLECTION BOX - PO LOBBY", "address": {"city": "MERRIFIELD", "state": "VA", "street": "8409 LEE HWY", "postcode": "22081"}}},
{"geometry": {"type": "Point", "coordinates": [-77.234689923, 38.87357994]}, "type": "Feature", "properties": {"collection_times": [{"days": "Mon-Sat", "time": "8:00pm"}, {"days": "Sun", "time": "Closed"}], "id": "2208100010", "name": "USPS COLLECTION BOX - APC", "address": {"city": "MERRIFIELD", "state": "VA", "street": "8409 LEE HWY", "postcode": "22081"}}},
{"geometry": {"type": "Point", "coordinates": [-77.234689923, 38.87357994]}, "type": "Feature", "properties": {"collection_times": [{"days": "Mon-Sat", "time": "8:00pm"}, {"days": "Sun", "time": "Closed"}], "id": "2208100051", "name": "USPS COLLECTION BOX - PO LOBBY", "address": {"city": "MERRIFIELD", "state": "VA", "street": "8409 LEE HWY", "postcode": "22081"}}}
]}
