{"type": "FeatureCollection", "features": [
{"geometry": {"type": "Point", "coordinates": [-77.1493538613, 38.9297709006]}, "type": "Feature", "properties": {"collection_times": [{"days": "Mon-Fri", "time": "2:15pm"}, {"days": "Sat", "time": "4:45pm"}, {"days": "Sun", "time": "Closed"}], "id": "2210100004", "name": "USPS COLLECTION BOX - BLUE BOX", "address": {"city": "MCLEAN", "state": "VA", "street": "6161 HARDY DR", "postcode": "22101"}}},
{"geometry": {"type": "Point", "coordinates": [-77.1485435344, 38.9270654735]}, "type": "Feature", "properties": {"collection_times": [{"days": "Mon-Fri", "time": "2:15pm"}, {"days": "Sat", "time": "4:45pm"}, {"days": "Sun", "time": "Closed"}], "id": "2210100012", "name": "USPS COLLECTION BOX - BLUE BOX", "address": {"city": "MCLEAN", "state": "VA", "street": "6159 MORI ST", "postcode": "22101"}}},
{"geometry": {"type": "Point", "coordinates": [-77.1769830509, 38.9313028325]}, "type": "Feature", "properties": {"collection_times": [{"days": "Mon-Fri", "time": "2:15pm"}, {"days": "Sat", "time": "4:30pm"}, {"days": "Sun", "time": "Closed"}], "id": "2210100021", "name": "USPS COLLECTION BOX - BLUE BOX", "address": {"city": "MCLEAN", "state": "VA", "street": "6723 WHITTIER AVE", "postcode": "22101"}}},
{"geometry": {"type": "Point", "coordinates": [-77.1779820131, 38.9340834505]}, "type": "Feature", "properties": {"collection_times": [{"days": "Mon-Fri", "time": "2:30pm"}, {"days": "Sat", "time": "3:45pm"}, {"days": "Sun", "time": "Closed"}], "id": "2210100023", "name": "USPS COLLECTION BOX - BLUE BOX", "address": {"city": "MCLEAN", "state": "VA", "street": "6809 OLD DOMINION DR", "postcode": "22101"}}},
{"geometry": {"type": "Point", "coordinates": [-77.1766305291, 38.9372909708]}, "type": "Feature", "properties": {"collection_times": [{"days": "Mon-Fri", "time": "2:00pm"}, {"days": "Sat", "time": "2:45pm"}, {"days": "Sun", "time": "Closed"}], "id": "2210100029", "name": "USPS COLLECTION BOX - BLUE BOX", "address": {"city": "MCLEAN", "state": "VA", "street": "6764 OLD MCLEAN VILLAGE DR", "postcode": "22101"}}},
{"geometry": {"type": "Point", "coordinates": [-77.1760723376, 38.9354869779]}, "type": "Feature", "properties": {"collection_times": [{"days": "Mon-Sat", "time": "9:00am"}, {"days": "Sun", "time": "Closed"}], "id": "2210100031", "name": "USPS COLLECTION BOX - BLUE BOX", "address": {"city": "MCLEAN", "state": "VA", "street": "1382 CHAIN BRIDGE RD", "postcode": "22101"}}},
{"geometry": {"type": "Point", "coordinates": [-77.1788400572, 38.9359615524]}, "type": "Feature", "properties": {"collection_times": [{"days": "Mon-Sat", "time": "9:00am"}, {"days": "Sun", "time": "Closed"}], "id": "2210100037", "name": "USPS COLLECTION BOX - BLUE BOX", "address": {"city": "MCLEAN", "state": "VA", "street": "1360 BEVERLY RD", "postcode": "22101"}}},
{"geometry": {"type": "Point", "coordinates": [-77.1812227711, 38.9311083162]}, "type": "Feature", "properties": {"collection_times": [{"days": "Mon-Fri", "time": "2:30pm"}, {"days": "Sat", "time": "4:15pm"}, {"days": "Sun", "time": "Closed"}], "id": "2210100041", "name": "USPS COLLECTION BOX - BLUE BOX", "address": {"city": "MCLEAN", "state": "VA", "street": "1489 CHAIN BRIDGE RD", "postcode": "22101"}}},
{"geometry": {"type": "Point", "coordinates": [-77.1503551388, 38.9194153195]}, "type": "Feature", "properties": {"collection_times": [{"days": "Mon-Fri", "time": "2:00pm"}, {"days": "Sat", "time": "4:45pm"}, {"days": "Sun", "time": "Closed"}], "id": "2210100049", "name": "USPS COLLECTION BOX - BLUE BOX", "address": {"city": "MCLEAN", "state": "VA", "street": "6226 OLD DOMINION DR", "postcode": "22101"}}},
{"geometry": {"type": "Point", "coordinates": [-77.1712789123, 38.931891674]}, "type": "Feature", "properties": {"collection_times": [{"days": "Mon-Fri", "time": "2:30pm"}, {"days": "Sat", "time": "4:15pm"}, {"days": "Sun", "time": "Closed"}], "id": "2210100057", "name": "USPS COLLECTION BOX - EXPRESS", "address": {"city": "MCLEAN", "state": "VA", "street": "1489 CHAIN BRIDGE RD", "postcode": "22101"}}},
{"geometry": {"type": "Point", "coordinates": [-77.1712789123, 38.931891674]}, "type": "Feature", "properties": {"collection_times": [{"days": "Mon-Sat", "time": "5:00pm"}, {"days": "Sun", "time": "Closed"}], "id": "2210100065", "name": "USPS COLLECTION BOX - EXPRESS", "address": {"city": "MCLEAN", "state": "VA", "street": "6841 ELM ST", "postcode": "22101"}}},
{"geometry": {"type": "Point", "coordinates": [-77.1800693908, 38.9360997311]}, "type": "Feature", "properties": {"collection_times": [{"days": "Mon-Sat", "time": "5:00pm"}, {"days": "Sun", "time": "Closed"}], "id": "2210100066", "name": "USPS COLLECTION BOX - BLUE BOX", "address": {"city": "MCLEAN", "state": "VA", "street": "6841 ELM ST", "postcode": "22101"}}},
{"geometry": {"type": "Point", "coordinates": [-77.1800693908, 38.9360997311]}, "type": "Feature", "properties": {"collection_times": [{"days": "Mon-Sat", "time": "5:00pm"}, {"days": "Sun", "time": "Closed"}], "id": "2210100071", "name": "USPS COLLECTION BOX - BLUE BOX", "address": {"city": "MCLEAN", "state": "VA", "street": "6841 ELM ST", "postcode": "22101"}}},
{"geometry": {"type": "Point", "coordinates": [-77.1800693908, 38.9360997311]}, "type": "Feature", "properties": {"collection_times": [{"days": "Mon-Sat", "time": "5:00pm"}, {"days": "Sun", "time": "Closed"}], "id": "2210100091", "name": "USPS COLLECTION BOX - APC", "address": {"city": "MCLEAN", "state": "VA", "street": "6841 ELM ST", "postcode": "22101"}}},
{"geometry": {"type": "Point", "coordinates": [-77.1745967162, 38.9399482451]}, "type": "Feature", "properties": {"collection_times": [{"days": "Mon-Fri", "time": "2:00pm"}, {"days": "Sat", "time": "2:45pm"}, {"days": "Sun", "time": "Closed"}], "id": "2210100092", "name": "USPS COLLECTION BOX - BLUE BOX", "address": {"city": "MCLEAN", "state": "VA", "street": "1301 CHAIN BRIDGE RD", "postcode": "22101"}}},
{"geometry": {"type": "Point", "coordinates": [-77.1800693908, 38.9360997311]}, "type": "Feature", "properties": {"collection_times": [{"days": "Mon-Sat", "time": "5:00pm"}, {"days": "Sun", "time": "Closed"}], "id": "2210100094", "name": "USPS COLLECTION BOX - PO LOBBY", "address": {"city": "MCLEAN", "state": "VA", "street": "6841 ELM ST", "postcode": "22101"}}},
{"geometry": {"type": "Point", "coordinates": [-77.2220459566, 38.9314224134]}, "type": "Feature", "properties": {"collection_times": [{"days": "Mon-Sat", "time": "5:00pm"}, {"days": "Sun", "time": "Closed"}], "id": "2210200001", "name": "USPS COLLECTION BOX - EXPRESS", "address": {"city": "MCLEAN", "state": "VA", "street": "1544 SPRING HILL RD", "postcode": "22102"}}},
{"geometry": {"type": "Point", "coordinates": [-77.1983555705, 38.9300619085]}, "type": "Feature", "properties": {"collection_times": [{"days": "Mon-Fri", "time": "2:00pm"}, {"days": "Sat", "time": "4:00pm"}, {"days": "Sun", "time": "Closed"}], "id": "2210200002", "name": "USPS COLLECTION BOX - BLUE BOX", "address": {"city": "MCLEAN", "state": "VA", "street": "7301 ELDORADO ST", "postcode": "22102"}}},
{"geometry": {"type": "Point", "coordinates": [-77.202432325, 38.9251459693]}, "type": "Feature", "properties": {"collection_times": [{"days": "Mon-Fri", "time": "2:00pm"}, {"days": "Sat", "time": "3:45pm"}, {"days": "Sun", "time": "Closed"}], "id": "2210200005", "name": "USPS COLLECTION BOX - BLUE BOX", "address": {"city": "MCLEAN", "state": "VA", "street": "1640 ANDERSON RD", "postcode": "22102"}}},
{"geometry": {"type": "Point", "coordinates": [-77.2129745774, 38.9141830503]}, "type": "Feature", "properties": {"collection_times": [{"days": "Mon-Fri", "time": "1:45pm"}, {"days": "Sat", "time": "3:30pm"}, {"days": "Sun", "time": "Closed"}], "id": "2210200007", "name": "USPS COLLECTION BOX - BLUE BOX", "address": {"city": "MCLEAN", "state": "VA", "street": "1969 KENNEDY DR", "postcode": "22102"}}},
{"geometry": {"type": "Point", "coordinates": [-77.2351574239, 38.9275634992]}, "type": "Feature", "properties": {"collection_times": [{"days": "Mon-Fri", "time": "12:45pm"}, {"days": "Sat", "time": "3:00pm"}, {"days": "Sun", "time": "Closed"}], "id": "2210200008", "name": "USPS COLLECTION BOX - BLUE BOX", "address": {"city": "MCLEAN", "state": "VA", "street": "8361 GREENSBORO DR", "postcode": "22102"}}},
{"geometry": {"type": "Point", "coordinates": [-77.2262828657, 38.9231143905]}, "type": "Feature", "properties": {"collection_times": [{"days": "Mon-Fri", "time": "1:15pm"}, {"days": "Sat", "time": "3:00pm"}, {"days": "Sun", "time": "Closed"}], "id": "2210200015", "name": "USPS COLLECTION BOX - BLUE BOX", "address": {"city": "MCLEAN", "state": "VA", "street": "2001 INTERNATIONAL DR", "postcode": "22102"}}},
{"geometry": {"type": "Point", "coordinates": [-77.2285817072, 38.9311554848]}, "type": "Feature", "properties": {"collection_times": [{"days": "Mon-Fri", "time": "2:15pm"}, {"days": "Sat", "time": "4:30pm"}, {"days": "Sun", "time": "Closed"}], "id": "2210200055", "name": "USPS COLLECTION BOX - BLUE BOX", "address": {"city": "MCLEAN", "state": "VA", "street": "1526 LINCOLN WAY", "postcode": "22102"}}},
{"geometry": {"type": "Point", "coordinates": [-77.2197592757, 38.9314030944]}, "type": "Feature", "properties": {"collection_times": [{"days": "Mon-Fri", "time": "2:15pm"}, {"days": "Sat-Sun", "time": "Closed"}], "id": "2210200086", "name": "USPS COLLECTION BOX - BLUE BOX", "address": {"city": "MCLEAN", "state": "VA", "street": "7927 JONES BRANCH DR", "postcode": "22102"}}},
{"geometry": {"type": "Point", "coordinates": [-77.227032119, 38.9320302864]}, "type": "Feature", "properties": {"collection_times": [{"days": "Mon-Fri", "time": "2:30pm"}, {"days": "Sat", "time": "4:30pm"}, {"days": "Sun", "time": "Closed"}], "id": "2210200113", "name": "USPS COLLECTION BOX - BLUE BOX", "address": {"city": "MCLEAN", "state": "VA", "street": "8200 JONES BRANCH DR", "postcode": "22102"}}},
{"geometry": {"type": "Point", "coordinates": [-77.2220459566, 38.9314224134]}, "type": "Feature", "properties": {"collection_times": [{"days": "Mon-Sat", "time": "5:00pm"}, {"days": "Sun", "time": "Closed"}], "id": "2210200117", "name": "USPS COLLECTION BOX - PO LOBBY", "address": {"city": "MCLEAN", "state": "VA", "street": "1544 SPRING HILL RD", "postcode": "22102"}}},
{"geometry": {"type": "Point", "coordinates": [-77.2116127561, 38.9221520023]}, "type": "Feature", "properties": {"collection_times": [{"days": "Mon-Fri", "time": "1:45pm"}, {"days": "Sat-Sun", "time": "Closed"}], "id": "2210200118", "name": "USPS COLLECTION BOX - BLUE BOX", "address": {"city": "MCLEAN", "state": "VA", "street": "1700 OLD MEADOW RD", "postcode": "22102"}}},
{"geometry": {"type": "Point", "coordinates": [-77.2220459566, 38.9314224134]}, "type": "Feature", "properties": {"collection_times": [{"days": "Mon-Sat", "time": "5:00pm"}, {"days": "Sun", "time": "Closed"}], "id": "2210200119", "name": "USPS COLLECTION BOX - PO LOBBY", "address": {"city": "MCLEAN", "state": "VA", "street": "1544 SPRING HILL RD", "postcode": "22102"}}},
{"geometry": {"type": "Point", "coordinates": [-77.2220459566, 38.9314224134]}, "type": "Feature", "properties": {"collection_times": [{"days": "Mon-Sat", "time": "5:00pm"}, {"days": "Sun", "time": "Closed"}], "id": "2210200120", "name": "USPS COLLECTION BOX - APC", "address": {"city": "MCLEAN", "state": "VA", "street": "1544 SPRING HILL RD", "postcode": "22102"}}},
{"geometry": {"type": "Point", "coordinates": [-77.2375529158, 38.9288458267]}, "type": "Feature", "properties": {"collection_times": [{"days": "Mon-Sat", "time": "5:00pm"}, {"days": "Sun", "time": "Closed"}], "id": "2210200122", "name": "USPS COLLECTION BOX - BLUE BOX", "address": {"city": "MCLEAN", "state": "VA", "street": "1544 SPRING HILL RD", "postcode": "22102"}}},
{"geometry": {"type": "Point", "coordinates": [-77.2193814945, 38.9254478992]}, "type": "Feature", "properties": {"collection_times": [{"days": "Mon-Fri", "time": "2:15pm"}, {"days": "Sat", "time": "4:15pm"}, {"days": "Sun", "time": "Closed"}], "id": "2210200123", "name": "USPS COLLECTION BOX - BLUE BOX", "address": {"city": "MCLEAN", "state": "VA", "street": "7925 WESTPARK DR", "postcode": "22102"}}},
{"geometry": {"type": "Point", "coordinates": [-77.201954264, 38.932095781]}, "type": "Feature", "properties": {"collection_times": [{"days": "Mon-Fri", "time": "2:45pm"}, {"days": "Sat-Sun", "time": "Closed"}], "id": "2210200125", "name": "USPS COLLECTION BOX - BLUE BOX", "address": {"city": "MCLEAN", "state": "VA", "street": "1501 FARM CREDIT DR", "postcode": "22102"}}},
{"geometry": {"type": "Point", "coordinates": [-77.2220459566, 38.9314224134]}, "type": "Feature", "properties": {"collection_times": [{"days": "Mon-Fri", "time": "2:45pm"}, {"days": "Sat", "time": "4:00pm"}, {"days": "Sun", "time": "Closed"}], "id": "2210200126", "name": "USPS COLLECTION BOX - BLUE BOX", "address": {"city": "MCLEAN", "state": "VA", "street": "7601 LEWINSVILLE RD", "postcode": "22102"}}},
{"geometry": {"type": "Point", "coordinates": [-77.0862992947, 38.7077024253]}, "type": "Feature", "properties": {"collection_times": [{"days": "Mon-Fri", "time": "3:45pm"}, {"days": "Sat", "time": "11:50am"}, {"days": "Sun", "time": "Closed"}], "id": "2212100001", "name": "USPS COLLECTION BOX - BLUE BOX", "address": {"city": "MOUNT VERNON", "state": "VA", "street": "3500T MOUNT VERNON MEMORIAL HWY", "postcode": "22121"}}},
{"geometry": {"type": "Point", "coordinates": [-77.0862992947, 38.7077024253]}, "type": "Feature", "properties": {"collection_times": [{"days": "Mon-Fri", "time": "4:30pm"}, {"days": "Sat", "time": "11:45am"}, {"days": "Sun", "time": "Closed"}], "id": "2212100002", "name": "USPS COLLECTION BOX - BLUE BOX", "address": {"city": "MOUNT VERNON", "state": "VA", "street": "3500T MOUNT VERNON MEMORIAL HWY", "postcode": "22121"}}},
{"geometry": {"type": "Point", "coordinates": [-77.0861492572, 38.71219526]}, "type": "Feature", "properties": {"collection_times": [{"days": "Mon-Fri", "time": "4:30pm"}, {"days": "Sat", "time": "11:45am"}, {"days": "Sun", "time": "Closed"}], "id": "2212100003", "name": "USPS COLLECTION BOX - PO LOBBY", "address": {"city": "MOUNT VERNON", "state": "VA", "street": "3500T GEORGE WASHINGTON PKWY", "postcode": "22121"}}},
{"geometry": {"type": "Point", "coordinates": [-77.1892696409, 38.7315895308]}, "type": "Feature", "properties": {"collection_times": [{"days": "Mon-Fri", "time": "5:00pm"}, {"days": "Sat", "time": "11:00am"}, {"days": "Sun", "time": "Closed"}], "id": "2212200001", "name": "USPS COLLECTION BOX - BLUE BOX", "address": {"city": "NEWINGTON", "state": "VA", "street": "8253A BACKLICK RD", "postcode": "22122"}}},
{"geometry": {"type": "Point", "coordinates": [-77.1892696409, 38.7315895308]}, "type": "Feature", "properties": {"collection_times": [{"days": "Mon-Fri", "time": "5:00pm"}, {"days": "Sat", "time": "11:00am"}, {"days": "Sun", "time": "Closed"}], "id": "2212200002", "name": "USPS COLLECTION BOX - PO LOBBY", "address": {"city": "NEWINGTON", "state": "VA", "street": "8253A BACKLICK RD", "postcode": "22122"}}},
{"geometry": {"type": "Point", "coordinates": [-77.2999764774, 38.8735117382]}, "type": "Feature", "properties": {"collection_times": [{"days": "Mon-Fri", "time": "4:00pm"}, {"days": "Sat", "time": "2:00pm"}, {"days": "Sun", "time": "Closed"}], "id": "2212400002", "name": "USPS COLLECTION BOX - BLUE BOX", "address": {"city": "OAKTON", "state": "VA", "street": "10300 BUSHMAN DR", "postcode": "22124"}}},
{"geometry": {"type": "Point", "coordinates": [-77.301237606, 38.8809219138]}, "type": "Feature", "properties": {"collection_times": [{"days": "Mon-Fri", "time": "4:00pm"}, {"days": "Sat", "time": "2:00pm"}, {"days": "Sun", "time": "Closed"}], "id": "2212400009", "name": "USPS COLLECTION BOX - BLUE BOX", "address": {"city": "OAKTON", "state": "VA", "street": "2952 CHAIN BRIDGE RD STE K", "postcode": "22124"}}},
{"geometry": {"type": "Point", "coordinates": [-77.3051235319, 38.8733555876]}, "type": "Feature", "properties": {"collection_times": [{"days": "Mon-Sat", "time": "9:00am"}, {"days": "Sun", "time": "Closed"}], "id": "2212400011", "name": "USPS COLLECTION BOX - BLUE BOX", "address": {"city": "OAKTON", "state": "VA", "street": "10455 WHITE GRANITE DR", "postcode": "22124"}}},
{"geometry": {"type": "Point", "coordinates": [-77.3060876434, 38.8745113385]}, "type": "Feature", "properties": {"collection_times": [{"days": "Mon-Fri", "time": "5:00pm"}, {"days": "Sat", "time": "4:00pm"}, {"days": "Sun", "time": "Closed"}], "id": "2212400012", "name": "USPS COLLECTION BOX - BLUE BOX", "address": {"city": "OAKTON", "state": "VA", "street": "10449 WHITE GRANITE DR", "postcode": "22124"}}},
{"geometry": {"type": "Point", "coordinates": [-77.3060876434, 38.8745113385]}, "type": "Feature", "properties": {"collection_times": [{"days": "Mon-Fri", "time": "5:00pm"}, {"days": "Sat", "time": "2:00pm"}, {"days": "Sun", "time": "Closed"}], "id": "2212400015", "name": "USPS COLLECTION BOX - APC", "address": {"city": "OAKTON", "state": "VA", "street": "10449 WHITE GRANITE DR", "postcode": "22124"}}},
{"geometry": {"type": "Point", "coordinates": [-77.30572067, 38.8721102554]}, "type": "Feature", "properties": {"collection_times": [{"days": "Mon-Fri", "time": "5:00pm"}, {"days": "Sat", "time": "2:00pm"}, {"days": "Sun", "time": "Closed"}], "id": "2212400017", "name": "USPS COLLECTION BOX - PO LOBBY", "address": {"city": "OAKTON", "state": "VA", "street": "10499 WHITE GRANITE DR", "postcode": "22124"}}},
{"geometry": {"type": "Point", "coordinates": [-77.2596609676, 38.6834627512]}, "type": "Feature", "properties": {"collection_times": [{"days": "Mon-Fri", "time": "5:00pm"}, {"days": "Sat", "time": "1:00pm"}, {"days": "Sun", "time": "Closed"}], "id": "2212500001", "name": "USPS COLLECTION BOX - BLUE BOX", "address": {"city": "OCCOQUAN", "state": "VA", "street": "202 MILL ST", "postcode": "22125"}}},
{"geometry": {"type": "Point", "coordinates": [-77.2596609676, 38.6834627512]}, "type": "Feature", "properties": {"collection_times": [{"days": "Mon-Fri", "time": "5:00pm"}, {"days": "Sat", "time": "1:00pm"}, {"days": "Sun", "time": "Closed"}], "id": "2212500002", "name": "USPS COLLECTION BOX - PO LOBBY", "address": {"city": "OCCOQUAN", "state": "VA", "street": "202 MILL ST", "postcode": "22125"}}},
{"geometry": {"type": "Point", "coordinates": [-77.2927663791, 38.5213276935]}, "type": "Feature", "properties": {"collection_times": [{"days": "Mon-Fri", "time": "5:00pm"}, {"days": "Sat", "time": "3:00pm"}, {"days": "Sun", "time": "Closed"}], "id": "2213400002", "name": "USPS COLLECTION BOX - BLUE BOX", "address": {"city": "QUANTICO", "state": "VA", "street": "400 5TH AVE", "postcode": "22134"}}},
{"geometry": {"type": "Point", "coordinates": [-77.2983734571, 38.5183959831]}, "type": "Feature", "properties": {"collection_times": [{"days": "Mon-Sat", "time": "2:45pm"}, {"days": "Sun", "time": "Closed"}], "id": "2213400004", "name": "USPS COLLECTION BOX - BLUE BOX", "address": {"city": "QUANTICO", "state": "VA", "street": "3048 BORDOLEON ST", "postcode": "22134"}}},
{"geometry": {"type": "Point", "coordinates": [-77.2997639372, 38.5177349129]}, "type": "Feature", "properties": {"collection_times": [{"days": "Mon-Sat", "time": "3:00pm"}, {"days": "Sun", "time": "Closed"}], "id": "2213400006", "name": "USPS COLLECTION BOX - BLUE BOX", "address": {"city": "QUANTICO", "state": "VA", "street": "2034 BARNETT AVE", "postcode": "22134"}}},
{"geometry": {"type": "Point", "coordinates": [-77.3141831707, 38.5126636043]}, "type": "Feature", "properties": {"collection_times": [{"days": "Mon-Sat", "time": "2:15pm"}, {"days": "Sun", "time": "Closed"}], "id": "2213400007", "name": "USPS COLLECTION BOX - BLUE BOX", "address": {"city": "QUANTICO", "state": "VA", "street": "3250 CATLIN AVE", "postcode": "22134"}}},
{"geometry": {"type": "Point", "coordinates": [-77.2971774931, 38.5213486411]}, "type": "Feature", "properties": {"collection_times": [{"days": "Mon-Sat", "time": "2:00pm"}, {"days": "Sun", "time": "Closed"}], "id": "2213400008", "name": "USPS COLLECTION BOX - BLUE BOX", "address": {"city": "QUANTICO", "state": "VA", "street": "2008 ELLIOT RD", "postcode": "22134"}}},
{"geometry": {"type": "Point", "coordinates": [-77.3177494149, 38.5116324091]}, "type": "Feature", "properties": {"collection_times": [{"days": "Mon-Sat", "time": "2:30pm"}, {"days": "Sun", "time": "Closed"}], "id": "2213400009", "name": "USPS COLLECTION BOX - BLUE BOX", "address": {"city": "QUANTICO", "state": "VA", "street": "3500 RUSSELL RD", "postcode": "22134"}}},
{"geometry": {"type": "Point", "coordinates": [-77.3017618103, 38.5171488116]}, "type": "Feature", "properties": {"collection_times": [{"days": "Mon-Sat", "time": "2:00pm"}, {"days": "Sun", "time": "Closed"}], "id": "2213400011", "name": "USPS COLLECTION BOX - BLUE BOX", "address": {"city": "QUANTICO", "state": "VA", "street": "2000 HAWKINS AVE", "postcode": "22134"}}},
{"geometry": {"type": "Point", "coordinates": [-77.3120184167, 38.4977286572]}, "type": "Feature", "properties": {"collection_times": [{"days": "Mon-Sat", "time": "2:30pm"}, {"days": "Sun", "time": "Closed"}], "id": "2213400014", "name": "USPS COLLECTION BOX - BLUE BOX", "address": {"city": "QUANTICO", "state": "VA", "street": "5005 ELROD AVE", "postcode": "22134"}}},
{"geometry": {"type": "Point", "coordinates": [-77.2913030223, 38.5217517922]}, "type": "Feature", "properties": {"collection_times": [{"days": "Mon-Sat", "time": "3:00pm"}, {"days": "Sun", "time": "Closed"}], "id": "2213400017", "name": "USPS COLLECTION BOX - BLUE BOX", "address": {"city": "QUANTICO", "state": "VA", "street": "301 POTOMAC AVE", "postcode": "22134"}}},
{"geometry": {"type": "Point", "coordinates": [-77.3286124505, 38.5368976645]}, "type": "Feature", "properties": {"collection_times": [{"days": "Mon-Sat", "time": "2:15pm"}, {"days": "Sun", "time": "Closed"}], "id": "2213400020", "name": "USPS COLLECTION BOX - BLUE BOX", "address": {"city": "QUANTICO", "state": "VA", "street": "3300 PURVIS RD", "postcode": "22134"}}},
{"geometry": {"type": "Point", "coordinates": [-77.312600044, 38.5108806193]}, "type": "Feature", "properties": {"collection_times": [{"days": "Mon-Sat", "time": "2:15pm"}, {"days": "Sun", "time": "Closed"}], "id": "2213400027", "name": "USPS COLLECTION BOX - BLUE BOX", "address": {"city": "QUANTICO", "state": "VA", "street": "3280 RUSSELL RD", "postcode": "22134"}}},
{"geometry": {"type": "Point", "coordinates": [-77.3142798873, 38.5123959672]}, "type": "Feature", "properties": {"collection_times": [{"days": "Mon-Sat", "time": "2:00pm"}, {"days": "Sun", "time": "Closed"}], "id": "2213400029", "name": "USPS COLLECTION BOX - BLUE BOX", "address": {"city": "QUANTICO", "state": "VA", "street": "3259 CATLIN AVE", "postcode": "22134"}}},
{"geometry": {"type": "Point", "coordinates": [-77.2847727853, 38.5260612377]}, "type": "Feature", "properties": {"collection_times": [{"days": "Mon-Sat", "time": "3:00pm"}, {"days": "Sun", "time": "Closed"}], "id": "2213400031", "name": "USPS COLLECTION BOX - BLUE BOX", "address": {"city": "QUANTICO", "state": "VA", "street": "2200 LESTER ST", "postcode": "22134"}}},
{"geometry": {"type": "Point", "coordinates": [-77.2927663791, 38.5213276935]}, "type": "Feature", "properties": {"collection_times": [{"days": "Mon-Fri", "time": "5:00pm"}, {"days": "Sat", "time": "12:30pm"}, {"days": "Sun", "time": "Closed"}], "id": "2213400032", "name": "USPS COLLECTION BOX - PO LOBBY", "address": {"city": "QUANTICO", "state": "VA", "street": "400 5TH AVE", "postcode": "22134"}}},
{"geometry": {"type": "Point", "coordinates": [-77.2927663791, 38.5213276935]}, "type": "Feature", "properties": {"collection_times": [{"days": "Mon-Fri", "time": "5:00pm"}, {"days": "Sat", "time": "12:30pm"}, {"days": "Sun", "time": "Closed"}], "id": "2213400033", "name": "USPS COLLECTION BOX - PO LOBBY", "address": {"city": "QUANTICO", "state": "VA", "street": "400 5TH AVE", "postcode": "22134"}}},
{"geometry": {"type": "Point", "coordinates": [-77.3914560654, 38.5216978263]}, "type": "Feature", "properties": {"collection_times": [{"days": "Mon-Fri", "time": "11:00am"}, {"days": "Sat-Sun", "time": "Closed"}], "id": "2213500000", "name": "USPS COLLECTION BOX - BLUE BOX", "address": {"city": "QUANTICO", "state": "VA", "street": "1 FBI", "postcode": "22135"}}},
{"geometry": {"type": "Point", "coordinates": [-77.1818946965, 38.7837984962]}, "type": "Feature", "properties": {"collection_times": [{"days": "Mon-Fri", "time": "11:00am"}, {"days": "Sat", "time": "4:00pm"}, {"days": "Sun", "time": "Closed"}], "id": "2215000002", "name": "USPS COLLECTION BOX - BLUE BOX", "address": {"city": "SPRINGFIELD", "state": "VA", "street": "6225 BRANDON AVE", "postcode": "22150"}}},
{"geometry": {"type": "Point", "coordinates": [-77.1988133756, 38.7937944994]}, "type": "Feature", "properties": {"collection_times": [{"days": "Mon-Sat", "time": "9:00am"}, {"days": "Sun", "time": "Closed"}], "id": "2215000005", "name": "USPS COLLECTION BOX - BLUE BOX", "address": {"city": "SPRINGFIELD", "state": "VA", "street": "7309 HIGHLAND ST", "postcode": "22150"}}},
{"geometry": {"type": "Point", "coordinates": [-77.1760733554, 38.7775406433]}, "type": "Feature", "properties": {"collection_times": [{"days": "Mon-Sat", "time": "9:00am"}, {"days": "Sun", "time": "Closed"}], "id": "2215000007", "name": "USPS COLLECTION BOX - BLUE BOX", "address": {"city": "SPRINGFIELD", "state": "VA", "street": "6417 LOISDALE RD", "postcode": "22150"}}},
{"geometry": {"type": "Point", "coordinates": [-77.1818686714, 38.7836849321]}, "type": "Feature", "properties": {"collection_times": [{"days": "Mon-Fri", "time": "11:00am"}, {"days": "Sat", "time": "4:00pm"}, {"days": "Sun", "time": "Closed"}], "id": "2215000009", "name": "USPS COLLECTION BOX - BLUE BOX", "address": {"city": "SPRINGFIELD", "state": "VA", "street": "6120 BRANDON AVE", "postcode": "22150"}}},
{"geometry": {"type": "Point", "coordinates": [-77.1845572491, 38.7740115542]}, "type": "Feature", "properties": {"collection_times": [{"days": "Mon-Sat", "time": "9:00am"}, {"days": "Sun", "time": "Closed"}], "id": "2215000015", "name": "USPS COLLECTION BOX - BLUE BOX", "address": {"city": "SPRINGFIELD", "state": "VA", "street": "6550 LOISDALE RD", "postcode": "22150"}}},
{"geometry": {"type": "Point", "coordinates": [-77.1785268123, 38.7762382054]}, "type": "Feature", "properties": {"collection_times": [{"days": "Mon-Fri", "time": "11:00am"}, {"days": "Sat", "time": "3:00pm"}, {"days": "Sun", "time": "Closed"}], "id": "2215000016", "name": "USPS COLLECTION BOX - BLUE BOX", "address": {"city": "SPRINGFIELD", "state": "VA", "street": "6501 LOISDALE CT", "postcode": "22150"}}},
{"geometry": {"type": "Point", "coordinates": [-77.1852507511, 38.7815698015]}, "type": "Feature", "properties": {"collection_times": [{"days": "Mon-Sat", "time": "9:00am"}, {"days": "Sun", "time": "Closed"}], "id": "2215000020", "name": "USPS COLLECTION BOX - BLUE BOX", "address": {"city": "SPRINGFIELD", "state": "VA", "street": "6315 BACKLICK RD", "postcode": "22150"}}},
{"geometry": {"type": "Point", "coordinates": [-77.1857065368, 38.7842001949]}, "type": "Feature", "properties": {"collection_times": [{"days": "Mon-Sat", "time": "9:00am"}, {"days": "Sun", "time": "Closed"}], "id": "2215000023", "name": "USPS COLLECTION BOX - BLUE BOX", "address": {"city": "SPRINGFIELD", "state": "VA", "street": "6123B BACKLICK RD", "postcode": "22150"}}},
{"geometry": {"type": "Point", "coordinates": [-77.1972831811, 38.733164988]}, "type": "Feature", "properties": {"collection_times": [{"days": "Mon-Fri", "time": "2:30pm"}, {"days": "Sat", "time": "3:00pm"}, {"days": "Sun", "time": "Closed"}], "id": "2215000028", "name": "USPS COLLECTION BOX - BLUE BOX", "address": {"city": "SPRINGFIELD", "state": "VA", "street": "7406 ALBAN STATION CT", "postcode": "22150"}}},
{"geometry": {"type": "Point", "coordinates": [-77.192285808, 38.7923027882]}, "type": "Feature", "properties": {"collection_times": [{"days": "Mon-Fri", "time": "11:30am"}, {"days": "Sat", "time": "1:30pm"}, {"days": "Sun", "time": "Closed"}], "id": "2215000035", "name": "USPS COLLECTION BOX - BLUE BOX", "address": {"city": "SPRINGFIELD", "state": "VA", "street": "7124 HIGHLAND ST", "postcode": "22150"}}},
{"geometry": {"type": "Point", "coordinates": [-77.1852248805, 38.773890276]}, "type": "Feature", "properties": {"collection_times": [{"days": "Mon-Fri", "time": "5:00pm"}, {"days": "Sat", "time": "4:00pm"}, {"days": "Sun", "time": "Closed"}], "id": "2215000042", "name": "USPS COLLECTION BOX - PO LOBBY", "address": {"city": "SPRINGFIELD", "state": "VA", "street": "7051 BROOKFIELD PLZ", "postcode": "22150"}}},
{"geometry": {"type": "Point", "coordinates": [-77.1852248805, 38.773890276]}, "type": "Feature", "properties": {"collection_times": [{"days": "Mon-Fri", "time": "5:00pm"}, {"days": "Sat", "time": "4:00pm"}, {"days": "Sun", "time": "Closed"}], "id": "2215000043", "name": "USPS COLLECTION BOX - PO LOBBY", "address": {"city": "SPRINGFIELD", "state": "VA", "street": "7051 BROOKFIELD PLZ", "postcode": "22150"}}},
{"geometry": {"type": "Point", "coordinates": [-77.1785090679, 38.7755781143]}, "type": "Feature", "properties": {"collection_times": [{"days": "Mon-Fri", "time": "11:00am"}, {"days": "Sat", "time": "3:00pm"}, {"days": "Sun", "time": "Closed"}], "id": "2215000046", "name": "USPS COLLECTION BOX - BLUE BOX", "address": {"city": "SPRINGFIELD", "state": "VA", "street": "6551 LOISDALE CT", "postcode": "22150"}}},
{"geometry": {"type": "Point", "coordinates": [-77.178507885, 38.7755225153]}, "type": "Feature", "properties": {"collection_times": [{"days": "Mon-Sat", "time": "9:00am"}, {"days": "Sun", "time": "Closed"}], "id": "2215000049", "name": "USPS COLLECTION BOX - BLUE BOX", "address": {"city": "SPRINGFIELD", "state": "VA", "street": "6564 LOISDALE CT", "postcode": "22150"}}},
{"geometry": {"type": "Point", "coordinates": [-77.1895811074, 38.7800677369]}, "type": "Feature", "properties": {"collection_times": [{"days": "Mon-Fri", "time": "11:30am"}, {"days": "Sat", "time": "4:00pm"}, {"days": "Sun", "time": "Closed"}], "id": "2215000052", "name": "USPS COLLECTION BOX - BLUE BOX", "address": {"city": "SPRINGFIELD", "state": "VA", "street": "6432 SPRINGFIELD PLZ", "postcode": "22150"}}},
{"geometry": {"type": "Point", "coordinates": [-77.1782547318, 38.7808966978]}, "type": "Feature", "properties": {"collection_times": [{"days": "Mon-Sat", "time": "9:00am"}, {"days": "Sun", "time": "Closed"}], "id": "2215000056", "name": "USPS COLLECTION BOX - BLUE BOX", "address": {"city": "SPRINGFIELD", "state": "VA", "street": "6720 COMMERCE ST", "postcode": "22150"}}},
{"geometry": {"type": "Point", "coordinates": [-77.171673931, 38.7678652219]}, "type": "Feature", "properties": {"collection_times": [{"days": "Mon-Sat", "time": "9:00am"}, {"days": "Sun", "time": "Closed"}], "id": "2215000057", "name": "USPS COLLECTION BOX - BLUE BOX", "address": {"city": "SPRINGFIELD", "state": "VA", "street": "6770 FRONTIER DR", "postcode": "22150"}}},
{"geometry": {"type": "Point", "coordinates": [-77.1852248805, 38.773890276]}, "type": "Feature", "properties": {"collection_times": [{"days": "Mon-Fri", "time": "5:00pm"}, {"days": "Sat", "time": "4:00pm"}, {"days": "Sun", "time": "Closed"}], "id": "2215000059", "name": "USPS COLLECTION BOX - APC", "address": {"city": "SPRINGFIELD", "state": "VA", "street": "7051 BROOKFIELD PLZ", "postcode": "22150"}}},
{"geometry": {"type": "Point", "coordinates": [-77.2113231015, 38.7386056151]}, "type": "Feature", "properties": {"collection_times": [{"days": "Mon-Fri", "time": "2:30pm"}, {"days": "Sat", "time": "3:00pm"}, {"days": "Sun", "time": "Closed"}], "id": "2215000060", "name": "USPS COLLECTION BOX - BLUE BOX", "address": {"city": "SPRINGFIELD", "state": "VA", "street": "8094 ROLLING RD", "postcode": "22150"}}},
{"geometry": {"type": "Point", "coordinates": [-77.1857448658, 38.7720145714]}, "type": "Feature", "properties": {"collection_times": [{"days": "Mon-Fri", "time": "2:30pm"}, {"days": "Sat", "time": "3:00pm"}, {"days": "Sun", "time": "Closed"}], "id": "2215000061", "name": "USPS COLLECTION BOX - BLUE BOX", "address": {"city": "SPRINGFIELD", "state": "VA", "street": "7500 GEOINT DR", "postcode": "22150"}}},
{"geometry": {"type": "Point", "coordinates": [-77.2222714519, 38.8073784172]}, "type": "Feature", "properties": {"collection_times": [{"days": "Mon-Sat", "time": "9:00am"}, {"days": "Sun", "time": "Closed"}], "id": "2215100002", "name": "USPS COLLECTION BOX - BLUE BOX", "address": {"city": "SPRINGFIELD", "state": "VA", "street": "5234 QUEENSBERRY AVE", "postcode": "22151"}}},
{"geometry": {"type": "Point", "coordinates": [-77.2190908033, 38.8089969004]}, "type": "Feature", "properties": {"collection_times": [{"days": "Mon-Fri", "time": "5:00pm"}, {"days": "Sat", "time": "4:00pm"}, {"days": "Sun", "time": "Closed"}], "id": "2215100005", "name": "USPS COLLECTION BOX - BLUE BOX", "address": {"city": "SPRINGFIELD", "state": "VA", "street": "5242 PORT ROYAL RD", "postcode": "22151"}}},
{"geometry": {"type": "Point", "coordinates": [-77.1796167889, 38.7984514048]}, "type": "Feature", "properties": {"collection_times": [{"days": "Mon-Fri", "time": "12:00pm"}, {"days": "Sat", "time": "2:00pm"}, {"days": "Sun", "time": "Closed"}], "id": "2215100007", "name": "USPS COLLECTION BOX - BLUE BOX", "address": {"city": "SPRINGFIELD", "state": "VA", "street": "6801 INDUSTRIAL RD", "postcode": "22151"}}},
{"geometry": {"type": "Point", "coordinates": [-77.1818123825, 38.8013272903]}, "type": "Feature", "properties": {"collection_times": [{"days": "Mon-Fri", "time": "12:00pm"}, {"days": "Sat", "time": "2:00pm"}, {"days": "Sun", "time": "Closed"}], "id": "2215100009", "name": "USPS COLLECTION BOX - BLUE BOX", "address": {"city": "SPRINGFIELD", "state": "VA", "street": "6883 COMMERCIAL DR", "postcode": "22151"}}},
{"geometry": {"type": "Point", "coordinates": [-77.182371429, 38.7949549822]}, "type": "Feature", "properties": {"collection_times": [{"days": "Mon-Sat", "time": "9:00am"}, {"days": "Sun", "time": "Closed"}], "id": "2215100014", "name": "USPS COLLECTION BOX - BLUE BOX", "address": {"city": "SPRINGFIELD", "state": "VA", "street": "6850 VERSAR CTR", "postcode": "22151"}}},
{"geometry": {"type": "Point", "coordinates": [-77.1852188112, 38.80032325]}, "type": "Feature", "properties": {"collection_times": [{"days": "Mon-Fri", "time": "11:30am"}, {"days": "Sat", "time": "3:00pm"}, {"days": "Sun", "time": "Closed"}], "id": "2215100016", "name": "USPS COLLECTION BOX - BLUE BOX", "address": {"city": "SPRINGFIELD", "state": "VA", "street": "5580 BACKLICK RD", "postcode": "22151"}}},
{"geometry": {"type": "Point", "coordinates": [-77.2530476898, 38.8092699319]}, "type": "Feature", "properties": {"collection_times": [{"days": "Mon-Fri", "time": "12:30pm"}, {"days": "Sat", "time": "3:00pm"}, {"days": "Sun", "time": "Closed"}], "id": "2215100017", "name": "USPS COLLECTION BOX - BLUE BOX", "address": {"city": "SPRINGFIELD", "state": "VA", "street": "8930 BURKE LAKE RD", "postcode": "22151"}}},
{"geometry": {"type": "Point", "coordinates": [-77.1838619572, 38.8035243369]}, "type": "Feature", "properties": {"collection_times": [{"days": "Mon-Fri", "time": "12:00pm"}, {"days": "Sat", "time": "2:00pm"}, {"days": "Sun", "time": "Closed"}], "id": "2215100020", "name": "USPS COLLECTION BOX - BLUE BOX", "address": {"city": "SPRINGFIELD", "state": "VA", "street": "5419 BACKLICK RD", "postcode": "22151"}}},
{"geometry": {"type": "Point", "coordinates": [-77.2075162582, 38.8047915732]}, "type": "Feature", "properties": {"collection_times": [{"days": "Mon-Sat", "time": "9:00am"}, {"days": "Sun", "time": "Closed"}], "id": "2215100022", "name": "USPS COLLECTION BOX - BLUE BOX", "address": {"city": "SPRINGFIELD", "state": "VA", "street": "5400 DANBURY FOREST DR", "postcode": "22151"}}},
{"geometry": {"type": "Point", "coordinates": [-77.2035782128, 38.8097735938]}, "type": "Feature", "properties": {"collection_times": [{"days": "Mon-Fri", "time": "12:00pm"}, {"days": "Sat", "time": "2:00pm"}, {"days": "Sun", "time": "Closed"}], "id": "2215100024", "name": "USPS COLLECTION BOX - BLUE BOX", "address": {"city": "SPRINGFIELD", "state": "VA", "street": "5207 HEMING AVE", "postcode": "22151"}}},
{"geometry": {"type": "Point", "coordinates": [-77.2064824986, 38.7994301159]}, "type": "Feature", "properties": {"collection_times": [{"days": "Mon-Fri", "time": "12:00pm"}, {"days": "Sat", "time": "2:00pm"}, {"days": "Sun", "time": "Closed"}], "id": "2215100028", "name": "USPS COLLECTION BOX - BLUE BOX", "address": {"city": "SPRINGFIELD", "state": "VA", "street": "5603 HEMING AVE", "postcode": "22151"}}},
{"geometry": {"type": "Point", "coordinates": [-77.2190908033, 38.8089969004]}, "type": "Feature", "properties": {"collection_times": [{"days": "Mon-Fri", "time": "5:00pm"}, {"days": "Sat", "time": "2:00pm"}, {"days": "Sun", "time": "Closed"}], "id": "2215100036", "name": "USPS COLLECTION BOX - PO LOBBY", "address": {"city": "SPRINGFIELD", "state": "VA", "street": "5242 PORT ROYAL RD", "postcode": "22151"}}},
{"geometry": {"type": "Point", "coordinates": [-77.2138369545, 38.8029233938]}, "type": "Feature", "properties": {"collection_times": [{"days": "Mon-Sat", "time": "9:00am"}, {"days": "Sun", "time": "Closed"}], "id": "2215100037", "name": "USPS COLLECTION BOX - BLUE BOX", "address": {"city": "SPRINGFIELD", "state": "VA", "street": "5580 PORT ROYAL RD", "postcode": "22151"}}},
{"geometry": {"type": "Point", "coordinates": [-77.2459779495, 38.7938985998]}, "type": "Feature", "properties": {"collection_times": [{"days": "Mon-Fri", "time": "1:30pm"}, {"days": "Sat", "time": "4:00pm"}, {"days": "Sun", "time": "Closed"}], "id": "2215200002", "name": "USPS COLLECTION BOX - BLUE BOX", "address": {"city": "SPRINGFIELD", "state": "VA", "street": "5801 ROLLING RD", "postcode": "22152"}}},
{"geometry": {"type": "Point", "coordinates": [-77.2528154524, 38.7769207728]}, "type": "Feature", "properties": {"collection_times": [{"days": "Mon-Sat", "time": "9:00am"}, {"days": "Sun", "time": "Closed"}], "id": "2215200003", "name": "USPS COLLECTION BOX - BLUE BOX", "address": {"city": "SPRINGFIELD", "state": "VA", "street": "6401 BLARNEY STONE CT", "postcode": "22152"}}},
{"geometry": {"type": "Point", "coordinates": [-77.2313161936, 38.7796935374]}, "type": "Feature", "properties": {"collection_times": [{"days": "Mon-Fri", "time": "1:30pm"}, {"days": "Sat", "time": "3:00pm"}, {"days": "Sun", "time": "Closed"}], "id": "2215200005", "name": "USPS COLLECTION BOX - BLUE BOX", "address": {"city": "SPRINGFIELD", "state": "VA", "street": "8332 OLD KEENE MILL RD", "postcode": "22152"}}},
{"geometry": {"type": "Point", "coordinates": [-77.2324697411, 38.7812847084]}, "type": "Feature", "properties": {"collection_times": [{"days": "Mon-Sat", "time": "9:00am"}, {"days": "Sun", "time": "Closed"}], "id": "2215200008", "name": "USPS COLLECTION BOX - BLUE BOX", "address": {"city": "SPRINGFIELD", "state": "VA", "street": "8346 TRAFORD LN", "postcode": "22152"}}},
{"geometry": {"type": "Point", "coordinates": [-77.2339686516, 38.7772007882]}, "type": "Feature", "properties": {"collection_times": [{"days": "Mon-Fri", "time": "5:00pm"}, {"days": "Sat", "time": "4:00pm"}, {"days": "Sun", "time": "Closed"}], "id": "2215200015", "name": "USPS COLLECTION BOX - BLUE BOX", "address": {"city": "SPRINGFIELD", "state": "VA", "street": "6200 ROLLING RD", "postcode": "22152"}}},
{"geometry": {"type": "Point", "coordinates": [-77.234903568, 38.7789247224]}, "type": "Feature", "properties": {"collection_times": [{"days": "Mon-Fri", "time": "1:30pm"}, {"days": "Sat", "time": "3:00pm"}, {"days": "Sun", "time": "Closed"}], "id": "2215200016", "name": "USPS COLLECTION BOX - BLUE BOX", "address": {"city": "SPRINGFIELD", "state": "VA", "street": "8412 OLD KEENE MILL RD", "postcode": "22152"}}},
{"geometry": {"type": "Point", "coordinates": [-77.230368806, 38.7883623519]}, "type": "Feature", "properties": {"collection_times": [{"days": "Mon-Sat", "time": "9:00am"}, {"days": "Sun", "time": "Closed"}], "id": "2215200020", "name": "USPS COLLECTION BOX - BLUE BOX", "address": {"city": "SPRINGFIELD", "state": "VA", "street": "8252 CARRLEIGH PKWY", "postcode": "22152"}}},
{"geometry": {"type": "Point", "coordinates": [-77.2099402876, 38.7677765]}, "type": "Feature", "properties": {"collection_times": [{"days": "Mon-Sat", "time": "9:00am"}, {"days": "Sun", "time": "Closed"}], "id": "2215200026", "name": "USPS COLLECTION BOX - BLUE BOX", "address": {"city": "SPRINGFIELD", "state": "VA", "street": "6832 EARTHSTAR CT", "postcode": "22152"}}},
{"geometry": {"type": "Point", "coordinates": [-77.2339686516, 38.7772007882]}, "type": "Feature", "properties": {"collection_times": [{"days": "Mon-Fri", "time": "5:00pm"}, {"days": "Sat", "time": "4:00pm"}, {"days": "Sun", "time": "Closed"}], "id": "2215200031", "name": "USPS COLLECTION BOX - PO LOBBY", "address": {"city": "SPRINGFIELD", "state": "VA", "street": "6200 ROLLING RD", "postcode": "22152"}}},
{"geometry": {"type": "Point", "coordinates": [-77.2339686516, 38.7772007882]}, "type": "Feature", "properties": {"collection_times": [{"days": "Mon-Fri", "time": "5:00pm"}, {"days": "Sat", "time": "4:00pm"}, {"days": "Sun", "time": "Closed"}], "id": "2215200032", "name": "USPS COLLECTION BOX - PO LOBBY", "address": {"city": "SPRINGFIELD", "state": "VA", "street": "6200 ROLLING RD", "postcode": "22152"}}},
{"geometry": {"type": "Point", "coordinates": [-77.2339686516, 38.7772007882]}, "type": "Feature", "properties": {"collection_times": [{"days": "Mon-Fri", "time": "5:00pm"}, {"days": "Sat", "time": "4:00pm"}, {"days": "Sun", "time": "Closed"}], "id": "2215200035", "name": "USPS COLLECTION BOX - APC", "address": {"city": "SPRINGFIELD", "state": "VA", "street": "6200 ROLLING RD", "postcode": "22152"}}},
{"geometry": {"type": "Point", "coordinates": [-77.2660241241, 38.7529607718]}, "type": "Feature", "properties": {"collection_times": [{"days": "Mon-Sat", "time": "2:00pm"}, {"days": "Sun", "time": "Closed"}], "id": "2215300001", "name": "USPS COLLECTION BOX - BLUE BOX", "address": {"city": "SPRINGFIELD", "state": "VA", "street": "7501 HUNTSMAN BLVD", "postcode": "22153"}}},
{"geometry": {"type": "Point", "coordinates": [-77.2627866135, 38.7572067616]}, "type": "Feature", "properties": {"collection_times": [{"days": "Mon-Sat", "time": "2:00pm"}, {"days": "Sun", "time": "Closed"}], "id": "2215300002", "name": "USPS COLLECTION BOX - BLUE BOX", "address": {"city": "SPRINGFIELD", "state": "VA", "street": "9126 GOLDEN BALL TAVERN CT", "postcode": "22153"}}},
{"geometry": {"type": "Point", "coordinates": [-77.2036493119, 38.738660331]}, "type": "Feature", "properties": {"collection_times": [{"days": "Mon-Fri", "time": "2:30pm"}, {"days": "Sat", "time": "3:00pm"}, {"days": "Sun", "time": "Closed"}], "id": "2215300005", "name": "USPS COLLECTION BOX - BLUE BOX", "address": {"city": "SPRINGFIELD", "state": "VA", "street": "7450 BOSTON BLVD", "postcode": "22153"}}},
{"geometry": {"type": "Point", "coordinates": [-77.2352678083, 38.7450911976]}, "type": "Feature", "properties": {"collection_times": [{"days": "Mon-Fri", "time": "2:00pm"}, {"days": "Sat", "time": "1:30pm"}, {"days": "Sun", "time": "Closed"}], "id": "2215300007", "name": "USPS COLLECTION BOX - BLUE BOX", "address": {"city": "SPRINGFIELD", "state": "VA", "street": "8201 SOUTHRUN RD", "postcode": "22153"}}},
{"geometry": {"type": "Point", "coordinates": [-77.2043780146, 38.7426303412]}, "type": "Feature", "properties": {"collection_times": [{"days": "Mon-Fri", "time": "2:30pm"}, {"days": "Sat", "time": "3:00pm"}, {"days": "Sun", "time": "Closed"}], "id": "2215300012", "name": "USPS COLLECTION BOX - BLUE BOX", "address": {"city": "SPRINGFIELD", "state": "VA", "street": "7644 FULLERTON RD", "postcode": "22153"}}},
{"geometry": {"type": "Point", "coordinates": [-77.3326569018, 38.5457942502]}, "type": "Feature", "properties": {"collection_times": [{"days": "Mon-Fri", "time": "5:00pm"}, {"days": "Sat", "time": "2:00pm"}, {"days": "Sun", "time": "Closed"}], "id": "2217200001", "name": "USPS COLLECTION BOX - BLUE BOX", "address": {"city": "TRIANGLE", "state": "VA", "street": "18627 OLD TRIANGLE RD", "postcode": "22172"}}},
{"geometry": {"type": "Point", "coordinates": [-77.3326569018, 38.5457942502]}, "type": "Feature", "properties": {"collection_times": [{"days": "Mon-Fri", "time": "5:00pm"}, {"days": "Sat", "time": "2:00pm"}, {"days": "Sun", "time": "Closed"}], "id": "2217200002", "name": "USPS COLLECTION BOX - PO LOBBY", "address": {"city": "TRIANGLE", "state": "VA", "street": "18627 OLD TRIANGLE RD", "postcode": "22172"}}},
{"geometry": {"type": "Point", "coordinates": [-77.2607081546, 38.8907391696]}, "type": "Feature", "properties": {"collection_times": [{"days": "Mon-Sat", "time": "9:00am"}, {"days": "Sun", "time": "Closed"}], "id": "2218000007", "name": "USPS COLLECTION BOX - BLUE BOX", "address": {"city": "VIENNA", "state": "VA", "street": "309 TAPAWINGO RD SW", "postcode": "22180"}}},
{"geometry": {"type": "Point", "coordinates": [-77.2603023996, 38.9025344534]}, "type": "Feature", "properties": {"collection_times": [{"days": "Mon-Sat", "time": "9:00am"}, {"days": "Sun", "time": "Closed"}], "id": "2218000008", "name": "USPS COLLECTION BOX - BLUE BOX", "address": {"city": "VIENNA", "state": "VA", "street": "200 LOCUST ST SE", "postcode": "22180"}}},
{"geometry": {"type": "Point", "coordinates": [-77.2430749273, 38.8867939916]}, "type": "Feature", "properties": {"collection_times": [{"days": "Mon-Sat", "time": "9:00am"}, {"days": "Sun", "time": "Closed"}], "id": "2218000009", "name": "USPS COLLECTION BOX - BLUE BOX", "address": {"city": "VIENNA", "state": "VA", "street": "262 CEDAR LN SE", "postcode": "22180"}}},
{"geometry": {"type": "Point", "coordinates": [-77.2593553398, 38.914519991]}, "type": "Feature", "properties": {"collection_times": [{"days": "Mon-Fri", "time": "11:30am"}, {"days": "Sat", "time": "3:00pm"}, {"days": "Sun", "time": "Closed"}], "id": "2218000010", "name": "USPS COLLECTION BOX - BLUE BOX", "address": {"city": "VIENNA", "state": "VA", "street": "448 EAST ST NE", "postcode": "22180"}}},
{"geometry": {"type": "Point", "coordinates": [-77.2582357703, 38.8947174606]}, "type": "Feature", "properties": {"collection_times": [{"days": "Mon-Fri", "time": "10:00am"}, {"days": "Sat", "time": "2:45pm"}, {"days": "Sun", "time": "Closed"}], "id": "2218000014", "name": "USPS COLLECTION BOX - BLUE BOX", "address": {"city": "VIENNA", "state": "VA", "street": "110 MOORE AVE SW", "postcode": "22180"}}},
{"geometry": {"type": "Point", "coordinates": [-77.2344843202, 38.8851177486]}, "type": "Feature", "properties": {"collection_times": [{"days": "Mon-Fri", "time": "10:15am"}, {"days": "Sat", "time": "2:30pm"}, {"days": "Sun", "time": "Closed"}], "id": "2218000017", "name": "USPS COLLECTION BOX - BLUE BOX", "address": {"city": "VIENNA", "state": "VA", "street": "8327 COTTAGE ST", "postcode": "22180"}}},
{"geometry": {"type": "Point", "coordinates": [-77.2593692739, 38.9083102704]}, "type": "Feature", "properties": {"collection_times": [{"days": "Mon-Fri", "time": "11:30am"}, {"days": "Sat", "time": "3:30pm"}, {"days": "Sun", "time": "Closed"}], "id": "2218000020", "name": "USPS COLLECTION BOX - BLUE BOX", "address": {"city": "VIENNA", "state": "VA", "street": "407 CHURCH ST NE", "postcode": "22180"}}},
{"geometry": {"type": "Point", "coordinates": [-77.2454326055, 38.9033010108]}, "type": "Feature", "properties": {"collection_times": [{"days": "Mon-Fri", "time": "10:15am"}, {"days": "Sat", "time": "4:30pm"}, {"days": "Sun", "time": "Closed"}], "id": "2218000021", "name": "USPS COLLECTION BOX - BLUE BOX", "address": {"city": "VIENNA", "state": "VA", "street": "820 FOLLIN LN SE", "postcode": "22180"}}},
{"geometry": {"type": "Point", "coordinates": [-77.2681678938, 38.9008369073]}, "type": "Feature", "properties": {"collection_times": [{"days": "Mon-Sat", "time": "5:00pm"}, {"days": "Sun", "time": "Closed"}], "id": "2218000028", "name": "USPS COLLECTION BOX - BLUE BOX", "address": {"city": "VIENNA", "state": "VA", "street": "200 LAWYERS RD NW", "postcode": "22180"}}},
{"geometry": {"type": "Point", "coordinates": [-77.2703208602, 38.8975940938]}, "type": "Feature", "properties": {"collection_times": [{"days": "Mon-Fri", "time": "11:15am"}, {"days": "Sat", "time": "3:45pm"}, {"days": "Sun", "time": "Closed"}], "id": "2218000031", "name": "USPS COLLECTION BOX - BLUE BOX", "address": {"city": "VIENNA", "state": "VA", "street": "307 MAPLE AVE W", "postcode": "22180"}}},
{"geometry": {"type": "Point", "coordinates": [-77.2681678938, 38.9008369073]}, "type": "Feature", "properties": {"collection_times": [{"days": "Mon-Sat", "time": "5:00pm"}, {"days": "Sun", "time": "Closed"}], "id": "2218000043", "name": "USPS COLLECTION BOX - BLUE BOX", "address": {"city": "VIENNA", "state": "VA", "street": "200 LAWYERS RD NW", "postcode": "22180"}}},
{"geometry": {"type": "Point", "coordinates": [-77.2681678938, 38.9008369073]}, "type": "Feature", "properties": {"collection_times": [{"days": "Mon-Fri", "time": "5:00pm"}, {"days": "Sat", "time": "1:30pm"}, {"days": "Sun", "time": "Closed"}], "id": "2218000044", "name": "USPS COLLECTION BOX - APC", "address": {"city": "VIENNA", "state": "VA", "street": "200 LAWYERS RD NW", "postcode": "22180"}}},
{"geometry": {"type": "Point", "coordinates": [-77.2647153328, 38.9011306508]}, "type": "Feature", "properties": {"collection_times": [{"days": "Mon-Sat", "time": "9:00am"}, {"days": "Sun", "time": "Closed"}], "id": "2218000046", "name": "USPS COLLECTION BOX - BLUE BOX", "address": {"city": "VIENNA", "state": "VA", "street": "127 CENTER ST S", "postcode": "22180"}}},
{"geometry": {"type": "Point", "coordinates": [-77.25801574, 38.9094571293]}, "type": "Feature", "properties": {"collection_times": [{"days": "Mon-Sat", "time": "9:00am"}, {"days": "Sun", "time": "Closed"}], "id": "2218000047", "name": "USPS COLLECTION BOX - BLUE BOX", "address": {"city": "VIENNA", "state": "VA", "street": "501 CHURCH ST NE", "postcode": "22180"}}},
{"geometry": {"type": "Point", "coordinates": [-77.2576821112, 38.9075064544]}, "type": "Feature", "properties": {"collection_times": [{"days": "Mon-Fri", "time": "11:30am"}, {"days": "Sat", "time": "4:15pm"}, {"days": "Sun", "time": "Closed"}], "id": "2218000053", "name": "USPS COLLECTION BOX - BLUE BOX", "address": {"city": "VIENNA", "state": "VA", "street": "427 MAPLE AVE E", "postcode": "22180"}}},
{"geometry": {"type": "Point", "coordinates": [-77.2715582542, 38.8965238389]}, "type": "Feature", "properties": {"collection_times": [{"days": "Mon-Sat", "time": "9:00am"}, {"days": "Sun", "time": "Closed"}], "id": "2218000056", "name": "USPS COLLECTION BOX - BLUE BOX", "address": {"city": "VIENNA", "state": "VA", "street": "360 MAPLE AVE W", "postcode": "22180"}}},
{"geometry": {"type": "Point", "coordinates": [-77.2745984587, 38.8941839461]}, "type": "Feature", "properties": {"collection_times": [{"days": "Mon-Sat", "time": "9:00am"}, {"days": "Sun", "time": "Closed"}], "id": "2218000057", "name": "USPS COLLECTION BOX - BLUE BOX", "address": {"city": "VIENNA", "state": "VA", "street": "501 MAPLE AVE W", "postcode": "22180"}}},
{"geometry": {"type": "Point", "coordinates": [-77.2681678938, 38.9008369073]}, "type": "Feature", "properties": {"collection_times": [{"days": "Mon-Sat", "time": "5:00pm"}, {"days": "Sun", "time": "Closed"}], "id": "2218000059", "name": "USPS COLLECTION BOX - BLUE BOX", "address": {"city": "VIENNA", "state": "VA", "street": "200 LAWYERS RD NW", "postcode": "22180"}}},
{"geometry": {"type": "Point", "coordinates": [-77.2572740247, 38.8837100274]}, "type": "Feature", "properties": {"collection_times": [{"days": "Mon-Sat", "time": "9:00am"}, {"days": "Sun", "time": "Closed"}], "id": "2218000060", "name": "USPS COLLECTION BOX - BLUE BOX", "address": {"city": "VIENNA", "state": "VA", "street": "428 YEONAS DR SW", "postcode": "22180"}}},
{"geometry": {"type": "Point", "coordinates": [-77.2681678938, 38.9008369073]}, "type": "Feature", "properties": {"collection_times": [{"days": "Mon-Fri", "time": "5:00pm"}, {"days": "Sat", "time": "1:30pm"}, {"days": "Sun", "time": "Closed"}], "id": "2218000062", "name": "USPS COLLECTION BOX - PO LOBBY", "address": {"city": "VIENNA", "state": "VA", "street": "200 LAWYERS RD NW", "postcode": "22180"}}},
{"geometry": {"type": "Point", "coordinates": [-77.2745009493, 38.8940671542]}, "type": "Feature", "properties": {"collection_times": [{"days": "Mon-Sat", "time": "9:00am"}, {"days": "Sun", "time": "Closed"}], "id": "2218000069", "name": "USPS COLLECTION BOX - BLUE BOX", "address": {"city": "VIENNA", "state": "VA", "street": "530 MAPLE AVE", "postcode": "22180"}}},
{"geometry": {"type": "Point", "coordinates": [-77.2757048553, 38.8929035252]}, "type": "Feature", "properties": {"collection_times": [{"days": "Mon-Sat", "time": "9:00am"}, {"days": "Sun", "time": "Closed"}], "id": "2218100006", "name": "USPS COLLECTION BOX - BLUE BOX", "address": {"city": "VIENNA", "state": "VA", "street": "2535 CHAIN BRIDGE RD", "postcode": "22181"}}},
{"geometry": {"type": "Point", "coordinates": [-77.2358589186, 38.9226530365]}, "type": "Feature", "properties": {"collection_times": [{"days": "Mon-Sat", "time": "9:00am"}, {"days": "Sun", "time": "Closed"}], "id": "2218200006", "name": "USPS COLLECTION BOX - BLUE BOX", "address": {"city": "VIENNA", "state": "VA", "street": "8365 LEESBURG PIKE", "postcode": "22182"}}},
{"geometry": {"type": "Point", "coordinates": [-77.2183559403, 38.9072326981]}, "type": "Feature", "properties": {"collection_times": [{"days": "Mon-Fri", "time": "9:00am"}, {"days": "Sat-Sun", "time": "Closed"}], "id": "2218200011", "name": "USPS COLLECTION BOX - BLUE BOX", "address": {"city": "VIENNA", "state": "VA", "street": "7980 SCIENCE APPLICATIONS CT", "postcode": "22182"}}},
{"geometry": {"type": "Point", "coordinates": [-77.2279366424, 38.9139287142]}, "type": "Feature", "properties": {"collection_times": [{"days": "Mon-Sat", "time": "9:00am"}, {"days": "Sun", "time": "Closed"}], "id": "2218200012", "name": "USPS COLLECTION BOX - BLUE BOX", "address": {"city": "VIENNA", "state": "VA", "street": "1900 GALLOWS RD", "postcode": "22182"}}},
{"geometry": {"type": "Point", "coordinates": [-77.2225873019, 38.9050009229]}, "type": "Feature", "properties": {"collection_times": [{"days": "Mon-Sat", "time": "9:00am"}, {"days": "Sun", "time": "Closed"}], "id": "2218200033", "name": "USPS COLLECTION BOX - BLUE BOX", "address": {"city": "VIENNA", "state": "VA", "street": "2106 GALLOWS RD", "postcode": "22182"}}},
{"geometry": {"type": "Point", "coordinates": [-77.2311461429, 38.9138033065]}, "type": "Feature", "properties": {"collection_times": [{"days": "Mon-Fri", "time": "11:00am"}, {"days": "Sat", "time": "4:30pm"}, {"days": "Sun", "time": "Closed"}], "id": "2218200057", "name": "USPS COLLECTION BOX - BLUE BOX", "address": {"city": "VIENNA", "state": "VA", "street": "8300 OLD COURTHOUSE RD", "postcode": "22182"}}},
{"geometry": {"type": "Point", "coordinates": [-77.232733541, 38.9143853363]}, "type": "Feature", "properties": {"collection_times": [{"days": "Mon-Fri", "time": "9:00am"}, {"days": "Sat-Sun", "time": "Closed"}], "id": "2218200061", "name": "USPS COLLECTION BOX - BLUE BOX", "address": {"city": "VIENNA", "state": "VA", "street": "8321 OLD COURTHOUSE RD", "postcode": "22182"}}},
{"geometry": {"type": "Point", "coordinates": [-77.2484018325, 38.9283702772]}, "type": "Feature", "properties": {"collection_times": [{"days": "Mon-Fri", "time": "9:00am"}, {"days": "Sat-Sun", "time": "Closed"}], "id": "2218200067", "name": "USPS COLLECTION BOX - BLUE BOX", "address": {"city": "VIENNA", "state": "VA", "street": "8615 WESTWOOD CENTER DR", "postcode": "22182"}}},
{"geometry": {"type": "Point", "coordinates": [-77.2273522606, 38.914019802]}, "type": "Feature", "properties": {"collection_times": [{"days": "Mon-Fri", "time": "9:00am"}, {"days": "Sat-Sun", "time": "Closed"}], "id": "2218200074", "name": "USPS COLLECTION BOX - BLUE BOX", "address": {"city": "VIENNA", "state": "VA", "street": "8100 BOONE BLVD", "postcode": "22182"}}},
{"geometry": {"type": "Point", "coordinates": [-77.2693059003, 38.6326092427]}, "type": "Feature", "properties": {"collection_times": [{"days": "Mon-Sat", "time": "5:00pm"}, {"days": "Sun", "time": "Closed"}], "id": "2219100004", "name": "USPS COLLECTION BOX - BLUE BOX", "address": {"city": "WOODBRIDGE", "state": "VA", "street": "1810 REDDY DR", "postcode": "22191"}}},
{"geometry": {"type": "Point", "coordinates": [-77.2752050452, 38.6317911316]}, "type": "Feature", "properties": {"collection_times": [{"days": "Mon-Sat", "time": "9:00am"}, {"days": "Sun", "time": "Closed"}], "id": "2219100022", "name": "USPS COLLECTION BOX - BLUE BOX", "address": {"city": "WOODBRIDGE", "state": "VA", "street": "2026 DANIEL STUART SQ", "postcode": "22191"}}},
{"geometry": {"type": "Point", "coordinates": [-77.2747522434, 38.6297038955]}, "type": "Feature", "properties": {"collection_times": [{"days": "Mon-Fri", "time": "2:30pm"}, {"days": "Sat", "time": "2:40pm"}, {"days": "Sun", "time": "Closed"}], "id": "2219100024", "name": "USPS COLLECTION BOX - BLUE BOX", "address": {"city": "WOODBRIDGE", "state": "VA", "street": "14904 JEFFERSON DAVIS HWY", "postcode": "22191"}}},
{"geometry": {"type": "Point", "coordinates": [-77.2876074585, 38.6355962141]}, "type": "Feature", "properties": {"collection_times": [{"days": "Mon-Sat", "time": "2:30pm"}, {"days": "Sun", "time": "Closed"}], "id": "2219100025", "name": "USPS COLLECTION BOX - BLUE BOX", "address": {"city": "WOODBRIDGE", "state": "VA", "street": "2300 OPITZ BLVD", "postcode": "22191"}}},
{"geometry": {"type": "Point", "coordinates": [-77.2693059003, 38.6326092427]}, "type": "Feature", "properties": {"collection_times": [{"days": "Mon-Sat", "time": "5:00pm"}, {"days": "Sun", "time": "Closed"}], "id": "2219100029", "name": "USPS COLLECTION BOX - PO LOBBY", "address": {"city": "WOODBRIDGE", "state": "VA", "street": "1810 REDDY DR", "postcode": "22191"}}},
{"geometry": {"type": "Point", "coordinates": [-77.2876074585, 38.6355962141]}, "type": "Feature", "properties": {"collection_times": [{"days": "Mon-Sat", "time": "2:30pm"}, {"days": "Sun", "time": "Closed"}], "id": "2219100031", "name": "USPS COLLECTION BOX - BLUE BOX", "address": {"city": "WOODBRIDGE", "state": "VA", "street": "2300 OPITZ BLVD", "postcode": "22191"}}},
{"geometry": {"type": "Point", "coordinates": [-77.2707360882, 38.6297008865]}, "type": "Feature", "properties": {"collection_times": [{"days": "Mon-Sat", "time": "5:00pm"}, {"days": "Sun", "time": "Closed"}], "id": "2219100032", "name": "USPS COLLECTION BOX - EXPRESS", "address": {"city": "WOODBRIDGE", "state": "VA", "street": "1810 REDDY DR", "postcode": "22191"}}},
{"geometry": {"type": "Point", "coordinates": [-77.2478838501, 38.6608027814]}, "type": "Feature", "properties": {"collection_times": [{"days": "Mon-Sat", "time": "9:00am"}, {"days": "Sun", "time": "Closed"}], "id": "2219100044", "name": "USPS COLLECTION BOX - BLUE BOX", "address": {"city": "WOODBRIDGE", "state": "VA", "street": "13438 JEFFERSON DAVIS HWY", "postcode": "22191"}}},
{"geometry": {"type": "Point", "coordinates": [-77.2585728194, 38.6507858934]}, "type": "Feature", "properties": {"collection_times": [{"days": "Mon-Sat", "time": "2:15pm"}, {"days": "Sun", "time": "Closed"}], "id": "2219100046", "name": "USPS COLLECTION BOX - BLUE BOX", "address": {"city": "WOODBRIDGE", "state": "VA", "street": "13915 JEFFERSON DAVIS HWY", "postcode": "22191"}}},
{"geometry": {"type": "Point", "coordinates": [-77.2935210703, 38.6086010905]}, "type": "Feature", "properties": {"collection_times": [{"days": "Mon-Sat", "time": "2:45pm"}, {"days": "Sun", "time": "Closed"}], "id": "2219100051", "name": "USPS COLLECTION BOX - BLUE BOX", "address": {"city": "WOODBRIDGE", "state": "VA", "street": "15941 DONALD CURTIS DR", "postcode": "22191"}}},
{"geometry": {"type": "Point", "coordinates": [-77.2835318913, 38.6346495255]}, "type": "Feature", "properties": {"collection_times": [{"days": "Mon-Sat", "time": "2:30pm"}, {"days": "Sun", "time": "Closed"}], "id": "2219100052", "name": "USPS COLLECTION BOX - BLUE BOX", "address": {"city": "WOODBRIDGE", "state": "VA", "street": "2280 OPITZ BLVD", "postcode": "22191"}}},
{"geometry": {"type": "Point", "coordinates": [-77.2693059003, 38.6326092427]}, "type": "Feature", "properties": {"collection_times": [{"days": "Mon-Sat", "time": "5:00pm"}, {"days": "Sun", "time": "Closed"}], "id": "2219100053", "name": "USPS COLLECTION BOX - APC", "address": {"city": "WOODBRIDGE", "state": "VA", "street": "1810 REDDY DR", "postcode": "22191"}}},
{"geometry": {"type": "Point", "coordinates": [-77.3126661886, 38.6851407839]}, "type": "Feature", "properties": {"collection_times": [{"days": "Mon-Sat", "time": "3:45pm"}, {"days": "Sun", "time": "Closed"}], "id": "2219200006", "name": "USPS COLLECTION BOX - BLUE BOX", "address": {"city": "WOODBRIDGE", "state": "VA", "street": "12445 HEDGES RUN DR", "postcode": "22192"}}},
{"geometry": {"type": "Point", "coordinates": [-77.3391572613, 38.6734840238]}, "type": "Feature", "properties": {"collection_times": [{"days": "Mon-Sat", "time": "4:05pm"}, {"days": "Sun", "time": "Closed"}], "id": "2219200008", "name": "USPS COLLECTION BOX - BLUE BOX", "address": {"city": "WOODBRIDGE", "state": "VA", "street": "4310 RIDGEWOOD CENTER DR", "postcode": "22192"}}},
{"geometry": {"type": "Point", "coordinates": [-77.2663134573, 38.6747469783]}, "type": "Feature", "properties": {"collection_times": [{"days": "Mon-Sat", "time": "4:00pm"}, {"days": "Sun", "time": "Closed"}], "id": "2219200013", "name": "USPS COLLECTION BOX - BLUE BOX", "address": {"city": "WOODBRIDGE", "state": "VA", "street": "1719 SHADY RIVER CT", "postcode": "22192"}}},
{"geometry": {"type": "Point", "coordinates": [-77.3063325159, 38.651540135]}, "type": "Feature", "properties": {"collection_times": [{"days": "Mon-Sat", "time": "3:30pm"}, {"days": "Sun", "time": "Closed"}], "id": "2219200018", "name": "USPS COLLECTION BOX - BLUE BOX", "address": {"city": "WOODBRIDGE", "state": "VA", "street": "3146 GOLANSKY BLVD", "postcode": "22192"}}},
{"geometry": {"type": "Point", "coordinates": [-77.3194811342, 38.6828294213]}, "type": "Feature", "properties": {"collection_times": [{"days": "Mon-Fri", "time": "5:00pm"}, {"days": "Sat", "time": "4:15pm"}, {"days": "Sun", "time": "Closed"}], "id": "2219200022", "name": "USPS COLLECTION BOX - BLUE BOX", "address": {"city": "WOODBRIDGE", "state": "VA", "street": "12541 DILLINGHAM SQ", "postcode": "22192"}}},
{"geometry": {"type": "Point", "coordinates": [-77.2781721778, 38.6758073552]}, "type": "Feature", "properties": {"collection_times": [{"days": "Mon-Sat", "time": "3:45pm"}, {"days": "Sun", "time": "Closed"}], "id": "2219200029", "name": "USPS COLLECTION BOX - BLUE BOX", "address": {"city": "WOODBRIDGE", "state": "VA", "street": "2211 TACKETTS MILL DR", "postcode": "22192"}}},
{"geometry": {"type": "Point", "coordinates": [-77.2658750013, 38.6755376741]}, "type": "Feature", "properties": {"collection_times": [{"days": "Mon-Sat", "time": "4:30pm"}, {"days": "Sun", "time": "Closed"}], "id": "2219200037", "name": "USPS COLLECTION BOX - BLUE BOX", "address": {"city": "WOODBRIDGE", "state": "VA", "street": "1708 OLD BRIDGE RD", "postcode": "22192"}}},
{"geometry": {"type": "Point", "coordinates": [-77.25308635, 38.662811368]}, "type": "Feature", "properties": {"collection_times": [{"days": "Mon-Sat", "time": "4:15pm"}, {"days": "Sun", "time": "Closed"}], "id": "2219200038", "name": "USPS COLLECTION BOX - BLUE BOX", "address": {"city": "WOODBRIDGE", "state": "VA", "street": "13316 OCCOQUAN RD", "postcode": "22192"}}},
{"geometry": {"type": "Point", "coordinates": [-77.3046065761, 38.6570851901]}, "type": "Feature", "properties": {"collection_times": [{"days": "Mon-Sat", "time": "3:45pm"}, {"days": "Sun", "time": "Closed"}], "id": "2219200039", "name": "USPS COLLECTION BOX - BLUE BOX", "address": {"city": "WOODBRIDGE", "state": "VA", "street": "13662 OFFICE PL", "postcode": "22192"}}},
{"geometry": {"type": "Point", "coordinates": [-77.3504415069, 38.6819753033]}, "type": "Feature", "properties": {"collection_times": [{"days": "Mon-Sat", "time": "4:00pm"}, {"days": "Sun", "time": "Closed"}], "id": "2219200040", "name": "USPS COLLECTION BOX - BLUE BOX", "address": {"city": "WOODBRIDGE", "state": "VA", "street": "7 COUNTY COMPLEX CT", "postcode": "22192"}}},
{"geometry": {"type": "Point", "coordinates": [-77.3343534904, 38.674529481]}, "type": "Feature", "properties": {"collection_times": [{"days": "Mon-Sat", "time": "4:00pm"}, {"days": "Sun", "time": "Closed"}], "id": "2219200041", "name": "USPS COLLECTION BOX - BLUE BOX", "address": {"city": "WOODBRIDGE", "state": "VA", "street": "4220 MERCHANT PLZ", "postcode": "22192"}}},
{"geometry": {"type": "Point", "coordinates": [-77.2549258512, 38.6733148607]}, "type": "Feature", "properties": {"collection_times": [{"days": "Mon-Sat", "time": "9:00am"}, {"days": "Sun", "time": "Closed"}], "id": "2219200044", "name": "USPS COLLECTION BOX - BLUE BOX", "address": {"city": "WOODBRIDGE", "state": "VA", "street": "1308 DEVILS REACH RD", "postcode": "22192"}}},
{"geometry": {"type": "Point", "coordinates": [-77.3147812089, 38.6868230691]}, "type": "Feature", "properties": {"collection_times": [{"days": "Mon-Sat", "time": "3:45pm"}, {"days": "Sun", "time": "Closed"}], "id": "2219200045", "name": "USPS COLLECTION BOX - BLUE BOX", "address": {"city": "WOODBRIDGE", "state": "VA", "street": "3460 COMMISSION CT", "postcode": "22192"}}},
{"geometry": {"type": "Point", "coordinates": [-77.274475431, 38.6788783167]}, "type": "Feature", "properties": {"collection_times": [{"days": "Mon-Sat", "time": "4:00pm"}, {"days": "Sun", "time": "Closed"}], "id": "2219200047", "name": "USPS COLLECTION BOX - BLUE BOX", "address": {"city": "WOODBRIDGE", "state": "VA", "street": "12610 LAKE RIDGE DR", "postcode": "22192"}}},
{"geometry": {"type": "Point", "coordinates": [-77.312990209, 38.6504979482]}, "type": "Feature", "properties": {"collection_times": [{"days": "Mon-Sat", "time": "5:00pm"}, {"days": "Sun", "time": "Closed"}], "id": "2219200048", "name": "USPS COLLECTION BOX - BLUE BOX", "address": {"city": "WOODBRIDGE", "state": "VA", "street": "3360 POST OFFICE RD", "postcode": "22192"}}},
{"geometry": {"type": "Point", "coordinates": [-77.308498531, 38.6792122242]}, "type": "Feature", "properties": {"collection_times": [{"days": "Mon-Sat", "time": "5:00pm"}, {"days": "Sun", "time": "Closed"}], "id": "2219200050", "name": "USPS COLLECTION BOX - EXPRESS", "address": {"city": "WOODBRIDGE", "state": "VA", "street": "3360 POST OFFICE RD", "postcode": "22192"}}},
{"geometry": {"type": "Point", "coordinates": [-77.312990209, 38.6504979482]}, "type": "Feature", "properties": {"collection_times": [{"days": "Mon-Sat", "time": "5:00pm"}, {"days": "Sun", "time": "Closed"}], "id": "2219200051", "name": "USPS COLLECTION BOX - PO LOBBY", "address": {"city": "WOODBRIDGE", "state": "VA", "street": "3360 POST OFFICE RD", "postcode": "22192"}}},
{"geometry": {"type": "Point", "coordinates": [-77.312990209, 38.6504979482]}, "type": "Feature", "properties": {"collection_times": [{"days": "Mon-Sat", "time": "5:00pm"}, {"days": "Sun", "time": "Closed"}], "id": "2219200053", "name": "USPS COLLECTION BOX - APC", "address": {"city": "WOODBRIDGE", "state": "VA", "street": "3360 POST OFFICE RD", "postcode": "22192"}}},
{"geometry": {"type": "Point", "coordinates": [-77.312990209, 38.6504979482]}, "type": "Feature", "properties": {"collection_times": [{"days": "Mon-Sat", "time": "5:00pm"}, {"days": "Sun", "time": "Closed"}], "id": "2219200054", "name": "USPS COLLECTION BOX - BLUE BOX", "address": {"city": "WOODBRIDGE", "state": "VA", "street": "3360 POST OFFICE RD", "postcode": "22192"}}},
{"geometry": {"type": "Point", "coordinates": [-77.3055712693, 38.6538977006]}, "type": "Feature", "properties": {"collection_times": [{"days": "Mon-Sat", "time": "3:30pm"}, {"days": "Sun", "time": "Closed"}], "id": "2219200056", "name": "USPS COLLECTION BOX - BLUE BOX", "address": {"city": "WOODBRIDGE", "state": "VA", "street": "13792 SMOKETOWN RD", "postcode": "22192"}}},
{"geometry": {"type": "Point", "coordinates": [-77.3670955236, 38.6617669553]}, "type": "Feature", "properties": {"collection_times": [{"days": "Mon-Fri", "time": "2:15pm"}, {"days": "Sat", "time": "3:00pm"}, {"days": "Sun", "time": "Closed"}], "id": "2219300004", "name": "USPS COLLECTION BOX - BLUE BOX", "address": {"city": "DALE CITY", "state": "VA", "street": "5437 MAPLEDALE PLZ", "postcode": "22193"}}},
{"geometry": {"type": "Point", "coordinates": [-77.3007189948, 38.627286421]}, "type": "Feature", "properties": {"collection_times": [{"days": "Mon-Sat", "time": "9:00am"}, {"days": "Sun", "time": "Closed"}], "id": "2219300007", "name": "USPS COLLECTION BOX - BLUE BOX", "address": {"city": "DALE CITY", "state": "VA", "street": "2888 DALE BLVD", "postcode": "22193"}}},
{"geometry": {"type": "Point", "coordinates": [-77.3492373021, 38.6432443146]}, "type": "Feature", "properties": {"collection_times": [{"days": "Mon-Sat", "time": "9:00am"}, {"days": "Sun", "time": "Closed"}], "id": "2219300008", "name": "USPS COLLECTION BOX - BLUE BOX", "address": {"city": "DALE CITY", "state": "VA", "street": "4116 DALE BLVD", "postcode": "22193"}}},
{"geometry": {"type": "Point", "coordinates": [-77.3389942591, 38.6471673179]}, "type": "Feature", "properties": {"collection_times": [{"days": "Mon-Fri", "time": "2:30pm"}, {"days": "Sat", "time": "3:15pm"}, {"days": "Sun", "time": "Closed"}], "id": "2219300009", "name": "USPS COLLECTION BOX - BLUE BOX", "address": {"city": "DALE CITY", "state": "VA", "street": "4319 DALE BLVD", "postcode": "22193"}}},
{"geometry": {"type": "Point", "coordinates": [-77.3384707225, 38.6471081218]}, "type": "Feature", "properties": {"collection_times": [{"days": "Mon-Fri", "time": "2:15pm"}, {"days": "Sat", "time": "3:00pm"}, {"days": "Sun", "time": "Closed"}], "id": "2219300010", "name": "USPS COLLECTION BOX - BLUE BOX", "address": {"city": "DALE CITY", "state": "VA", "street": "4320 DALE BLVD", "postcode": "22193"}}}
]}
