{"type": "FeatureCollection", "features": [
{"geometry": {"type": "Point", "coordinates": [-77.0897291806, 38.8899808929]}, "type": "Feature", "properties": {"collection_times": [{"days": "Mon-Fri", "time": "2:30pm"}, {"days": "Sat", "time": "2:45pm"}, {"days": "Sun", "time": "Closed"}], "id": "2220100013", "name": "USPS COLLECTION BOX - BLUE BOX", "address": {"city": "ARLINGTON", "state": "VA", "street": "2601 WILSON BLVD", "postcode": "22201"}}},
{"geometry": {"type": "Point", "coordinates": [-77.0897658523, 38.8827577454]}, "type": "Feature", "properties": {"collection_times": [{"days": "Mon-Fri", "time": "11:30am"}, {"days": "Sat", "time": "1:30pm"}, {"days": "Sun", "time": "Closed"}], "id": "2220100026", "name": "USPS COLLECTION BOX - BLUE BOX", "address": {"city": "ARLINGTON", "state": "VA", "street": "825 N DANVILLE ST", "postcode": "22201"}}},
{"geometry": {"type": "Point", "coordinates": [-77.0967071005, 38.8960280432]}, "type": "Feature", "properties": {"collection_times": [{"days": "Mon-Fri", "time": "11:45am"}, {"days": "Sat", "time": "1:45pm"}, {"days": "Sun", "time": "Closed"}], "id": "2220100031", "name": "USPS COLLECTION BOX - BLUE BOX", "address": {"city": "ARLINGTON", "state": "VA", "street": "3131 LEE HWY", "postcode": "22201"}}},
{"geometry": {"type": "Point", "coordinates": [-77.0817430246, 38.8894757694]}, "type": "Feature", "properties": {"collection_times": [{"days": "Mon-Fri", "time": "2:00pm"}, {"days": "Sat", "time": "2:30pm"}, {"days": "Sun", "time": "Closed"}], "id": "2220100053", "name": "USPS COLLECTION BOX - BLUE BOX", "address": {"city": "ARLINGTON", "state": "VA", "street": "1401 N TAFT ST", "postcode": "22201"}}},
{"geometry": {"type": "Point", "coordinates": [-77.1104948422, 38.8828026979]}, "type": "Feature", "properties": {"collection_times": [{"days": "Mon-Fri", "time": "11:45am"}, {"days": "Sat", "time": "1:45pm"}, {"days": "Sun", "time": "Closed"}], "id": "2220100061", "name": "USPS COLLECTION BOX - BLUE BOX", "address": {"city": "ARLINGTON", "state": "VA", "street": "1011 N STAFFORD ST", "postcode": "22201"}}},
{"geometry": {"type": "Point", "coordinates": [-77.0964529734, 38.8802716495]}, "type": "Feature", "properties": {"collection_times": [{"days": "Mon-Fri", "time": "11:30am"}, {"days": "Sat", "time": "1:30pm"}, {"days": "Sun", "time": "Closed"}], "id": "2220100082", "name": "USPS COLLECTION BOX - BLUE BOX", "address": {"city": "ARLINGTON", "state": "VA", "street": "600 N IRVING ST", "postcode": "22201"}}},
{"geometry": {"type": "Point", "coordinates": [-77.0837043706, 38.8918298577]}, "type": "Feature", "properties": {"collection_times": [{"days": "Mon-Fri", "time": "5:00pm"}, {"days": "Sat", "time": "2:30pm"}, {"days": "Sun", "time": "Closed"}], "id": "2220100092", "name": "USPS COLLECTION BOX - BLUE BOX", "address": {"city": "ARLINGTON", "state": "VA", "street": "2043 WILSON BLVD", "postcode": "22201"}}},
{"geometry": {"type": "Point", "coordinates": [-77.1030933168, 38.882771959]}, "type": "Feature", "properties": {"collection_times": [{"days": "Mon-Fri", "time": "11:45am"}, {"days": "Sat", "time": "1:45pm"}, {"days": "Sun", "time": "Closed"}], "id": "2220100133", "name": "USPS COLLECTION BOX - BLUE BOX", "address": {"city": "ARLINGTON", "state": "VA", "street": "910 N MONROE ST", "postcode": "22201"}}},
{"geometry": {"type": "Point", "coordinates": [-77.1004089341, 38.8840838424]}, "type": "Feature", "properties": {"collection_times": [{"days": "Mon-Fri", "time": "11:30am"}, {"days": "Sat", "time": "1:30pm"}, {"days": "Sun", "time": "Closed"}], "id": "2220100138", "name": "USPS COLLECTION BOX - BLUE BOX", "address": {"city": "ARLINGTON", "state": "VA", "street": "933 N KENMORE ST", "postcode": "22201"}}},
{"geometry": {"type": "Point", "coordinates": [-77.08464364, 38.8914666893]}, "type": "Feature", "properties": {"collection_times": [{"days": "Mon-Fri", "time": "2:15pm"}, {"days": "Sat", "time": "2:45pm"}, {"days": "Sun", "time": "Closed"}], "id": "2220100142", "name": "USPS COLLECTION BOX - BLUE BOX", "address": {"city": "ARLINGTON", "state": "VA", "street": "2050 WILSON BLVD", "postcode": "22201"}}},
{"geometry": {"type": "Point", "coordinates": [-77.0952133783, 38.8857825715]}, "type": "Feature", "properties": {"collection_times": [{"days": "Mon-Fri", "time": "5:00pm"}, {"days": "Sat", "time": "4:00pm"}, {"days": "Sun", "time": "Closed"}], "id": "2220100151", "name": "USPS COLLECTION BOX - BLUE BOX", "address": {"city": "ARLINGTON", "state": "VA", "street": "3118 WASHINGTON BLVD", "postcode": "22201"}}},
{"geometry": {"type": "Point", "coordinates": [-77.0511098688, 38.8571536324]}, "type": "Feature", "properties": {"collection_times": [{"days": "Mon-Fri", "time": "2:30pm"}, {"days": "Sat", "time": "12:30pm"}, {"days": "Sun", "time": "Closed"}], "id": "2220200004", "name": "USPS COLLECTION BOX - BLUE BOX", "address": {"city": "ARLINGTON", "state": "VA", "street": "1800 S BELL ST", "postcode": "22202"}}},
{"geometry": {"type": "Point", "coordinates": [-77.0627719117, 38.8494562676]}, "type": "Feature", "properties": {"collection_times": [{"days": "Mon-Fri", "time": "2:00pm"}, {"days": "Sat", "time": "12:00pm"}, {"days": "Sun", "time": "Closed"}], "id": "2220200005", "name": "USPS COLLECTION BOX - BLUE BOX", "address": {"city": "ARLINGTON", "state": "VA", "street": "2645 FORT SCOTT DR", "postcode": "22202"}}},
{"geometry": {"type": "Point", "coordinates": [-77.0537258245, 38.8533387389]}, "type": "Feature", "properties": {"collection_times": [{"days": "Mon-Fri", "time": "2:00pm"}, {"days": "Sat", "time": "12:00pm"}, {"days": "Sun", "time": "Closed"}], "id": "2220200021", "name": "USPS COLLECTION BOX - BLUE BOX", "address": {"city": "ARLINGTON", "state": "VA", "street": "507 23RD ST S", "postcode": "22202"}}},
{"geometry": {"type": "Point", "coordinates": [-77.0592975612, 38.8532630296]}, "type": "Feature", "properties": {"collection_times": [{"days": "Mon-Fri", "time": "2:00pm"}, {"days": "Sat", "time": "12:00pm"}, {"days": "Sun", "time": "Closed"}], "id": "2220200036", "name": "USPS COLLECTION BOX - BLUE BOX", "address": {"city": "ARLINGTON", "state": "VA", "street": "775 23RD ST S", "postcode": "22202"}}},
{"geometry": {"type": "Point", "coordinates": [-77.0577549827, 38.8627870322]}, "type": "Feature", "properties": {"collection_times": [{"days": "Mon-Fri", "time": "2:00pm"}, {"days": "Sat", "time": "12:30pm"}, {"days": "Sun", "time": "Closed"}], "id": "2220200043", "name": "USPS COLLECTION BOX - BLUE BOX", "address": {"city": "ARLINGTON", "state": "VA", "street": "601 12TH ST S", "postcode": "22202"}}},
{"geometry": {"type": "Point", "coordinates": [-77.0595578122, 38.8630768571]}, "type": "Feature", "properties": {"collection_times": [{"days": "Mon-Fri", "time": "2:30pm"}, {"days": "Sat", "time": "12:00pm"}, {"days": "Sun", "time": "Closed"}], "id": "2220200045", "name": "USPS COLLECTION BOX - BLUE BOX", "address": {"city": "ARLINGTON", "state": "VA", "street": "1200 S HAYES ST", "postcode": "22202"}}},
{"geometry": {"type": "Point", "coordinates": [-77.0564371664, 38.861265747]}, "type": "Feature", "properties": {"collection_times": [{"days": "Mon-Fri", "time": "5:00pm"}, {"days": "Sat", "time": "2:00pm"}, {"days": "Sun", "time": "Closed"}], "id": "2220200056", "name": "USPS COLLECTION BOX - BLUE BOX", "address": {"city": "ARLINGTON", "state": "VA", "street": "1301 S FERN ST", "postcode": "22202"}}},
{"geometry": {"type": "Point", "coordinates": [-77.0496336631, 38.853468333]}, "type": "Feature", "properties": {"collection_times": [{"days": "Mon-Fri", "time": "2:00pm"}, {"days": "Sat", "time": "12:30pm"}, {"days": "Sun", "time": "Closed"}], "id": "2220200066", "name": "USPS COLLECTION BOX - BLUE BOX", "address": {"city": "ARLINGTON", "state": "VA", "street": "223 23RD ST S", "postcode": "22202"}}},
{"geometry": {"type": "Point", "coordinates": [-77.0599900335, 38.8604704629]}, "type": "Feature", "properties": {"collection_times": [{"days": "Mon-Sat", "time": "9:00am"}, {"days": "Sun", "time": "Closed"}], "id": "2220200091", "name": "USPS COLLECTION BOX - BLUE BOX", "address": {"city": "ARLINGTON", "state": "VA", "street": "1500 S HAYES ST", "postcode": "22202"}}},
{"geometry": {"type": "Point", "coordinates": [-77.0515398563, 38.8513631325]}, "type": "Feature", "properties": {"collection_times": [{"days": "Mon-Fri", "time": "2:30pm"}, {"days": "Sat", "time": "12:30pm"}, {"days": "Sun", "time": "Closed"}], "id": "2220200106", "name": "USPS COLLECTION BOX - BLUE BOX", "address": {"city": "ARLINGTON", "state": "VA", "street": "2521 S CLARK ST", "postcode": "22202"}}},
{"geometry": {"type": "Point", "coordinates": [-77.0561299914, 38.8594937555]}, "type": "Feature", "properties": {"collection_times": [{"days": "Mon-Fri", "time": "5:00pm"}, {"days": "Sat", "time": "2:00pm"}, {"days": "Sun", "time": "Closed"}], "id": "2220200132", "name": "USPS COLLECTION BOX - APC", "address": {"city": "ARLINGTON", "state": "VA", "street": "1320 S FERN ST", "postcode": "22202"}}},
{"geometry": {"type": "Point", "coordinates": [-77.0564371664, 38.861265747]}, "type": "Feature", "properties": {"collection_times": [{"days": "Mon-Fri", "time": "5:00pm"}, {"days": "Sat", "time": "2:00pm"}, {"days": "Sun", "time": "Closed"}], "id": "2220200136", "name": "USPS COLLECTION BOX - PO LOBBY", "address": {"city": "ARLINGTON", "state": "VA", "street": "1301 S FERN ST", "postcode": "22202"}}},
{"geometry": {"type": "Point", "coordinates": [-77.0511611694, 38.8583734123]}, "type": "Feature", "properties": {"collection_times": [{"days": "Mon-Fri", "time": "4:30pm"}, {"days": "Sat-Sun", "time": "Closed"}], "id": "2220200137", "name": "USPS COLLECTION BOX - PO LOBBY", "address": {"city": "ARLINGTON", "state": "VA", "street": "1632 CRYSTAL SQUARE ARC", "postcode": "22202"}}},
{"geometry": {"type": "Point", "coordinates": [-77.1171170465, 38.8673816448]}, "type": "Feature", "properties": {"collection_times": [{"days": "Mon-Fri", "time": "2:00pm"}, {"days": "Sat", "time": "12:30pm"}, {"days": "Sun", "time": "Closed"}], "id": "2220300005", "name": "USPS COLLECTION BOX - BLUE BOX", "address": {"city": "ARLINGTON", "state": "VA", "street": "4811 1ST ST N", "postcode": "22203"}}},
{"geometry": {"type": "Point", "coordinates": [-77.1128335466, 38.8768002562]}, "type": "Feature", "properties": {"collection_times": [{"days": "Mon-Fri", "time": "2:00pm"}, {"days": "Sat", "time": "12:30pm"}, {"days": "Sun", "time": "Closed"}], "id": "2220300008", "name": "USPS COLLECTION BOX - BLUE BOX", "address": {"city": "ARLINGTON", "state": "VA", "street": "4400 N CARLIN SPRINGS RD", "postcode": "22203"}}},
{"geometry": {"type": "Point", "coordinates": [-77.1060480995, 38.8732514872]}, "type": "Feature", "properties": {"collection_times": [{"days": "Mon-Fri", "time": "2:15pm"}, {"days": "Sat", "time": "12:30pm"}, {"days": "Sun", "time": "Closed"}], "id": "2220300016", "name": "USPS COLLECTION BOX - BLUE BOX", "address": {"city": "ARLINGTON", "state": "VA", "street": "4235 N PERSHING DR", "postcode": "22203"}}},
{"geometry": {"type": "Point", "coordinates": [-77.1108284367, 38.879917461]}, "type": "Feature", "properties": {"collection_times": [{"days": "Mon-Fri", "time": "1:45pm"}, {"days": "Sat", "time": "12:00pm"}, {"days": "Sun", "time": "Closed"}], "id": "2220300027", "name": "USPS COLLECTION BOX - BLUE BOX", "address": {"city": "ARLINGTON", "state": "VA", "street": "4238 WILSON BLVD", "postcode": "22203"}}},
{"geometry": {"type": "Point", "coordinates": [-77.1044842277, 38.8734431265]}, "type": "Feature", "properties": {"collection_times": [{"days": "Mon-Fri", "time": "5:00pm"}, {"days": "Sat", "time": "2:00pm"}, {"days": "Sun", "time": "Closed"}], "id": "2220300029", "name": "USPS COLLECTION BOX - PO LOBBY", "address": {"city": "ARLINGTON", "state": "VA", "street": "235 N GLEBE RD", "postcode": "22203"}}},
{"geometry": {"type": "Point", "coordinates": [-77.1044842277, 38.8734431265]}, "type": "Feature", "properties": {"collection_times": [{"days": "Mon-Fri", "time": "5:00pm"}, {"days": "Sat", "time": "2:00pm"}, {"days": "Sun", "time": "Closed"}], "id": "2220300034", "name": "USPS COLLECTION BOX - BLUE BOX", "address": {"city": "ARLINGTON", "state": "VA", "street": "235 N GLEBE RD", "postcode": "22203"}}},
{"geometry": {"type": "Point", "coordinates": [-77.1044842277, 38.8734431265]}, "type": "Feature", "properties": {"collection_times": [{"days": "Mon-Fri", "time": "5:00pm"}, {"days": "Sat", "time": "2:00pm"}, {"days": "Sun", "time": "Closed"}], "id": "2220300064", "name": "USPS COLLECTION BOX - BLUE BOX", "address": {"city": "ARLINGTON", "state": "VA", "street": "235 N GLEBE RD", "postcode": "22203"}}},
{"geometry": {"type": "Point", "coordinates": [-77.1085867294, 38.8714309133]}, "type": "Feature", "properties": {"collection_times": [{"days": "Mon-Fri", "time": "2:15pm"}, {"days": "Sat", "time": "12:30pm"}, {"days": "Sun", "time": "Closed"}], "id": "2220300078", "name": "USPS COLLECTION BOX - BLUE BOX", "address": {"city": "ARLINGTON", "state": "VA", "street": "4350 N PERSHING DR", "postcode": "22203"}}},
{"geometry": {"type": "Point", "coordinates": [-77.1127330006, 38.8801256617]}, "type": "Feature", "properties": {"collection_times": [{"days": "Mon-Fri", "time": "1:45pm"}, {"days": "Sat", "time": "12:00pm"}, {"days": "Sun", "time": "Closed"}], "id": "2220300082", "name": "USPS COLLECTION BOX - BLUE BOX", "address": {"city": "ARLINGTON", "state": "VA", "street": "4301 WILSON BLVD", "postcode": "22203"}}},
{"geometry": {"type": "Point", "coordinates": [-77.0862893782, 38.8905117555]}, "type": "Feature", "properties": {"collection_times": [{"days": "Mon-Sat", "time": "9:00am"}, {"days": "Sun", "time": "Closed"}], "id": "2220300085", "name": "USPS COLLECTION BOX - BLUE BOX", "address": {"city": "ARLINGTON", "state": "VA", "street": "67 N GLEBE RD", "postcode": "22203"}}},
{"geometry": {"type": "Point", "coordinates": [-77.0956487072, 38.864695145]}, "type": "Feature", "properties": {"collection_times": [{"days": "Mon-Fri", "time": "1:00pm"}, {"days": "Sat", "time": "2:00pm"}, {"days": "Sun", "time": "Closed"}], "id": "2220400027", "name": "USPS COLLECTION BOX - BLUE BOX", "address": {"city": "ARLINGTON", "state": "VA", "street": "714 S MONROE ST", "postcode": "22204"}}},
{"geometry": {"type": "Point", "coordinates": [-77.0928415456, 38.8697191717]}, "type": "Feature", "properties": {"collection_times": [{"days": "Mon-Fri", "time": "1:00pm"}, {"days": "Sat", "time": "2:00pm"}, {"days": "Sun", "time": "Closed"}], "id": "2220400046", "name": "USPS COLLECTION BOX - BLUE BOX", "address": {"city": "ARLINGTON", "state": "VA", "street": "3200 2ND ST S", "postcode": "22204"}}},
{"geometry": {"type": "Point", "coordinates": [-77.1016995423, 38.8586845305]}, "type": "Feature", "properties": {"collection_times": [{"days": "Mon-Fri", "time": "1:00pm"}, {"days": "Sat", "time": "2:00pm"}, {"days": "Sun", "time": "Closed"}], "id": "2220400062", "name": "USPS COLLECTION BOX - BLUE BOX", "address": {"city": "ARLINGTON", "state": "VA", "street": "4200 COLUMBIA PIKE", "postcode": "22204"}}},
{"geometry": {"type": "Point", "coordinates": [-77.0915213634, 38.859218045]}, "type": "Feature", "properties": {"collection_times": [{"days": "Mon-Fri", "time": "5:00pm"}, {"days": "Sat", "time": "2:00pm"}, {"days": "Sun", "time": "Closed"}], "id": "2220400084", "name": "USPS COLLECTION BOX - BLUE BOX", "address": {"city": "ARLINGTON", "state": "VA", "street": "1210 S GLEBE RD", "postcode": "22204"}}},
{"geometry": {"type": "Point", "coordinates": [-77.1065910777, 38.8670563311]}, "type": "Feature", "properties": {"collection_times": [{"days": "Mon-Fri", "time": "1:30pm"}, {"days": "Sat", "time": "2:00pm"}, {"days": "Sun", "time": "Closed"}], "id": "2220400089", "name": "USPS COLLECTION BOX - BLUE BOX", "address": {"city": "ARLINGTON", "state": "VA", "street": "111 S GEORGE MASON DR", "postcode": "22204"}}},
{"geometry": {"type": "Point", "coordinates": [-77.1255172381, 38.8636091887]}, "type": "Feature", "properties": {"collection_times": [{"days": "Mon-Sat", "time": "2:00pm"}, {"days": "Sun", "time": "Closed"}], "id": "2220400104", "name": "USPS COLLECTION BOX - BLUE BOX", "address": {"city": "ARLINGTON", "state": "VA", "street": "300 S KENSINGTON ST", "postcode": "22204"}}},
{"geometry": {"type": "Point", "coordinates": [-77.112830307, 38.8640905334]}, "type": "Feature", "properties": {"collection_times": [{"days": "Mon-Fri", "time": "1:30pm"}, {"days": "Sat", "time": "3:00pm"}, {"days": "Sun", "time": "Closed"}], "id": "2220400110", "name": "USPS COLLECTION BOX - BLUE BOX", "address": {"city": "ARLINGTON", "state": "VA", "street": "4674 4TH ST S", "postcode": "22204"}}},
{"geometry": {"type": "Point", "coordinates": [-77.0800064408, 38.864349721]}, "type": "Feature", "properties": {"collection_times": [{"days": "Mon-Fri", "time": "1:00pm"}, {"days": "Sat", "time": "1:40pm"}, {"days": "Sun", "time": "Closed"}], "id": "2220400121", "name": "USPS COLLECTION BOX - BLUE BOX", "address": {"city": "ARLINGTON", "state": "VA", "street": "2040 COLUMBIA PIKE", "postcode": "22204"}}},
{"geometry": {"type": "Point", "coordinates": [-77.113094986, 38.8555674336]}, "type": "Feature", "properties": {"collection_times": [{"days": "Mon-Fri", "time": "1:30pm"}, {"days": "Sat", "time": "2:00pm"}, {"days": "Sun", "time": "Closed"}], "id": "2220400128", "name": "USPS COLLECTION BOX - BLUE BOX", "address": {"city": "ARLINGTON", "state": "VA", "street": "5017 COLUMBIA PIKE", "postcode": "22204"}}},
{"geometry": {"type": "Point", "coordinates": [-77.0915213634, 38.859218045]}, "type": "Feature", "properties": {"collection_times": [{"days": "Mon-Fri", "time": "5:00pm"}, {"days": "Sat", "time": "2:00pm"}, {"days": "Sun", "time": "Closed"}], "id": "2220400143", "name": "USPS COLLECTION BOX - PO LOBBY", "address": {"city": "ARLINGTON", "state": "VA", "street": "1210 S GLEBE RD", "postcode": "22204"}}},
{"geometry": {"type": "Point", "coordinates": [-77.0872934681, 38.863715655]}, "type": "Feature", "properties": {"collection_times": [{"days": "Mon-Fri", "time": "1:00pm"}, {"days": "Sat", "time": "2:00pm"}, {"days": "Sun", "time": "Closed"}], "id": "2220400148", "name": "USPS COLLECTION BOX - BLUE BOX", "address": {"city": "ARLINGTON", "state": "VA", "street": "900 S WALTER REED DR", "postcode": "22204"}}},
{"geometry": {"type": "Point", "coordinates": [-77.0996814143, 38.8696209861]}, "type": "Feature", "properties": {"collection_times": [{"days": "Mon-Fri", "time": "1:00pm"}, {"days": "Sat", "time": "3:00pm"}, {"days": "Sun", "time": "Closed"}], "id": "2220400154", "name": "USPS COLLECTION BOX - BLUE BOX", "address": {"city": "ARLINGTON", "state": "VA", "street": "46 S GLEBE RD", "postcode": "22204"}}},
{"geometry": {"type": "Point", "coordinates": [-77.0843348877, 38.8575051204]}, "type": "Feature", "properties": {"collection_times": [{"days": "Mon-Fri", "time": "1:00pm"}, {"days": "Sat", "time": "1:30pm"}, {"days": "Sun", "time": "Closed"}], "id": "2220400163", "name": "USPS COLLECTION BOX - BLUE BOX", "address": {"city": "ARLINGTON", "state": "VA", "street": "2700 16TH ST S", "postcode": "22204"}}},
{"geometry": {"type": "Point", "coordinates": [-77.0887887282, 38.8621233922]}, "type": "Feature", "properties": {"collection_times": [{"days": "Mon-Fri", "time": "1:00pm"}, {"days": "Sat", "time": "2:00pm"}, {"days": "Sun", "time": "Closed"}], "id": "2220400164", "name": "USPS COLLECTION BOX - BLUE BOX", "address": {"city": "ARLINGTON", "state": "VA", "street": "3045 COLUMBIA PIKE", "postcode": "22204"}}},
{"geometry": {"type": "Point", "coordinates": [-77.1234600725, 38.8776414479]}, "type": "Feature", "properties": {"collection_times": [{"days": "Mon-Fri", "time": "12:30pm"}, {"days": "Sat", "time": "2:00pm"}, {"days": "Sun", "time": "Closed"}], "id": "2220500002", "name": "USPS COLLECTION BOX - BLUE BOX", "address": {"city": "ARLINGTON", "state": "VA", "street": "5101 WILSON BLVD", "postcode": "22205"}}},
{"geometry": {"type": "Point", "coordinates": [-77.1450218655, 38.872277912]}, "type": "Feature", "properties": {"collection_times": [{"days": "Mon-Fri", "time": "12:30pm"}, {"days": "Sat", "time": "2:30pm"}, {"days": "Sun", "time": "Closed"}], "id": "2220500005", "name": "USPS COLLECTION BOX - BLUE BOX", "address": {"city": "ARLINGTON", "state": "VA", "street": "6176 WILSON BLVD", "postcode": "22205"}}},
{"geometry": {"type": "Point", "coordinates": [-77.1397364049, 38.8875936817]}, "type": "Feature", "properties": {"collection_times": [{"days": "Mon-Fri", "time": "1:00pm"}, {"days": "Sat", "time": "2:00pm"}, {"days": "Sun", "time": "Closed"}], "id": "2220500007", "name": "USPS COLLECTION BOX - BLUE BOX", "address": {"city": "ARLINGTON", "state": "VA", "street": "1800 N LEXINGTON ST", "postcode": "22205"}}},
{"geometry": {"type": "Point", "coordinates": [-77.1415557958, 38.8856488971]}, "type": "Feature", "properties": {"collection_times": [{"days": "Mon-Fri", "time": "5:00pm"}, {"days": "Sat", "time": "2:00pm"}, {"days": "Sun", "time": "Closed"}], "id": "2220500011", "name": "USPS COLLECTION BOX - BLUE BOX", "address": {"city": "ARLINGTON", "state": "VA", "street": "5877 WASHINGTON BLVD", "postcode": "22205"}}},
{"geometry": {"type": "Point", "coordinates": [-77.1411618704, 38.8734821642]}, "type": "Feature", "properties": {"collection_times": [{"days": "Mon-Fri", "time": "12:30pm"}, {"days": "Sat", "time": "2:00pm"}, {"days": "Sun", "time": "Closed"}], "id": "2220500015", "name": "USPS COLLECTION BOX - BLUE BOX", "address": {"city": "ARLINGTON", "state": "VA", "street": "6045 WILSON BLVD", "postcode": "22205"}}},
{"geometry": {"type": "Point", "coordinates": [-77.1608995408, 38.8883590561]}, "type": "Feature", "properties": {"collection_times": [{"days": "Mon-Fri", "time": "12:45pm"}, {"days": "Sat", "time": "2:30pm"}, {"days": "Sun", "time": "Closed"}], "id": "2220500042", "name": "USPS COLLECTION BOX - BLUE BOX", "address": {"city": "ARLINGTON", "state": "VA", "street": "6745 LEE HWY", "postcode": "22205"}}},
{"geometry": {"type": "Point", "coordinates": [-77.1325735884, 38.8755085729]}, "type": "Feature", "properties": {"collection_times": [{"days": "Mon-Fri", "time": "12:30pm"}, {"days": "Sat", "time": "2:00pm"}, {"days": "Sun", "time": "Closed"}], "id": "2220500043", "name": "USPS COLLECTION BOX - BLUE BOX", "address": {"city": "ARLINGTON", "state": "VA", "street": "851 N LEXINGTON ST", "postcode": "22205"}}},
{"geometry": {"type": "Point", "coordinates": [-77.1487801262, 38.8775752022]}, "type": "Feature", "properties": {"collection_times": [{"days": "Mon-Fri", "time": "12:30pm"}, {"days": "Sat", "time": "2:30pm"}, {"days": "Sun", "time": "Closed"}], "id": "2220500044", "name": "USPS COLLECTION BOX - BLUE BOX", "address": {"city": "ARLINGTON", "state": "VA", "street": "962 N POTOMAC ST", "postcode": "22205"}}},
{"geometry": {"type": "Point", "coordinates": [-77.1415557958, 38.8856488971]}, "type": "Feature", "properties": {"collection_times": [{"days": "Mon-Fri", "time": "5:00pm"}, {"days": "Sat", "time": "2:00pm"}, {"days": "Sun", "time": "Closed"}], "id": "2220500045", "name": "USPS COLLECTION BOX - BLUE BOX", "address": {"city": "ARLINGTON", "state": "VA", "street": "5877 WASHINGTON BLVD", "postcode": "22205"}}},
{"geometry": {"type": "Point", "coordinates": [-77.1355700234, 38.8833042725]}, "type": "Feature", "properties": {"collection_times": [{"days": "Mon-Fri", "time": "1:00pm"}, {"days": "Sat", "time": "2:00pm"}, {"days": "Sun", "time": "Closed"}], "id": "2220500049", "name": "USPS COLLECTION BOX - BLUE BOX", "address": {"city": "ARLINGTON", "state": "VA", "street": "5700 WASHINGTON BLVD", "postcode": "22205"}}},
{"geometry": {"type": "Point", "coordinates": [-77.1415557958, 38.8856488971]}, "type": "Feature", "properties": {"collection_times": [{"days": "Mon-Fri", "time": "5:00pm"}, {"days": "Sat", "time": "2:00pm"}, {"days": "Sun", "time": "Closed"}], "id": "2220500056", "name": "USPS COLLECTION BOX - PO LOBBY", "address": {"city": "ARLINGTON", "state": "VA", "street": "5877 WASHINGTON BLVD", "postcode": "22205"}}},
{"geometry": {"type": "Point", "coordinates": [-77.1415557958, 38.8856488971]}, "type": "Feature", "properties": {"collection_times": [{"days": "Mon-Fri", "time": "5:00pm"}, {"days": "Sat", "time": "2:00pm"}, {"days": "Sun", "time": "Closed"}], "id": "2220500057", "name": "USPS COLLECTION BOX - PO LOBBY", "address": {"city": "ARLINGTON", "state": "VA", "street": "5877 WASHINGTON BLVD", "postcode": "22205"}}},
{"geometry": {"type": "Point", "coordinates": [-77.0921648931, 38.8317083343]}, "type": "Feature", "properties": {"collection_times": [{"days": "Mon-Fri", "time": "1:00pm"}, {"days": "Sat", "time": "1:30pm"}, {"days": "Sun", "time": "Closed"}], "id": "2220600005", "name": "USPS COLLECTION BOX - BLUE BOX", "address": {"city": "ARLINGTON", "state": "VA", "street": "3602 S WAKEFIELD ST", "postcode": "22206"}}},
{"geometry": {"type": "Point", "coordinates": [-77.0856479721, 38.8372552288]}, "type": "Feature", "properties": {"collection_times": [{"days": "Mon-Fri", "time": "1:00pm"}, {"days": "Sat", "time": "1:30pm"}, {"days": "Sun", "time": "Closed"}], "id": "2220600027", "name": "USPS COLLECTION BOX - BLUE BOX", "address": {"city": "ARLINGTON", "state": "VA", "street": "3169 S STAFFORD ST", "postcode": "22206"}}},
{"geometry": {"type": "Point", "coordinates": [-77.0868131867, 38.8403119948]}, "type": "Feature", "properties": {"collection_times": [{"days": "Mon-Fri", "time": "5:00pm"}, {"days": "Sat", "time": "1:30pm"}, {"days": "Sun", "time": "Closed"}], "id": "2220600031", "name": "USPS COLLECTION BOX - BLUE BOX", "address": {"city": "ARLINGTON", "state": "VA", "street": "2850 S QUINCY ST", "postcode": "22206"}}},
{"geometry": {"type": "Point", "coordinates": [-77.0982677784, 38.8434290917]}, "type": "Feature", "properties": {"collection_times": [{"days": "Mon-Fri", "time": "1:00pm"}, {"days": "Sat", "time": "1:30pm"}, {"days": "Sun", "time": "Closed"}], "id": "2220600037", "name": "USPS COLLECTION BOX - BLUE BOX", "address": {"city": "ARLINGTON", "state": "VA", "street": "4600 28TH RD S", "postcode": "22206"}}},
{"geometry": {"type": "Point", "coordinates": [-77.1031167272, 38.8961488409]}, "type": "Feature", "properties": {"collection_times": [{"days": "Mon-Fri", "time": "2:00pm"}, {"days": "Sat", "time": "3:30pm"}, {"days": "Sun", "time": "Closed"}], "id": "2220700007", "name": "USPS COLLECTION BOX - BLUE BOX", "address": {"city": "ARLINGTON", "state": "VA", "street": "3436 LEE HWY", "postcode": "22207"}}},
{"geometry": {"type": "Point", "coordinates": [-77.1101896388, 38.8922604548]}, "type": "Feature", "properties": {"collection_times": [{"days": "Mon-Fri", "time": "2:30pm"}, {"days": "Sat", "time": "3:30pm"}, {"days": "Sun", "time": "Closed"}], "id": "2220700008", "name": "USPS COLLECTION BOX - BLUE BOX", "address": {"city": "ARLINGTON", "state": "VA", "street": "1706 N RANDOLPH ST", "postcode": "22207"}}},
{"geometry": {"type": "Point", "coordinates": [-77.1090054969, 38.8987631802]}, "type": "Feature", "properties": {"collection_times": [{"days": "Mon-Fri", "time": "2:15pm"}, {"days": "Sat", "time": "3:30pm"}, {"days": "Sun", "time": "Closed"}], "id": "2220700011", "name": "USPS COLLECTION BOX - BLUE BOX", "address": {"city": "ARLINGTON", "state": "VA", "street": "2190 MILITARY RD", "postcode": "22207"}}},
{"geometry": {"type": "Point", "coordinates": [-77.1149368532, 38.8935617097]}, "type": "Feature", "properties": {"collection_times": [{"days": "Mon-Fri", "time": "2:15pm"}, {"days": "Sat", "time": "3:30pm"}, {"days": "Sun", "time": "Closed"}], "id": "2220700014", "name": "USPS COLLECTION BOX - BLUE BOX", "address": {"city": "ARLINGTON", "state": "VA", "street": "4402 19TH ST N", "postcode": "22207"}}},
{"geometry": {"type": "Point", "coordinates": [-77.1205452616, 38.8985656261]}, "type": "Feature", "properties": {"collection_times": [{"days": "Mon-Fri", "time": "1:45pm"}, {"days": "Sat", "time": "3:30pm"}, {"days": "Sun", "time": "Closed"}], "id": "2220700020", "name": "USPS COLLECTION BOX - BLUE BOX", "address": {"city": "ARLINGTON", "state": "VA", "street": "4620 LEE HWY", "postcode": "22207"}}},
{"geometry": {"type": "Point", "coordinates": [-77.1218488824, 38.8982284828]}, "type": "Feature", "properties": {"collection_times": [{"days": "Mon-Fri", "time": "1:45pm"}, {"days": "Sat", "time": "3:00pm"}, {"days": "Sun", "time": "Closed"}], "id": "2220700026", "name": "USPS COLLECTION BOX - BLUE BOX", "address": {"city": "ARLINGTON", "state": "VA", "street": "4707 LEE HWY", "postcode": "22207"}}},
{"geometry": {"type": "Point", "coordinates": [-77.1184206673, 38.8985810046]}, "type": "Feature", "properties": {"collection_times": [{"days": "Mon-Fri", "time": "2:00pm"}, {"days": "Sat", "time": "3:30pm"}, {"days": "Sun", "time": "Closed"}], "id": "2220700031", "name": "USPS COLLECTION BOX - BLUE BOX", "address": {"city": "ARLINGTON", "state": "VA", "street": "4510 LEE HWY", "postcode": "22207"}}},
{"geometry": {"type": "Point", "coordinates": [-77.1329769774, 38.8952036567]}, "type": "Feature", "properties": {"collection_times": [{"days": "Mon-Fri", "time": "5:00pm"}, {"days": "Sat", "time": "2:00pm"}, {"days": "Sun", "time": "Closed"}], "id": "2220700032", "name": "USPS COLLECTION BOX - BLUE BOX", "address": {"city": "ARLINGTON", "state": "VA", "street": "2200 N GEORGE MASON DR", "postcode": "22207"}}},
{"geometry": {"type": "Point", "coordinates": [-77.1296777048, 38.9057213449]}, "type": "Feature", "properties": {"collection_times": [{"days": "Mon-Fri", "time": "1:30pm"}, {"days": "Sat", "time": "3:00pm"}, {"days": "Sun", "time": "Closed"}], "id": "2220700035", "name": "USPS COLLECTION BOX - BLUE BOX", "address": {"city": "ARLINGTON", "state": "VA", "street": "2807 N GLEBE RD", "postcode": "22207"}}},
{"geometry": {"type": "Point", "coordinates": [-77.1568372597, 38.8994516624]}, "type": "Feature", "properties": {"collection_times": [{"days": "Mon-Fri", "time": "12:45pm"}, {"days": "Sat", "time": "2:30pm"}, {"days": "Sun", "time": "Closed"}], "id": "2220700037", "name": "USPS COLLECTION BOX - BLUE BOX", "address": {"city": "ARLINGTON", "state": "VA", "street": "2910 N SYCAMORE ST", "postcode": "22207"}}},
{"geometry": {"type": "Point", "coordinates": [-77.1156714707, 38.8998384899]}, "type": "Feature", "properties": {"collection_times": [{"days": "Mon-Fri", "time": "2:00pm"}, {"days": "Sat", "time": "3:30pm"}, {"days": "Sun", "time": "Closed"}], "id": "2220700041", "name": "USPS COLLECTION BOX - BLUE BOX", "address": {"city": "ARLINGTON", "state": "VA", "street": "4343 LORCOM LN", "postcode": "22207"}}},
{"geometry": {"type": "Point", "coordinates": [-77.1394300185, 38.8973933138]}, "type": "Feature", "properties": {"collection_times": [{"days": "Mon-Fri", "time": "1:00pm"}, {"days": "Sat", "time": "2:30pm"}, {"days": "Sun", "time": "Closed"}], "id": "2220700045", "name": "USPS COLLECTION BOX - BLUE BOX", "address": {"city": "ARLINGTON", "state": "VA", "street": "2505 N HARRISON ST", "postcode": "22207"}}},
{"geometry": {"type": "Point", "coordinates": [-77.1329769774, 38.8952036567]}, "type": "Feature", "properties": {"collection_times": [{"days": "Mon-Fri", "time": "5:00pm"}, {"days": "Sat", "time": "2:00pm"}, {"days": "Sun", "time": "Closed"}], "id": "2220700047", "name": "USPS COLLECTION BOX - BLUE BOX", "address": {"city": "ARLINGTON", "state": "VA", "street": "2200 N GEORGE MASON DR", "postcode": "22207"}}},
{"geometry": {"type": "Point", "coordinates": [-77.1269450696, 38.9016271239]}, "type": "Feature", "properties": {"collection_times": [{"days": "Mon-Fri", "time": "1:45pm"}, {"days": "Sat", "time": "3:00pm"}, {"days": "Sun", "time": "Closed"}], "id": "2220700048", "name": "USPS COLLECTION BOX - BLUE BOX", "address": {"city": "ARLINGTON", "state": "VA", "street": "2501 N GLEBE RD", "postcode": "22207"}}},
{"geometry": {"type": "Point", "coordinates": [-77.1144684014, 38.89029556]}, "type": "Feature", "properties": {"collection_times": [{"days": "Mon-Fri", "time": "2:30pm"}, {"days": "Sat", "time": "3:30pm"}, {"days": "Sun", "time": "Closed"}], "id": "2220700050", "name": "USPS COLLECTION BOX - BLUE BOX", "address": {"city": "ARLINGTON", "state": "VA", "street": "1535 N UTAH ST", "postcode": "22207"}}},
{"geometry": {"type": "Point", "coordinates": [-77.1181639652, 38.9088940408]}, "type": "Feature", "properties": {"collection_times": [{"days": "Mon-Fri", "time": "1:30pm"}, {"days": "Sat", "time": "3:00pm"}, {"days": "Sun", "time": "Closed"}], "id": "2220700058", "name": "USPS COLLECTION BOX - BLUE BOX", "address": {"city": "ARLINGTON", "state": "VA", "street": "4362 26TH ST N", "postcode": "22207"}}},
{"geometry": {"type": "Point", "coordinates": [-77.1524981662, 38.8949682479]}, "type": "Feature", "properties": {"collection_times": [{"days": "Mon-Fri", "time": "12:45pm"}, {"days": "Sat", "time": "2:30pm"}, {"days": "Sun", "time": "Closed"}], "id": "2220700060", "name": "USPS COLLECTION BOX - BLUE BOX", "address": {"city": "ARLINGTON", "state": "VA", "street": "2515 N POTOMAC ST", "postcode": "22207"}}},
{"geometry": {"type": "Point", "coordinates": [-77.145094026, 38.9061992603]}, "type": "Feature", "properties": {"collection_times": [{"days": "Mon-Fri", "time": "1:00pm"}, {"days": "Sat", "time": "2:30pm"}, {"days": "Sun", "time": "Closed"}], "id": "2220700062", "name": "USPS COLLECTION BOX - BLUE BOX", "address": {"city": "ARLINGTON", "state": "VA", "street": "5331 32ND ST N", "postcode": "22207"}}},
{"geometry": {"type": "Point", "coordinates": [-77.1386610952, 38.9122997797]}, "type": "Feature", "properties": {"collection_times": [{"days": "Mon-Fri", "time": "1:15pm"}, {"days": "Sat", "time": "3:00pm"}, {"days": "Sun", "time": "Closed"}], "id": "2220700064", "name": "USPS COLLECTION BOX - BLUE BOX", "address": {"city": "ARLINGTON", "state": "VA", "street": "4959 34TH RD N", "postcode": "22207"}}},
{"geometry": {"type": "Point", "coordinates": [-77.1270255108, 38.925291035]}, "type": "Feature", "properties": {"collection_times": [{"days": "Mon-Fri", "time": "1:30pm"}, {"days": "Sat", "time": "3:00pm"}, {"days": "Sun", "time": "Closed"}], "id": "2220700072", "name": "USPS COLLECTION BOX - BLUE BOX", "address": {"city": "ARLINGTON", "state": "VA", "street": "3847 N RIVER ST", "postcode": "22207"}}},
{"geometry": {"type": "Point", "coordinates": [-77.1074191489, 38.896780541]}, "type": "Feature", "properties": {"collection_times": [{"days": "Mon-Fri", "time": "2:00pm"}, {"days": "Sat", "time": "3:30pm"}, {"days": "Sun", "time": "Closed"}], "id": "2220700075", "name": "USPS COLLECTION BOX - BLUE BOX", "address": {"city": "ARLINGTON", "state": "VA", "street": "3901 LEE HWY", "postcode": "22207"}}},
{"geometry": {"type": "Point", "coordinates": [-77.1392289155, 38.9069599029]}, "type": "Feature", "properties": {"collection_times": [{"days": "Mon-Fri", "time": "1:15pm"}, {"days": "Sat", "time": "3:00pm"}, {"days": "Sun", "time": "Closed"}], "id": "2220700083", "name": "USPS COLLECTION BOX - BLUE BOX", "address": {"city": "ARLINGTON", "state": "VA", "street": "3201 N GEORGE MASON DR", "postcode": "22207"}}},
{"geometry": {"type": "Point", "coordinates": [-77.1173429917, 38.8949410398]}, "type": "Feature", "properties": {"collection_times": [{"days": "Mon-Fri", "time": "2:15pm"}, {"days": "Sat", "time": "3:30pm"}, {"days": "Sun", "time": "Closed"}], "id": "2220700085", "name": "USPS COLLECTION BOX - BLUE BOX", "address": {"city": "ARLINGTON", "state": "VA", "street": "1941 N VERMONT ST", "postcode": "22207"}}},
{"geometry": {"type": "Point", "coordinates": [-77.1329769774, 38.8952036567]}, "type": "Feature", "properties": {"collection_times": [{"days": "Mon-Fri", "time": "5:00pm"}, {"days": "Sat", "time": "2:00pm"}, {"days": "Sun", "time": "Closed"}], "id": "2220700088", "name": "USPS COLLECTION BOX - BLUE BOX", "address": {"city": "ARLINGTON", "state": "VA", "street": "2200 N GEORGE MASON DR", "postcode": "22207"}}},
{"geometry": {"type": "Point", "coordinates": [-77.1329769774, 38.8952036567]}, "type": "Feature", "properties": {"collection_times": [{"days": "Mon-Fri", "time": "5:00pm"}, {"days": "Sat", "time": "2:00pm"}, {"days": "Sun", "time": "Closed"}], "id": "2220700092", "name": "USPS COLLECTION BOX - PO LOBBY", "address": {"city": "ARLINGTON", "state": "VA", "street": "2200 N GEORGE MASON DR", "postcode": "22207"}}},
{"geometry": {"type": "Point", "coordinates": [-77.127711627, 38.9214310399]}, "type": "Feature", "properties": {"collection_times": [{"days": "Mon-Fri", "time": "1:30pm"}, {"days": "Sat", "time": "3:00pm"}, {"days": "Sun", "time": "Closed"}], "id": "2220700094", "name": "USPS COLLECTION BOX - BLUE BOX", "address": {"city": "ARLINGTON", "state": "VA", "street": "4133 N OLD GLEBE RD", "postcode": "22207"}}},
{"geometry": {"type": "Point", "coordinates": [-77.1390976071, 38.9153352524]}, "type": "Feature", "properties": {"collection_times": [{"days": "Mon-Fri", "time": "1:15pm"}, {"days": "Sat", "time": "3:00pm"}, {"days": "Sun", "time": "Closed"}], "id": "2220700098", "name": "USPS COLLECTION BOX - BLUE BOX", "address": {"city": "ARLINGTON", "state": "VA", "street": "5018 36TH ST N", "postcode": "22207"}}},
{"geometry": {"type": "Point", "coordinates": [-77.1329769774, 38.8952036567]}, "type": "Feature", "properties": {"collection_times": [{"days": "Mon-Fri", "time": "5:00pm"}, {"days": "Sat", "time": "2:00pm"}, {"days": "Sun", "time": "Closed"}], "id": "2220700102", "name": "USPS COLLECTION BOX - APC", "address": {"city": "ARLINGTON", "state": "VA", "street": "2200 N GEORGE MASON DR", "postcode": "22207"}}},
{"geometry": {"type": "Point", "coordinates": [-77.0687032679, 38.8942099712]}, "type": "Feature", "properties": {"collection_times": [{"days": "Mon-Fri", "time": "12:15pm"}, {"days": "Sat-Sun", "time": "Closed"}], "id": "2220900039", "name": "USPS COLLECTION BOX - BLUE BOX", "address": {"city": "ARLINGTON", "state": "VA", "street": "1000 WILSON BLVD", "postcode": "22209"}}},
{"geometry": {"type": "Point", "coordinates": [-77.0698819804, 38.8950071211]}, "type": "Feature", "properties": {"collection_times": [{"days": "Mon-Fri", "time": "5:00pm"}, {"days": "Sat", "time": "2:15pm"}, {"days": "Sun", "time": "Closed"}], "id": "2220900042", "name": "USPS COLLECTION BOX - EXPRESS", "address": {"city": "ARLINGTON", "state": "VA", "street": "1101 WILSON BLVD", "postcode": "22209"}}},
{"geometry": {"type": "Point", "coordinates": [-77.0698819804, 38.8950071211]}, "type": "Feature", "properties": {"collection_times": [{"days": "Mon-Fri", "time": "5:00pm"}, {"days": "Sat", "time": "2:15pm"}, {"days": "Sun", "time": "Closed"}], "id": "2220900046", "name": "USPS COLLECTION BOX - BLUE BOX", "address": {"city": "ARLINGTON", "state": "VA", "street": "1101 WILSON BLVD", "postcode": "22209"}}},
{"geometry": {"type": "Point", "coordinates": [-77.077233585, 38.8943093397]}, "type": "Feature", "properties": {"collection_times": [{"days": "Mon-Fri", "time": "1:30pm"}, {"days": "Sat", "time": "2:30pm"}, {"days": "Sun", "time": "Closed"}], "id": "2220900072", "name": "USPS COLLECTION BOX - BLUE BOX", "address": {"city": "ARLINGTON", "state": "VA", "street": "1601 WILSON BLVD", "postcode": "22209"}}},
{"geometry": {"type": "Point", "coordinates": [-77.0697608332, 38.8949232954]}, "type": "Feature", "properties": {"collection_times": [{"days": "Mon-Fri", "time": "5:00pm"}, {"days": "Sat", "time": "2:15pm"}, {"days": "Sun", "time": "Closed"}], "id": "2220900076", "name": "USPS COLLECTION BOX - PO LOBBY", "address": {"city": "ARLINGTON", "state": "VA", "street": "1101 WILSON BLVD", "postcode": "22209"}}},
{"geometry": {"type": "Point", "coordinates": [-77.0714619282, 38.8952781831]}, "type": "Feature", "properties": {"collection_times": [{"days": "Mon-Fri", "time": "12:45pm"}, {"days": "Sat", "time": "2:15pm"}, {"days": "Sun", "time": "Closed"}], "id": "2220900092", "name": "USPS COLLECTION BOX - BLUE BOX", "address": {"city": "ARLINGTON", "state": "VA", "street": "1700 N MOORE ST", "postcode": "22209"}}},
{"geometry": {"type": "Point", "coordinates": [-77.1625284753, 38.8971862959]}, "type": "Feature", "properties": {"collection_times": [{"days": "Mon-Fri", "time": "12:45pm"}, {"days": "Sat", "time": "2:30pm"}, {"days": "Sun", "time": "Closed"}], "id": "2221300002", "name": "USPS COLLECTION BOX - BLUE BOX", "address": {"city": "ARLINGTON", "state": "VA", "street": "6600 WILLIAMSBURG BLVD", "postcode": "22213"}}}
]}
