{"type": "FeatureCollection", "features": [
{"geometry": {"type": "Point", "coordinates": [-77.0615972334, 38.8118890398]}, "type": "Feature", "properties": {"collection_times": [{"days": "Mon-Fri", "time": "10:30am"}, {"days": "Sat", "time": "1:30pm"}, {"days": "Sun", "time": "Closed"}], "id": "2230100001", "name": "USPS COLLECTION BOX - BLUE BOX", "address": {"city": "ALEXANDRIA", "state": "VA", "street": "402 COMMONWEALTH AVE", "postcode": "22301"}}},
{"geometry": {"type": "Point", "coordinates": [-77.0536702254, 38.8209363099]}, "type": "Feature", "properties": {"collection_times": [{"days": "Mon-Fri", "time": "11:15am"}, {"days": "Sat", "time": "1:45pm"}, {"days": "Sun", "time": "Closed"}], "id": "2230100002", "name": "USPS COLLECTION BOX - BLUE BOX", "address": {"city": "ALEXANDRIA", "state": "VA", "street": "425 E MONROE AVE", "postcode": "22301"}}},
{"geometry": {"type": "Point", "coordinates": [-77.0582104219, 38.8238144491]}, "type": "Feature", "properties": {"collection_times": [{"days": "Mon-Fri", "time": "5:00pm"}, {"days": "Sat", "time": "3:30pm"}, {"days": "Sun", "time": "Closed"}], "id": "2230100003", "name": "USPS COLLECTION BOX - BLUE BOX", "address": {"city": "ALEXANDRIA", "state": "VA", "street": "1908 MOUNT VERNON AVE", "postcode": "22301"}}},
{"geometry": {"type": "Point", "coordinates": [-77.0630357115, 38.8202454619]}, "type": "Feature", "properties": {"collection_times": [{"days": "Mon-Fri", "time": "10:45am"}, {"days": "Sat", "time": "1:30pm"}, {"days": "Sun", "time": "Closed"}], "id": "2230100004", "name": "USPS COLLECTION BOX - BLUE BOX", "address": {"city": "ALEXANDRIA", "state": "VA", "street": "1603 COMMONWEALTH AVE", "postcode": "22301"}}},
{"geometry": {"type": "Point", "coordinates": [-77.0636165444, 38.8103961455]}, "type": "Feature", "properties": {"collection_times": [{"days": "Mon-Fri", "time": "10:30am"}, {"days": "Sat", "time": "1:30pm"}, {"days": "Sun", "time": "Closed"}], "id": "2230100007", "name": "USPS COLLECTION BOX - BLUE BOX", "address": {"city": "ALEXANDRIA", "state": "VA", "street": "301 RUSSELL RD", "postcode": "22301"}}},
{"geometry": {"type": "Point", "coordinates": [-77.0623164725, 38.8257840758]}, "type": "Feature", "properties": {"collection_times": [{"days": "Mon-Fri", "time": "11:00am"}, {"days": "Sat", "time": "1:30pm"}, {"days": "Sun", "time": "Closed"}], "id": "2230100008", "name": "USPS COLLECTION BOX - BLUE BOX", "address": {"city": "ALEXANDRIA", "state": "VA", "street": "3 W DEL RAY AVE", "postcode": "22301"}}},
{"geometry": {"type": "Point", "coordinates": [-77.0608732625, 38.8279134019]}, "type": "Feature", "properties": {"collection_times": [{"days": "Mon-Fri", "time": "11:00am"}, {"days": "Sat", "time": "1:30pm"}, {"days": "Sun", "time": "Closed"}], "id": "2230100009", "name": "USPS COLLECTION BOX - BLUE BOX", "address": {"city": "ALEXANDRIA", "state": "VA", "street": "2501 COMMONWEALTH AVE", "postcode": "22301"}}},
{"geometry": {"type": "Point", "coordinates": [-77.0572214682, 38.8172998941]}, "type": "Feature", "properties": {"collection_times": [{"days": "Mon-Fri", "time": "11:15am"}, {"days": "Sat", "time": "1:45pm"}, {"days": "Sun", "time": "Closed"}], "id": "2230100011", "name": "USPS COLLECTION BOX - BLUE BOX", "address": {"city": "ALEXANDRIA", "state": "VA", "street": "310 E GLENDALE AVE", "postcode": "22301"}}},
{"geometry": {"type": "Point", "coordinates": [-77.0594702732, 38.8307288442]}, "type": "Feature", "properties": {"collection_times": [{"days": "Mon-Fri", "time": "11:00am"}, {"days": "Sat", "time": "1:30pm"}, {"days": "Sun", "time": "Closed"}], "id": "2230100014", "name": "USPS COLLECTION BOX - BLUE BOX", "address": {"city": "ALEXANDRIA", "state": "VA", "street": "2809 MOUNT VERNON AVE", "postcode": "22301"}}},
{"geometry": {"type": "Point", "coordinates": [-77.0589545031, 38.8278802791]}, "type": "Feature", "properties": {"collection_times": [{"days": "Mon-Fri", "time": "11:00am"}, {"days": "Sat", "time": "1:30pm"}, {"days": "Sun", "time": "Closed"}], "id": "2230100016", "name": "USPS COLLECTION BOX - BLUE BOX", "address": {"city": "ALEXANDRIA", "state": "VA", "street": "2429 MOUNT VERNON AVE", "postcode": "22301"}}},
{"geometry": {"type": "Point", "coordinates": [-77.0657967377, 38.815919381]}, "type": "Feature", "properties": {"collection_times": [{"days": "Mon-Fri", "time": "10:45am"}, {"days": "Sat", "time": "1:30pm"}, {"days": "Sun", "time": "Closed"}], "id": "2230100023", "name": "USPS COLLECTION BOX - BLUE BOX", "address": {"city": "ALEXANDRIA", "state": "VA", "street": "1004 RUSSELL RD", "postcode": "22301"}}},
{"geometry": {"type": "Point", "coordinates": [-77.0521844289, 38.8252032429]}, "type": "Feature", "properties": {"collection_times": [{"days": "Mon-Fri", "time": "11:00am"}, {"days": "Sat", "time": "1:30pm"}, {"days": "Sun", "time": "Closed"}], "id": "2230100025", "name": "USPS COLLECTION BOX - BLUE BOX", "address": {"city": "ALEXANDRIA", "state": "VA", "street": "501 E WINDSOR AVE", "postcode": "22301"}}},
{"geometry": {"type": "Point", "coordinates": [-77.0528681792, 38.8200088701]}, "type": "Feature", "properties": {"collection_times": [{"days": "Mon-Fri", "time": "11:15am"}, {"days": "Sat", "time": "1:45pm"}, {"days": "Sun", "time": "Closed"}], "id": "2230100026", "name": "USPS COLLECTION BOX - BLUE BOX", "address": {"city": "ALEXANDRIA", "state": "VA", "street": "573 E NELSON AVE", "postcode": "22301"}}},
{"geometry": {"type": "Point", "coordinates": [-77.0582104219, 38.8238144491]}, "type": "Feature", "properties": {"collection_times": [{"days": "Mon-Fri", "time": "5:00pm"}, {"days": "Sat", "time": "3:30pm"}, {"days": "Sun", "time": "Closed"}], "id": "2230100027", "name": "USPS COLLECTION BOX - BLUE BOX", "address": {"city": "ALEXANDRIA", "state": "VA", "street": "1908 MOUNT VERNON AVE", "postcode": "22301"}}},
{"geometry": {"type": "Point", "coordinates": [-77.0582104219, 38.8238144491]}, "type": "Feature", "properties": {"collection_times": [{"days": "Mon-Fri", "time": "5:00pm"}, {"days": "Sat", "time": "1:00pm"}, {"days": "Sun", "time": "Closed"}], "id": "2230100028", "name": "USPS COLLECTION BOX - PO LOBBY", "address": {"city": "ALEXANDRIA", "state": "VA", "street": "1908 MOUNT VERNON AVE", "postcode": "22301"}}},
{"geometry": {"type": "Point", "coordinates": [-77.0908080391, 38.8271563082]}, "type": "Feature", "properties": {"collection_times": [{"days": "Mon-Fri", "time": "2:00pm"}, {"days": "Sat", "time": "3:00pm"}, {"days": "Sun", "time": "Closed"}], "id": "2230200002", "name": "USPS COLLECTION BOX - BLUE BOX", "address": {"city": "ALEXANDRIA", "state": "VA", "street": "3541 W BRADDOCK RD", "postcode": "22302"}}},
{"geometry": {"type": "Point", "coordinates": [-77.0870675229, 38.8169733974]}, "type": "Feature", "properties": {"collection_times": [{"days": "Mon-Fri", "time": "1:15pm"}, {"days": "Sat", "time": "2:00pm"}, {"days": "Sun", "time": "Closed"}], "id": "2230200004", "name": "USPS COLLECTION BOX - BLUE BOX", "address": {"city": "ALEXANDRIA", "state": "VA", "street": "1417 KINGSTON AVE", "postcode": "22302"}}},
{"geometry": {"type": "Point", "coordinates": [-77.0813893199, 38.8375450538]}, "type": "Feature", "properties": {"collection_times": [{"days": "Mon-Fri", "time": "1:00pm"}, {"days": "Sat", "time": "1:30pm"}, {"days": "Sun", "time": "Closed"}], "id": "2230200005", "name": "USPS COLLECTION BOX - BLUE BOX", "address": {"city": "ALEXANDRIA", "state": "VA", "street": "1546 MOUNT EAGLE PL", "postcode": "22302"}}},
{"geometry": {"type": "Point", "coordinates": [-77.0778025883, 38.8354949859]}, "type": "Feature", "properties": {"collection_times": [{"days": "Mon-Fri", "time": "1:00pm"}, {"days": "Sat", "time": "1:30pm"}, {"days": "Sun", "time": "Closed"}], "id": "2230200007", "name": "USPS COLLECTION BOX - BLUE BOX", "address": {"city": "ALEXANDRIA", "state": "VA", "street": "3354 GUNSTON RD", "postcode": "22302"}}},
{"geometry": {"type": "Point", "coordinates": [-77.0852670594, 38.8282434475]}, "type": "Feature", "properties": {"collection_times": [{"days": "Mon-Fri", "time": "1:15pm"}, {"days": "Sat", "time": "2:00pm"}, {"days": "Sun", "time": "Closed"}], "id": "2230200011", "name": "USPS COLLECTION BOX - BLUE BOX", "address": {"city": "ALEXANDRIA", "state": "VA", "street": "1707 OSAGE ST", "postcode": "22302"}}},
{"geometry": {"type": "Point", "coordinates": [-77.1024057688, 38.8369689528]}, "type": "Feature", "properties": {"collection_times": [{"days": "Mon-Fri", "time": "2:00pm"}, {"days": "Sat", "time": "2:30pm"}, {"days": "Sun", "time": "Closed"}], "id": "2230200015", "name": "USPS COLLECTION BOX - BLUE BOX", "address": {"city": "ALEXANDRIA", "state": "VA", "street": "4212 KING ST", "postcode": "22302"}}},
{"geometry": {"type": "Point", "coordinates": [-77.1165404867, 38.8487166031]}, "type": "Feature", "properties": {"collection_times": [{"days": "Mon-Fri", "time": "1:30pm"}, {"days": "Sat", "time": "2:30pm"}, {"days": "Sun", "time": "Closed"}], "id": "2230200018", "name": "USPS COLLECTION BOX - BLUE BOX", "address": {"city": "ALEXANDRIA", "state": "VA", "street": "3515 LEESBURG CT", "postcode": "22302"}}},
{"geometry": {"type": "Point", "coordinates": [-77.1062492025, 38.8391952816]}, "type": "Feature", "properties": {"collection_times": [{"days": "Mon-Fri", "time": "1:45pm"}, {"days": "Sat", "time": "2:30pm"}, {"days": "Sun", "time": "Closed"}], "id": "2230200020", "name": "USPS COLLECTION BOX - BLUE BOX", "address": {"city": "ALEXANDRIA", "state": "VA", "street": "3200 S 28TH ST", "postcode": "22302"}}},
{"geometry": {"type": "Point", "coordinates": [-77.1134250316, 38.844515048]}, "type": "Feature", "properties": {"collection_times": [{"days": "Mon-Fri", "time": "1:30pm"}, {"days": "Sat", "time": "2:30pm"}, {"days": "Sun", "time": "Closed"}], "id": "2230200026", "name": "USPS COLLECTION BOX - BLUE BOX", "address": {"city": "ALEXANDRIA", "state": "VA", "street": "4900 LEESBURG PIKE", "postcode": "22302"}}},
{"geometry": {"type": "Point", "coordinates": [-77.0828379526, 38.8308732521]}, "type": "Feature", "properties": {"collection_times": [{"days": "Mon-Fri", "time": "1:15pm"}, {"days": "Sat", "time": "2:00pm"}, {"days": "Sun", "time": "Closed"}], "id": "2230200033", "name": "USPS COLLECTION BOX - BLUE BOX", "address": {"city": "ALEXANDRIA", "state": "VA", "street": "1536 KENWOOD AVE", "postcode": "22302"}}},
{"geometry": {"type": "Point", "coordinates": [-77.0755277582, 38.8249441749]}, "type": "Feature", "properties": {"collection_times": [{"days": "Mon-Fri", "time": "2:15pm"}, {"days": "Sat", "time": "1:30pm"}, {"days": "Sun", "time": "Closed"}], "id": "2230200037", "name": "USPS COLLECTION BOX - BLUE BOX", "address": {"city": "ALEXANDRIA", "state": "VA", "street": "900 W BRADDOCK RD", "postcode": "22302"}}},
{"geometry": {"type": "Point", "coordinates": [-77.0950595937, 38.8292465967]}, "type": "Feature", "properties": {"collection_times": [{"days": "Mon-Fri", "time": "2:00pm"}, {"days": "Sat", "time": "3:00pm"}, {"days": "Sun", "time": "Closed"}], "id": "2230200041", "name": "USPS COLLECTION BOX - BLUE BOX", "address": {"city": "ALEXANDRIA", "state": "VA", "street": "2213 N DEARING ST", "postcode": "22302"}}},
{"geometry": {"type": "Point", "coordinates": [-77.0791298682, 38.8394342393]}, "type": "Feature", "properties": {"collection_times": [{"days": "Mon-Fri", "time": "1:00pm"}, {"days": "Sat", "time": "1:30pm"}, {"days": "Sun", "time": "Closed"}], "id": "2230200042", "name": "USPS COLLECTION BOX - BLUE BOX", "address": {"city": "ALEXANDRIA", "state": "VA", "street": "3602 VALLEY DR", "postcode": "22302"}}},
{"geometry": {"type": "Point", "coordinates": [-77.068066836, 38.8265624628]}, "type": "Feature", "properties": {"collection_times": [{"days": "Mon-Fri", "time": "2:15pm"}, {"days": "Sat", "time": "1:30pm"}, {"days": "Sun", "time": "Closed"}], "id": "2230200044", "name": "USPS COLLECTION BOX - BLUE BOX", "address": {"city": "ALEXANDRIA", "state": "VA", "street": "221 VIRGINIA AVE", "postcode": "22302"}}},
{"geometry": {"type": "Point", "coordinates": [-77.1073446225, 38.8415387233]}, "type": "Feature", "properties": {"collection_times": [{"days": "Mon-Fri", "time": "1:45pm"}, {"days": "Sat", "time": "2:30pm"}, {"days": "Sun", "time": "Closed"}], "id": "2230200046", "name": "USPS COLLECTION BOX - BLUE BOX", "address": {"city": "ALEXANDRIA", "state": "VA", "street": "4624 KING ST", "postcode": "22302"}}},
{"geometry": {"type": "Point", "coordinates": [-77.116124544, 38.8454578663]}, "type": "Feature", "properties": {"collection_times": [{"days": "Mon-Fri", "time": "1:30pm"}, {"days": "Sat", "time": "2:30pm"}, {"days": "Sun", "time": "Closed"}], "id": "2230200047", "name": "USPS COLLECTION BOX - BLUE BOX", "address": {"city": "ALEXANDRIA", "state": "VA", "street": "5124 LEESBURG PIKE", "postcode": "22302"}}},
{"geometry": {"type": "Point", "coordinates": [-77.079627894, 38.8419101724]}, "type": "Feature", "properties": {"collection_times": [{"days": "Mon-Fri", "time": "1:00pm"}, {"days": "Sat", "time": "1:30pm"}, {"days": "Sun", "time": "Closed"}], "id": "2230200048", "name": "USPS COLLECTION BOX - BLUE BOX", "address": {"city": "ALEXANDRIA", "state": "VA", "street": "3731 HOLMES LN", "postcode": "22302"}}},
{"geometry": {"type": "Point", "coordinates": [-77.0836676988, 38.8345604483]}, "type": "Feature", "properties": {"collection_times": [{"days": "Mon-Fri", "time": "1:00pm"}, {"days": "Sat", "time": "1:30pm"}, {"days": "Sun", "time": "Closed"}], "id": "2230200050", "name": "USPS COLLECTION BOX - BLUE BOX", "address": {"city": "ALEXANDRIA", "state": "VA", "street": "3301 MARTHA CUSTIS DR", "postcode": "22302"}}},
{"geometry": {"type": "Point", "coordinates": [-77.0781456464, 38.82004081]}, "type": "Feature", "properties": {"collection_times": [{"days": "Mon-Fri", "time": "1:15pm"}, {"days": "Sat", "time": "2:00pm"}, {"days": "Sun", "time": "Closed"}], "id": "2230200051", "name": "USPS COLLECTION BOX - BLUE BOX", "address": {"city": "ALEXANDRIA", "state": "VA", "street": "3003 KING ST", "postcode": "22302"}}},
{"geometry": {"type": "Point", "coordinates": [-77.0809102215, 38.8257734291]}, "type": "Feature", "properties": {"collection_times": [{"days": "Mon-Fri", "time": "2:15pm"}, {"days": "Sat", "time": "1:30pm"}, {"days": "Sun", "time": "Closed"}], "id": "2230200053", "name": "USPS COLLECTION BOX - BLUE BOX", "address": {"city": "ALEXANDRIA", "state": "VA", "street": "2300 SCROGGINS RD", "postcode": "22302"}}},
{"geometry": {"type": "Point", "coordinates": [-77.0917390278, 38.8299066878]}, "type": "Feature", "properties": {"collection_times": [{"days": "Mon-Fri", "time": "5:00pm"}, {"days": "Sat", "time": "3:00pm"}, {"days": "Sun", "time": "Closed"}], "id": "2230200057", "name": "USPS COLLECTION BOX - BLUE BOX", "address": {"city": "ALEXANDRIA", "state": "VA", "street": "3682 KING ST", "postcode": "22302"}}},
{"geometry": {"type": "Point", "coordinates": [-77.0917390278, 38.8299066878]}, "type": "Feature", "properties": {"collection_times": [{"days": "Mon-Fri", "time": "5:00pm"}, {"days": "Sat", "time": "3:00pm"}, {"days": "Sun", "time": "Closed"}], "id": "2230200060", "name": "USPS COLLECTION BOX - PO LOBBY", "address": {"city": "ALEXANDRIA", "state": "VA", "street": "3682 KING ST", "postcode": "22302"}}},
{"geometry": {"type": "Point", "coordinates": [-77.0953931881, 38.8003693854]}, "type": "Feature", "properties": {"collection_times": [{"days": "Mon-Fri", "time": "12:45pm"}, {"days": "Sat", "time": "2:00pm"}, {"days": "Sun", "time": "Closed"}], "id": "2230300006", "name": "USPS COLLECTION BOX - BLUE BOX", "address": {"city": "ALEXANDRIA", "state": "VA", "street": "3618 ELMWOOD DR", "postcode": "22303"}}},
{"geometry": {"type": "Point", "coordinates": [-77.0971889198, 38.7929889044]}, "type": "Feature", "properties": {"collection_times": [{"days": "Mon-Fri", "time": "12:45pm"}, {"days": "Sat", "time": "2:00pm"}, {"days": "Sun", "time": "Closed"}], "id": "2230300007", "name": "USPS COLLECTION BOX - BLUE BOX", "address": {"city": "ALEXANDRIA", "state": "VA", "street": "5800 SABLE DR", "postcode": "22303"}}},
{"geometry": {"type": "Point", "coordinates": [-77.0763823278, 38.790717854]}, "type": "Feature", "properties": {"collection_times": [{"days": "Mon-Fri", "time": "5:00pm"}, {"days": "Sat", "time": "3:30pm"}, {"days": "Sun", "time": "Closed"}], "id": "2230300008", "name": "USPS COLLECTION BOX - BLUE BOX", "address": {"city": "ALEXANDRIA", "state": "VA", "street": "5834 N KINGS HWY", "postcode": "22303"}}},
{"geometry": {"type": "Point", "coordinates": [-77.0589071847, 38.791645063]}, "type": "Feature", "properties": {"collection_times": [{"days": "Mon-Sat", "time": "9:00am"}, {"days": "Sun", "time": "Closed"}], "id": "2230300009", "name": "USPS COLLECTION BOX - BLUE BOX", "address": {"city": "ALEXANDRIA", "state": "VA", "street": "5904 RICHMOND HWY", "postcode": "22303"}}},
{"geometry": {"type": "Point", "coordinates": [-77.0714607453, 38.7951821103]}, "type": "Feature", "properties": {"collection_times": [{"days": "Mon-Fri", "time": "1:00pm"}, {"days": "Sat", "time": "2:30pm"}, {"days": "Sun", "time": "Closed"}], "id": "2230300010", "name": "USPS COLLECTION BOX - BLUE BOX", "address": {"city": "ALEXANDRIA", "state": "VA", "street": "2303 FARRINGTON AVE", "postcode": "22303"}}},
{"geometry": {"type": "Point", "coordinates": [-77.0764187522, 38.7914219912]}, "type": "Feature", "properties": {"collection_times": [{"days": "Mon-Fri", "time": "1:00pm"}, {"days": "Sat", "time": "2:30pm"}, {"days": "Sun", "time": "Closed"}], "id": "2230300012", "name": "USPS COLLECTION BOX - BLUE BOX", "address": {"city": "ALEXANDRIA", "state": "VA", "street": "2560 HUNTINGTON AVE", "postcode": "22303"}}},
{"geometry": {"type": "Point", "coordinates": [-77.077493836, 38.7964324979]}, "type": "Feature", "properties": {"collection_times": [{"days": "Mon-Fri", "time": "1:00pm"}, {"days": "Sat", "time": "2:30pm"}, {"days": "Sun", "time": "Closed"}], "id": "2230300013", "name": "USPS COLLECTION BOX - BLUE BOX", "address": {"city": "ALEXANDRIA", "state": "VA", "street": "2600 INDIAN DR", "postcode": "22303"}}},
{"geometry": {"type": "Point", "coordinates": [-77.0828105268, 38.7943061983]}, "type": "Feature", "properties": {"collection_times": [{"days": "Mon-Fri", "time": "12:45pm"}, {"days": "Sat", "time": "2:30pm"}, {"days": "Sun", "time": "Closed"}], "id": "2230300016", "name": "USPS COLLECTION BOX - BLUE BOX", "address": {"city": "ALEXANDRIA", "state": "VA", "street": "5739 TELEGRAPH RD", "postcode": "22303"}}},
{"geometry": {"type": "Point", "coordinates": [-77.0689438146, 38.7866340904]}, "type": "Feature", "properties": {"collection_times": [{"days": "Mon-Fri", "time": "12:45pm"}, {"days": "Sat", "time": "2:00pm"}, {"days": "Sun", "time": "Closed"}], "id": "2230300017", "name": "USPS COLLECTION BOX - BLUE BOX", "address": {"city": "ALEXANDRIA", "state": "VA", "street": "6040 RICHMOND HWY", "postcode": "22303"}}},
{"geometry": {"type": "Point", "coordinates": [-77.0671231276, 38.791875146]}, "type": "Feature", "properties": {"collection_times": [{"days": "Mon-Fri", "time": "1:00pm"}, {"days": "Sat", "time": "2:30pm"}, {"days": "Sun", "time": "Closed"}], "id": "2230300024", "name": "USPS COLLECTION BOX - BLUE BOX", "address": {"city": "ALEXANDRIA", "state": "VA", "street": "2101 HUNTINGTON AVE", "postcode": "22303"}}},
{"geometry": {"type": "Point", "coordinates": [-77.0646545911, 38.7894090783]}, "type": "Feature", "properties": {"collection_times": [{"days": "Mon-Fri", "time": "1:00pm"}, {"days": "Sat", "time": "2:30pm"}, {"days": "Sun", "time": "Closed"}], "id": "2230300028", "name": "USPS COLLECTION BOX - BLUE BOX", "address": {"city": "ALEXANDRIA", "state": "VA", "street": "5950 RICHMOND HWY", "postcode": "22303"}}},
{"geometry": {"type": "Point", "coordinates": [-77.0763823278, 38.790717854]}, "type": "Feature", "properties": {"collection_times": [{"days": "Mon-Fri", "time": "5:00pm"}, {"days": "Sat", "time": "3:30pm"}, {"days": "Sun", "time": "Closed"}], "id": "2230300029", "name": "USPS COLLECTION BOX - BLUE BOX", "address": {"city": "ALEXANDRIA", "state": "VA", "street": "5834 N KINGS HWY", "postcode": "22303"}}},
{"geometry": {"type": "Point", "coordinates": [-77.0763823278, 38.790717854]}, "type": "Feature", "properties": {"collection_times": [{"days": "Mon-Fri", "time": "5:00pm"}, {"days": "Sat", "time": "3:30pm"}, {"days": "Sun", "time": "Closed"}], "id": "2230300030", "name": "USPS COLLECTION BOX - BLUE BOX", "address": {"city": "ALEXANDRIA", "state": "VA", "street": "5834 N KINGS HWY", "postcode": "22303"}}},
{"geometry": {"type": "Point", "coordinates": [-77.0589071847, 38.791645063]}, "type": "Feature", "properties": {"collection_times": [{"days": "Mon-Fri", "time": "1:15pm"}, {"days": "Sat", "time": "3:00pm"}, {"days": "Sun", "time": "Closed"}], "id": "2230300031", "name": "USPS COLLECTION BOX - BLUE BOX", "address": {"city": "ALEXANDRIA", "state": "VA", "street": "5904 RICHMOND HWY", "postcode": "22303"}}},
{"geometry": {"type": "Point", "coordinates": [-77.0763740802, 38.7906101525]}, "type": "Feature", "properties": {"collection_times": [{"days": "Mon-Fri", "time": "5:00pm"}, {"days": "Sat", "time": "3:30pm"}, {"days": "Sun", "time": "Closed"}], "id": "2230300035", "name": "USPS COLLECTION BOX - PO LOBBY", "address": {"city": "ALEXANDRIA", "state": "VA", "street": "5834C N KINGS HWY", "postcode": "22303"}}},
{"geometry": {"type": "Point", "coordinates": [-77.1026269822, 38.8210936435]}, "type": "Feature", "properties": {"collection_times": [{"days": "Mon-Fri", "time": "1:30pm"}, {"days": "Sat", "time": "2:30pm"}, {"days": "Sun", "time": "Closed"}], "id": "2230400001", "name": "USPS COLLECTION BOX - BLUE BOX", "address": {"city": "ALEXANDRIA", "state": "VA", "street": "4201 ORMOND AVE", "postcode": "22304"}}},
{"geometry": {"type": "Point", "coordinates": [-77.1152682461, 38.8132826929]}, "type": "Feature", "properties": {"collection_times": [{"days": "Mon-Fri", "time": "12:30pm"}, {"days": "Sat", "time": "1:00pm"}, {"days": "Sun", "time": "Closed"}], "id": "2230400002", "name": "USPS COLLECTION BOX - BLUE BOX", "address": {"city": "ALEXANDRIA", "state": "VA", "street": "5426 RICHENBACKER AVE", "postcode": "22304"}}},
{"geometry": {"type": "Point", "coordinates": [-77.1242207151, 38.8207162796]}, "type": "Feature", "properties": {"collection_times": [{"days": "Mon-Fri", "time": "12:30pm"}, {"days": "Sat", "time": "1:00pm"}, {"days": "Sun", "time": "Closed"}], "id": "2230400004", "name": "USPS COLLECTION BOX - BLUE BOX", "address": {"city": "ALEXANDRIA", "state": "VA", "street": "727 N RIPLEY ST", "postcode": "22304"}}},
{"geometry": {"type": "Point", "coordinates": [-77.1151261266, 38.8179032031]}, "type": "Feature", "properties": {"collection_times": [{"days": "Mon-Fri", "time": "12:30pm"}, {"days": "Sat", "time": "1:00pm"}, {"days": "Sun", "time": "Closed"}], "id": "2230400007", "name": "USPS COLLECTION BOX - BLUE BOX", "address": {"city": "ALEXANDRIA", "state": "VA", "street": "4806 TANEY AVE", "postcode": "22304"}}},
{"geometry": {"type": "Point", "coordinates": [-77.101304434, 38.8083815664]}, "type": "Feature", "properties": {"collection_times": [{"days": "Mon-Fri", "time": "1:00pm"}, {"days": "Sat", "time": "2:00pm"}, {"days": "Sun", "time": "Closed"}], "id": "2230400009", "name": "USPS COLLECTION BOX - BLUE BOX", "address": {"city": "ALEXANDRIA", "state": "VA", "street": "3950 WHEELER AVE", "postcode": "22304"}}},
{"geometry": {"type": "Point", "coordinates": [-77.1091001336, 38.8255143611]}, "type": "Feature", "properties": {"collection_times": [{"days": "Mon-Fri", "time": "1:30pm"}, {"days": "Sat", "time": "1:00pm"}, {"days": "Sun", "time": "Closed"}], "id": "2230400017", "name": "USPS COLLECTION BOX - BLUE BOX", "address": {"city": "ALEXANDRIA", "state": "VA", "street": "4561 LA SALLE AVE", "postcode": "22304"}}},
{"geometry": {"type": "Point", "coordinates": [-77.1385889347, 38.8076859866]}, "type": "Feature", "properties": {"collection_times": [{"days": "Mon-Fri", "time": "12:15pm"}, {"days": "Sat", "time": "12:30pm"}, {"days": "Sun", "time": "Closed"}], "id": "2230400025", "name": "USPS COLLECTION BOX - BLUE BOX", "address": {"city": "ALEXANDRIA", "state": "VA", "street": "6000 EDSALL RD", "postcode": "22304"}}},
{"geometry": {"type": "Point", "coordinates": [-77.1433255024, 38.8126165595]}, "type": "Feature", "properties": {"collection_times": [{"days": "Mon-Fri", "time": "12:15pm"}, {"days": "Sat", "time": "12:30pm"}, {"days": "Sun", "time": "Closed"}], "id": "2230400026", "name": "USPS COLLECTION BOX - BLUE BOX", "address": {"city": "ALEXANDRIA", "state": "VA", "street": "200 STEVENSON SQ", "postcode": "22304"}}},
{"geometry": {"type": "Point", "coordinates": [-77.1321039537, 38.8109805273]}, "type": "Feature", "properties": {"collection_times": [{"days": "Mon-Fri", "time": "12:15pm"}, {"days": "Sat", "time": "12:00pm"}, {"days": "Sun", "time": "Closed"}], "id": "2230400032", "name": "USPS COLLECTION BOX - BLUE BOX", "address": {"city": "ALEXANDRIA", "state": "VA", "street": "259 S VAN DORN ST", "postcode": "22304"}}},
{"geometry": {"type": "Point", "coordinates": [-77.101162479, 38.8106315544]}, "type": "Feature", "properties": {"collection_times": [{"days": "Mon-Fri", "time": "12:45pm"}, {"days": "Sat", "time": "2:00pm"}, {"days": "Sun", "time": "Closed"}], "id": "2230400036", "name": "USPS COLLECTION BOX - BLUE BOX", "address": {"city": "ALEXANDRIA", "state": "VA", "street": "2 S FRENCH ST", "postcode": "22304"}}},
{"geometry": {"type": "Point", "coordinates": [-77.1156870143, 38.8038578732]}, "type": "Feature", "properties": {"collection_times": [{"days": "Mon-Fri", "time": "11:30am"}, {"days": "Sat", "time": "12:00pm"}, {"days": "Sun", "time": "Closed"}], "id": "2230400037", "name": "USPS COLLECTION BOX - BLUE BOX", "address": {"city": "ALEXANDRIA", "state": "VA", "street": "4715 EISENHOWER AVE", "postcode": "22304"}}},
{"geometry": {"type": "Point", "coordinates": [-77.1102866415, 38.8296310583]}, "type": "Feature", "properties": {"collection_times": [{"days": "Mon-Fri", "time": "2:00pm"}, {"days": "Sat", "time": "1:30pm"}, {"days": "Sun", "time": "Closed"}], "id": "2230400049", "name": "USPS COLLECTION BOX - BLUE BOX", "address": {"city": "ALEXANDRIA", "state": "VA", "street": "4604 KENMORE AVE", "postcode": "22304"}}},
{"geometry": {"type": "Point", "coordinates": [-77.1305412649, 38.8127017326]}, "type": "Feature", "properties": {"collection_times": [{"days": "Mon-Sat", "time": "12:00pm"}, {"days": "Sun", "time": "Closed"}], "id": "2230400058", "name": "USPS COLLECTION BOX - BLUE BOX", "address": {"city": "ALEXANDRIA", "state": "VA", "street": "140 S VAN DORN ST", "postcode": "22304"}}},
{"geometry": {"type": "Point", "coordinates": [-77.1267747235, 38.8145648929]}, "type": "Feature", "properties": {"collection_times": [{"days": "Mon-Fri", "time": "12:30pm"}, {"days": "Sat", "time": "1:00pm"}, {"days": "Sun", "time": "Closed"}], "id": "2230400060", "name": "USPS COLLECTION BOX - BLUE BOX", "address": {"city": "ALEXANDRIA", "state": "VA", "street": "100 CENTURY DR", "postcode": "22304"}}},
{"geometry": {"type": "Point", "coordinates": [-77.0956444672, 38.821091789]}, "type": "Feature", "properties": {"collection_times": [{"days": "Mon-Fri", "time": "5:00pm"}, {"days": "Sat", "time": "2:30pm"}, {"days": "Sun", "time": "Closed"}], "id": "2230400062", "name": "USPS COLLECTION BOX - BLUE BOX", "address": {"city": "ALEXANDRIA", "state": "VA", "street": "3737 SEMINARY RD", "postcode": "22304"}}},
{"geometry": {"type": "Point", "coordinates": [-77.1305010443, 38.8143791684]}, "type": "Feature", "properties": {"collection_times": [{"days": "Mon-Fri", "time": "12:15pm"}, {"days": "Sat", "time": "1:00pm"}, {"days": "Sun", "time": "Closed"}], "id": "2230400063", "name": "USPS COLLECTION BOX - BLUE BOX", "address": {"city": "ALEXANDRIA", "state": "VA", "street": "5701 DUKE ST", "postcode": "22304"}}},
{"geometry": {"type": "Point", "coordinates": [-77.1229490342, 38.812689903]}, "type": "Feature", "properties": {"collection_times": [{"days": "Mon-Fri", "time": "12:30pm"}, {"days": "Sat", "time": "12:00pm"}, {"days": "Sun", "time": "Closed"}], "id": "2230400065", "name": "USPS COLLECTION BOX - BLUE BOX", "address": {"city": "ALEXANDRIA", "state": "VA", "street": "5249 DUKE ST", "postcode": "22304"}}},
{"geometry": {"type": "Point", "coordinates": [-77.1092562842, 38.8156331049]}, "type": "Feature", "properties": {"collection_times": [{"days": "Mon-Fri", "time": "12:30pm"}, {"days": "Sat", "time": "2:30pm"}, {"days": "Sun", "time": "Closed"}], "id": "2230400066", "name": "USPS COLLECTION BOX - BLUE BOX", "address": {"city": "ALEXANDRIA", "state": "VA", "street": "4506 TANEY AVE", "postcode": "22304"}}},
{"geometry": {"type": "Point", "coordinates": [-77.0956444672, 38.821091789]}, "type": "Feature", "properties": {"collection_times": [{"days": "Mon-Fri", "time": "5:00pm"}, {"days": "Sat", "time": "2:30pm"}, {"days": "Sun", "time": "Closed"}], "id": "2230400072", "name": "USPS COLLECTION BOX - BLUE BOX", "address": {"city": "ALEXANDRIA", "state": "VA", "street": "3737 SEMINARY RD", "postcode": "22304"}}},
{"geometry": {"type": "Point", "coordinates": [-77.1368062155, 38.8108397552]}, "type": "Feature", "properties": {"collection_times": [{"days": "Mon-Fri", "time": "12:15pm"}, {"days": "Sat", "time": "1:30pm"}, {"days": "Sun", "time": "Closed"}], "id": "2230400079", "name": "USPS COLLECTION BOX - BLUE BOX", "address": {"city": "ALEXANDRIA", "state": "VA", "street": "296 S WHITING ST", "postcode": "22304"}}},
{"geometry": {"type": "Point", "coordinates": [-77.1055808307, 38.8116974004]}, "type": "Feature", "properties": {"collection_times": [{"days": "Mon-Fri", "time": "12:45pm"}, {"days": "Sat", "time": "2:00pm"}, {"days": "Sun", "time": "Closed"}], "id": "2230400084", "name": "USPS COLLECTION BOX - BLUE BOX", "address": {"city": "ALEXANDRIA", "state": "VA", "street": "4 S INGRAM ST", "postcode": "22304"}}},
{"geometry": {"type": "Point", "coordinates": [-78.6979451561, 37.5128225857]}, "type": "Feature", "properties": {"collection_times": [{"days": "Mon-Fri", "time": "5:00pm"}, {"days": "Sat", "time": "3:00pm"}, {"days": "Sun", "time": "Closed"}], "id": "2230400085", "name": "USPS COLLECTION BOX - BLUE BOX", "address": {"city": "ALEXANDRIA", "state": "VA", "street": "368 S PICKETT ST", "postcode": "22304"}}},
{"geometry": {"type": "Point", "coordinates": [-78.6979451561, 37.5128225857]}, "type": "Feature", "properties": {"collection_times": [{"days": "Mon-Fri", "time": "5:00pm"}, {"days": "Sat", "time": "3:00pm"}, {"days": "Sun", "time": "Closed"}], "id": "2230400086", "name": "USPS COLLECTION BOX - BLUE BOX", "address": {"city": "ALEXANDRIA", "state": "VA", "street": "368 S PICKETT ST", "postcode": "22304"}}},
{"geometry": {"type": "Point", "coordinates": [-78.6979451561, 37.5128225857]}, "type": "Feature", "properties": {"collection_times": [{"days": "Mon-Fri", "time": "5:00pm"}, {"days": "Sat", "time": "3:00pm"}, {"days": "Sun", "time": "Closed"}], "id": "2230400088", "name": "USPS COLLECTION BOX - EXPRESS", "address": {"city": "ALEXANDRIA", "state": "VA", "street": "368 S PICKETT ST", "postcode": "22304"}}},
{"geometry": {"type": "Point", "coordinates": [-77.1107278852, 38.8287521198]}, "type": "Feature", "properties": {"collection_times": [{"days": "Mon-Fri", "time": "2:00pm"}, {"days": "Sat", "time": "1:30pm"}, {"days": "Sun", "time": "Closed"}], "id": "2230400092", "name": "USPS COLLECTION BOX - BLUE BOX", "address": {"city": "ALEXANDRIA", "state": "VA", "street": "4660 KENMORE AVE", "postcode": "22304"}}},
{"geometry": {"type": "Point", "coordinates": [-77.1045611201, 38.8241586901]}, "type": "Feature", "properties": {"collection_times": [{"days": "Mon-Fri", "time": "1:30pm"}, {"days": "Sat", "time": "2:30pm"}, {"days": "Sun", "time": "Closed"}], "id": "2230400095", "name": "USPS COLLECTION BOX - BLUE BOX", "address": {"city": "ALEXANDRIA", "state": "VA", "street": "4320 SEMINARY RD", "postcode": "22304"}}},
{"geometry": {"type": "Point", "coordinates": [-78.6979451561, 37.5128225857]}, "type": "Feature", "properties": {"collection_times": [{"days": "Mon-Fri", "time": "5:00pm"}, {"days": "Sat", "time": "3:00pm"}, {"days": "Sun", "time": "Closed"}], "id": "2230400107", "name": "USPS COLLECTION BOX - APC", "address": {"city": "ALEXANDRIA", "state": "VA", "street": "368 S PICKETT ST", "postcode": "22304"}}},
{"geometry": {"type": "Point", "coordinates": [-78.6979451561, 37.5128225857]}, "type": "Feature", "properties": {"collection_times": [{"days": "Mon-Fri", "time": "5:00pm"}, {"days": "Sat", "time": "3:30pm"}, {"days": "Sun", "time": "Closed"}], "id": "2230400112", "name": "USPS COLLECTION BOX - PO LOBBY", "address": {"city": "ALEXANDRIA", "state": "VA", "street": "368 S PICKETT ST", "postcode": "22304"}}},
{"geometry": {"type": "Point", "coordinates": [-77.0538782208, 38.8360829839]}, "type": "Feature", "properties": {"collection_times": [{"days": "Mon-Fri", "time": "12:00pm"}, {"days": "Sat", "time": "1:30pm"}, {"days": "Sun", "time": "Closed"}], "id": "2230500003", "name": "USPS COLLECTION BOX - BLUE BOX", "address": {"city": "ALEXANDRIA", "state": "VA", "street": "201 LYNHAVEN DR", "postcode": "22305"}}},
{"geometry": {"type": "Point", "coordinates": [-77.0651330978, 38.8392721739]}, "type": "Feature", "properties": {"collection_times": [{"days": "Mon-Fri", "time": "12:15pm"}, {"days": "Sat", "time": "1:30pm"}, {"days": "Sun", "time": "Closed"}], "id": "2230500006", "name": "USPS COLLECTION BOX - BLUE BOX", "address": {"city": "ALEXANDRIA", "state": "VA", "street": "3801 EXECUTIVE AVE", "postcode": "22305"}}},
{"geometry": {"type": "Point", "coordinates": [-77.0709083034, 38.8415659313]}, "type": "Feature", "properties": {"collection_times": [{"days": "Mon-Fri", "time": "12:15pm"}, {"days": "Sat", "time": "1:30pm"}, {"days": "Sun", "time": "Closed"}], "id": "2230500007", "name": "USPS COLLECTION BOX - BLUE BOX", "address": {"city": "ALEXANDRIA", "state": "VA", "street": "3801 FLORENCE DR", "postcode": "22305"}}},
{"geometry": {"type": "Point", "coordinates": [-77.0767982561, 38.8376325928]}, "type": "Feature", "properties": {"collection_times": [{"days": "Mon-Fri", "time": "12:30pm"}, {"days": "Sat", "time": "1:30pm"}, {"days": "Sun", "time": "Closed"}], "id": "2230500008", "name": "USPS COLLECTION BOX - BLUE BOX", "address": {"city": "ALEXANDRIA", "state": "VA", "street": "3505 CAMERON MILLS RD", "postcode": "22305"}}},
{"geometry": {"type": "Point", "coordinates": [-77.0735758759, 38.8414275251]}, "type": "Feature", "properties": {"collection_times": [{"days": "Mon-Fri", "time": "12:30pm"}, {"days": "Sat", "time": "1:30pm"}, {"days": "Sun", "time": "Closed"}], "id": "2230500009", "name": "USPS COLLECTION BOX - BLUE BOX", "address": {"city": "ALEXANDRIA", "state": "VA", "street": "800 TENNESSEE AVE", "postcode": "22305"}}},
{"geometry": {"type": "Point", "coordinates": [-77.0592857316, 38.8359870968]}, "type": "Feature", "properties": {"collection_times": [{"days": "Mon-Fri", "time": "12:00pm"}, {"days": "Sat", "time": "1:30pm"}, {"days": "Sun", "time": "Closed"}], "id": "2230500011", "name": "USPS COLLECTION BOX - BLUE BOX", "address": {"city": "ALEXANDRIA", "state": "VA", "street": "25 W GLEBE RD", "postcode": "22305"}}},
{"geometry": {"type": "Point", "coordinates": [-77.0564359835, 38.8350714866]}, "type": "Feature", "properties": {"collection_times": [{"days": "Mon-Fri", "time": "12:00pm"}, {"days": "Sat", "time": "1:30pm"}, {"days": "Sun", "time": "Closed"}], "id": "2230500013", "name": "USPS COLLECTION BOX - BLUE BOX", "address": {"city": "ALEXANDRIA", "state": "VA", "street": "11 E GLEBE RD", "postcode": "22305"}}},
{"geometry": {"type": "Point", "coordinates": [-77.070575892, 38.8312718224]}, "type": "Feature", "properties": {"collection_times": [{"days": "Mon-Fri", "time": "12:30pm"}, {"days": "Sat", "time": "1:30pm"}, {"days": "Sun", "time": "Closed"}], "id": "2230500016", "name": "USPS COLLECTION BOX - BLUE BOX", "address": {"city": "ALEXANDRIA", "state": "VA", "street": "437 MONTICELLO BLVD", "postcode": "22305"}}},
{"geometry": {"type": "Point", "coordinates": [-77.0683353677, 38.839470911]}, "type": "Feature", "properties": {"collection_times": [{"days": "Mon-Fri", "time": "12:30pm"}, {"days": "Sat", "time": "1:30pm"}, {"days": "Sun", "time": "Closed"}], "id": "2230500017", "name": "USPS COLLECTION BOX - BLUE BOX", "address": {"city": "ALEXANDRIA", "state": "VA", "street": "501 TENNESSEE AVE", "postcode": "22305"}}},
{"geometry": {"type": "Point", "coordinates": [-77.0666532, 38.8361184053]}, "type": "Feature", "properties": {"collection_times": [{"days": "Mon-Fri", "time": "12:30pm"}, {"days": "Sat", "time": "2:00pm"}, {"days": "Sun", "time": "Closed"}], "id": "2230500020", "name": "USPS COLLECTION BOX - BLUE BOX", "address": {"city": "ALEXANDRIA", "state": "VA", "street": "3401 RUSSELL RD", "postcode": "22305"}}},
{"geometry": {"type": "Point", "coordinates": [-77.0656796248, 38.8428269656]}, "type": "Feature", "properties": {"collection_times": [{"days": "Mon-Fri", "time": "12:15pm"}, {"days": "Sat", "time": "1:30pm"}, {"days": "Sun", "time": "Closed"}], "id": "2230500021", "name": "USPS COLLECTION BOX - BLUE BOX", "address": {"city": "ALEXANDRIA", "state": "VA", "street": "525 FOUR MILE RD", "postcode": "22305"}}},
{"geometry": {"type": "Point", "coordinates": [-77.062561345, 38.8395099486]}, "type": "Feature", "properties": {"collection_times": [{"days": "Mon-Fri", "time": "12:00pm"}, {"days": "Sat", "time": "1:30pm"}, {"days": "Sun", "time": "Closed"}], "id": "2230500022", "name": "USPS COLLECTION BOX - BLUE BOX", "address": {"city": "ALEXANDRIA", "state": "VA", "street": "3807 MOUNT VERNON AVE", "postcode": "22305"}}},
{"geometry": {"type": "Point", "coordinates": [-77.0630025887, 38.8406065516]}, "type": "Feature", "properties": {"collection_times": [{"days": "Mon-Fri", "time": "12:15pm"}, {"days": "Sat", "time": "1:30pm"}, {"days": "Sun", "time": "Closed"}], "id": "2230500023", "name": "USPS COLLECTION BOX - BLUE BOX", "address": {"city": "ALEXANDRIA", "state": "VA", "street": "3825 MOUNT VERNON AVE", "postcode": "22305"}}},
{"geometry": {"type": "Point", "coordinates": [-77.0646456761, 38.8368108927]}, "type": "Feature", "properties": {"collection_times": [{"days": "Mon-Fri", "time": "12:00pm"}, {"days": "Sat", "time": "1:30pm"}, {"days": "Sun", "time": "Closed"}], "id": "2230500024", "name": "USPS COLLECTION BOX - BLUE BOX", "address": {"city": "ALEXANDRIA", "state": "VA", "street": "3671 JEFF DAVIS HWY", "postcode": "22305"}}},
{"geometry": {"type": "Point", "coordinates": [-77.0840094768, 38.7571442428]}, "type": "Feature", "properties": {"collection_times": [{"days": "Mon-Fri", "time": "5:00pm"}, {"days": "Sat", "time": "3:30pm"}, {"days": "Sun", "time": "Closed"}], "id": "2230600001", "name": "USPS COLLECTION BOX - EXPRESS", "address": {"city": "ALEXANDRIA", "state": "VA", "street": "7676 RICHMOND HWY", "postcode": "22306"}}},
{"geometry": {"type": "Point", "coordinates": [-77.0785558597, 38.7565359254]}, "type": "Feature", "properties": {"collection_times": [{"days": "Mon-Fri", "time": "11:15am"}, {"days": "Sat", "time": "2:00pm"}, {"days": "Sun", "time": "Closed"}], "id": "2230600002", "name": "USPS COLLECTION BOX - BLUE BOX", "address": {"city": "ALEXANDRIA", "state": "VA", "street": "7429 VERNON SQUARE DR", "postcode": "22306"}}},
{"geometry": {"type": "Point", "coordinates": [-77.0840269379, 38.7626074963]}, "type": "Feature", "properties": {"collection_times": [{"days": "Mon-Fri", "time": "2:15pm"}, {"days": "Sat", "time": "2:30pm"}, {"days": "Sun", "time": "Closed"}], "id": "2230600003", "name": "USPS COLLECTION BOX - BLUE BOX", "address": {"city": "ALEXANDRIA", "state": "VA", "street": "7131 RICHMOND HWY", "postcode": "22306"}}},
{"geometry": {"type": "Point", "coordinates": [-77.0821187696, 38.7694922572]}, "type": "Feature", "properties": {"collection_times": [{"days": "Mon-Fri", "time": "11:45am"}, {"days": "Sat", "time": "2:30pm"}, {"days": "Sun", "time": "Closed"}], "id": "2230600005", "name": "USPS COLLECTION BOX - BLUE BOX", "address": {"city": "ALEXANDRIA", "state": "VA", "street": "6810 RICHMOND HWY", "postcode": "22306"}}},
{"geometry": {"type": "Point", "coordinates": [-77.0863232758, 38.7741643645]}, "type": "Feature", "properties": {"collection_times": [{"days": "Mon-Fri", "time": "11:30am"}, {"days": "Sat", "time": "2:30pm"}, {"days": "Sun", "time": "Closed"}], "id": "2230600006", "name": "USPS COLLECTION BOX - BLUE BOX", "address": {"city": "ALEXANDRIA", "state": "VA", "street": "3141 SOUTHGATE DR", "postcode": "22306"}}},
{"geometry": {"type": "Point", "coordinates": [-77.0809255773, 38.7802945025]}, "type": "Feature", "properties": {"collection_times": [{"days": "Mon-Fri", "time": "11:45am"}, {"days": "Sat", "time": "2:30pm"}, {"days": "Sun", "time": "Closed"}], "id": "2230600007", "name": "USPS COLLECTION BOX - BLUE BOX", "address": {"city": "ALEXANDRIA", "state": "VA", "street": "6304 S KINGS HWY", "postcode": "22306"}}},
{"geometry": {"type": "Point", "coordinates": [-77.0992969527, 38.7709704892]}, "type": "Feature", "properties": {"collection_times": [{"days": "Mon-Fri", "time": "11:30am"}, {"days": "Sat", "time": "2:30pm"}, {"days": "Sun", "time": "Closed"}], "id": "2230600008", "name": "USPS COLLECTION BOX - BLUE BOX", "address": {"city": "ALEXANDRIA", "state": "VA", "street": "6715 STONEYBROOKE LN", "postcode": "22306"}}},
{"geometry": {"type": "Point", "coordinates": [-77.0910600094, 38.7702003829]}, "type": "Feature", "properties": {"collection_times": [{"days": "Mon-Fri", "time": "11:30am"}, {"days": "Sat", "time": "2:30pm"}, {"days": "Sun", "time": "Closed"}], "id": "2230600009", "name": "USPS COLLECTION BOX - BLUE BOX", "address": {"city": "ALEXANDRIA", "state": "VA", "street": "6730 QUEENS RD", "postcode": "22306"}}},
{"geometry": {"type": "Point", "coordinates": [-77.0832547576, 38.7500049773]}, "type": "Feature", "properties": {"collection_times": [{"days": "Mon-Fri", "time": "5:00pm"}, {"days": "Sat", "time": "3:30pm"}, {"days": "Sun", "time": "Closed"}], "id": "2230600010", "name": "USPS COLLECTION BOX - BLUE BOX", "address": {"city": "ALEXANDRIA", "state": "VA", "street": "7676 RICHMOND HWY", "postcode": "22306"}}},
{"geometry": {"type": "Point", "coordinates": [-77.0898268464, 38.7422765018]}, "type": "Feature", "properties": {"collection_times": [{"days": "Mon-Fri", "time": "9:45am"}, {"days": "Sat", "time": "1:30pm"}, {"days": "Sun", "time": "Closed"}], "id": "2230600011", "name": "USPS COLLECTION BOX - BLUE BOX", "address": {"city": "ALEXANDRIA", "state": "VA", "street": "7927 AUDUBON AVE", "postcode": "22306"}}},
{"geometry": {"type": "Point", "coordinates": [-77.0769170764, 38.7433027468]}, "type": "Feature", "properties": {"collection_times": [{"days": "Mon-Fri", "time": "11:15am"}, {"days": "Sat", "time": "2:00pm"}, {"days": "Sun", "time": "Closed"}], "id": "2230600013", "name": "USPS COLLECTION BOX - BLUE BOX", "address": {"city": "ALEXANDRIA", "state": "VA", "street": "2616 SHERWOOD HALL LN", "postcode": "22306"}}},
{"geometry": {"type": "Point", "coordinates": [-77.0741965084, 38.7392695697]}, "type": "Feature", "properties": {"collection_times": [{"days": "Mon-Fri", "time": "10:30am"}, {"days": "Sat", "time": "1:30pm"}, {"days": "Sun", "time": "Closed"}], "id": "2230600014", "name": "USPS COLLECTION BOX - BLUE BOX", "address": {"city": "ALEXANDRIA", "state": "VA", "street": "2501 PARKERS LN", "postcode": "22306"}}},
{"geometry": {"type": "Point", "coordinates": [-77.0796586509, 38.7431094396]}, "type": "Feature", "properties": {"collection_times": [{"days": "Mon-Fri", "time": "10:30am"}, {"days": "Sat", "time": "1:30pm"}, {"days": "Sun", "time": "Closed"}], "id": "2230600017", "name": "USPS COLLECTION BOX - BLUE BOX", "address": {"city": "ALEXANDRIA", "state": "VA", "street": "7900 ANDRUS RD", "postcode": "22306"}}},
{"geometry": {"type": "Point", "coordinates": [-77.0865010045, 38.7410091137]}, "type": "Feature", "properties": {"collection_times": [{"days": "Mon-Fri", "time": "10:30am"}, {"days": "Sat", "time": "1:30pm"}, {"days": "Sun", "time": "Closed"}], "id": "2230600018", "name": "USPS COLLECTION BOX - BLUE BOX", "address": {"city": "ALEXANDRIA", "state": "VA", "street": "7959 RICHMOND HWY", "postcode": "22306"}}},
{"geometry": {"type": "Point", "coordinates": [-77.0832547576, 38.7500049773]}, "type": "Feature", "properties": {"collection_times": [{"days": "Mon-Fri", "time": "5:00pm"}, {"days": "Sat", "time": "3:30pm"}, {"days": "Sun", "time": "Closed"}], "id": "2230600021", "name": "USPS COLLECTION BOX - BLUE BOX", "address": {"city": "ALEXANDRIA", "state": "VA", "street": "7676 RICHMOND HWY", "postcode": "22306"}}},
{"geometry": {"type": "Point", "coordinates": [-77.0833856534, 38.7465106963]}, "type": "Feature", "properties": {"collection_times": [{"days": "Mon-Fri", "time": "9:30am"}, {"days": "Sat", "time": "1:30pm"}, {"days": "Sun", "time": "Closed"}], "id": "2230600022", "name": "USPS COLLECTION BOX - BLUE BOX", "address": {"city": "ALEXANDRIA", "state": "VA", "street": "7800 BELFORD DR", "postcode": "22306"}}},
{"geometry": {"type": "Point", "coordinates": [-77.0755869061, 38.7437151146]}, "type": "Feature", "properties": {"collection_times": [{"days": "Mon-Fri", "time": "11:15am"}, {"days": "Sat", "time": "2:00pm"}, {"days": "Sun", "time": "Closed"}], "id": "2230600024", "name": "USPS COLLECTION BOX - BLUE BOX", "address": {"city": "ALEXANDRIA", "state": "VA", "street": "2501 SHERWOOD HALL LN", "postcode": "22306"}}},
{"geometry": {"type": "Point", "coordinates": [-77.0844529826, 38.7440360152]}, "type": "Feature", "properties": {"collection_times": [{"days": "Mon-Fri", "time": "9:45am"}, {"days": "Sat", "time": "1:30pm"}, {"days": "Sun", "time": "Closed"}], "id": "2230600026", "name": "USPS COLLECTION BOX - BLUE BOX", "address": {"city": "ALEXANDRIA", "state": "VA", "street": "7824 RICHMOND HWY", "postcode": "22306"}}},
{"geometry": {"type": "Point", "coordinates": [-77.0993284674, 38.7628802856]}, "type": "Feature", "properties": {"collection_times": [{"days": "Mon-Fri", "time": "11:30am"}, {"days": "Sat", "time": "3:00pm"}, {"days": "Sun", "time": "Closed"}], "id": "2230600030", "name": "USPS COLLECTION BOX - BLUE BOX", "address": {"city": "ALEXANDRIA", "state": "VA", "street": "7200 BEDROCK RD", "postcode": "22306"}}},
{"geometry": {"type": "Point", "coordinates": [-77.0868805314, 38.7594623616]}, "type": "Feature", "properties": {"collection_times": [{"days": "Mon-Fri", "time": "11:15am"}, {"days": "Sat", "time": "3:00pm"}, {"days": "Sun", "time": "Closed"}], "id": "2230600031", "name": "USPS COLLECTION BOX - BLUE BOX", "address": {"city": "ALEXANDRIA", "state": "VA", "street": "3308 LOCKHEED BLVD", "postcode": "22306"}}},
{"geometry": {"type": "Point", "coordinates": [-77.0776629991, 38.7372549757]}, "type": "Feature", "properties": {"collection_times": [{"days": "Mon-Fri", "time": "2:00pm"}, {"days": "Sat", "time": "1:30pm"}, {"days": "Sun", "time": "Closed"}], "id": "2230600036", "name": "USPS COLLECTION BOX - BLUE BOX", "address": {"city": "ALEXANDRIA", "state": "VA", "street": "8101 HINSON FARM RD", "postcode": "22306"}}},
{"geometry": {"type": "Point", "coordinates": [-77.0840094768, 38.7571442428]}, "type": "Feature", "properties": {"collection_times": [{"days": "Mon-Fri", "time": "2:00pm"}, {"days": "Sat", "time": "1:30pm"}, {"days": "Sun", "time": "Closed"}], "id": "2230600039", "name": "USPS COLLECTION BOX - BLUE BOX", "address": {"city": "ALEXANDRIA", "state": "VA", "street": "8101 TIS WELL DR", "postcode": "22306"}}},
{"geometry": {"type": "Point", "coordinates": [-77.0833956183, 38.7525139634]}, "type": "Feature", "properties": {"collection_times": [{"days": "Mon-Fri", "time": "9:30am"}, {"days": "Sat", "time": "3:00pm"}, {"days": "Sun", "time": "Closed"}], "id": "2230600042", "name": "USPS COLLECTION BOX - BLUE BOX", "address": {"city": "ALEXANDRIA", "state": "VA", "street": "7524 RICHMOND HWY", "postcode": "22306"}}},
{"geometry": {"type": "Point", "coordinates": [-77.0840094768, 38.7571442428]}, "type": "Feature", "properties": {"collection_times": [{"days": "Mon-Fri", "time": "2:00pm"}, {"days": "Sat", "time": "1:30pm"}, {"days": "Sun", "time": "Closed"}], "id": "2230600044", "name": "USPS COLLECTION BOX - EXPRESS", "address": {"city": "ALEXANDRIA", "state": "VA", "street": "8101 HINSON FARM RD", "postcode": "22306"}}},
{"geometry": {"type": "Point", "coordinates": [-77.0830915978, 38.7676582041]}, "type": "Feature", "properties": {"collection_times": [{"days": "Mon-Sat", "time": "9:00am"}, {"days": "Sun", "time": "Closed"}], "id": "2230600048", "name": "USPS COLLECTION BOX - BLUE BOX", "address": {"city": "ALEXANDRIA", "state": "VA", "street": "6910 RICHMOND HWY", "postcode": "22306"}}},
{"geometry": {"type": "Point", "coordinates": [-77.0832547576, 38.7500049773]}, "type": "Feature", "properties": {"collection_times": [{"days": "Mon-Fri", "time": "5:00pm"}, {"days": "Sat", "time": "3:00pm"}, {"days": "Sun", "time": "Closed"}], "id": "2230600054", "name": "USPS COLLECTION BOX - PO LOBBY", "address": {"city": "ALEXANDRIA", "state": "VA", "street": "7676 RICHMOND HWY", "postcode": "22306"}}},
{"geometry": {"type": "Point", "coordinates": [-77.0538995262, 38.7647822535]}, "type": "Feature", "properties": {"collection_times": [{"days": "Mon-Fri", "time": "1:45pm"}, {"days": "Sat", "time": "1:30pm"}, {"days": "Sun", "time": "Closed"}], "id": "2230700001", "name": "USPS COLLECTION BOX - BLUE BOX", "address": {"city": "ALEXANDRIA", "state": "VA", "street": "7004 PARK TERRACE DR", "postcode": "22307"}}},
{"geometry": {"type": "Point", "coordinates": [-77.0575917419, 38.7805025729]}, "type": "Feature", "properties": {"collection_times": [{"days": "Mon-Fri", "time": "1:30pm"}, {"days": "Sat", "time": "2:00pm"}, {"days": "Sun", "time": "Closed"}], "id": "2230700006", "name": "USPS COLLECTION BOX - BLUE BOX", "address": {"city": "ALEXANDRIA", "state": "VA", "street": "1451 BELLE HAVEN RD", "postcode": "22307"}}},
{"geometry": {"type": "Point", "coordinates": [-77.0597493859, 38.7752023765]}, "type": "Feature", "properties": {"collection_times": [{"days": "Mon-Fri", "time": "5:00pm"}, {"days": "Sat", "time": "3:00pm"}, {"days": "Sun", "time": "Closed"}], "id": "2230700008", "name": "USPS COLLECTION BOX - BLUE BOX", "address": {"city": "ALEXANDRIA", "state": "VA", "street": "1626 BELLE VIEW BLVD", "postcode": "22307"}}},
{"geometry": {"type": "Point", "coordinates": [-77.0631646946, 38.7851797988]}, "type": "Feature", "properties": {"collection_times": [{"days": "Mon-Fri", "time": "1:30pm"}, {"days": "Sat", "time": "2:00pm"}, {"days": "Sun", "time": "Closed"}], "id": "2230700009", "name": "USPS COLLECTION BOX - BLUE BOX", "address": {"city": "ALEXANDRIA", "state": "VA", "street": "6108 VERNON TER", "postcode": "22307"}}},
{"geometry": {"type": "Point", "coordinates": [-77.0597493859, 38.7752023765]}, "type": "Feature", "properties": {"collection_times": [{"days": "Mon-Fri", "time": "5:00pm"}, {"days": "Sat", "time": "3:00pm"}, {"days": "Sun", "time": "Closed"}], "id": "2230700013", "name": "USPS COLLECTION BOX - BLUE BOX", "address": {"city": "ALEXANDRIA", "state": "VA", "street": "1626 BELLE VIEW BLVD", "postcode": "22307"}}},
{"geometry": {"type": "Point", "coordinates": [-77.0616978736, 38.7712307507]}, "type": "Feature", "properties": {"collection_times": [{"days": "Mon-Fri", "time": "5:00pm"}, {"days": "Sat", "time": "3:00pm"}, {"days": "Sun", "time": "Closed"}], "id": "2230700015", "name": "USPS COLLECTION BOX - EXPRESS", "address": {"city": "ALEXANDRIA", "state": "VA", "street": "1626 BELLE VIEW BLVD", "postcode": "22307"}}},
{"geometry": {"type": "Point", "coordinates": [-77.057371704, 38.7598625045]}, "type": "Feature", "properties": {"collection_times": [{"days": "Mon-Fri", "time": "1:45pm"}, {"days": "Sat", "time": "1:30pm"}, {"days": "Sun", "time": "Closed"}], "id": "2230700020", "name": "USPS COLLECTION BOX - BLUE BOX", "address": {"city": "ALEXANDRIA", "state": "VA", "street": "7212 MARLAN DR", "postcode": "22307"}}},
{"geometry": {"type": "Point", "coordinates": [-77.0658594346, 38.7656814796]}, "type": "Feature", "properties": {"collection_times": [{"days": "Mon-Fri", "time": "1:45pm"}, {"days": "Sat", "time": "1:30pm"}, {"days": "Sun", "time": "Closed"}], "id": "2230700023", "name": "USPS COLLECTION BOX - BLUE BOX", "address": {"city": "ALEXANDRIA", "state": "VA", "street": "6936 COLUMBIA DR", "postcode": "22307"}}},
{"geometry": {"type": "Point", "coordinates": [-77.0749623038, 38.7662824228]}, "type": "Feature", "properties": {"collection_times": [{"days": "Mon-Fri", "time": "1:45pm"}, {"days": "Sat", "time": "1:30pm"}, {"days": "Sun", "time": "Closed"}], "id": "2230700024", "name": "USPS COLLECTION BOX - BLUE BOX", "address": {"city": "ALEXANDRIA", "state": "VA", "street": "6944 UNIVERSITY DR", "postcode": "22307"}}},
{"geometry": {"type": "Point", "coordinates": [-77.0541587874, 38.7753509862]}, "type": "Feature", "properties": {"collection_times": [{"days": "Mon-Fri", "time": "1:30pm"}, {"days": "Sat", "time": "2:00pm"}, {"days": "Sun", "time": "Closed"}], "id": "2230700028", "name": "USPS COLLECTION BOX - BLUE BOX", "address": {"city": "ALEXANDRIA", "state": "VA", "street": "6540 10TH ST", "postcode": "22307"}}},
{"geometry": {"type": "Point", "coordinates": [-77.0499770275, 38.7574374386]}, "type": "Feature", "properties": {"collection_times": [{"days": "Mon-Fri", "time": "1:45pm"}, {"days": "Sat", "time": "1:30pm"}, {"days": "Sun", "time": "Closed"}], "id": "2230700029", "name": "USPS COLLECTION BOX - BLUE BOX", "address": {"city": "ALEXANDRIA", "state": "VA", "street": "7310 PARK TERRACE DR", "postcode": "22307"}}},
{"geometry": {"type": "Point", "coordinates": [-77.062446598, 38.7732748932]}, "type": "Feature", "properties": {"collection_times": [{"days": "Mon-Sat", "time": "1:30pm"}, {"days": "Sun", "time": "Closed"}], "id": "2230700032", "name": "USPS COLLECTION BOX - BLUE BOX", "address": {"city": "ALEXANDRIA", "state": "VA", "street": "6614 FORT HUNT RD", "postcode": "22307"}}},
{"geometry": {"type": "Point", "coordinates": [-77.0597493859, 38.7752023765]}, "type": "Feature", "properties": {"collection_times": [{"days": "Mon-Fri", "time": "5:00pm"}, {"days": "Sat", "time": "3:00pm"}, {"days": "Sun", "time": "Closed"}], "id": "2230700035", "name": "USPS COLLECTION BOX - PO LOBBY", "address": {"city": "ALEXANDRIA", "state": "VA", "street": "1626 BELLE VIEW BLVD", "postcode": "22307"}}},
{"geometry": {"type": "Point", "coordinates": [-77.0627123754, 38.7155347432]}, "type": "Feature", "properties": {"collection_times": [{"days": "Mon-Fri", "time": "10:45am"}, {"days": "Sat", "time": "1:30pm"}, {"days": "Sun", "time": "Closed"}], "id": "2230800001", "name": "USPS COLLECTION BOX - BLUE BOX", "address": {"city": "ALEXANDRIA", "state": "VA", "street": "8907 VERNON VIEW DR", "postcode": "22308"}}},
{"geometry": {"type": "Point", "coordinates": [-77.0481990402, 38.7316122614]}, "type": "Feature", "properties": {"collection_times": [{"days": "Mon-Fri", "time": "11:00am"}, {"days": "Sat", "time": "2:00pm"}, {"days": "Sun", "time": "Closed"}], "id": "2230800002", "name": "USPS COLLECTION BOX - BLUE BOX", "address": {"city": "ALEXANDRIA", "state": "VA", "street": "8303 W BOULEVARD DR", "postcode": "22308"}}},
{"geometry": {"type": "Point", "coordinates": [-77.0602527788, 38.7254098372]}, "type": "Feature", "properties": {"collection_times": [{"days": "Mon-Fri", "time": "10:45am"}, {"days": "Sat", "time": "1:30pm"}, {"days": "Sun", "time": "Closed"}], "id": "2230800004", "name": "USPS COLLECTION BOX - BLUE BOX", "address": {"city": "ALEXANDRIA", "state": "VA", "street": "8510 BUCKBOARD DR", "postcode": "22308"}}},
{"geometry": {"type": "Point", "coordinates": [-77.0701334653, 38.7234865163]}, "type": "Feature", "properties": {"collection_times": [{"days": "Mon-Fri", "time": "10:45am"}, {"days": "Sat", "time": "1:30pm"}, {"days": "Sun", "time": "Closed"}], "id": "2230800006", "name": "USPS COLLECTION BOX - BLUE BOX", "address": {"city": "ALEXANDRIA", "state": "VA", "street": "8610 YARDLEY DR", "postcode": "22308"}}},
{"geometry": {"type": "Point", "coordinates": [-77.0505850684, 38.7247440017]}, "type": "Feature", "properties": {"collection_times": [{"days": "Mon-Fri", "time": "11:00am"}, {"days": "Sat", "time": "2:00pm"}, {"days": "Sun", "time": "Closed"}], "id": "2230800007", "name": "USPS COLLECTION BOX - BLUE BOX", "address": {"city": "ALEXANDRIA", "state": "VA", "street": "8528 CYRUS PL", "postcode": "22308"}}},
{"geometry": {"type": "Point", "coordinates": [-77.0572113668, 38.7438958801]}, "type": "Feature", "properties": {"collection_times": [{"days": "Mon-Sat", "time": "2:00pm"}, {"days": "Sun", "time": "Closed"}], "id": "2230800010", "name": "USPS COLLECTION BOX - BLUE BOX", "address": {"city": "ALEXANDRIA", "state": "VA", "street": "7910 FORT HUNT RD", "postcode": "22308"}}},
{"geometry": {"type": "Point", "coordinates": [-77.0692438802, 38.7345282553]}, "type": "Feature", "properties": {"collection_times": [{"days": "Mon-Fri", "time": "10:45am"}, {"days": "Sat", "time": "1:30pm"}, {"days": "Sun", "time": "Closed"}], "id": "2230800011", "name": "USPS COLLECTION BOX - BLUE BOX", "address": {"city": "ALEXANDRIA", "state": "VA", "street": "8215 CROWN COURT RD", "postcode": "22308"}}},
{"geometry": {"type": "Point", "coordinates": [-77.1153260165, 38.7292026823]}, "type": "Feature", "properties": {"collection_times": [{"days": "Mon-Fri", "time": "10:00am"}, {"days": "Sat", "time": "1:30pm"}, {"days": "Sun", "time": "Closed"}], "id": "2230900003", "name": "USPS COLLECTION BOX - BLUE BOX", "address": {"city": "ALEXANDRIA", "state": "VA", "street": "8424 SKY VIEW DR", "postcode": "22309"}}},
{"geometry": {"type": "Point", "coordinates": [-77.1149018623, 38.7355037709]}, "type": "Feature", "properties": {"collection_times": [{"days": "Mon-Fri", "time": "9:45am"}, {"days": "Sat", "time": "1:30pm"}, {"days": "Sun", "time": "Closed"}], "id": "2230900010", "name": "USPS COLLECTION BOX - BLUE BOX", "address": {"city": "ALEXANDRIA", "state": "VA", "street": "8200 FRYE RD", "postcode": "22309"}}},
{"geometry": {"type": "Point", "coordinates": [-77.1293523911, 38.7276422512]}, "type": "Feature", "properties": {"collection_times": [{"days": "Mon-Fri", "time": "10:15am"}, {"days": "Sat", "time": "1:30pm"}, {"days": "Sun", "time": "Closed"}], "id": "2230900011", "name": "USPS COLLECTION BOX - BLUE BOX", "address": {"city": "ALEXANDRIA", "state": "VA", "street": "8400 DEL NORTE CT", "postcode": "22309"}}},
{"geometry": {"type": "Point", "coordinates": [-77.1074794798, 38.7293634564]}, "type": "Feature", "properties": {"collection_times": [{"days": "Mon-Fri", "time": "10:00am"}, {"days": "Sat", "time": "1:30pm"}, {"days": "Sun", "time": "Closed"}], "id": "2230900015", "name": "USPS COLLECTION BOX - BLUE BOX", "address": {"city": "ALEXANDRIA", "state": "VA", "street": "8420 RICHMOND HWY", "postcode": "22309"}}},
{"geometry": {"type": "Point", "coordinates": [-77.1327888869, 38.7198512834]}, "type": "Feature", "properties": {"collection_times": [{"days": "Mon-Fri", "time": "10:15am"}, {"days": "Sat", "time": "1:30pm"}, {"days": "Sun", "time": "Closed"}], "id": "2230900016", "name": "USPS COLLECTION BOX - BLUE BOX", "address": {"city": "ALEXANDRIA", "state": "VA", "street": "8799 OLD COLONY WAY", "postcode": "22309"}}},
{"geometry": {"type": "Point", "coordinates": [-77.0897966092, 38.7281402769]}, "type": "Feature", "properties": {"collection_times": [{"days": "Mon-Fri", "time": "10:30am"}, {"days": "Sat", "time": "2:00pm"}, {"days": "Sun", "time": "Closed"}], "id": "2230900020", "name": "USPS COLLECTION BOX - BLUE BOX", "address": {"city": "ALEXANDRIA", "state": "VA", "street": "8418 WAGON WHEEL RD", "postcode": "22309"}}},
{"geometry": {"type": "Point", "coordinates": [-77.1014818779, 38.7131510038]}, "type": "Feature", "properties": {"collection_times": [{"days": "Mon-Fri", "time": "10:30am"}, {"days": "Sat", "time": "2:00pm"}, {"days": "Sun", "time": "Closed"}], "id": "2230900021", "name": "USPS COLLECTION BOX - BLUE BOX", "address": {"city": "ALEXANDRIA", "state": "VA", "street": "9001 CHERRYTREE DR", "postcode": "22309"}}},
{"geometry": {"type": "Point", "coordinates": [-77.1101529671, 38.7382604908]}, "type": "Feature", "properties": {"collection_times": [{"days": "Mon-Fri", "time": "9:45am"}, {"days": "Sat", "time": "1:30pm"}, {"days": "Sun", "time": "Closed"}], "id": "2230900022", "name": "USPS COLLECTION BOX - BLUE BOX", "address": {"city": "ALEXANDRIA", "state": "VA", "street": "8101 PINELAKE CT", "postcode": "22309"}}},
{"geometry": {"type": "Point", "coordinates": [-77.1198136276, 38.723385919]}, "type": "Feature", "properties": {"collection_times": [{"days": "Mon-Fri", "time": "10:00am"}, {"days": "Sat", "time": "1:30pm"}, {"days": "Sun", "time": "Closed"}], "id": "2230900023", "name": "USPS COLLECTION BOX - BLUE BOX", "address": {"city": "ALEXANDRIA", "state": "VA", "street": "8634 RICHMOND HWY", "postcode": "22309"}}},
{"geometry": {"type": "Point", "coordinates": [-77.1162728462, 38.7250167463]}, "type": "Feature", "properties": {"collection_times": [{"days": "Mon-Fri", "time": "5:00pm"}, {"days": "Sat", "time": "3:00pm"}, {"days": "Sun", "time": "Closed"}], "id": "2230900024", "name": "USPS COLLECTION BOX - EXPRESS", "address": {"city": "ALEXANDRIA", "state": "VA", "street": "8588 RICHMOND HWY", "postcode": "22309"}}},
{"geometry": {"type": "Point", "coordinates": [-77.1160677619, 38.7250977064]}, "type": "Feature", "properties": {"collection_times": [{"days": "Mon-Fri", "time": "5:00pm"}, {"days": "Sat", "time": "3:00pm"}, {"days": "Sun", "time": "Closed"}], "id": "2230900025", "name": "USPS COLLECTION BOX - BLUE BOX", "address": {"city": "ALEXANDRIA", "state": "VA", "street": "8588 RICHMOND HWY", "postcode": "22309"}}},
{"geometry": {"type": "Point", "coordinates": [-77.1160677619, 38.7250977064]}, "type": "Feature", "properties": {"collection_times": [{"days": "Mon-Fri", "time": "5:00pm"}, {"days": "Sat", "time": "3:00pm"}, {"days": "Sun", "time": "Closed"}], "id": "2230900026", "name": "USPS COLLECTION BOX - BLUE BOX", "address": {"city": "ALEXANDRIA", "state": "VA", "street": "8588 RICHMOND HWY", "postcode": "22309"}}},
{"geometry": {"type": "Point", "coordinates": [-77.1121225938, 38.7053742316]}, "type": "Feature", "properties": {"collection_times": [{"days": "Mon-Fri", "time": "10:15am"}, {"days": "Sat", "time": "2:00pm"}, {"days": "Sun", "time": "Closed"}], "id": "2230900028", "name": "USPS COLLECTION BOX - BLUE BOX", "address": {"city": "ALEXANDRIA", "state": "VA", "street": "4509 FERRY LANDING RD", "postcode": "22309"}}},
{"geometry": {"type": "Point", "coordinates": [-77.09867742, 38.7412640447]}, "type": "Feature", "properties": {"collection_times": [{"days": "Mon-Fri", "time": "9:45am"}, {"days": "Sat", "time": "1:30pm"}, {"days": "Sun", "time": "Closed"}], "id": "2230900029", "name": "USPS COLLECTION BOX - BLUE BOX", "address": {"city": "ALEXANDRIA", "state": "VA", "street": "8010 SEVEN WOODS DR", "postcode": "22309"}}},
{"geometry": {"type": "Point", "coordinates": [-77.1160677619, 38.7250977064]}, "type": "Feature", "properties": {"collection_times": [{"days": "Mon-Sat", "time": "5:00pm"}, {"days": "Sun", "time": "Closed"}], "id": "2230900032", "name": "USPS COLLECTION BOX - PO LOBBY", "address": {"city": "ALEXANDRIA", "state": "VA", "street": "8588 RICHMOND HWY", "postcode": "22309"}}},
{"geometry": {"type": "Point", "coordinates": [-77.1485870921, 38.7817469903]}, "type": "Feature", "properties": {"collection_times": [{"days": "Mon-Fri", "time": "10:15am"}, {"days": "Sat", "time": "2:00pm"}, {"days": "Sun", "time": "Closed"}], "id": "2231000008", "name": "USPS COLLECTION BOX - BLUE BOX", "address": {"city": "ALEXANDRIA", "state": "VA", "street": "6118 FRANCONIA RD", "postcode": "22310"}}},
{"geometry": {"type": "Point", "coordinates": [-77.0992685617, 38.7756632874]}, "type": "Feature", "properties": {"collection_times": [{"days": "Mon-Fri", "time": "10:00am"}, {"days": "Sat", "time": "2:30pm"}, {"days": "Sun", "time": "Closed"}], "id": "2231000011", "name": "USPS COLLECTION BOX - BLUE BOX", "address": {"city": "ALEXANDRIA", "state": "VA", "street": "6511 THE PKWY", "postcode": "22310"}}},
{"geometry": {"type": "Point", "coordinates": [-77.124598079, 38.784957796]}, "type": "Feature", "properties": {"collection_times": [{"days": "Mon-Fri", "time": "5:00pm"}, {"days": "Sat", "time": "3:00pm"}, {"days": "Sun", "time": "Closed"}], "id": "2231000016", "name": "USPS COLLECTION BOX - BLUE BOX", "address": {"city": "ALEXANDRIA", "state": "VA", "street": "5221 FRANCONIA RD", "postcode": "22310"}}},
{"geometry": {"type": "Point", "coordinates": [-77.1505936023, 38.779306801]}, "type": "Feature", "properties": {"collection_times": [{"days": "Mon-Fri", "time": "10:30am"}, {"days": "Sat", "time": "2:00pm"}, {"days": "Sun", "time": "Closed"}], "id": "2231000031", "name": "USPS COLLECTION BOX - BLUE BOX", "address": {"city": "ALEXANDRIA", "state": "VA", "street": "6184 GROVEDALE CT", "postcode": "22310"}}},
{"geometry": {"type": "Point", "coordinates": [-77.139847603, 38.7919869381]}, "type": "Feature", "properties": {"collection_times": [{"days": "Mon-Fri", "time": "11:15am"}, {"days": "Sat", "time": "2:30pm"}, {"days": "Sun", "time": "Closed"}], "id": "2231000034", "name": "USPS COLLECTION BOX - BLUE BOX", "address": {"city": "ALEXANDRIA", "state": "VA", "street": "5802 KATELYN MARY PL", "postcode": "22310"}}},
{"geometry": {"type": "Point", "coordinates": [-77.124598079, 38.784957796]}, "type": "Feature", "properties": {"collection_times": [{"days": "Mon-Fri", "time": "5:00pm"}, {"days": "Sat", "time": "3:00pm"}, {"days": "Sun", "time": "Closed"}], "id": "2231000040", "name": "USPS COLLECTION BOX - BLUE BOX", "address": {"city": "ALEXANDRIA", "state": "VA", "street": "5221 FRANCONIA RD", "postcode": "22310"}}},
{"geometry": {"type": "Point", "coordinates": [-77.124598079, 38.784957796]}, "type": "Feature", "properties": {"collection_times": [{"days": "Mon-Fri", "time": "5:00pm"}, {"days": "Sat", "time": "3:00pm"}, {"days": "Sun", "time": "Closed"}], "id": "2231000041", "name": "USPS COLLECTION BOX - BLUE BOX", "address": {"city": "ALEXANDRIA", "state": "VA", "street": "5221 FRANCONIA RD", "postcode": "22310"}}},
{"geometry": {"type": "Point", "coordinates": [-77.126038715, 38.7836922264]}, "type": "Feature", "properties": {"collection_times": [{"days": "Mon-Fri", "time": "5:00pm"}, {"days": "Sat", "time": "3:00pm"}, {"days": "Sun", "time": "Closed"}], "id": "2231000042", "name": "USPS COLLECTION BOX - EXPRESS", "address": {"city": "ALEXANDRIA", "state": "VA", "street": "5221 FRANCONIA RD", "postcode": "22310"}}},
{"geometry": {"type": "Point", "coordinates": [-77.1533203227, 38.7796013578]}, "type": "Feature", "properties": {"collection_times": [{"days": "Mon-Fri", "time": "10:15am"}, {"days": "Sat", "time": "3:00pm"}, {"days": "Sun", "time": "Closed"}], "id": "2231000043", "name": "USPS COLLECTION BOX - BLUE BOX", "address": {"city": "ALEXANDRIA", "state": "VA", "street": "6226 OLD FRANCONIA RD", "postcode": "22310"}}},
{"geometry": {"type": "Point", "coordinates": [-77.1608773958, 38.7682640359]}, "type": "Feature", "properties": {"collection_times": [{"days": "Mon-Fri", "time": "10:30am"}, {"days": "Sat", "time": "2:00pm"}, {"days": "Sun", "time": "Closed"}], "id": "2231000045", "name": "USPS COLLECTION BOX - BLUE BOX", "address": {"city": "ALEXANDRIA", "state": "VA", "street": "6354 WALKER LN", "postcode": "22310"}}},
{"geometry": {"type": "Point", "coordinates": [-77.124598079, 38.784957796]}, "type": "Feature", "properties": {"collection_times": [{"days": "Mon-Fri", "time": "5:00pm"}, {"days": "Sat", "time": "3:30pm"}, {"days": "Sun", "time": "Closed"}], "id": "2231000046", "name": "USPS COLLECTION BOX - APC", "address": {"city": "ALEXANDRIA", "state": "VA", "street": "5221 FRANCONIA RD", "postcode": "22310"}}},
{"geometry": {"type": "Point", "coordinates": [-77.124598079, 38.784957796]}, "type": "Feature", "properties": {"collection_times": [{"days": "Mon-Fri", "time": "5:00pm"}, {"days": "Sat", "time": "3:30pm"}, {"days": "Sun", "time": "Closed"}], "id": "2231000047", "name": "USPS COLLECTION BOX - PO LOBBY", "address": {"city": "ALEXANDRIA", "state": "VA", "street": "5221 FRANCONIA RD", "postcode": "22310"}}},
{"geometry": {"type": "Point", "coordinates": [-77.124598079, 38.784957796]}, "type": "Feature", "properties": {"collection_times": [{"days": "Mon-Fri", "time": "5:00pm"}, {"days": "Sat", "time": "3:30pm"}, {"days": "Sun", "time": "Closed"}], "id": "2231000048", "name": "USPS COLLECTION BOX - PO LOBBY", "address": {"city": "ALEXANDRIA", "state": "VA", "street": "5221 FRANCONIA RD", "postcode": "22310"}}},
{"geometry": {"type": "Point", "coordinates": [-77.1209434772, 38.7842970813]}, "type": "Feature", "properties": {"collection_times": [{"days": "Mon-Fri", "time": "10:00am"}, {"days": "Sat", "time": "2:30pm"}, {"days": "Sun", "time": "Closed"}], "id": "2231000049", "name": "USPS COLLECTION BOX - BLUE BOX", "address": {"city": "ALEXANDRIA", "state": "VA", "street": "6114 ROSE HILL DR", "postcode": "22310"}}},
{"geometry": {"type": "Point", "coordinates": [-77.1094667041, 38.8368397465]}, "type": "Feature", "properties": {"collection_times": [{"days": "Mon-Fri", "time": "12:15pm"}, {"days": "Sat", "time": "1:00pm"}, {"days": "Sun", "time": "Closed"}], "id": "2231100010", "name": "USPS COLLECTION BOX - BLUE BOX", "address": {"city": "ALEXANDRIA", "state": "VA", "street": "4755 W BRADDOCK RD", "postcode": "22311"}}},
{"geometry": {"type": "Point", "coordinates": [-77.1255302507, 38.8323435832]}, "type": "Feature", "properties": {"collection_times": [{"days": "Mon-Fri", "time": "12:15pm"}, {"days": "Sat", "time": "1:30pm"}, {"days": "Sun", "time": "Closed"}], "id": "2231100021", "name": "USPS COLLECTION BOX - BLUE BOX", "address": {"city": "ALEXANDRIA", "state": "VA", "street": "5653 RAYBURN AVE", "postcode": "22311"}}},
{"geometry": {"type": "Point", "coordinates": [-77.1212337437, 38.8362296034]}, "type": "Feature", "properties": {"collection_times": [{"days": "Mon-Fri", "time": "12:15pm"}, {"days": "Sat", "time": "1:30pm"}, {"days": "Sun", "time": "Closed"}], "id": "2231100033", "name": "USPS COLLECTION BOX - BLUE BOX", "address": {"city": "ALEXANDRIA", "state": "VA", "street": "5344 ECHOLS AVE", "postcode": "22311"}}},
{"geometry": {"type": "Point", "coordinates": [-77.1193859618, 38.8399547412]}, "type": "Feature", "properties": {"collection_times": [{"days": "Mon-Fri", "time": "12:15pm"}, {"days": "Sat", "time": "1:00pm"}, {"days": "Sun", "time": "Closed"}], "id": "2231100038", "name": "USPS COLLECTION BOX - BLUE BOX", "address": {"city": "ALEXANDRIA", "state": "VA", "street": "5226 DAWES AVE", "postcode": "22311"}}},
{"geometry": {"type": "Point", "coordinates": [-77.1080177262, 38.8343345032]}, "type": "Feature", "properties": {"collection_times": [{"days": "Mon-Fri", "time": "12:15pm"}, {"days": "Sat", "time": "1:00pm"}, {"days": "Sun", "time": "Closed"}], "id": "2231100048", "name": "USPS COLLECTION BOX - BLUE BOX", "address": {"city": "ALEXANDRIA", "state": "VA", "street": "2511 HUNTON PL", "postcode": "22311"}}},
{"geometry": {"type": "Point", "coordinates": [-77.1600963116, 38.8236630303]}, "type": "Feature", "properties": {"collection_times": [{"days": "Mon-Fri", "time": "1:45pm"}, {"days": "Sat", "time": "2:00pm"}, {"days": "Sun", "time": "Closed"}], "id": "2231200001", "name": "USPS COLLECTION BOX - BLUE BOX", "address": {"city": "ALEXANDRIA", "state": "VA", "street": "4609 PINECREST OFFICE PARK DR", "postcode": "22312"}}},
{"geometry": {"type": "Point", "coordinates": [-77.1660743863, 38.8044165328]}, "type": "Feature", "properties": {"collection_times": [{"days": "Mon-Fri", "time": "1:45pm"}, {"days": "Sat", "time": "2:30pm"}, {"days": "Sun", "time": "Closed"}], "id": "2231200003", "name": "USPS COLLECTION BOX - BLUE BOX", "address": {"city": "ALEXANDRIA", "state": "VA", "street": "5501 CHEROKEE AVE", "postcode": "22312"}}},
{"geometry": {"type": "Point", "coordinates": [-77.1646746688, 38.7978255458]}, "type": "Feature", "properties": {"collection_times": [{"days": "Mon-Fri", "time": "1:45pm"}, {"days": "Sat", "time": "2:30pm"}, {"days": "Sun", "time": "Closed"}], "id": "2231200006", "name": "USPS COLLECTION BOX - BLUE BOX", "address": {"city": "ALEXANDRIA", "state": "VA", "street": "5655 GENERAL WASHINGTON DR", "postcode": "22312"}}},
{"geometry": {"type": "Point", "coordinates": [-77.1565557155, 38.8350774014]}, "type": "Feature", "properties": {"collection_times": [{"days": "Mon-Fri", "time": "1:30pm"}, {"days": "Sat", "time": "12:30pm"}, {"days": "Sun", "time": "Closed"}], "id": "2231200011", "name": "USPS COLLECTION BOX - BLUE BOX", "address": {"city": "ALEXANDRIA", "state": "VA", "street": "6464 LINCOLNIA RD", "postcode": "22312"}}},
{"geometry": {"type": "Point", "coordinates": [-77.1487266903, 38.821559667]}, "type": "Feature", "properties": {"collection_times": [{"days": "Mon-Fri", "time": "11:15am"}, {"days": "Sat", "time": "2:00pm"}, {"days": "Sun", "time": "Closed"}], "id": "2231200015", "name": "USPS COLLECTION BOX - BLUE BOX", "address": {"city": "ALEXANDRIA", "state": "VA", "street": "6491 FRENCHMENS DR", "postcode": "22312"}}},
{"geometry": {"type": "Point", "coordinates": [-77.1481038321, 38.8191687186]}, "type": "Feature", "properties": {"collection_times": [{"days": "Mon-Fri", "time": "11:15am"}, {"days": "Sat", "time": "2:00pm"}, {"days": "Sun", "time": "Closed"}], "id": "2231200018", "name": "USPS COLLECTION BOX - BLUE BOX", "address": {"city": "ALEXANDRIA", "state": "VA", "street": "4902 SOUTHLAND AVE", "postcode": "22312"}}},
{"geometry": {"type": "Point", "coordinates": [-77.1660743863, 38.8044165328]}, "type": "Feature", "properties": {"collection_times": [{"days": "Mon-Fri", "time": "1:45pm"}, {"days": "Sat", "time": "2:30pm"}, {"days": "Sun", "time": "Closed"}], "id": "2231200022", "name": "USPS COLLECTION BOX - BLUE BOX", "address": {"city": "ALEXANDRIA", "state": "VA", "street": "5501 CHEROKEE AVE", "postcode": "22312"}}},
{"geometry": {"type": "Point", "coordinates": [-77.1667682002, 38.8065799199]}, "type": "Feature", "properties": {"collection_times": [{"days": "Mon-Fri", "time": "1:45pm"}, {"days": "Sat", "time": "2:30pm"}, {"days": "Sun", "time": "Closed"}], "id": "2231200023", "name": "USPS COLLECTION BOX - BLUE BOX", "address": {"city": "ALEXANDRIA", "state": "VA", "street": "5350 SHAWNEE RD", "postcode": "22312"}}},
{"geometry": {"type": "Point", "coordinates": [-77.1437, 38.81832]}, "type": "Feature", "properties": {"collection_times": [{"days": "Mon-Fri", "time": "11:15am"}, {"days": "Sat", "time": "2:00pm"}, {"days": "Sun", "time": "Closed"}], "id": "2231200024", "name": "USPS COLLECTION BOX - BLUE BOX", "address": {"city": "ALEXANDRIA", "state": "VA", "street": "6301 LITTLE RIVER TPKE", "postcode": "22312"}}},
{"geometry": {"type": "Point", "coordinates": [-77.1351228649, 38.8234938672]}, "type": "Feature", "properties": {"collection_times": [{"days": "Mon-Fri", "time": "12:30pm"}, {"days": "Sat", "time": "1:30pm"}, {"days": "Sun", "time": "Closed"}], "id": "2231200030", "name": "USPS COLLECTION BOX - BLUE BOX", "address": {"city": "ALEXANDRIA", "state": "VA", "street": "601 N ARMISTEAD ST", "postcode": "22312"}}},
{"geometry": {"type": "Point", "coordinates": [-77.1447935545, 38.8341901822]}, "type": "Feature", "properties": {"collection_times": [{"days": "Mon-Fri", "time": "12:00pm"}, {"days": "Sat", "time": "12:30pm"}, {"days": "Sun", "time": "Closed"}], "id": "2231200036", "name": "USPS COLLECTION BOX - BLUE BOX", "address": {"city": "ALEXANDRIA", "state": "VA", "street": "6222 YOSEMITE DR", "postcode": "22312"}}},
{"geometry": {"type": "Point", "coordinates": [-77.1370984064, 38.8272497619]}, "type": "Feature", "properties": {"collection_times": [{"days": "Mon-Sat", "time": "12:30pm"}, {"days": "Sun", "time": "Closed"}], "id": "2231200038", "name": "USPS COLLECTION BOX - BLUE BOX", "address": {"city": "ALEXANDRIA", "state": "VA", "street": "1225 N CHAMBLISS ST", "postcode": "22312"}}},
{"geometry": {"type": "Point", "coordinates": [-77.1667682002, 38.8065799199]}, "type": "Feature", "properties": {"collection_times": [{"days": "Mon-Fri", "time": "1:45pm"}, {"days": "Sat", "time": "2:30pm"}, {"days": "Sun", "time": "Closed"}], "id": "2231200043", "name": "USPS COLLECTION BOX - BLUE BOX", "address": {"city": "ALEXANDRIA", "state": "VA", "street": "5350 SHAWNEE RD", "postcode": "22312"}}},
{"geometry": {"type": "Point", "coordinates": [-77.1382362547, 38.818665911]}, "type": "Feature", "properties": {"collection_times": [{"days": "Mon-Fri", "time": "5:00pm"}, {"days": "Sat", "time": "3:30pm"}, {"days": "Sun", "time": "Closed"}], "id": "2231200046", "name": "USPS COLLECTION BOX - BLUE BOX", "address": {"city": "ALEXANDRIA", "state": "VA", "street": "6137 LINCOLNIA RD", "postcode": "22312"}}},
{"geometry": {"type": "Point", "coordinates": [-77.1382600721, 38.8186461014]}, "type": "Feature", "properties": {"collection_times": [{"days": "Mon-Fri", "time": "5:00pm"}, {"days": "Sat", "time": "3:30pm"}, {"days": "Sun", "time": "Closed"}], "id": "2231200047", "name": "USPS COLLECTION BOX - BLUE BOX", "address": {"city": "ALEXANDRIA", "state": "VA", "street": "6137 LINCOLNIA RD", "postcode": "22312"}}},
{"geometry": {"type": "Point", "coordinates": [-77.138101673, 38.8185739643]}, "type": "Feature", "properties": {"collection_times": [{"days": "Mon-Fri", "time": "5:00pm"}, {"days": "Sat", "time": "3:30pm"}, {"days": "Sun", "time": "Closed"}], "id": "2231200048", "name": "USPS COLLECTION BOX - BLUE BOX", "address": {"city": "ALEXANDRIA", "state": "VA", "street": "6137 LINCOLNIA RD", "postcode": "22312"}}},
{"geometry": {"type": "Point", "coordinates": [-77.148897789, 38.8163232178]}, "type": "Feature", "properties": {"collection_times": [{"days": "Mon-Fri", "time": "5:00pm"}, {"days": "Sat", "time": "3:30pm"}, {"days": "Sun", "time": "Closed"}], "id": "2231200049", "name": "USPS COLLECTION BOX - EXPRESS", "address": {"city": "ALEXANDRIA", "state": "VA", "street": "6137 LINCOLNIA RD", "postcode": "22312"}}},
{"geometry": {"type": "Point", "coordinates": [-77.1382600721, 38.8186461014]}, "type": "Feature", "properties": {"collection_times": [{"days": "Mon-Fri", "time": "5:00pm"}, {"days": "Sat", "time": "3:30pm"}, {"days": "Sun", "time": "Closed"}], "id": "2231200050", "name": "USPS COLLECTION BOX - PO LOBBY", "address": {"city": "ALEXANDRIA", "state": "VA", "street": "6137 LINCOLNIA RD", "postcode": "22312"}}},
{"geometry": {"type": "Point", "coordinates": [-77.1382600721, 38.8186461014]}, "type": "Feature", "properties": {"collection_times": [{"days": "Mon-Fri", "time": "5:00pm"}, {"days": "Sat", "time": "3:30pm"}, {"days": "Sun", "time": "Closed"}], "id": "2231200051", "name": "USPS COLLECTION BOX - PO LOBBY", "address": {"city": "ALEXANDRIA", "state": "VA", "street": "6137 LINCOLNIA RD", "postcode": "22312"}}},
{"geometry": {"type": "Point", "coordinates": [-77.0499489787, 38.8124040228]}, "type": "Feature", "properties": {"collection_times": [{"days": "Mon-Fri", "time": "5:00pm"}, {"days": "Sat", "time": "4:30pm"}, {"days": "Sun", "time": "Closed"}], "id": "2231300000", "name": "USPS COLLECTION BOX - EXPRESS", "address": {"city": "ALEXANDRIA", "state": "VA", "street": "1100 WYTHE ST", "postcode": "22313"}}},
{"geometry": {"type": "Point", "coordinates": [-77.0500276628, 38.8124380546]}, "type": "Feature", "properties": {"collection_times": [{"days": "Mon-Fri", "time": "5:00pm"}, {"days": "Sat", "time": "4:30pm"}, {"days": "Sun", "time": "Closed"}], "id": "2231300001", "name": "USPS COLLECTION BOX - BLUE BOX", "address": {"city": "ALEXANDRIA", "state": "VA", "street": "1100 WYTHE ST", "postcode": "22313"}}},
{"geometry": {"type": "Point", "coordinates": [-77.0503260004, 38.8125231058]}, "type": "Feature", "properties": {"collection_times": [{"days": "Mon-Fri", "time": "5:00pm"}, {"days": "Sat", "time": "4:30pm"}, {"days": "Sun", "time": "Closed"}], "id": "2231300003", "name": "USPS COLLECTION BOX - BLUE BOX", "address": {"city": "ALEXANDRIA", "state": "VA", "street": "1100 WYTHE ST", "postcode": "22313"}}},
{"geometry": {"type": "Point", "coordinates": [-77.0503260004, 38.8125231058]}, "type": "Feature", "properties": {"collection_times": [{"days": "Mon-Fri", "time": "5:00pm"}, {"days": "Sat", "time": "4:30pm"}, {"days": "Sun", "time": "Closed"}], "id": "2231300008", "name": "USPS COLLECTION BOX - APC", "address": {"city": "ALEXANDRIA", "state": "VA", "street": "1100 WYTHE ST", "postcode": "22313"}}},
{"geometry": {"type": "Point", "coordinates": [-77.0503260004, 38.8125231058]}, "type": "Feature", "properties": {"collection_times": [{"days": "Mon-Fri", "time": "5:00pm"}, {"days": "Sat", "time": "4:30pm"}, {"days": "Sun", "time": "Closed"}], "id": "2231300009", "name": "USPS COLLECTION BOX - PO LOBBY", "address": {"city": "ALEXANDRIA", "state": "VA", "street": "1100 WYTHE ST", "postcode": "22313"}}},
{"geometry": {"type": "Point", "coordinates": [-77.0424143708, 38.8051201486]}, "type": "Feature", "properties": {"collection_times": [{"days": "Mon-Fri", "time": "11:15am"}, {"days": "Sat", "time": "2:30pm"}, {"days": "Sun", "time": "Closed"}], "id": "2231400003", "name": "USPS COLLECTION BOX - BLUE BOX", "address": {"city": "ALEXANDRIA", "state": "VA", "street": "117 N FAIRFAX ST", "postcode": "22314"}}},
{"geometry": {"type": "Point", "coordinates": [-77.0444608899, 38.7955015092]}, "type": "Feature", "properties": {"collection_times": [{"days": "Mon-Sat", "time": "9:00am"}, {"days": "Sun", "time": "Closed"}], "id": "2231400004", "name": "USPS COLLECTION BOX - BLUE BOX", "address": {"city": "ALEXANDRIA", "state": "VA", "street": "833 S FAIRFAX ST", "postcode": "22314"}}},
{"geometry": {"type": "Point", "coordinates": [-77.0434802074, 38.8151822145]}, "type": "Feature", "properties": {"collection_times": [{"days": "Mon-Fri", "time": "10:15am"}, {"days": "Sat", "time": "1:30pm"}, {"days": "Sun", "time": "Closed"}], "id": "2231400005", "name": "USPS COLLECTION BOX - BLUE BOX", "address": {"city": "ALEXANDRIA", "state": "VA", "street": "631 FIRST ST", "postcode": "22314"}}},
{"geometry": {"type": "Point", "coordinates": [-77.0429691786, 38.7973552059]}, "type": "Feature", "properties": {"collection_times": [{"days": "Mon-Sat", "time": "9:00am"}, {"days": "Sun", "time": "Closed"}], "id": "2231400006", "name": "USPS COLLECTION BOX - BLUE BOX", "address": {"city": "ALEXANDRIA", "state": "VA", "street": "700 S LEE ST", "postcode": "22314"}}},
{"geometry": {"type": "Point", "coordinates": [-77.0702304679, 38.8074493948]}, "type": "Feature", "properties": {"collection_times": [{"days": "Mon-Sat", "time": "9:00am"}, {"days": "Sun", "time": "Closed"}], "id": "2231400007", "name": "USPS COLLECTION BOX - BLUE BOX", "address": {"city": "ALEXANDRIA", "state": "VA", "street": "100 ROBERTS LN", "postcode": "22314"}}},
{"geometry": {"type": "Point", "coordinates": [-77.0812008449, 38.8068562251]}, "type": "Feature", "properties": {"collection_times": [{"days": "Mon-Sat", "time": "9:00am"}, {"days": "Sun", "time": "Closed"}], "id": "2231400008", "name": "USPS COLLECTION BOX - BLUE BOX", "address": {"city": "ALEXANDRIA", "state": "VA", "street": "16 ROTH ST", "postcode": "22314"}}},
{"geometry": {"type": "Point", "coordinates": [-77.0482203334, 38.8199071356]}, "type": "Feature", "properties": {"collection_times": [{"days": "Mon-Fri", "time": "10:30am"}, {"days": "Sat", "time": "2:00pm"}, {"days": "Sun", "time": "Closed"}], "id": "2231400013", "name": "USPS COLLECTION BOX - BLUE BOX", "address": {"city": "ALEXANDRIA", "state": "VA", "street": "1413 POWHATAN ST", "postcode": "22314"}}},
{"geometry": {"type": "Point", "coordinates": [-77.0473775215, 38.7980497253]}, "type": "Feature", "properties": {"collection_times": [{"days": "Mon-Fri", "time": "10:00am"}, {"days": "Sat", "time": "1:30pm"}, {"days": "Sun", "time": "Closed"}], "id": "2231400015", "name": "USPS COLLECTION BOX - BLUE BOX", "address": {"city": "ALEXANDRIA", "state": "VA", "street": "701 SAINT ASAPH ST", "postcode": "22314"}}},
{"geometry": {"type": "Point", "coordinates": [-77.0476631598, 38.7963627033]}, "type": "Feature", "properties": {"collection_times": [{"days": "Mon-Fri", "time": "11:00am"}, {"days": "Sat", "time": "3:00pm"}, {"days": "Sun", "time": "Closed"}], "id": "2231400017", "name": "USPS COLLECTION BOX - BLUE BOX", "address": {"city": "ALEXANDRIA", "state": "VA", "street": "800 S SAINT ASAPH ST", "postcode": "22314"}}},
{"geometry": {"type": "Point", "coordinates": [-77.0416004951, 38.8044103732]}, "type": "Feature", "properties": {"collection_times": [{"days": "Mon-Fri", "time": "11:15am"}, {"days": "Sat", "time": "2:30pm"}, {"days": "Sun", "time": "Closed"}], "id": "2231400018", "name": "USPS COLLECTION BOX - BLUE BOX", "address": {"city": "ALEXANDRIA", "state": "VA", "street": "200 KING ST", "postcode": "22314"}}},
{"geometry": {"type": "Point", "coordinates": [-77.0523216522, 38.8057802397]}, "type": "Feature", "properties": {"collection_times": [{"days": "Mon-Fri", "time": "11:45am"}, {"days": "Sat", "time": "2:30pm"}, {"days": "Sun", "time": "Closed"}], "id": "2231400019", "name": "USPS COLLECTION BOX - BLUE BOX", "address": {"city": "ALEXANDRIA", "state": "VA", "street": "1131 KING ST", "postcode": "22314"}}},
{"geometry": {"type": "Point", "coordinates": [-77.0785987197, 38.8071323618]}, "type": "Feature", "properties": {"collection_times": [{"days": "Mon-Fri", "time": "10:00am"}, {"days": "Sat", "time": "1:30pm"}, {"days": "Sun", "time": "Closed"}], "id": "2231400021", "name": "USPS COLLECTION BOX - BLUE BOX", "address": {"city": "ALEXANDRIA", "state": "VA", "street": "2805 DUKE ST", "postcode": "22314"}}},
{"geometry": {"type": "Point", "coordinates": [-77.0497179595, 38.8028725265]}, "type": "Feature", "properties": {"collection_times": [{"days": "Mon-Fri", "time": "10:45am"}, {"days": "Sat", "time": "2:30pm"}, {"days": "Sun", "time": "Closed"}], "id": "2231400022", "name": "USPS COLLECTION BOX - BLUE BOX", "address": {"city": "ALEXANDRIA", "state": "VA", "street": "301 S ALFRED ST", "postcode": "22314"}}},
{"geometry": {"type": "Point", "coordinates": [-77.0443177518, 38.8024076237]}, "type": "Feature", "properties": {"collection_times": [{"days": "Mon-Fri", "time": "11:15am"}, {"days": "Sat", "time": "3:00pm"}, {"days": "Sun", "time": "Closed"}], "id": "2231400024", "name": "USPS COLLECTION BOX - BLUE BOX", "address": {"city": "ALEXANDRIA", "state": "VA", "street": "401 DUKE ST", "postcode": "22314"}}},
{"geometry": {"type": "Point", "coordinates": [-77.0443780827, 38.8202880484]}, "type": "Feature", "properties": {"collection_times": [{"days": "Mon-Fri", "time": "10:30am"}, {"days": "Sat", "time": "2:00pm"}, {"days": "Sun", "time": "Closed"}], "id": "2231400026", "name": "USPS COLLECTION BOX - BLUE BOX", "address": {"city": "ALEXANDRIA", "state": "VA", "street": "1420 W ABINGDON DR", "postcode": "22314"}}},
{"geometry": {"type": "Point", "coordinates": [-77.0493098387, 38.8053886802]}, "type": "Feature", "properties": {"collection_times": [{"days": "Mon-Fri", "time": "2:15pm"}, {"days": "Sat", "time": "2:30pm"}, {"days": "Sun", "time": "Closed"}], "id": "2231400027", "name": "USPS COLLECTION BOX - BLUE BOX", "address": {"city": "ALEXANDRIA", "state": "VA", "street": "900 KING ST", "postcode": "22314"}}},
{"geometry": {"type": "Point", "coordinates": [-77.0509245776, 38.8023248165]}, "type": "Feature", "properties": {"collection_times": [{"days": "Mon-Sat", "time": "9:00am"}, {"days": "Sun", "time": "Closed"}], "id": "2231400029", "name": "USPS COLLECTION BOX - BLUE BOX", "address": {"city": "ALEXANDRIA", "state": "VA", "street": "325 S PATRICK ST", "postcode": "22314"}}},
{"geometry": {"type": "Point", "coordinates": [-77.0546970338, 38.8057376531]}, "type": "Feature", "properties": {"collection_times": [{"days": "Mon-Fri", "time": "11:30am"}, {"days": "Sat", "time": "3:30pm"}, {"days": "Sun", "time": "Closed"}], "id": "2231400031", "name": "USPS COLLECTION BOX - BLUE BOX", "address": {"city": "ALEXANDRIA", "state": "VA", "street": "107 S WEST ST", "postcode": "22314"}}},
{"geometry": {"type": "Point", "coordinates": [-77.0835095826, 38.8101604623]}, "type": "Feature", "properties": {"collection_times": [{"days": "Mon-Sat", "time": "9:00am"}, {"days": "Sun", "time": "Closed"}], "id": "2231400037", "name": "USPS COLLECTION BOX - BLUE BOX", "address": {"city": "ALEXANDRIA", "state": "VA", "street": "1100 QUAKER HILL DR", "postcode": "22314"}}},
{"geometry": {"type": "Point", "coordinates": [-77.0442964586, 38.8226208435]}, "type": "Feature", "properties": {"collection_times": [{"days": "Mon-Fri", "time": "10:30am"}, {"days": "Sat", "time": "2:00pm"}, {"days": "Sun", "time": "Closed"}], "id": "2231400041", "name": "USPS COLLECTION BOX - BLUE BOX", "address": {"city": "ALEXANDRIA", "state": "VA", "street": "1618 W ABINGDON DR", "postcode": "22314"}}},
{"geometry": {"type": "Point", "coordinates": [-77.0593709046, 38.8043358468]}, "type": "Feature", "properties": {"collection_times": [{"days": "Mon-Fri", "time": "11:15am"}, {"days": "Sat", "time": "3:00pm"}, {"days": "Sun", "time": "Closed"}], "id": "2231400043", "name": "USPS COLLECTION BOX - BLUE BOX", "address": {"city": "ALEXANDRIA", "state": "VA", "street": "1623 DUKE ST", "postcode": "22314"}}},
{"geometry": {"type": "Point", "coordinates": [-77.0564986803, 38.8052183342]}, "type": "Feature", "properties": {"collection_times": [{"days": "Mon-Fri", "time": "11:30am"}, {"days": "Sat", "time": "3:30pm"}, {"days": "Sun", "time": "Closed"}], "id": "2231400044", "name": "USPS COLLECTION BOX - BLUE BOX", "address": {"city": "ALEXANDRIA", "state": "VA", "street": "133 S PEYTON ST", "postcode": "22314"}}},
{"geometry": {"type": "Point", "coordinates": [-77.0418761245, 38.8076173749]}, "type": "Feature", "properties": {"collection_times": [{"days": "Mon-Fri", "time": "11:15am"}, {"days": "Sat", "time": "2:00pm"}, {"days": "Sun", "time": "Closed"}], "id": "2231400048", "name": "USPS COLLECTION BOX - BLUE BOX", "address": {"city": "ALEXANDRIA", "state": "VA", "street": "333 N FAIRFAX ST", "postcode": "22314"}}},
{"geometry": {"type": "Point", "coordinates": [-77.0426935492, 38.821828261]}, "type": "Feature", "properties": {"collection_times": [{"days": "Mon-Fri", "time": "1:30pm"}, {"days": "Sat", "time": "2:00pm"}, {"days": "Sun", "time": "Closed"}], "id": "2231400054", "name": "USPS COLLECTION BOX - BLUE BOX", "address": {"city": "ALEXANDRIA", "state": "VA", "street": "635 SLATERS LN", "postcode": "22314"}}},
{"geometry": {"type": "Point", "coordinates": [-77.0571741498, 38.8091682341]}, "type": "Feature", "properties": {"collection_times": [{"days": "Mon-Fri", "time": "10:00am"}, {"days": "Sat", "time": "1:30pm"}, {"days": "Sun", "time": "Closed"}], "id": "2231400063", "name": "USPS COLLECTION BOX - BLUE BOX", "address": {"city": "ALEXANDRIA", "state": "VA", "street": "313 BUCHANAN ST", "postcode": "22314"}}},
{"geometry": {"type": "Point", "coordinates": [-77.0813727584, 38.8125609605]}, "type": "Feature", "properties": {"collection_times": [{"days": "Mon-Sat", "time": "9:00am"}, {"days": "Sun", "time": "Closed"}], "id": "2231400064", "name": "USPS COLLECTION BOX - BLUE BOX", "address": {"city": "ALEXANDRIA", "state": "VA", "street": "313 CAMBRIDGE RD", "postcode": "22314"}}},
{"geometry": {"type": "Point", "coordinates": [-77.0501698498, 38.8066568123]}, "type": "Feature", "properties": {"collection_times": [{"days": "Mon-Fri", "time": "10:00am"}, {"days": "Sat", "time": "1:30pm"}, {"days": "Sun", "time": "Closed"}], "id": "2231400065", "name": "USPS COLLECTION BOX - BLUE BOX", "address": {"city": "ALEXANDRIA", "state": "VA", "street": "1001 CAMERON ST", "postcode": "22314"}}},
{"geometry": {"type": "Point", "coordinates": [-77.0432140511, 38.8057766908]}, "type": "Feature", "properties": {"collection_times": [{"days": "Mon-Fri", "time": "11:00am"}, {"days": "Sat", "time": "2:00pm"}, {"days": "Sun", "time": "Closed"}], "id": "2231400066", "name": "USPS COLLECTION BOX - BLUE BOX", "address": {"city": "ALEXANDRIA", "state": "VA", "street": "325 CAMERON ST", "postcode": "22314"}}},
{"geometry": {"type": "Point", "coordinates": [-77.0462376067, 38.803331843]}, "type": "Feature", "properties": {"collection_times": [{"days": "Mon-Fri", "time": "11:00am"}, {"days": "Sat", "time": "2:00pm"}, {"days": "Sun", "time": "Closed"}], "id": "2231400067", "name": "USPS COLLECTION BOX - BLUE BOX", "address": {"city": "ALEXANDRIA", "state": "VA", "street": "215 SAINT ASAPH", "postcode": "22314"}}},
{"geometry": {"type": "Point", "coordinates": [-77.0451221639, 38.819810133]}, "type": "Feature", "properties": {"collection_times": [{"days": "Mon-Fri", "time": "10:30am"}, {"days": "Sat", "time": "2:00pm"}, {"days": "Sun", "time": "Closed"}], "id": "2231400071", "name": "USPS COLLECTION BOX - BLUE BOX", "address": {"city": "ALEXANDRIA", "state": "VA", "street": "701 CHETWORTH PL", "postcode": "22314"}}},
{"geometry": {"type": "Point", "coordinates": [-77.066069076, 38.805317477]}, "type": "Feature", "properties": {"collection_times": [{"days": "Mon-Sat", "time": "9:00am"}, {"days": "Sun", "time": "Closed"}], "id": "2231400075", "name": "USPS COLLECTION BOX - BLUE BOX", "address": {"city": "ALEXANDRIA", "state": "VA", "street": "2223 DUKE ST", "postcode": "22314"}}},
{"geometry": {"type": "Point", "coordinates": [-77.085593556, 38.8080254958]}, "type": "Feature", "properties": {"collection_times": [{"days": "Mon-Sat", "time": "9:00am"}, {"days": "Sun", "time": "Closed"}], "id": "2231400076", "name": "USPS COLLECTION BOX - BLUE BOX", "address": {"city": "ALEXANDRIA", "state": "VA", "street": "3155 DUKE ST", "postcode": "22314"}}},
{"geometry": {"type": "Point", "coordinates": [-77.0876010374, 38.8083981279]}, "type": "Feature", "properties": {"collection_times": [{"days": "Mon-Fri", "time": "10:15am"}, {"days": "Sat", "time": "2:00pm"}, {"days": "Sun", "time": "Closed"}], "id": "2231400077", "name": "USPS COLLECTION BOX - BLUE BOX", "address": {"city": "ALEXANDRIA", "state": "VA", "street": "3307 DUKE ST", "postcode": "22314"}}},
{"geometry": {"type": "Point", "coordinates": [-77.0427361357, 38.8035349836]}, "type": "Feature", "properties": {"collection_times": [{"days": "Mon-Fri", "time": "11:00am"}, {"days": "Sat", "time": "3:00pm"}, {"days": "Sun", "time": "Closed"}], "id": "2231400079", "name": "USPS COLLECTION BOX - BLUE BOX", "address": {"city": "ALEXANDRIA", "state": "VA", "street": "137 S FAIRFAX ST", "postcode": "22314"}}},
{"geometry": {"type": "Point", "coordinates": [-77.0539673075, 38.798839287]}, "type": "Feature", "properties": {"collection_times": [{"days": "Mon-Sat", "time": "9:00am"}, {"days": "Sun", "time": "Closed"}], "id": "2231400081", "name": "USPS COLLECTION BOX - BLUE BOX", "address": {"city": "ALEXANDRIA", "state": "VA", "street": "1200 FRANKLIN ST", "postcode": "22314"}}},
{"geometry": {"type": "Point", "coordinates": [-77.0497073129, 38.7983831973]}, "type": "Feature", "properties": {"collection_times": [{"days": "Mon-Fri", "time": "10:30am"}, {"days": "Sat", "time": "2:00pm"}, {"days": "Sun", "time": "Closed"}], "id": "2231400083", "name": "USPS COLLECTION BOX - BLUE BOX", "address": {"city": "ALEXANDRIA", "state": "VA", "street": "801 FRANKLIN ST", "postcode": "22314"}}},
{"geometry": {"type": "Point", "coordinates": [-77.0483977773, 38.7983973928]}, "type": "Feature", "properties": {"collection_times": [{"days": "Mon-Sat", "time": "9:00am"}, {"days": "Sun", "time": "Closed"}], "id": "2231400084", "name": "USPS COLLECTION BOX - BLUE BOX", "address": {"city": "ALEXANDRIA", "state": "VA", "street": "691 S WASHINGTON ST", "postcode": "22314"}}},
{"geometry": {"type": "Point", "coordinates": [-77.0579265118, 38.8064982958]}, "type": "Feature", "properties": {"collection_times": [{"days": "Mon-Sat", "time": "2:30pm"}, {"days": "Sun", "time": "Closed"}], "id": "2231400089", "name": "USPS COLLECTION BOX - BLUE BOX", "address": {"city": "ALEXANDRIA", "state": "VA", "street": "1717 KING ST", "postcode": "22314"}}},
{"geometry": {"type": "Point", "coordinates": [-77.0537160985, 38.8071509111]}, "type": "Feature", "properties": {"collection_times": [{"days": "Mon-Fri", "time": "2:00pm"}, {"days": "Sat", "time": "2:30pm"}, {"days": "Sun", "time": "Closed"}], "id": "2231400090", "name": "USPS COLLECTION BOX - EXPRESS", "address": {"city": "ALEXANDRIA", "state": "VA", "street": "501 KING ST", "postcode": "22314"}}},
{"geometry": {"type": "Point", "coordinates": [-77.0462081202, 38.804991206]}, "type": "Feature", "properties": {"collection_times": [{"days": "Mon-Fri", "time": "11:30am"}, {"days": "Sat", "time": "2:30pm"}, {"days": "Sun", "time": "Closed"}], "id": "2231400093", "name": "USPS COLLECTION BOX - BLUE BOX", "address": {"city": "ALEXANDRIA", "state": "VA", "street": "609 KING ST", "postcode": "22314"}}},
{"geometry": {"type": "Point", "coordinates": [-77.0483374464, 38.8052597377]}, "type": "Feature", "properties": {"collection_times": [{"days": "Mon-Fri", "time": "11:30am"}, {"days": "Sat", "time": "2:30pm"}, {"days": "Sun", "time": "Closed"}], "id": "2231400095", "name": "USPS COLLECTION BOX - BLUE BOX", "address": {"city": "ALEXANDRIA", "state": "VA", "street": "803 KING ST", "postcode": "22314"}}},
{"geometry": {"type": "Point", "coordinates": [-77.0422570373, 38.8008331053]}, "type": "Feature", "properties": {"collection_times": [{"days": "Mon-Fri", "time": "11:00am"}, {"days": "Sat", "time": "3:00pm"}, {"days": "Sun", "time": "Closed"}], "id": "2231400096", "name": "USPS COLLECTION BOX - BLUE BOX", "address": {"city": "ALEXANDRIA", "state": "VA", "street": "400 S LEE ST", "postcode": "22314"}}},
{"geometry": {"type": "Point", "coordinates": [-77.0783857871, 38.8078705282]}, "type": "Feature", "properties": {"collection_times": [{"days": "Mon-Sat", "time": "9:00am"}, {"days": "Sun", "time": "Closed"}], "id": "2231400097", "name": "USPS COLLECTION BOX - BLUE BOX", "address": {"city": "ALEXANDRIA", "state": "VA", "street": "2801 SEAY ST", "postcode": "22314"}}},
{"geometry": {"type": "Point", "coordinates": [-77.0406470301, 38.8133085905]}, "type": "Feature", "properties": {"collection_times": [{"days": "Mon-Sat", "time": "1:30pm"}, {"days": "Sun", "time": "Closed"}], "id": "2231400101", "name": "USPS COLLECTION BOX - BLUE BOX", "address": {"city": "ALEXANDRIA", "state": "VA", "street": "801 N FAIRFAX ST", "postcode": "22314"}}},
{"geometry": {"type": "Point", "coordinates": [-77.0409037322, 38.8070460058]}, "type": "Feature", "properties": {"collection_times": [{"days": "Mon-Fri", "time": "1:30pm"}, {"days": "Sat", "time": "2:30pm"}, {"days": "Sun", "time": "Closed"}], "id": "2231400102", "name": "USPS COLLECTION BOX - BLUE BOX", "address": {"city": "ALEXANDRIA", "state": "VA", "street": "300 N LEE ST", "postcode": "22314"}}},
{"geometry": {"type": "Point", "coordinates": [-77.0403855962, 38.8089198128]}, "type": "Feature", "properties": {"collection_times": [{"days": "Mon-Fri", "time": "11:15am"}, {"days": "Sat", "time": "2:30pm"}, {"days": "Sun", "time": "Closed"}], "id": "2231400103", "name": "USPS COLLECTION BOX - BLUE BOX", "address": {"city": "ALEXANDRIA", "state": "VA", "street": "103 ORONOCO ST", "postcode": "22314"}}},
{"geometry": {"type": "Point", "coordinates": [-77.0428532486, 38.8134907662]}, "type": "Feature", "properties": {"collection_times": [{"days": "Mon-Fri", "time": "10:15am"}, {"days": "Sat", "time": "1:30pm"}, {"days": "Sun", "time": "Closed"}], "id": "2231400105", "name": "USPS COLLECTION BOX - BLUE BOX", "address": {"city": "ALEXANDRIA", "state": "VA", "street": "801 N PITT ST", "postcode": "22314"}}},
{"geometry": {"type": "Point", "coordinates": [-77.0589462224, 38.8054501941]}, "type": "Feature", "properties": {"collection_times": [{"days": "Mon-Fri", "time": "11:15am"}, {"days": "Sat", "time": "3:30pm"}, {"days": "Sun", "time": "Closed"}], "id": "2231400106", "name": "USPS COLLECTION BOX - BLUE BOX", "address": {"city": "ALEXANDRIA", "state": "VA", "street": "1700 PRINCE ST", "postcode": "22314"}}},
{"geometry": {"type": "Point", "coordinates": [-77.0525511462, 38.8046386843]}, "type": "Feature", "properties": {"collection_times": [{"days": "Mon-Fri", "time": "11:30am"}, {"days": "Sat", "time": "3:30pm"}, {"days": "Sun", "time": "Closed"}], "id": "2231400107", "name": "USPS COLLECTION BOX - BLUE BOX", "address": {"city": "ALEXANDRIA", "state": "VA", "street": "1132 PRINCE ST", "postcode": "22314"}}},
{"geometry": {"type": "Point", "coordinates": [-77.0462518897, 38.8038236255]}, "type": "Feature", "properties": {"collection_times": [{"days": "Mon-Fri", "time": "11:30am"}, {"days": "Sat", "time": "3:30pm"}, {"days": "Sun", "time": "Closed"}], "id": "2231400108", "name": "USPS COLLECTION BOX - BLUE BOX", "address": {"city": "ALEXANDRIA", "state": "VA", "street": "601 PRINCE ST", "postcode": "22314"}}},
{"geometry": {"type": "Point", "coordinates": [-77.0462518897, 38.8038236255]}, "type": "Feature", "properties": {"collection_times": [{"days": "Mon-Fri", "time": "11:30am"}, {"days": "Sat", "time": "3:30pm"}, {"days": "Sun", "time": "Closed"}], "id": "2231400109", "name": "USPS COLLECTION BOX - BLUE BOX", "address": {"city": "ALEXANDRIA", "state": "VA", "street": "601 PRINCE ST", "postcode": "22314"}}},
{"geometry": {"type": "Point", "coordinates": [-77.0462794924, 38.8084613783]}, "type": "Feature", "properties": {"collection_times": [{"days": "Mon-Fri", "time": "11:00am"}, {"days": "Sat", "time": "2:00pm"}, {"days": "Sun", "time": "Closed"}], "id": "2231400112", "name": "USPS COLLECTION BOX - BLUE BOX", "address": {"city": "ALEXANDRIA", "state": "VA", "street": "700 PRINCESS ST", "postcode": "22314"}}},
{"geometry": {"type": "Point", "coordinates": [-77.041401758, 38.8150286129]}, "type": "Feature", "properties": {"collection_times": [{"days": "Mon-Fri", "time": "10:15am"}, {"days": "Sat", "time": "1:30pm"}, {"days": "Sun", "time": "Closed"}], "id": "2231400114", "name": "USPS COLLECTION BOX - BLUE BOX", "address": {"city": "ALEXANDRIA", "state": "VA", "street": "1008 N ROYAL ST", "postcode": "22314"}}},
{"geometry": {"type": "Point", "coordinates": [-77.0768727825, 38.8109166475]}, "type": "Feature", "properties": {"collection_times": [{"days": "Mon-Fri", "time": "10:00am"}, {"days": "Sat", "time": "1:30pm"}, {"days": "Sun", "time": "Closed"}], "id": "2231400118", "name": "USPS COLLECTION BOX - BLUE BOX", "address": {"city": "ALEXANDRIA", "state": "VA", "street": "2800 DARTMOUTH RD", "postcode": "22314"}}},
{"geometry": {"type": "Point", "coordinates": [-77.0447412511, 38.8094746205]}, "type": "Feature", "properties": {"collection_times": [{"days": "Mon-Fri", "time": "10:00am"}, {"days": "Sat", "time": "1:30pm"}, {"days": "Sun", "time": "Closed"}], "id": "2231400119", "name": "USPS COLLECTION BOX - BLUE BOX", "address": {"city": "ALEXANDRIA", "state": "VA", "street": "529 ORONOCO ST", "postcode": "22314"}}},
{"geometry": {"type": "Point", "coordinates": [-77.0479080323, 38.800697065]}, "type": "Feature", "properties": {"collection_times": [{"days": "Mon-Fri", "time": "10:45am"}, {"days": "Sat", "time": "2:30pm"}, {"days": "Sun", "time": "Closed"}], "id": "2231400122", "name": "USPS COLLECTION BOX - BLUE BOX", "address": {"city": "ALEXANDRIA", "state": "VA", "street": "430 S WASHINGTON ST", "postcode": "22314"}}},
{"geometry": {"type": "Point", "coordinates": [-77.062128382, 38.8047214914]}, "type": "Feature", "properties": {"collection_times": [{"days": "Mon-Sat", "time": "9:00am"}, {"days": "Sun", "time": "Closed"}], "id": "2231400125", "name": "USPS COLLECTION BOX - BLUE BOX", "address": {"city": "ALEXANDRIA", "state": "VA", "street": "1775 DUKE ST", "postcode": "22314"}}},
{"geometry": {"type": "Point", "coordinates": [-77.0493098387, 38.8088914217]}, "type": "Feature", "properties": {"collection_times": [{"days": "Mon-Fri", "time": "10:00am"}, {"days": "Sat", "time": "1:30pm"}, {"days": "Sun", "time": "Closed"}], "id": "2231400126", "name": "USPS COLLECTION BOX - BLUE BOX", "address": {"city": "ALEXANDRIA", "state": "VA", "street": "917 PRINCESS ST", "postcode": "22314"}}},
{"geometry": {"type": "Point", "coordinates": [-77.0558350403, 38.8062262152]}, "type": "Feature", "properties": {"collection_times": [{"days": "Mon-Fri", "time": "2:15pm"}, {"days": "Sat", "time": "2:30pm"}, {"days": "Sun", "time": "Closed"}], "id": "2231400148", "name": "USPS COLLECTION BOX - BLUE BOX", "address": {"city": "ALEXANDRIA", "state": "VA", "street": "1501 KING ST", "postcode": "22314"}}},
{"geometry": {"type": "Point", "coordinates": [-77.0571031723, 38.8039904228]}, "type": "Feature", "properties": {"collection_times": [{"days": "Mon-Fri", "time": "11:15am"}, {"days": "Sat", "time": "3:00pm"}, {"days": "Sun", "time": "Closed"}], "id": "2231400150", "name": "USPS COLLECTION BOX - BLUE BOX", "address": {"city": "ALEXANDRIA", "state": "VA", "street": "1446 DUKE ST", "postcode": "22314"}}},
{"geometry": {"type": "Point", "coordinates": [-77.0440338417, 38.8176050975]}, "type": "Feature", "properties": {"collection_times": [{"days": "Mon-Fri", "time": "10:15am"}, {"days": "Sat", "time": "1:30pm"}, {"days": "Sun", "time": "Closed"}], "id": "2231400163", "name": "USPS COLLECTION BOX - BLUE BOX", "address": {"city": "ALEXANDRIA", "state": "VA", "street": "1201 E ABINGDON DR", "postcode": "22314"}}},
{"geometry": {"type": "Point", "coordinates": [-77.079684676, 38.8023851474]}, "type": "Feature", "properties": {"collection_times": [{"days": "Mon-Fri", "time": "9:00am"}, {"days": "Sat-Sun", "time": "Closed"}], "id": "2231400170", "name": "USPS COLLECTION BOX - BLUE BOX", "address": {"city": "ALEXANDRIA", "state": "VA", "street": "2750 EISENHOWER AVE", "postcode": "22314"}}},
{"geometry": {"type": "Point", "coordinates": [-77.0660688183, 38.8008579474]}, "type": "Feature", "properties": {"collection_times": [{"days": "Mon-Fri", "time": "10:30am"}, {"days": "Sat", "time": "2:00pm"}, {"days": "Sun", "time": "Closed"}], "id": "2231400171", "name": "USPS COLLECTION BOX - BLUE BOX", "address": {"city": "ALEXANDRIA", "state": "VA", "street": "2111 EISENHOWER AVE", "postcode": "22314"}}},
{"geometry": {"type": "Point", "coordinates": [-77.0493098387, 38.8053886802]}, "type": "Feature", "properties": {"collection_times": [{"days": "Mon-Fri", "time": "2:15pm"}, {"days": "Sat", "time": "2:30pm"}, {"days": "Sun", "time": "Closed"}], "id": "2231400172", "name": "USPS COLLECTION BOX - BLUE BOX", "address": {"city": "ALEXANDRIA", "state": "VA", "street": "900 KING ST", "postcode": "22314"}}},
{"geometry": {"type": "Point", "coordinates": [-77.0467593791, 38.8064864662]}, "type": "Feature", "properties": {"collection_times": [{"days": "Mon-Fri", "time": "5:00pm"}, {"days": "Sat", "time": "2:30pm"}, {"days": "Sun", "time": "Closed"}], "id": "2231400176", "name": "USPS COLLECTION BOX - PO LOBBY", "address": {"city": "ALEXANDRIA", "state": "VA", "street": "200 N WASHINGTON ST", "postcode": "22314"}}},
{"geometry": {"type": "Point", "coordinates": [-77.044887938, 38.804818494]}, "type": "Feature", "properties": {"collection_times": [{"days": "Mon-Fri", "time": "2:00pm"}, {"days": "Sat", "time": "2:30pm"}, {"days": "Sun", "time": "Closed"}], "id": "2231400177", "name": "USPS COLLECTION BOX - BLUE BOX", "address": {"city": "ALEXANDRIA", "state": "VA", "street": "501 KING ST", "postcode": "22314"}}},
{"geometry": {"type": "Point", "coordinates": [-77.063770329, 38.8030830932]}, "type": "Feature", "properties": {"collection_times": [{"days": "Mon-Fri", "time": "1:00pm"}, {"days": "Sat", "time": "4:00pm"}, {"days": "Sun", "time": "Closed"}], "id": "2231400178", "name": "USPS COLLECTION BOX - BLUE BOX", "address": {"city": "ALEXANDRIA", "state": "VA", "street": "401 DULANY ST", "postcode": "22314"}}},
{"geometry": {"type": "Point", "coordinates": [-77.1380996578, 38.7680939695]}, "type": "Feature", "properties": {"collection_times": [{"days": "Mon-Fri", "time": "5:00pm"}, {"days": "Sat", "time": "4:00pm"}, {"days": "Sun", "time": "Closed"}], "id": "2231500000", "name": "USPS COLLECTION BOX - BLUE BOX", "address": {"city": "ALEXANDRIA", "state": "VA", "street": "5900 BARCLAY DR", "postcode": "22315"}}},
{"geometry": {"type": "Point", "coordinates": [-77.1380996578, 38.7680939695]}, "type": "Feature", "properties": {"collection_times": [{"days": "Mon-Fri", "time": "5:00pm"}, {"days": "Sat", "time": "4:00pm"}, {"days": "Sun", "time": "Closed"}], "id": "2231500001", "name": "USPS COLLECTION BOX - BLUE BOX", "address": {"city": "ALEXANDRIA", "state": "VA", "street": "5900 BARCLAY DR", "postcode": "22315"}}},
{"geometry": {"type": "Point", "coordinates": [-77.1477289825, 38.7587432049]}, "type": "Feature", "properties": {"collection_times": [{"days": "Mon-Fri", "time": "5:00pm"}, {"days": "Sat", "time": "4:00pm"}, {"days": "Sun", "time": "Closed"}], "id": "2231500002", "name": "USPS COLLECTION BOX - EXPRESS", "address": {"city": "ALEXANDRIA", "state": "VA", "street": "5900 BARCLAY DR", "postcode": "22315"}}},
{"geometry": {"type": "Point", "coordinates": [-77.1378150776, 38.7546145447]}, "type": "Feature", "properties": {"collection_times": [{"days": "Mon-Fri", "time": "10:45am"}, {"days": "Sat", "time": "1:30pm"}, {"days": "Sun", "time": "Closed"}], "id": "2231500003", "name": "USPS COLLECTION BOX - BLUE BOX", "address": {"city": "ALEXANDRIA", "state": "VA", "street": "7500 TELEGRAPH RD", "postcode": "22315"}}},
{"geometry": {"type": "Point", "coordinates": [-77.1548150197, 38.7650377369]}, "type": "Feature", "properties": {"collection_times": [{"days": "Mon-Fri", "time": "10:45am"}, {"days": "Sat", "time": "2:00pm"}, {"days": "Sun", "time": "Closed"}], "id": "2231500005", "name": "USPS COLLECTION BOX - BLUE BOX", "address": {"city": "ALEXANDRIA", "state": "VA", "street": "7003 MANCHESTER BLVD", "postcode": "22315"}}},
{"geometry": {"type": "Point", "coordinates": [-77.14385163, 38.7478997666]}, "type": "Feature", "properties": {"collection_times": [{"days": "Mon-Fri", "time": "10:45am"}, {"days": "Sat", "time": "1:30pm"}, {"days": "Sun", "time": "Closed"}], "id": "2231500006", "name": "USPS COLLECTION BOX - BLUE BOX", "address": {"city": "ALEXANDRIA", "state": "VA", "street": "7701 TELEGRAPH RD", "postcode": "22315"}}},
{"geometry": {"type": "Point", "coordinates": [-77.1661477426, 38.7420318079]}, "type": "Feature", "properties": {"collection_times": [{"days": "Mon-Fri", "time": "10:45am"}, {"days": "Sat", "time": "1:30pm"}, {"days": "Sun", "time": "Closed"}], "id": "2231500010", "name": "USPS COLLECTION BOX - BLUE BOX", "address": {"city": "ALEXANDRIA", "state": "VA", "street": "6542 MORNING GLEN CT", "postcode": "22315"}}},
{"geometry": {"type": "Point", "coordinates": [-77.1692618777, 38.7521318676]}, "type": "Feature", "properties": {"collection_times": [{"days": "Mon-Fri", "time": "10:45am"}, {"days": "Sat", "time": "1:30pm"}, {"days": "Sun", "time": "Closed"}], "id": "2231500011", "name": "USPS COLLECTION BOX - BLUE BOX", "address": {"city": "ALEXANDRIA", "state": "VA", "street": "7550 THOMAS GRANT DR", "postcode": "22315"}}},
{"geometry": {"type": "Point", "coordinates": [-77.1351346945, 38.773080888]}, "type": "Feature", "properties": {"collection_times": [{"days": "Mon-Fri", "time": "11:15am"}, {"days": "Sat", "time": "2:00pm"}, {"days": "Sun", "time": "Closed"}], "id": "2231500012", "name": "USPS COLLECTION BOX - BLUE BOX", "address": {"city": "ALEXANDRIA", "state": "VA", "street": "5870 KINGSTOWNE CTR", "postcode": "22315"}}},
{"geometry": {"type": "Point", "coordinates": [-77.1385688244, 38.7767658051]}, "type": "Feature", "properties": {"collection_times": [{"days": "Mon-Fri", "time": "11:15am"}, {"days": "Sat", "time": "2:00pm"}, {"days": "Sun", "time": "Closed"}], "id": "2231500013", "name": "USPS COLLECTION BOX - BLUE BOX", "address": {"city": "ALEXANDRIA", "state": "VA", "street": "6534 GRANGE LN", "postcode": "22315"}}},
{"geometry": {"type": "Point", "coordinates": [-77.1380996578, 38.7680939695]}, "type": "Feature", "properties": {"collection_times": [{"days": "Mon-Fri", "time": "5:00pm"}, {"days": "Sat", "time": "4:00pm"}, {"days": "Sun", "time": "Closed"}], "id": "2231500018", "name": "USPS COLLECTION BOX - APC", "address": {"city": "ALEXANDRIA", "state": "VA", "street": "5900 BARCLAY DR", "postcode": "22315"}}},
{"geometry": {"type": "Point", "coordinates": [-77.1380996578, 38.7680939695]}, "type": "Feature", "properties": {"collection_times": [{"days": "Mon-Fri", "time": "5:00pm"}, {"days": "Sat", "time": "4:00pm"}, {"days": "Sun", "time": "Closed"}], "id": "2231500019", "name": "USPS COLLECTION BOX - PO LOBBY", "address": {"city": "ALEXANDRIA", "state": "VA", "street": "5900 BARCLAY DR", "postcode": "22315"}}},
{"geometry": {"type": "Point", "coordinates": [-77.1380996578, 38.7680939695]}, "type": "Feature", "properties": {"collection_times": [{"days": "Mon-Fri", "time": "5:00pm"}, {"days": "Sat", "time": "4:00pm"}, {"days": "Sun", "time": "Closed"}], "id": "2231500020", "name": "USPS COLLECTION BOX - PO LOBBY", "address": {"city": "ALEXANDRIA", "state": "VA", "street": "5900 BARCLAY DR", "postcode": "22315"}}}
]}
