{"type": "FeatureCollection", "features": [
{"geometry": {"type": "Point", "coordinates": [-77.458303505, 38.2996081276]}, "type": "Feature", "properties": {"collection_times": [{"days": "Mon-Fri", "time": "5:00pm"}, {"days": "Sat", "time": "4:00pm"}, {"days": "Sun", "time": "Closed"}], "id": "2240100002", "name": "USPS COLLECTION BOX - BLUE BOX", "address": {"city": "FREDERICKSBURG", "state": "VA", "street": "601 PRINCESS ANNE ST", "postcode": "22401"}}},
{"geometry": {"type": "Point", "coordinates": [-77.4581460447, 38.299455641]}, "type": "Feature", "properties": {"collection_times": [{"days": "Mon-Fri", "time": "5:00pm"}, {"days": "Sat", "time": "4:00pm"}, {"days": "Sun", "time": "Closed"}], "id": "2240100003", "name": "USPS COLLECTION BOX - BLUE BOX", "address": {"city": "FREDERICKSBURG", "state": "VA", "street": "601 PRINCESS ANNE ST", "postcode": "22401"}}},
{"geometry": {"type": "Point", "coordinates": [-77.4926123148, 38.2965262425]}, "type": "Feature", "properties": {"collection_times": [{"days": "Mon-Fri", "time": "3:20pm"}, {"days": "Sat", "time": "3:30pm"}, {"days": "Sun", "time": "Closed"}], "id": "2240100016", "name": "USPS COLLECTION BOX - BLUE BOX", "address": {"city": "FREDERICKSBURG", "state": "VA", "street": "308 WESTWOOD OFFICE PARK", "postcode": "22401"}}},
{"geometry": {"type": "Point", "coordinates": [-77.4920263325, 38.2980435328]}, "type": "Feature", "properties": {"collection_times": [{"days": "Mon-Fri", "time": "5:00pm"}, {"days": "Sat", "time": "2:00pm"}, {"days": "Sun", "time": "Closed"}], "id": "2240100017", "name": "USPS COLLECTION BOX - BLUE BOX", "address": {"city": "FREDERICKSBURG", "state": "VA", "street": "1285 JEFF DAVIS HWY", "postcode": "22401"}}},
{"geometry": {"type": "Point", "coordinates": [-77.4676424818, 38.3090718501]}, "type": "Feature", "properties": {"collection_times": [{"days": "Mon-Fri", "time": "1:45pm"}, {"days": "Sat", "time": "2:00pm"}, {"days": "Sun", "time": "Closed"}], "id": "2240100018", "name": "USPS COLLECTION BOX - BLUE BOX", "address": {"city": "FREDERICKSBURG", "state": "VA", "street": "1701 FALL HILL AVE", "postcode": "22401"}}},
{"geometry": {"type": "Point", "coordinates": [-77.4805424858, 38.3050660049]}, "type": "Feature", "properties": {"collection_times": [{"days": "Mon-Fri", "time": "4:30pm"}, {"days": "Sat-Sun", "time": "Closed"}], "id": "2240100055", "name": "USPS COLLECTION BOX - PO LOBBY", "address": {"city": "FREDERICKSBURG", "state": "VA", "street": "1285 JEFFERSON DAVIS HWY", "postcode": "22401"}}},
{"geometry": {"type": "Point", "coordinates": [-77.4601404583, 38.302379025]}, "type": "Feature", "properties": {"collection_times": [{"days": "Mon-Fri", "time": "1:32pm"}, {"days": "Sat", "time": "1:30pm"}, {"days": "Sun", "time": "Closed"}], "id": "2240100056", "name": "USPS COLLECTION BOX - BLUE BOX", "address": {"city": "FREDERICKSBURG", "state": "VA", "street": "904 PRINCESS ANNE ST", "postcode": "22401"}}},
{"geometry": {"type": "Point", "coordinates": [-77.4591371244, 38.3008904017]}, "type": "Feature", "properties": {"collection_times": [{"days": "Mon-Fri", "time": "4:45pm"}, {"days": "Sat", "time": "3:00pm"}, {"days": "Sun", "time": "Closed"}], "id": "2240100059", "name": "USPS COLLECTION BOX - BLUE BOX", "address": {"city": "FREDERICKSBURG", "state": "VA", "street": "1201 CENTRAL PARK BLVD", "postcode": "22401"}}},
{"geometry": {"type": "Point", "coordinates": [-77.4585281997, 38.2998431933]}, "type": "Feature", "properties": {"collection_times": [{"days": "Mon-Sat", "time": "5:30pm"}, {"days": "Sun", "time": "Closed"}], "id": "2240100063", "name": "USPS COLLECTION BOX - PO LOBBY", "address": {"city": "FREDERICKSBURG", "state": "VA", "street": "600 PRINCESS ANNE ST", "postcode": "22401"}}},
{"geometry": {"type": "Point", "coordinates": [-77.4774849366, 38.3103237246]}, "type": "Feature", "properties": {"collection_times": [{"days": "Mon-Fri", "time": "3:00pm"}, {"days": "Sat", "time": "2:00pm"}, {"days": "Sun", "time": "Closed"}], "id": "2240100069", "name": "USPS COLLECTION BOX - BLUE BOX", "address": {"city": "FREDERICKSBURG", "state": "VA", "street": "601 JEFFERSON DAVIS HWY", "postcode": "22401"}}},
{"geometry": {"type": "Point", "coordinates": [-77.4862552017, 38.3129699011]}, "type": "Feature", "properties": {"collection_times": [{"days": "Mon-Fri", "time": "1:45pm"}, {"days": "Sat", "time": "2:00pm"}, {"days": "Sun", "time": "Closed"}], "id": "2240100070", "name": "USPS COLLECTION BOX - BLUE BOX", "address": {"city": "FREDERICKSBURG", "state": "VA", "street": "201 PARK HILL DR", "postcode": "22401"}}},
{"geometry": {"type": "Point", "coordinates": [-77.4582716781, 38.2994076688]}, "type": "Feature", "properties": {"collection_times": [{"days": "Mon-Sat", "time": "5:30pm"}, {"days": "Sun", "time": "Closed"}], "id": "2240100073", "name": "USPS COLLECTION BOX - APC", "address": {"city": "FREDERICKSBURG", "state": "VA", "street": "600 PRINCESS ANNE ST", "postcode": "22401"}}},
{"geometry": {"type": "Point", "coordinates": [-77.4585281997, 38.2998431933]}, "type": "Feature", "properties": {"collection_times": [{"days": "Mon-Sat", "time": "5:30pm"}, {"days": "Sun", "time": "Closed"}], "id": "2240100105", "name": "USPS COLLECTION BOX - PO LOBBY", "address": {"city": "FREDERICKSBURG", "state": "VA", "street": "600 PRINCESS ANNE ST", "postcode": "22401"}}},
{"geometry": {"type": "Point", "coordinates": [-77.4483278123, 38.3109189306]}, "type": "Feature", "properties": {"collection_times": [{"days": "Mon-Fri", "time": "5:00pm"}, {"days": "Sat-Sun", "time": "Closed"}], "id": "2240500004", "name": "USPS COLLECTION BOX - BLUE BOX", "address": {"city": "FREDERICKSBURG", "state": "VA", "street": "300 CHATHAM HEIGHTS RD", "postcode": "22405"}}},
{"geometry": {"type": "Point", "coordinates": [-77.5094442043, 38.3551272901]}, "type": "Feature", "properties": {"collection_times": [{"days": "Mon-Sat", "time": "4:45pm"}, {"days": "Sun", "time": "Closed"}], "id": "2240600002", "name": "USPS COLLECTION BOX - BLUE BOX", "address": {"city": "FREDERICKSBURG", "state": "VA", "street": "16 LICHFIELD BLVD", "postcode": "22406"}}},
{"geometry": {"type": "Point", "coordinates": [-77.5094442043, 38.3551272901]}, "type": "Feature", "properties": {"collection_times": [{"days": "Mon-Sat", "time": "5:00pm"}, {"days": "Sun", "time": "Closed"}], "id": "2240600003", "name": "USPS COLLECTION BOX - PO LOBBY", "address": {"city": "FREDERICKSBURG", "state": "VA", "street": "16 LICHFIELD BLVD", "postcode": "22406"}}},
{"geometry": {"type": "Point", "coordinates": [-77.5094442043, 38.3551272901]}, "type": "Feature", "properties": {"collection_times": [{"days": "Mon-Sat", "time": "4:45pm"}, {"days": "Sun", "time": "Closed"}], "id": "2240600006", "name": "USPS COLLECTION BOX - BLUE BOX", "address": {"city": "FREDERICKSBURG", "state": "VA", "street": "16 LICHFIELD BLVD", "postcode": "22406"}}},
{"geometry": {"type": "Point", "coordinates": [-77.5338965314, 38.2891040126]}, "type": "Feature", "properties": {"collection_times": [{"days": "Mon-Fri", "time": "4:30pm"}, {"days": "Sat", "time": "3:00pm"}, {"days": "Sun", "time": "Closed"}], "id": "2240700005", "name": "USPS COLLECTION BOX - BLUE BOX", "address": {"city": "FREDERICKSBURG", "state": "VA", "street": "4201 PLANK RD", "postcode": "22407"}}},
{"geometry": {"type": "Point", "coordinates": [-77.5032004112, 38.231555323]}, "type": "Feature", "properties": {"collection_times": [{"days": "Mon-Fri", "time": "3:30pm"}, {"days": "Sat", "time": "2:30pm"}, {"days": "Sun", "time": "Closed"}], "id": "2240700010", "name": "USPS COLLECTION BOX - BLUE BOX", "address": {"city": "FREDERICKSBURG", "state": "VA", "street": "5422 SOUTHPOINT PLAZA WAY", "postcode": "22407"}}},
{"geometry": {"type": "Point", "coordinates": [-77.4474932471, 38.2184213199]}, "type": "Feature", "properties": {"collection_times": [{"days": "Mon-Fri", "time": "4:30pm"}, {"days": "Sat", "time": "2:30pm"}, {"days": "Sun", "time": "Closed"}], "id": "2240800005", "name": "USPS COLLECTION BOX - BLUE BOX", "address": {"city": "FREDERICKSBURG", "state": "VA", "street": "5061 JEFF DAVIS HWY", "postcode": "22408"}}},
{"geometry": {"type": "Point", "coordinates": [-77.4952072932, 38.2461649398]}, "type": "Feature", "properties": {"collection_times": [{"days": "Mon-Fri", "time": "1:00pm"}, {"days": "Sat", "time": "2:30pm"}, {"days": "Sun", "time": "Closed"}], "id": "2240800011", "name": "USPS COLLECTION BOX - BLUE BOX", "address": {"city": "FREDERICKSBURG", "state": "VA", "street": "10611 SPOTSYLVANIA AVE", "postcode": "22408"}}},
{"geometry": {"type": "Point", "coordinates": [-77.4960022416, 38.2533431348]}, "type": "Feature", "properties": {"collection_times": [{"days": "Mon-Fri", "time": "1:00pm"}, {"days": "Sat", "time": "2:30pm"}, {"days": "Sun", "time": "Closed"}], "id": "2240800014", "name": "USPS COLLECTION BOX - BLUE BOX", "address": {"city": "FREDERICKSBURG", "state": "VA", "street": "4609 CARR DR", "postcode": "22408"}}},
{"geometry": {"type": "Point", "coordinates": [-77.4478913005, 38.2757223525]}, "type": "Feature", "properties": {"collection_times": [{"days": "Mon-Fri", "time": "2:00pm"}, {"days": "Sat-Sun", "time": "Closed"}], "id": "2240800015", "name": "USPS COLLECTION BOX - BLUE BOX", "address": {"city": "FREDERICKSBURG", "state": "VA", "street": "55 JOSEPH MILLS DR", "postcode": "22408"}}},
{"geometry": {"type": "Point", "coordinates": [-77.3481666314, 38.0493793188]}, "type": "Feature", "properties": {"collection_times": [{"days": "Mon-Fri", "time": "4:45pm"}, {"days": "Sat", "time": "11:15am"}, {"days": "Sun", "time": "Closed"}], "id": "2242700002", "name": "USPS COLLECTION BOX - BLUE BOX", "address": {"city": "BOWLING GREEN", "state": "VA", "street": "117 MILFORD ST", "postcode": "22427"}}},
{"geometry": {"type": "Point", "coordinates": [-77.3481666314, 38.0493793188]}, "type": "Feature", "properties": {"collection_times": [{"days": "Mon-Fri", "time": "4:45pm"}, {"days": "Sat", "time": "11:15am"}, {"days": "Sun", "time": "Closed"}], "id": "2242700003", "name": "USPS COLLECTION BOX - PO LOBBY", "address": {"city": "BOWLING GREEN", "state": "VA", "street": "117 MILFORD ST", "postcode": "22427"}}},
{"geometry": {"type": "Point", "coordinates": [-76.3442806561, 37.8823802514]}, "type": "Feature", "properties": {"collection_times": [{"days": "Mon-Fri", "time": "4:15pm"}, {"days": "Sat", "time": "12:00pm"}, {"days": "Sun", "time": "Closed"}], "id": "2243200001", "name": "USPS COLLECTION BOX - BLUE BOX", "address": {"city": "BURGESS", "state": "VA", "street": "15096 NORTHUMBERLAND HWY", "postcode": "22432"}}},
{"geometry": {"type": "Point", "coordinates": [-76.3442806561, 37.8823802514]}, "type": "Feature", "properties": {"collection_times": [{"days": "Mon-Fri", "time": "4:30pm"}, {"days": "Sat", "time": "12:00pm"}, {"days": "Sun", "time": "Closed"}], "id": "2243200002", "name": "USPS COLLECTION BOX - PO LOBBY", "address": {"city": "BURGESS", "state": "VA", "street": "15096 NORTHUMBERLAND HWY", "postcode": "22432"}}},
{"geometry": {"type": "Point", "coordinates": [-76.5587664298, 37.9687233474]}, "type": "Feature", "properties": {"collection_times": [{"days": "Mon-Fri", "time": "4:20pm"}, {"days": "Sat", "time": "11:30am"}, {"days": "Sun", "time": "Closed"}], "id": "2243500001", "name": "USPS COLLECTION BOX - BLUE BOX", "address": {"city": "CALLAO", "state": "VA", "street": "72 NORTHUMBERLAND HWY", "postcode": "22435"}}},
{"geometry": {"type": "Point", "coordinates": [-76.5587664298, 37.9687233474]}, "type": "Feature", "properties": {"collection_times": [{"days": "Mon-Fri", "time": "4:20pm"}, {"days": "Sat", "time": "11:30am"}, {"days": "Sun", "time": "Closed"}], "id": "2243500002", "name": "USPS COLLECTION BOX - PO LOBBY", "address": {"city": "CALLAO", "state": "VA", "street": "72 NORTHUMBERLAND HWY", "postcode": "22435"}}},
{"geometry": {"type": "Point", "coordinates": [-76.9624303267, 37.9828048111]}, "type": "Feature", "properties": {"collection_times": [{"days": "Mon-Fri", "time": "1:30pm"}, {"days": "Sat", "time": "11:45am"}, {"days": "Sun", "time": "Closed"}], "id": "2243600001", "name": "USPS COLLECTION BOX - BLUE BOX", "address": {"city": "CARET", "state": "VA", "street": "13854 TIDEWATER TRL", "postcode": "22436"}}},
{"geometry": {"type": "Point", "coordinates": [-77.1139909603, 38.0808367616]}, "type": "Feature", "properties": {"collection_times": [{"days": "Mon-Fri", "time": "1:30pm"}, {"days": "Sat", "time": "11:45am"}, {"days": "Sun", "time": "Closed"}], "id": "2243600002", "name": "USPS COLLECTION BOX - PO LOBBY", "address": {"city": "CARET", "state": "VA", "street": "13854 TIDEWATER TRL", "postcode": "22436"}}},
{"geometry": {"type": "Point", "coordinates": [-76.7787010299, 37.8047080967]}, "type": "Feature", "properties": {"collection_times": [{"days": "Mon-Sat", "time": "10:30am"}, {"days": "Sun", "time": "Closed"}], "id": "2243700001", "name": "USPS COLLECTION BOX - BLUE BOX", "address": {"city": "CENTER CROSS", "state": "VA", "street": "31837 TIDEWATER TRL", "postcode": "22437"}}},
{"geometry": {"type": "Point", "coordinates": [-76.7787010299, 37.8047080967]}, "type": "Feature", "properties": {"collection_times": [{"days": "Mon-Sat", "time": "10:30am"}, {"days": "Sun", "time": "Closed"}], "id": "2243700002", "name": "USPS COLLECTION BOX - PO LOBBY", "address": {"city": "CENTER CROSS", "state": "VA", "street": "31837 TIDEWATER TRL", "postcode": "22437"}}},
{"geometry": {"type": "Point", "coordinates": [-76.9653639033, 37.9844407248]}, "type": "Feature", "properties": {"collection_times": [{"days": "Mon-Sat", "time": "1:00pm"}, {"days": "Sun", "time": "Closed"}], "id": "2243800001", "name": "USPS COLLECTION BOX - BLUE BOX", "address": {"city": "CHAMPLAIN", "state": "VA", "street": "11246 TIDEWATER TRL", "postcode": "22438"}}},
{"geometry": {"type": "Point", "coordinates": [-76.9653639033, 37.9844407248]}, "type": "Feature", "properties": {"collection_times": [{"days": "Mon-Sat", "time": "1:00pm"}, {"days": "Sun", "time": "Closed"}], "id": "2243800002", "name": "USPS COLLECTION BOX - PO LOBBY", "address": {"city": "CHAMPLAIN", "state": "VA", "street": "11246 TIDEWATER TRL", "postcode": "22438"}}},
{"geometry": {"type": "Point", "coordinates": [-76.6357989095, 38.1436025227]}, "type": "Feature", "properties": {"collection_times": [{"days": "Mon-Sat", "time": "11:00am"}, {"days": "Sun", "time": "Closed"}], "id": "2244200004", "name": "USPS COLLECTION BOX - PO LOBBY", "address": {"city": "COLES POINT", "state": "VA", "street": "141 OLD POST OFFICE LN", "postcode": "22442"}}},
{"geometry": {"type": "Point", "coordinates": [-76.635796089, 38.14359729]}, "type": "Feature", "properties": {"collection_times": [{"days": "Mon-Sat", "time": "11:00am"}, {"days": "Sun", "time": "Closed"}], "id": "2244200005", "name": "USPS COLLECTION BOX - BLUE BOX", "address": {"city": "COLES POINT", "state": "VA", "street": "141 OLD POST OFFICE LN", "postcode": "22442"}}},
{"geometry": {"type": "Point", "coordinates": [-76.9702054909, 38.2579992643]}, "type": "Feature", "properties": {"collection_times": [{"days": "Mon-Fri", "time": "5:00pm"}, {"days": "Sat", "time": "12:00pm"}, {"days": "Sun", "time": "Closed"}], "id": "2244300001", "name": "USPS COLLECTION BOX - BLUE BOX", "address": {"city": "COLONIAL BEACH", "state": "VA", "street": "1000 DWIGHT AVE", "postcode": "22443"}}},
{"geometry": {"type": "Point", "coordinates": [-76.9702054909, 38.2579992643]}, "type": "Feature", "properties": {"collection_times": [{"days": "Mon-Fri", "time": "5:00pm"}, {"days": "Sat", "time": "12:00pm"}, {"days": "Sun", "time": "Closed"}], "id": "2244300006", "name": "USPS COLLECTION BOX - PO LOBBY", "address": {"city": "COLONIAL BEACH", "state": "VA", "street": "1000 DWIGHT AVE", "postcode": "22443"}}},
{"geometry": {"type": "Point", "coordinates": [-76.9702054909, 38.2579992643]}, "type": "Feature", "properties": {"collection_times": [{"days": "Mon-Fri", "time": "5:00pm"}, {"days": "Sat", "time": "12:00pm"}, {"days": "Sun", "time": "Closed"}], "id": "2244300007", "name": "USPS COLLECTION BOX - PO LOBBY", "address": {"city": "COLONIAL BEACH", "state": "VA", "street": "1000 DWIGHT AVE", "postcode": "22443"}}},
{"geometry": {"type": "Point", "coordinates": [-77.3889376178, 38.2002535779]}, "type": "Feature", "properties": {"collection_times": [{"days": "Mon-Fri", "time": "4:45pm"}, {"days": "Sat", "time": "11:45am"}, {"days": "Sun", "time": "Closed"}], "id": "2244600001", "name": "USPS COLLECTION BOX - BLUE BOX", "address": {"city": "CORBIN", "state": "VA", "street": "4519 FREDERICKSBURG TPKE", "postcode": "22446"}}},
{"geometry": {"type": "Point", "coordinates": [-77.3909090632, 38.2022243708]}, "type": "Feature", "properties": {"collection_times": [{"days": "Mon-Fri", "time": "4:45pm"}, {"days": "Sat", "time": "11:45am"}, {"days": "Sun", "time": "Closed"}], "id": "2244600002", "name": "USPS COLLECTION BOX - PO LOBBY", "address": {"city": "CORBIN", "state": "VA", "street": "4519 FREDERICKSBURG TPKE", "postcode": "22446"}}},
{"geometry": {"type": "Point", "coordinates": [-77.0289678058, 38.3275712369]}, "type": "Feature", "properties": {"collection_times": [{"days": "Mon-Fri", "time": "4:00pm"}, {"days": "Sat", "time": "10:00am"}, {"days": "Sun", "time": "Closed"}], "id": "2244800001", "name": "USPS COLLECTION BOX - BLUE BOX", "address": {"city": "DAHLGREN", "state": "VA", "street": "17285 DAHLGREN RD", "postcode": "22448"}}},
{"geometry": {"type": "Point", "coordinates": [-77.0289678058, 38.3275712369]}, "type": "Feature", "properties": {"collection_times": [{"days": "Mon-Fri", "time": "4:00pm"}, {"days": "Sat", "time": "10:00am"}, {"days": "Sun", "time": "Closed"}], "id": "2244800004", "name": "USPS COLLECTION BOX - PO LOBBY", "address": {"city": "DAHLGREN", "state": "VA", "street": "17285 DAHLGREN RD", "postcode": "22448"}}},
{"geometry": {"type": "Point", "coordinates": [-77.216844429, 38.2314840173]}, "type": "Feature", "properties": {"collection_times": [{"days": "Mon-Fri", "time": "3:00pm"}, {"days": "Sat", "time": "11:45am"}, {"days": "Sun", "time": "Closed"}], "id": "2245100001", "name": "USPS COLLECTION BOX - BLUE BOX", "address": {"city": "DOGUE", "state": "VA", "street": "13218 CLEVE DR", "postcode": "22451"}}},
{"geometry": {"type": "Point", "coordinates": [-77.216844429, 38.2314840173]}, "type": "Feature", "properties": {"collection_times": [{"days": "Mon-Fri", "time": "3:00pm"}, {"days": "Sat", "time": "11:45am"}, {"days": "Sun", "time": "Closed"}], "id": "2245100002", "name": "USPS COLLECTION BOX - PO LOBBY", "address": {"city": "DOGUE", "state": "VA", "street": "13218 CLEVE DR", "postcode": "22451"}}},
{"geometry": {"type": "Point", "coordinates": [-76.8216171763, 37.858206698]}, "type": "Feature", "properties": {"collection_times": [{"days": "Mon-Fri", "time": "1:00pm"}, {"days": "Sat", "time": "12:00pm"}, {"days": "Sun", "time": "Closed"}], "id": "2245400001", "name": "USPS COLLECTION BOX - BLUE BOX", "address": {"city": "DUNNSVILLE", "state": "VA", "street": "27081 TIDEWATER TRL", "postcode": "22454"}}},
{"geometry": {"type": "Point", "coordinates": [-76.8358083588, 37.8374534474]}, "type": "Feature", "properties": {"collection_times": [{"days": "Mon-Fri", "time": "1:00pm"}, {"days": "Sat", "time": "12:00pm"}, {"days": "Sun", "time": "Closed"}], "id": "2245400002", "name": "USPS COLLECTION BOX - PO LOBBY", "address": {"city": "DUNNSVILLE", "state": "VA", "street": "1 POSTAL WAY", "postcode": "22454"}}},
{"geometry": {"type": "Point", "coordinates": [-76.623713986, 37.8853261513]}, "type": "Feature", "properties": {"collection_times": [{"days": "Mon-Fri", "time": "4:15pm"}, {"days": "Sat", "time": "11:45am"}, {"days": "Sun", "time": "Closed"}], "id": "2246000001", "name": "USPS COLLECTION BOX - BLUE BOX", "address": {"city": "FARNHAM", "state": "VA", "street": "193 CEDAR GROVE RD", "postcode": "22460"}}},
{"geometry": {"type": "Point", "coordinates": [-76.623713986, 37.8853261513]}, "type": "Feature", "properties": {"collection_times": [{"days": "Mon-Fri", "time": "4:15pm"}, {"days": "Sat", "time": "11:45am"}, {"days": "Sun", "time": "Closed"}], "id": "2246000002", "name": "USPS COLLECTION BOX - PO LOBBY", "address": {"city": "FARNHAM", "state": "VA", "street": "193 CEDAR GROVE RD", "postcode": "22460"}}},
{"geometry": {"type": "Point", "coordinates": [-77.4364324358, 38.4740461178]}, "type": "Feature", "properties": {"collection_times": [{"days": "Mon-Fri", "time": "4:15pm"}, {"days": "Sat", "time": "12:00pm"}, {"days": "Sun", "time": "Closed"}], "id": "2246300001", "name": "USPS COLLECTION BOX - BLUE BOX", "address": {"city": "GARRISONVILLE", "state": "VA", "street": "524 GARRISONVILLE RD", "postcode": "22463"}}},
{"geometry": {"type": "Point", "coordinates": [-77.4364324358, 38.4740461178]}, "type": "Feature", "properties": {"collection_times": [{"days": "Mon-Fri", "time": "4:15pm"}, {"days": "Sat", "time": "12:00pm"}, {"days": "Sun", "time": "Closed"}], "id": "2246300002", "name": "USPS COLLECTION BOX - PO LOBBY", "address": {"city": "GARRISONVILLE", "state": "VA", "street": "524 GARRISONVILLE RD", "postcode": "22463"}}},
{"geometry": {"type": "Point", "coordinates": [-76.6378898013, 38.0664947693]}, "type": "Feature", "properties": {"collection_times": [{"days": "Mon-Fri", "time": "4:15pm"}, {"days": "Sat", "time": "11:45am"}, {"days": "Sun", "time": "Closed"}], "id": "2246900002", "name": "USPS COLLECTION BOX - PO LOBBY", "address": {"city": "HAGUE", "state": "VA", "street": "8433 COPLE HWY", "postcode": "22469"}}},
{"geometry": {"type": "Point", "coordinates": [-76.6378898013, 38.0664947693]}, "type": "Feature", "properties": {"collection_times": [{"days": "Mon-Fri", "time": "4:15pm"}, {"days": "Sat", "time": "11:45am"}, {"days": "Sun", "time": "Closed"}], "id": "2246900003", "name": "USPS COLLECTION BOX - BLUE BOX", "address": {"city": "HAGUE", "state": "VA", "street": "8433 COPLE HWY", "postcode": "22469"}}},
{"geometry": {"type": "Point", "coordinates": [-77.5638526981, 38.4006313146]}, "type": "Feature", "properties": {"collection_times": [{"days": "Mon-Fri", "time": "4:00pm"}, {"days": "Sat", "time": "11:30am"}, {"days": "Sun", "time": "Closed"}], "id": "2247100001", "name": "USPS COLLECTION BOX - BLUE BOX", "address": {"city": "HARTWOOD", "state": "VA", "street": "6 HARTWOOD CHURCH RD", "postcode": "22471"}}},
{"geometry": {"type": "Point", "coordinates": [-77.5638526981, 38.4006313146]}, "type": "Feature", "properties": {"collection_times": [{"days": "Mon-Fri", "time": "4:00pm"}, {"days": "Sat", "time": "11:30am"}, {"days": "Sun", "time": "Closed"}], "id": "2247100002", "name": "USPS COLLECTION BOX - PO LOBBY", "address": {"city": "HARTWOOD", "state": "VA", "street": "6 HARTWOOD CHURCH RD", "postcode": "22471"}}},
{"geometry": {"type": "Point", "coordinates": [-76.6614908248, 37.9500293479]}, "type": "Feature", "properties": {"collection_times": [{"days": "Mon-Fri", "time": "4:45pm"}, {"days": "Sat", "time": "10:30am"}, {"days": "Sun", "time": "Closed"}], "id": "2247200001", "name": "USPS COLLECTION BOX - BLUE BOX", "address": {"city": "HAYNESVILLE", "state": "VA", "street": "11320 RICHMOND RD", "postcode": "22472"}}},
{"geometry": {"type": "Point", "coordinates": [-76.6614908248, 37.9500293479]}, "type": "Feature", "properties": {"collection_times": [{"days": "Mon-Fri", "time": "4:45pm"}, {"days": "Sat", "time": "10:30am"}, {"days": "Sun", "time": "Closed"}], "id": "2247200002", "name": "USPS COLLECTION BOX - PO LOBBY", "address": {"city": "HAYNESVILLE", "state": "VA", "street": "11320 RICHMOND RD", "postcode": "22472"}}},
{"geometry": {"type": "Point", "coordinates": [-76.4721994651, 37.9169174171]}, "type": "Feature", "properties": {"collection_times": [{"days": "Mon-Fri", "time": "4:00pm"}, {"days": "Sat", "time": "11:00am"}, {"days": "Sun", "time": "Closed"}], "id": "2247300001", "name": "USPS COLLECTION BOX - BLUE BOX", "address": {"city": "HEATHSVILLE", "state": "VA", "street": "27 MONUMENT PL", "postcode": "22473"}}},
{"geometry": {"type": "Point", "coordinates": [-76.4721994651, 37.9169174171]}, "type": "Feature", "properties": {"collection_times": [{"days": "Mon-Fri", "time": "4:00pm"}, {"days": "Sat", "time": "11:00am"}, {"days": "Sun", "time": "Closed"}], "id": "2247300002", "name": "USPS COLLECTION BOX - PO LOBBY", "address": {"city": "HEATHSVILLE", "state": "VA", "street": "27 MONUMENT PL", "postcode": "22473"}}},
{"geometry": {"type": "Point", "coordinates": [-76.4195645138, 37.6613125477]}, "type": "Feature", "properties": {"collection_times": [{"days": "Mon-Fri", "time": "3:30pm"}, {"days": "Sat", "time": "11:30am"}, {"days": "Sun", "time": "Closed"}], "id": "2248000001", "name": "USPS COLLECTION BOX - BLUE BOX", "address": {"city": "IRVINGTON", "state": "VA", "street": "4473 IRVINGTON RD", "postcode": "22480"}}},
{"geometry": {"type": "Point", "coordinates": [-76.4195645138, 37.6613125477]}, "type": "Feature", "properties": {"collection_times": [{"days": "Mon-Fri", "time": "4:15pm"}, {"days": "Sat", "time": "11:30am"}, {"days": "Sun", "time": "Closed"}], "id": "2248000002", "name": "USPS COLLECTION BOX - PO LOBBY", "address": {"city": "IRVINGTON", "state": "VA", "street": "4473 IRVINGTON RD", "postcode": "22480"}}},
{"geometry": {"type": "Point", "coordinates": [-77.139697873, 38.211293362]}, "type": "Feature", "properties": {"collection_times": [{"days": "Mon-Fri", "time": "2:30pm"}, {"days": "Sat", "time": "11:45am"}, {"days": "Sun", "time": "Closed"}], "id": "2248100001", "name": "USPS COLLECTION BOX - BLUE BOX", "address": {"city": "JERSEY", "state": "VA", "street": "12079 JERSEY RD", "postcode": "22481"}}},
{"geometry": {"type": "Point", "coordinates": [-77.1373571906, 38.2083763699]}, "type": "Feature", "properties": {"collection_times": [{"days": "Mon-Fri", "time": "2:30pm"}, {"days": "Sat", "time": "11:45am"}, {"days": "Sun", "time": "Closed"}], "id": "2248100002", "name": "USPS COLLECTION BOX - PO LOBBY", "address": {"city": "JERSEY", "state": "VA", "street": "12079 JERSEY RD", "postcode": "22481"}}},
{"geometry": {"type": "Point", "coordinates": [-76.3816409303, 37.7161286706]}, "type": "Feature", "properties": {"collection_times": [{"days": "Mon-Fri", "time": "4:30pm"}, {"days": "Sat", "time": "11:15am"}, {"days": "Sun", "time": "Closed"}], "id": "2248200004", "name": "USPS COLLECTION BOX - BLUE BOX", "address": {"city": "KILMARNOCK", "state": "VA", "street": "239 N MAIN ST", "postcode": "22482"}}},
{"geometry": {"type": "Point", "coordinates": [-76.3816409303, 37.7161286706]}, "type": "Feature", "properties": {"collection_times": [{"days": "Mon-Fri", "time": "4:30pm"}, {"days": "Sat", "time": "11:15am"}, {"days": "Sun", "time": "Closed"}], "id": "2248200005", "name": "USPS COLLECTION BOX - PO LOBBY", "address": {"city": "KILMARNOCK", "state": "VA", "street": "239 N MAIN ST", "postcode": "22482"}}},
{"geometry": {"type": "Point", "coordinates": [-77.200071138, 38.2753788962]}, "type": "Feature", "properties": {"collection_times": [{"days": "Mon-Fri", "time": "5:00pm"}, {"days": "Sat", "time": "12:00pm"}, {"days": "Sun", "time": "Closed"}], "id": "2248500001", "name": "USPS COLLECTION BOX - BLUE BOX", "address": {"city": "KING GEORGE", "state": "VA", "street": "7993 KINGS HWY", "postcode": "22485"}}},
{"geometry": {"type": "Point", "coordinates": [-77.200071138, 38.2753788962]}, "type": "Feature", "properties": {"collection_times": [{"days": "Mon-Fri", "time": "5:00pm"}, {"days": "Sat", "time": "12:00pm"}, {"days": "Sun", "time": "Closed"}], "id": "2248500005", "name": "USPS COLLECTION BOX - PO LOBBY", "address": {"city": "KING GEORGE", "state": "VA", "street": "7993 KINGS HWY", "postcode": "22485"}}},
{"geometry": {"type": "Point", "coordinates": [-77.200071138, 38.2753788962]}, "type": "Feature", "properties": {"collection_times": [{"days": "Mon-Fri", "time": "5:00pm"}, {"days": "Sat", "time": "12:00pm"}, {"days": "Sun", "time": "Closed"}], "id": "2248500006", "name": "USPS COLLECTION BOX - PO LOBBY", "address": {"city": "KING GEORGE", "state": "VA", "street": "7993 KINGS HWY", "postcode": "22485"}}},
{"geometry": {"type": "Point", "coordinates": [-77.200071138, 38.2753788962]}, "type": "Feature", "properties": {"collection_times": [{"days": "Mon-Fri", "time": "5:00pm"}, {"days": "Sat", "time": "12:00pm"}, {"days": "Sun", "time": "Closed"}], "id": "2248500007", "name": "USPS COLLECTION BOX - PO LOBBY", "address": {"city": "KING GEORGE", "state": "VA", "street": "7993 KINGS HWY", "postcode": "22485"}}},
{"geometry": {"type": "Point", "coordinates": [-77.1801782938, 38.266398628]}, "type": "Feature", "properties": {"collection_times": [{"days": "Mon-Sat", "time": "9:15am"}, {"days": "Sun", "time": "Closed"}], "id": "2248500008", "name": "USPS COLLECTION BOX - BLUE BOX", "address": {"city": "KING GEORGE", "state": "VA", "street": "10459 COURTHOUSE DR", "postcode": "22485"}}},
{"geometry": {"type": "Point", "coordinates": [-76.5769610345, 38.0302716903]}, "type": "Feature", "properties": {"collection_times": [{"days": "Mon-Fri", "time": "3:45pm"}, {"days": "Sat", "time": "11:45am"}, {"days": "Sun", "time": "Closed"}], "id": "2248800001", "name": "USPS COLLECTION BOX - BLUE BOX", "address": {"city": "KINSALE", "state": "VA", "street": "490 KINSALE RD", "postcode": "22488"}}},
{"geometry": {"type": "Point", "coordinates": [-76.5769610345, 38.0302716903]}, "type": "Feature", "properties": {"collection_times": [{"days": "Mon-Fri", "time": "3:45pm"}, {"days": "Sat", "time": "11:45am"}, {"days": "Sun", "time": "Closed"}], "id": "2248800002", "name": "USPS COLLECTION BOX - PO LOBBY", "address": {"city": "KINSALE", "state": "VA", "street": "490 KINSALE RD", "postcode": "22488"}}}
]}
