{"type": "FeatureCollection", "features": [
{"geometry": {"type": "Point", "coordinates": [-77.5081224059, 37.9991402026]}, "type": "Feature", "properties": {"collection_times": [{"days": "Mon-Fri", "time": "4:00pm"}, {"days": "Sat", "time": "11:30am"}, {"days": "Sun", "time": "Closed"}], "id": "2250100001", "name": "USPS COLLECTION BOX - BLUE BOX", "address": {"city": "LADYSMITH", "state": "VA", "street": "18200 JEFFERSON DAVIS HWY", "postcode": "22501"}}},
{"geometry": {"type": "Point", "coordinates": [-77.5081224059, 37.9991402026]}, "type": "Feature", "properties": {"collection_times": [{"days": "Mon-Fri", "time": "4:00pm"}, {"days": "Sat", "time": "11:30am"}, {"days": "Sun", "time": "Closed"}], "id": "2250100003", "name": "USPS COLLECTION BOX - PO LOBBY", "address": {"city": "LADYSMITH", "state": "VA", "street": "18200 JEFFERSON DAVIS HWY", "postcode": "22501"}}},
{"geometry": {"type": "Point", "coordinates": [-76.4517116948, 37.7677221109]}, "type": "Feature", "properties": {"collection_times": [{"days": "Mon-Fri", "time": "4:30pm"}, {"days": "Sat", "time": "11:00am"}, {"days": "Sun", "time": "Closed"}], "id": "2250300002", "name": "USPS COLLECTION BOX - BLUE BOX", "address": {"city": "LANCASTER", "state": "VA", "street": "9054 MARY BALL RD", "postcode": "22503"}}},
{"geometry": {"type": "Point", "coordinates": [-76.4517116948, 37.7677221109]}, "type": "Feature", "properties": {"collection_times": [{"days": "Mon-Fri", "time": "4:30pm"}, {"days": "Sat", "time": "11:00am"}, {"days": "Sun", "time": "Closed"}], "id": "2250300003", "name": "USPS COLLECTION BOX - PO LOBBY", "address": {"city": "LANCASTER", "state": "VA", "street": "9054 MARY BALL RD", "postcode": "22503"}}},
{"geometry": {"type": "Point", "coordinates": [-76.5135913674, 37.7774764289]}, "type": "Feature", "properties": {"collection_times": [{"days": "Mon-Fri", "time": "4:15pm"}, {"days": "Sat", "time": "11:15am"}, {"days": "Sun", "time": "Closed"}], "id": "2250700001", "name": "USPS COLLECTION BOX - BLUE BOX", "address": {"city": "LIVELY", "state": "VA", "street": "5316 MARY BALL RD", "postcode": "22507"}}},
{"geometry": {"type": "Point", "coordinates": [-76.5135913674, 37.7774764289]}, "type": "Feature", "properties": {"collection_times": [{"days": "Mon-Fri", "time": "4:15pm"}, {"days": "Sat", "time": "11:15am"}, {"days": "Sun", "time": "Closed"}], "id": "2250700002", "name": "USPS COLLECTION BOX - PO LOBBY", "address": {"city": "LIVELY", "state": "VA", "street": "5316 MARY BALL RD", "postcode": "22507"}}},
{"geometry": {"type": "Point", "coordinates": [-77.742180622, 38.3424878186]}, "type": "Feature", "properties": {"collection_times": [{"days": "Mon-Fri", "time": "4:15pm"}, {"days": "Sat", "time": "12:00pm"}, {"days": "Sun", "time": "Closed"}], "id": "2250800002", "name": "USPS COLLECTION BOX - BLUE BOX", "address": {"city": "LOCUST GROVE", "state": "VA", "street": "4447 GERMANNA HWY", "postcode": "22508"}}},
{"geometry": {"type": "Point", "coordinates": [-77.7897901931, 38.3157791921]}, "type": "Feature", "properties": {"collection_times": [{"days": "Mon-Fri", "time": "11:00am"}, {"days": "Sat-Sun", "time": "Closed"}], "id": "2250800005", "name": "USPS COLLECTION BOX - BLUE BOX", "address": {"city": "LOCUST GROVE", "state": "VA", "street": "100 LOW PKWY", "postcode": "22508"}}},
{"geometry": {"type": "Point", "coordinates": [-77.742180622, 38.3424878186]}, "type": "Feature", "properties": {"collection_times": [{"days": "Mon-Fri", "time": "4:30pm"}, {"days": "Sat", "time": "12:00pm"}, {"days": "Sun", "time": "Closed"}], "id": "2250800006", "name": "USPS COLLECTION BOX - PO LOBBY", "address": {"city": "LOCUST GROVE", "state": "VA", "street": "4447 GERMANNA HWY", "postcode": "22508"}}},
{"geometry": {"type": "Point", "coordinates": [-77.8102567814, 38.3051739143]}, "type": "Feature", "properties": {"collection_times": [{"days": "Mon-Fri", "time": "10:00am"}, {"days": "Sat-Sun", "time": "Closed"}], "id": "2250800007", "name": "USPS COLLECTION BOX - BLUE BOX", "address": {"city": "LOCUST GROVE", "state": "VA", "street": "32301 CONSTITUTION HWY", "postcode": "22508"}}},
{"geometry": {"type": "Point", "coordinates": [-77.7897901931, 38.3157791921]}, "type": "Feature", "properties": {"collection_times": [{"days": "Mon-Fri", "time": "12:00pm"}, {"days": "Sat-Sun", "time": "Closed"}], "id": "2250800008", "name": "USPS COLLECTION BOX - BLUE BOX", "address": {"city": "LOCUST GROVE", "state": "VA", "street": "1 GOODWIN DR", "postcode": "22508"}}},
{"geometry": {"type": "Point", "coordinates": [-76.5218924699, 37.966123943]}, "type": "Feature", "properties": {"collection_times": [{"days": "Mon-Fri", "time": "4:15pm"}, {"days": "Sat", "time": "11:15am"}, {"days": "Sun", "time": "Closed"}], "id": "2251100001", "name": "USPS COLLECTION BOX - BLUE BOX", "address": {"city": "LOTTSBURG", "state": "VA", "street": "2217 NORTHUMBERLAND HWY", "postcode": "22511"}}},
{"geometry": {"type": "Point", "coordinates": [-76.5220023194, 37.9662136288]}, "type": "Feature", "properties": {"collection_times": [{"days": "Mon-Fri", "time": "4:15pm"}, {"days": "Sat", "time": "11:15am"}, {"days": "Sun", "time": "Closed"}], "id": "2251100002", "name": "USPS COLLECTION BOX - PO LOBBY", "address": {"city": "LOTTSBURG", "state": "VA", "street": "2217 NORTHUMBERLAND HWY", "postcode": "22511"}}},
{"geometry": {"type": "Point", "coordinates": [-76.4822971567, 37.7329490266]}, "type": "Feature", "properties": {"collection_times": [{"days": "Mon-Sat", "time": "10:00am"}, {"days": "Sun", "time": "Closed"}], "id": "2251300001", "name": "USPS COLLECTION BOX - BLUE BOX", "address": {"city": "MERRY POINT", "state": "VA", "street": "2717 MERRY POINT RD", "postcode": "22513"}}},
{"geometry": {"type": "Point", "coordinates": [-76.4822971567, 37.7329490266]}, "type": "Feature", "properties": {"collection_times": [{"days": "Mon-Sat", "time": "10:00am"}, {"days": "Sun", "time": "Closed"}], "id": "2251300002", "name": "USPS COLLECTION BOX - PO LOBBY", "address": {"city": "MERRY POINT", "state": "VA", "street": "2717 MERRY POINT RD", "postcode": "22513"}}},
{"geometry": {"type": "Point", "coordinates": [-77.3733934095, 38.0225959224]}, "type": "Feature", "properties": {"collection_times": [{"days": "Mon-Fri", "time": "4:30pm"}, {"days": "Sat", "time": "11:00am"}, {"days": "Sun", "time": "Closed"}], "id": "2251400001", "name": "USPS COLLECTION BOX - BLUE BOX", "address": {"city": "MILFORD", "state": "VA", "street": "15429 ANTIOCH RD", "postcode": "22514"}}},
{"geometry": {"type": "Point", "coordinates": [-77.3733934095, 38.0225959224]}, "type": "Feature", "properties": {"collection_times": [{"days": "Mon-Fri", "time": "4:45pm"}, {"days": "Sat", "time": "11:45am"}, {"days": "Sun", "time": "Closed"}], "id": "2251400002", "name": "USPS COLLECTION BOX - PO LOBBY", "address": {"city": "MILFORD", "state": "VA", "street": "15429 ANTIOCH RD", "postcode": "22514"}}},
{"geometry": {"type": "Point", "coordinates": [-77.3733934095, 38.0225959224]}, "type": "Feature", "properties": {"collection_times": [{"days": "Mon-Fri", "time": "4:45pm"}, {"days": "Sat", "time": "11:45am"}, {"days": "Sun", "time": "Closed"}], "id": "2251400003", "name": "USPS COLLECTION BOX - PO LOBBY", "address": {"city": "MILFORD", "state": "VA", "street": "15429 ANTIOCH RD", "postcode": "22514"}}},
{"geometry": {"type": "Point", "coordinates": [-76.5339426919, 37.7239696653]}, "type": "Feature", "properties": {"collection_times": [{"days": "Mon-Fri", "time": "2:00pm"}, {"days": "Sat", "time": "12:00pm"}, {"days": "Sun", "time": "Closed"}], "id": "2251700001", "name": "USPS COLLECTION BOX - BLUE BOX", "address": {"city": "MOLLUSK", "state": "VA", "street": "7377 RIVER RD", "postcode": "22517"}}},
{"geometry": {"type": "Point", "coordinates": [-76.5339426919, 37.7239696653]}, "type": "Feature", "properties": {"collection_times": [{"days": "Mon-Fri", "time": "2:00pm"}, {"days": "Sat", "time": "12:00pm"}, {"days": "Sun", "time": "Closed"}], "id": "2251700002", "name": "USPS COLLECTION BOX - PO LOBBY", "address": {"city": "MOLLUSK", "state": "VA", "street": "7377 RIVER RD", "postcode": "22517"}}},
{"geometry": {"type": "Point", "coordinates": [-76.8235924777, 38.0942189111]}, "type": "Feature", "properties": {"collection_times": [{"days": "Mon-Fri", "time": "4:30pm"}, {"days": "Sat", "time": "11:30am"}, {"days": "Sun", "time": "Closed"}], "id": "2252000001", "name": "USPS COLLECTION BOX - BLUE BOX", "address": {"city": "MONTROSS", "state": "VA", "street": "15917 KINGS HWY", "postcode": "22520"}}},
{"geometry": {"type": "Point", "coordinates": [-76.8235924777, 38.0942189111]}, "type": "Feature", "properties": {"collection_times": [{"days": "Mon-Fri", "time": "4:45pm"}, {"days": "Sat", "time": "11:45am"}, {"days": "Sun", "time": "Closed"}], "id": "2252000002", "name": "USPS COLLECTION BOX - PO LOBBY", "address": {"city": "MONTROSS", "state": "VA", "street": "15917 KINGS HWY", "postcode": "22520"}}},
{"geometry": {"type": "Point", "coordinates": [-76.8300222098, 38.0960982916]}, "type": "Feature", "properties": {"collection_times": [{"days": "Mon-Fri", "time": "1:30pm"}, {"days": "Sat-Sun", "time": "Closed"}], "id": "2252000003", "name": "USPS COLLECTION BOX - BLUE BOX", "address": {"city": "MONTROSS", "state": "VA", "street": "111 POLK ST", "postcode": "22520"}}},
{"geometry": {"type": "Point", "coordinates": [-76.7793072761, 38.1216437384]}, "type": "Feature", "properties": {"collection_times": [{"days": "Mon-Sat", "time": "1:00pm"}, {"days": "Sun", "time": "Closed"}], "id": "2252000007", "name": "USPS COLLECTION BOX - BLUE BOX", "address": {"city": "MONTROSS", "state": "VA", "street": "5005 COPLE HWY", "postcode": "22520"}}},
{"geometry": {"type": "Point", "coordinates": [-76.6293987169, 37.7891022242]}, "type": "Feature", "properties": {"collection_times": [{"days": "Mon-Sat", "time": "10:30am"}, {"days": "Sun", "time": "Closed"}], "id": "2252300001", "name": "USPS COLLECTION BOX - BLUE BOX", "address": {"city": "MORATTICO", "state": "VA", "street": "6569 MORATTICO RD", "postcode": "22523"}}},
{"geometry": {"type": "Point", "coordinates": [-76.6293987169, 37.7891022242]}, "type": "Feature", "properties": {"collection_times": [{"days": "Mon-Sat", "time": "10:30am"}, {"days": "Sun", "time": "Closed"}], "id": "2252300002", "name": "USPS COLLECTION BOX - PO LOBBY", "address": {"city": "MORATTICO", "state": "VA", "street": "6569 MORATTICO RD", "postcode": "22523"}}},
{"geometry": {"type": "Point", "coordinates": [-76.7125581005, 38.0877304105]}, "type": "Feature", "properties": {"collection_times": [{"days": "Mon-Fri", "time": "4:30pm"}, {"days": "Sat", "time": "12:00pm"}, {"days": "Sun", "time": "Closed"}], "id": "2252400001", "name": "USPS COLLECTION BOX - BLUE BOX", "address": {"city": "MOUNT HOLLY", "state": "VA", "street": "4375 COPLE HWY", "postcode": "22524"}}},
{"geometry": {"type": "Point", "coordinates": [-76.7125581005, 38.0877304105]}, "type": "Feature", "properties": {"collection_times": [{"days": "Mon-Fri", "time": "4:30pm"}, {"days": "Sat", "time": "12:00pm"}, {"days": "Sun", "time": "Closed"}], "id": "2252400002", "name": "USPS COLLECTION BOX - PO LOBBY", "address": {"city": "MOUNT HOLLY", "state": "VA", "street": "4375 COPLE HWY", "postcode": "22524"}}},
{"geometry": {"type": "Point", "coordinates": [-77.0558865365, 38.271158018]}, "type": "Feature", "properties": {"collection_times": [{"days": "Mon-Fri", "time": "4:00pm"}, {"days": "Sat", "time": "11:45am"}, {"days": "Sun", "time": "Closed"}], "id": "2252600001", "name": "USPS COLLECTION BOX - BLUE BOX", "address": {"city": "NINDE", "state": "VA", "street": "15488 RIDGE RD", "postcode": "22526"}}},
{"geometry": {"type": "Point", "coordinates": [-77.0558865365, 38.271158018]}, "type": "Feature", "properties": {"collection_times": [{"days": "Mon-Fri", "time": "4:00pm"}, {"days": "Sat", "time": "11:45am"}, {"days": "Sun", "time": "Closed"}], "id": "2252600002", "name": "USPS COLLECTION BOX - PO LOBBY", "address": {"city": "NINDE", "state": "VA", "street": "15488 RIDGE RD", "postcode": "22526"}}},
{"geometry": {"type": "Point", "coordinates": [-76.6623802363, 38.0077601053]}, "type": "Feature", "properties": {"collection_times": [{"days": "Mon-Fri", "time": "3:45pm"}, {"days": "Sat", "time": "12:00pm"}, {"days": "Sun", "time": "Closed"}], "id": "2252900001", "name": "USPS COLLECTION BOX - PO LOBBY", "address": {"city": "OLDHAMS", "state": "VA", "street": "3498 OLDHAMS RD", "postcode": "22529"}}},
{"geometry": {"type": "Point", "coordinates": [-76.282190954, 37.9087257068]}, "type": "Feature", "properties": {"collection_times": [{"days": "Mon-Sat", "time": "11:00am"}, {"days": "Sun", "time": "Closed"}], "id": "2253000000", "name": "USPS COLLECTION BOX - PO LOBBY", "address": {"city": "OPHELIA", "state": "VA", "street": "22 LIGHTHOUSE VIEW DR STE B", "postcode": "22530"}}},
{"geometry": {"type": "Point", "coordinates": [-76.282190954, 37.9087257068]}, "type": "Feature", "properties": {"collection_times": [{"days": "Mon-Sat", "time": "11:00am"}, {"days": "Sun", "time": "Closed"}], "id": "2253000001", "name": "USPS COLLECTION BOX - BLUE BOX", "address": {"city": "OPHELIA", "state": "VA", "street": "22 LIGHTHOUSE VIEW DR STE B", "postcode": "22530"}}},
{"geometry": {"type": "Point", "coordinates": [-77.639409452, 38.0389184476]}, "type": "Feature", "properties": {"collection_times": [{"days": "Mon-Fri", "time": "4:00pm"}, {"days": "Sat", "time": "10:00am"}, {"days": "Sun", "time": "Closed"}], "id": "2253400001", "name": "USPS COLLECTION BOX - BLUE BOX", "address": {"city": "PARTLOW", "state": "VA", "street": "2920 PARTLOW RD", "postcode": "22534"}}},
{"geometry": {"type": "Point", "coordinates": [-77.639409452, 38.0389184476]}, "type": "Feature", "properties": {"collection_times": [{"days": "Mon-Fri", "time": "4:00pm"}, {"days": "Sat", "time": "10:00am"}, {"days": "Sun", "time": "Closed"}], "id": "2253400002", "name": "USPS COLLECTION BOX - PO LOBBY", "address": {"city": "PARTLOW", "state": "VA", "street": "2920 PARTLOW RD", "postcode": "22534"}}},
{"geometry": {"type": "Point", "coordinates": [-77.1944806553, 38.1684629403]}, "type": "Feature", "properties": {"collection_times": [{"days": "Mon-Fri", "time": "4:15pm"}, {"days": "Sat", "time": "11:45am"}, {"days": "Sun", "time": "Closed"}], "id": "2253500001", "name": "USPS COLLECTION BOX - BLUE BOX", "address": {"city": "PORT ROYAL", "state": "VA", "street": "602 MAIN ST", "postcode": "22535"}}},
{"geometry": {"type": "Point", "coordinates": [-77.1944806553, 38.1684629403]}, "type": "Feature", "properties": {"collection_times": [{"days": "Mon-Fri", "time": "4:15pm"}, {"days": "Sat", "time": "11:45am"}, {"days": "Sun", "time": "Closed"}], "id": "2253500002", "name": "USPS COLLECTION BOX - PO LOBBY", "address": {"city": "PORT ROYAL", "state": "VA", "street": "602 MAIN ST", "postcode": "22535"}}},
{"geometry": {"type": "Point", "coordinates": [-77.2612197127, 38.1730544078]}, "type": "Feature", "properties": {"collection_times": [{"days": "Mon-Sat", "time": "11:00am"}, {"days": "Sun", "time": "Closed"}], "id": "2253800001", "name": "USPS COLLECTION BOX - BLUE BOX", "address": {"city": "RAPHANCK ACAD", "state": "VA", "street": "22173 TIDEWATER TRL", "postcode": "22538"}}},
{"geometry": {"type": "Point", "coordinates": [-77.2612197127, 38.1730544078]}, "type": "Feature", "properties": {"collection_times": [{"days": "Mon-Sat", "time": "11:00am"}, {"days": "Sun", "time": "Closed"}], "id": "2253800002", "name": "USPS COLLECTION BOX - PO LOBBY", "address": {"city": "RAPHANCK ACAD", "state": "VA", "street": "22173 TIDEWATER TRL", "postcode": "22538"}}},
{"geometry": {"type": "Point", "coordinates": [-76.2747995673, 37.8479289186]}, "type": "Feature", "properties": {"collection_times": [{"days": "Mon-Fri", "time": "4:00pm"}, {"days": "Sat", "time": "11:15am"}, {"days": "Sun", "time": "Closed"}], "id": "2253900001", "name": "USPS COLLECTION BOX - BLUE BOX", "address": {"city": "REEDVILLE", "state": "VA", "street": "284 MORRIS AVE", "postcode": "22539"}}},
{"geometry": {"type": "Point", "coordinates": [-76.2747995673, 37.8479289186]}, "type": "Feature", "properties": {"collection_times": [{"days": "Mon-Fri", "time": "4:00pm"}, {"days": "Sat", "time": "11:30am"}, {"days": "Sun", "time": "Closed"}], "id": "2253900002", "name": "USPS COLLECTION BOX - PO LOBBY", "address": {"city": "REEDVILLE", "state": "VA", "street": "284 MORRIS AVE", "postcode": "22539"}}},
{"geometry": {"type": "Point", "coordinates": [-77.9313838197, 38.2732958178]}, "type": "Feature", "properties": {"collection_times": [{"days": "Mon-Fri", "time": "4:15pm"}, {"days": "Sat", "time": "11:45am"}, {"days": "Sun", "time": "Closed"}], "id": "2254200000", "name": "USPS COLLECTION BOX - BLUE BOX", "address": {"city": "RHOADESVILLE", "state": "VA", "street": "25433 LAFAYETTE DR", "postcode": "22542"}}},
{"geometry": {"type": "Point", "coordinates": [-77.5380015147, 38.5061203394]}, "type": "Feature", "properties": {"collection_times": [{"days": "Mon-Sat", "time": "10:00am"}, {"days": "Sun", "time": "Closed"}], "id": "2254500001", "name": "USPS COLLECTION BOX - BLUE BOX", "address": {"city": "RUBY", "state": "VA", "street": "32 ARROWHEAD DR STE 101", "postcode": "22545"}}},
{"geometry": {"type": "Point", "coordinates": [-77.5380015147, 38.5061203394]}, "type": "Feature", "properties": {"collection_times": [{"days": "Mon-Sat", "time": "10:00am"}, {"days": "Sun", "time": "Closed"}], "id": "2254500002", "name": "USPS COLLECTION BOX - PO LOBBY", "address": {"city": "RUBY", "state": "VA", "street": "32 ARROWHEAD DR", "postcode": "22545"}}},
{"geometry": {"type": "Point", "coordinates": [-77.4749213951, 37.9351372643]}, "type": "Feature", "properties": {"collection_times": [{"days": "Mon-Fri", "time": "4:00pm"}, {"days": "Sat", "time": "11:45am"}, {"days": "Sun", "time": "Closed"}], "id": "2254600001", "name": "USPS COLLECTION BOX - BLUE BOX", "address": {"city": "RUTHER GLEN", "state": "VA", "street": "24134 WELCOME WAY DR", "postcode": "22546"}}},
{"geometry": {"type": "Point", "coordinates": [-77.4749213951, 37.9351372643]}, "type": "Feature", "properties": {"collection_times": [{"days": "Mon-Fri", "time": "4:00pm"}, {"days": "Sat", "time": "12:00pm"}, {"days": "Sun", "time": "Closed"}], "id": "2254600005", "name": "USPS COLLECTION BOX - PO LOBBY", "address": {"city": "RUTHER GLEN", "state": "VA", "street": "24134 WELCOME WAY DR", "postcode": "22546"}}},
{"geometry": {"type": "Point", "coordinates": [-77.3102823553, 38.2504401309]}, "type": "Feature", "properties": {"collection_times": [{"days": "Mon-Fri", "time": "3:00pm"}, {"days": "Sat", "time": "12:00pm"}, {"days": "Sun", "time": "Closed"}], "id": "2254700002", "name": "USPS COLLECTION BOX - BLUE BOX", "address": {"city": "SEALSTON", "state": "VA", "street": "1130 KINGS HWY", "postcode": "22547"}}},
{"geometry": {"type": "Point", "coordinates": [-77.3102823553, 38.2504401309]}, "type": "Feature", "properties": {"collection_times": [{"days": "Mon-Fri", "time": "3:00pm"}, {"days": "Sat", "time": "12:00pm"}, {"days": "Sun", "time": "Closed"}], "id": "2254700003", "name": "USPS COLLECTION BOX - PO LOBBY", "address": {"city": "SEALSTON", "state": "VA", "street": "1130 KINGS HWY", "postcode": "22547"}}},
{"geometry": {"type": "Point", "coordinates": [-76.6999671038, 37.8248752377]}, "type": "Feature", "properties": {"collection_times": [{"days": "Mon-Sat", "time": "9:30am"}, {"days": "Sun", "time": "Closed"}], "id": "2254800000", "name": "USPS COLLECTION BOX - BLUE BOX", "address": {"city": "SHARPS", "state": "VA", "street": "5231 SHARPS RD", "postcode": "22548"}}},
{"geometry": {"type": "Point", "coordinates": [-76.6999671038, 37.8248752377]}, "type": "Feature", "properties": {"collection_times": [{"days": "Mon-Sat", "time": "9:30am"}, {"days": "Sun", "time": "Closed"}], "id": "2254800001", "name": "USPS COLLECTION BOX - PO LOBBY", "address": {"city": "SHARPS", "state": "VA", "street": "5231 SHARPS RD", "postcode": "22548"}}},
{"geometry": {"type": "Point", "coordinates": [-77.2306530385, 37.9913812957]}, "type": "Feature", "properties": {"collection_times": [{"days": "Mon-Sat", "time": "1:30pm"}, {"days": "Sun", "time": "Closed"}], "id": "2255200002", "name": "USPS COLLECTION BOX - PO LOBBY", "address": {"city": "SPARTA", "state": "VA", "street": "24100 SPARTA RD", "postcode": "22552"}}},
{"geometry": {"type": "Point", "coordinates": [-77.5911694715, 38.2023377612]}, "type": "Feature", "properties": {"collection_times": [{"days": "Mon-Fri", "time": "5:00pm"}, {"days": "Sat", "time": "12:00pm"}, {"days": "Sun", "time": "Closed"}], "id": "2255300001", "name": "USPS COLLECTION BOX - BLUE BOX", "address": {"city": "SPOTSYLVANIA", "state": "VA", "street": "7420 BROCK RD", "postcode": "22553"}}},
{"geometry": {"type": "Point", "coordinates": [-77.5286949073, 38.2438761243]}, "type": "Feature", "properties": {"collection_times": [{"days": "Mon-Sat", "time": "10:45am"}, {"days": "Sun", "time": "Closed"}], "id": "2255300002", "name": "USPS COLLECTION BOX - BLUE BOX", "address": {"city": "SPOTSYLVANIA", "state": "VA", "street": "10400 COURTHOUSE RD", "postcode": "22553"}}},
{"geometry": {"type": "Point", "coordinates": [-77.5607019633, 38.2319461853]}, "type": "Feature", "properties": {"collection_times": [{"days": "Mon-Sat", "time": "10:00am"}, {"days": "Sun", "time": "Closed"}], "id": "2255300005", "name": "USPS COLLECTION BOX - BLUE BOX", "address": {"city": "SPOTSYLVANIA", "state": "VA", "street": "9801 COURTHOUSE RD", "postcode": "22553"}}},
{"geometry": {"type": "Point", "coordinates": [-77.5911694715, 38.2023377612]}, "type": "Feature", "properties": {"collection_times": [{"days": "Mon-Fri", "time": "5:00pm"}, {"days": "Sat", "time": "12:00pm"}, {"days": "Sun", "time": "Closed"}], "id": "2255300007", "name": "USPS COLLECTION BOX - PO LOBBY", "address": {"city": "SPOTSYLVANIA", "state": "VA", "street": "7420 BROCK RD", "postcode": "22553"}}},
{"geometry": {"type": "Point", "coordinates": [-77.5911694715, 38.2023377612]}, "type": "Feature", "properties": {"collection_times": [{"days": "Mon-Fri", "time": "5:00pm"}, {"days": "Sat", "time": "12:00pm"}, {"days": "Sun", "time": "Closed"}], "id": "2255300008", "name": "USPS COLLECTION BOX - PO LOBBY", "address": {"city": "SPOTSYLVANIA", "state": "VA", "street": "7420 BROCK RD", "postcode": "22553"}}},
{"geometry": {"type": "Point", "coordinates": [-77.5911694715, 38.2023377612]}, "type": "Feature", "properties": {"collection_times": [{"days": "Mon-Fri", "time": "5:00pm"}, {"days": "Sat", "time": "12:00pm"}, {"days": "Sun", "time": "Closed"}], "id": "2255300009", "name": "USPS COLLECTION BOX - PO LOBBY", "address": {"city": "SPOTSYLVANIA", "state": "VA", "street": "7420 BROCK RD", "postcode": "22553"}}},
{"geometry": {"type": "Point", "coordinates": [-77.4252021475, 38.4756980167]}, "type": "Feature", "properties": {"collection_times": [{"days": "Mon-Sat", "time": "11:00am"}, {"days": "Sun", "time": "Closed"}], "id": "2255400004", "name": "USPS COLLECTION BOX - BLUE BOX", "address": {"city": "STAFFORD", "state": "VA", "street": "385 GARRISONVILLE RD", "postcode": "22554"}}},
{"geometry": {"type": "Point", "coordinates": [-77.4026431201, 38.449658724]}, "type": "Feature", "properties": {"collection_times": [{"days": "Mon-Fri", "time": "5:00pm"}, {"days": "Sat", "time": "4:30pm"}, {"days": "Sun", "time": "Closed"}], "id": "2255400006", "name": "USPS COLLECTION BOX - BLUE BOX", "address": {"city": "STAFFORD", "state": "VA", "street": "2650 JEFFERSON DAVIS HWY", "postcode": "22554"}}},
{"geometry": {"type": "Point", "coordinates": [-77.4085874889, 38.4220046922]}, "type": "Feature", "properties": {"collection_times": [{"days": "Mon-Sat", "time": "11:00am"}, {"days": "Sun", "time": "Closed"}], "id": "2255400007", "name": "USPS COLLECTION BOX - BLUE BOX", "address": {"city": "STAFFORD", "state": "VA", "street": "1300 COURTHOUSE RD", "postcode": "22554"}}},
{"geometry": {"type": "Point", "coordinates": [-77.4026431201, 38.449658724]}, "type": "Feature", "properties": {"collection_times": [{"days": "Mon-Fri", "time": "5:00pm"}, {"days": "Sat", "time": "4:30pm"}, {"days": "Sun", "time": "Closed"}], "id": "2255400010", "name": "USPS COLLECTION BOX - PO LOBBY", "address": {"city": "STAFFORD", "state": "VA", "street": "2650 JEFFERSON DAVIS HWY", "postcode": "22554"}}},
{"geometry": {"type": "Point", "coordinates": [-77.4026431201, 38.449658724]}, "type": "Feature", "properties": {"collection_times": [{"days": "Mon-Fri", "time": "5:00pm"}, {"days": "Sat", "time": "4:30pm"}, {"days": "Sun", "time": "Closed"}], "id": "2255400013", "name": "USPS COLLECTION BOX - APC", "address": {"city": "STAFFORD", "state": "VA", "street": "2650 JEFFERSON DAVIS HWY", "postcode": "22554"}}},
{"geometry": {"type": "Point", "coordinates": [-77.4083380232, 38.4760252182]}, "type": "Feature", "properties": {"collection_times": [{"days": "Mon-Sat", "time": "11:00am"}, {"days": "Sun", "time": "Closed"}], "id": "2255600001", "name": "USPS COLLECTION BOX - BLUE BOX", "address": {"city": "STAFFORD", "state": "VA", "street": "1 FOXWOOD DR", "postcode": "22556"}}},
{"geometry": {"type": "Point", "coordinates": [-77.4620998206, 38.4690971057]}, "type": "Feature", "properties": {"collection_times": [{"days": "Mon-Sat", "time": "12:00pm"}, {"days": "Sun", "time": "Closed"}], "id": "2255600002", "name": "USPS COLLECTION BOX - BLUE BOX", "address": {"city": "STAFFORD", "state": "VA", "street": "901 GARRISONVILLE RD", "postcode": "22556"}}},
{"geometry": {"type": "Point", "coordinates": [-76.8682507705, 37.901888515]}, "type": "Feature", "properties": {"collection_times": [{"days": "Mon-Fri", "time": "2:00pm"}, {"days": "Sat-Sun", "time": "Closed"}], "id": "2256000003", "name": "USPS COLLECTION BOX - BLUE BOX", "address": {"city": "TAPPAHANNOCK", "state": "VA", "street": "1840 TAPPAHANNOCK BLVD", "postcode": "22560"}}},
{"geometry": {"type": "Point", "coordinates": [-76.8579289584, 37.9242350428]}, "type": "Feature", "properties": {"collection_times": [{"days": "Mon-Fri", "time": "2:00pm"}, {"days": "Sat-Sun", "time": "Closed"}], "id": "2256000004", "name": "USPS COLLECTION BOX - BLUE BOX", "address": {"city": "TAPPAHANNOCK", "state": "VA", "street": "400 WRIGHT ST", "postcode": "22560"}}},
{"geometry": {"type": "Point", "coordinates": [-76.8568618111, 37.9246129336]}, "type": "Feature", "properties": {"collection_times": [{"days": "Mon-Fri", "time": "5:00pm"}, {"days": "Sat", "time": "12:00pm"}, {"days": "Sun", "time": "Closed"}], "id": "2256000006", "name": "USPS COLLECTION BOX - BLUE BOX", "address": {"city": "TAPPAHANNOCK", "state": "VA", "street": "400 WRIGHT ST", "postcode": "22560"}}},
{"geometry": {"type": "Point", "coordinates": [-76.8568618111, 37.9246129336]}, "type": "Feature", "properties": {"collection_times": [{"days": "Mon-Fri", "time": "5:00pm"}, {"days": "Sat", "time": "12:00pm"}, {"days": "Sun", "time": "Closed"}], "id": "2256000007", "name": "USPS COLLECTION BOX - PO LOBBY", "address": {"city": "TAPPAHANNOCK", "state": "VA", "street": "400 WRIGHT ST", "postcode": "22560"}}},
{"geometry": {"type": "Point", "coordinates": [-77.5195804893, 38.1330259723]}, "type": "Feature", "properties": {"collection_times": [{"days": "Mon-Fri", "time": "4:00pm"}, {"days": "Sat", "time": "11:30am"}, {"days": "Sun", "time": "Closed"}], "id": "2256500001", "name": "USPS COLLECTION BOX - BLUE BOX", "address": {"city": "THORNBURG", "state": "VA", "street": "5314 MUDD TAVERN RD", "postcode": "22565"}}},
{"geometry": {"type": "Point", "coordinates": [-77.5195804893, 38.1330259723]}, "type": "Feature", "properties": {"collection_times": [{"days": "Mon-Fri", "time": "4:30pm"}, {"days": "Sat", "time": "11:30am"}, {"days": "Sun", "time": "Closed"}], "id": "2256500002", "name": "USPS COLLECTION BOX - PO LOBBY", "address": {"city": "THORNBURG", "state": "VA", "street": "5314 MUDD TAVERN RD", "postcode": "22565"}}},
{"geometry": {"type": "Point", "coordinates": [-77.9708237215, 38.259735432]}, "type": "Feature", "properties": {"collection_times": [{"days": "Mon-Fri", "time": "4:00pm"}, {"days": "Sat", "time": "10:30am"}, {"days": "Sun", "time": "Closed"}], "id": "2256700001", "name": "USPS COLLECTION BOX - BLUE BOX", "address": {"city": "UNIONVILLE", "state": "VA", "street": "23209 VILLAGE RD", "postcode": "22567"}}},
{"geometry": {"type": "Point", "coordinates": [-77.9708237215, 38.259735432]}, "type": "Feature", "properties": {"collection_times": [{"days": "Mon-Fri", "time": "4:00pm"}, {"days": "Sat", "time": "10:30am"}, {"days": "Sun", "time": "Closed"}], "id": "2256700002", "name": "USPS COLLECTION BOX - PO LOBBY", "address": {"city": "UNIONVILLE", "state": "VA", "street": "23209 VILLAGE RD", "postcode": "22567"}}},
{"geometry": {"type": "Point", "coordinates": [-76.7774533121, 37.9618229443]}, "type": "Feature", "properties": {"collection_times": [{"days": "Mon-Sat", "time": "10:00am"}, {"days": "Sun", "time": "Closed"}], "id": "2257200002", "name": "USPS COLLECTION BOX - BLUE BOX", "address": {"city": "WARSAW", "state": "VA", "street": "4665 RICHMOND RD", "postcode": "22572"}}},
{"geometry": {"type": "Point", "coordinates": [-76.7555980964, 37.9627518033]}, "type": "Feature", "properties": {"collection_times": [{"days": "Mon-Fri", "time": "4:30pm"}, {"days": "Sat", "time": "12:00pm"}, {"days": "Sun", "time": "Closed"}], "id": "2257200003", "name": "USPS COLLECTION BOX - BLUE BOX", "address": {"city": "WARSAW", "state": "VA", "street": "360 MAIN ST", "postcode": "22572"}}},
{"geometry": {"type": "Point", "coordinates": [-76.7582831511, 37.9581678225]}, "type": "Feature", "properties": {"collection_times": [{"days": "Mon-Sat", "time": "11:30am"}, {"days": "Sun", "time": "Closed"}], "id": "2257200005", "name": "USPS COLLECTION BOX - BLUE BOX", "address": {"city": "WARSAW", "state": "VA", "street": "100 COURT ST", "postcode": "22572"}}},
{"geometry": {"type": "Point", "coordinates": [-76.7555980964, 37.9627518033]}, "type": "Feature", "properties": {"collection_times": [{"days": "Mon-Fri", "time": "4:30pm"}, {"days": "Sat", "time": "12:00pm"}, {"days": "Sun", "time": "Closed"}], "id": "2257200008", "name": "USPS COLLECTION BOX - PO LOBBY", "address": {"city": "WARSAW", "state": "VA", "street": "360 MAIN ST", "postcode": "22572"}}},
{"geometry": {"type": "Point", "coordinates": [-76.4450879328, 37.6545871972]}, "type": "Feature", "properties": {"collection_times": [{"days": "Mon-Fri", "time": "4:15pm"}, {"days": "Sat", "time": "11:45am"}, {"days": "Sun", "time": "Closed"}], "id": "2257600001", "name": "USPS COLLECTION BOX - BLUE BOX", "address": {"city": "WEEMS", "state": "VA", "street": "3960 WEEMS RD", "postcode": "22576"}}},
{"geometry": {"type": "Point", "coordinates": [-76.4450879328, 37.6545871972]}, "type": "Feature", "properties": {"collection_times": [{"days": "Mon-Fri", "time": "4:15pm"}, {"days": "Sat", "time": "11:45am"}, {"days": "Sun", "time": "Closed"}], "id": "2257600002", "name": "USPS COLLECTION BOX - PO LOBBY", "address": {"city": "WEEMS", "state": "VA", "street": "3960 WEEMS RD", "postcode": "22576"}}},
{"geometry": {"type": "Point", "coordinates": [-76.5485014759, 38.0641368546]}, "type": "Feature", "properties": {"collection_times": [{"days": "Mon-Sat", "time": "1:15pm"}, {"days": "Sun", "time": "Closed"}], "id": "2257700001", "name": "USPS COLLECTION BOX - BLUE BOX", "address": {"city": "SANDY POINT", "state": "VA", "street": "951 SANDY POINT RD", "postcode": "22577"}}},
{"geometry": {"type": "Point", "coordinates": [-76.5485014759, 38.0641368546]}, "type": "Feature", "properties": {"collection_times": [{"days": "Mon-Sat", "time": "1:15pm"}, {"days": "Sun", "time": "Closed"}], "id": "2257700002", "name": "USPS COLLECTION BOX - PO LOBBY", "address": {"city": "SANDY POINT", "state": "VA", "street": "951 SANDY POINT RD", "postcode": "22577"}}},
{"geometry": {"type": "Point", "coordinates": [-76.3901785217, 37.648086933]}, "type": "Feature", "properties": {"collection_times": [{"days": "Mon-Fri", "time": "4:00pm"}, {"days": "Sat", "time": "12:00pm"}, {"days": "Sun", "time": "Closed"}], "id": "2257800001", "name": "USPS COLLECTION BOX - BLUE BOX", "address": {"city": "WHITE STONE", "state": "VA", "street": "564 RAPPAHANNOCK DR", "postcode": "22578"}}},
{"geometry": {"type": "Point", "coordinates": [-76.3901785217, 37.648086933]}, "type": "Feature", "properties": {"collection_times": [{"days": "Mon-Fri", "time": "4:15pm"}, {"days": "Sat", "time": "12:00pm"}, {"days": "Sun", "time": "Closed"}], "id": "2257800004", "name": "USPS COLLECTION BOX - PO LOBBY", "address": {"city": "WHITE STONE", "state": "VA", "street": "564 RAPPAHANNOCK DR", "postcode": "22578"}}},
{"geometry": {"type": "Point", "coordinates": [-76.3901785217, 37.648086933]}, "type": "Feature", "properties": {"collection_times": [{"days": "Mon-Fri", "time": "4:15pm"}, {"days": "Sat", "time": "12:00pm"}, {"days": "Sun", "time": "Closed"}], "id": "2257800005", "name": "USPS COLLECTION BOX - PO LOBBY", "address": {"city": "WHITE STONE", "state": "VA", "street": "564 RAPPAHANNOCK DR", "postcode": "22578"}}},
{"geometry": {"type": "Point", "coordinates": [-76.3463905455, 37.7955928586]}, "type": "Feature", "properties": {"collection_times": [{"days": "Mon-Fri", "time": "4:00pm"}, {"days": "Sat", "time": "12:00pm"}, {"days": "Sun", "time": "Closed"}], "id": "2257900001", "name": "USPS COLLECTION BOX - BLUE BOX", "address": {"city": "WICOMICO CHURCH", "state": "VA", "street": "5148 JESSE DUPONT MEMORIAL HWY", "postcode": "22579"}}},
{"geometry": {"type": "Point", "coordinates": [-76.3463905455, 37.7955928586]}, "type": "Feature", "properties": {"collection_times": [{"days": "Mon-Fri", "time": "4:00pm"}, {"days": "Sat", "time": "12:00pm"}, {"days": "Sun", "time": "Closed"}], "id": "2257900002", "name": "USPS COLLECTION BOX - PO LOBBY", "address": {"city": "WICOMICO CHURCH", "state": "VA", "street": "5148 JESSE DUPONT MEMORIAL HWY", "postcode": "22579"}}},
{"geometry": {"type": "Point", "coordinates": [-77.4098898235, 38.1035612663]}, "type": "Feature", "properties": {"collection_times": [{"days": "Mon-Fri", "time": "4:15pm"}, {"days": "Sat", "time": "10:15am"}, {"days": "Sun", "time": "Closed"}], "id": "2258000001", "name": "USPS COLLECTION BOX - BLUE BOX", "address": {"city": "WOODFORD", "state": "VA", "street": "11087 WOODFORD RD", "postcode": "22580"}}},
{"geometry": {"type": "Point", "coordinates": [-77.4098898235, 38.1035612663]}, "type": "Feature", "properties": {"collection_times": [{"days": "Mon-Fri", "time": "4:15pm"}, {"days": "Sat", "time": "10:15am"}, {"days": "Sun", "time": "Closed"}], "id": "2258000002", "name": "USPS COLLECTION BOX - PO LOBBY", "address": {"city": "WOODFORD", "state": "VA", "street": "11087 WOODFORD RD", "postcode": "22580"}}}
]}
