{"type": "FeatureCollection", "features": [
{"geometry": {"type": "Point", "coordinates": [-78.1669576392, 39.1844631487]}, "type": "Feature", "properties": {"collection_times": [{"days": "Mon-Fri", "time": "2:00pm"}, {"days": "Sat-Sun", "time": "Closed"}], "id": "2260100049", "name": "USPS COLLECTION BOX - BLUE BOX", "address": {"city": "WINCHESTER", "state": "VA", "street": "48 W BOSCAWEN ST", "postcode": "22601"}}},
{"geometry": {"type": "Point", "coordinates": [-78.1661862806, 39.1867219588]}, "type": "Feature", "properties": {"collection_times": [{"days": "Mon-Fri", "time": "2:00pm"}, {"days": "Sat", "time": "4:00pm"}, {"days": "Sun", "time": "Closed"}], "id": "2260100050", "name": "USPS COLLECTION BOX - BLUE BOX", "address": {"city": "WINCHESTER", "state": "VA", "street": "204 N BRADDOCK ST", "postcode": "22601"}}},
{"geometry": {"type": "Point", "coordinates": [-78.1533417815, 39.1857135364]}, "type": "Feature", "properties": {"collection_times": [{"days": "Mon-Sat", "time": "5:00pm"}, {"days": "Sun", "time": "Closed"}], "id": "2260100063", "name": "USPS COLLECTION BOX - BLUE BOX", "address": {"city": "WINCHESTER", "state": "VA", "street": "340 N PLEASANT VALLEY RD", "postcode": "22601"}}},
{"geometry": {"type": "Point", "coordinates": [-78.1847530601, 39.1617936749]}, "type": "Feature", "properties": {"collection_times": [{"days": "Mon-Fri", "time": "3:00pm"}, {"days": "Sat", "time": "4:00pm"}, {"days": "Sun", "time": "Closed"}], "id": "2260100068", "name": "USPS COLLECTION BOX - BLUE BOX", "address": {"city": "WINCHESTER", "state": "VA", "street": "2232 VALLEY AVE", "postcode": "22601"}}},
{"geometry": {"type": "Point", "coordinates": [-78.1847530601, 39.1617936749]}, "type": "Feature", "properties": {"collection_times": [{"days": "Mon-Fri", "time": "3:00pm"}, {"days": "Sat", "time": "4:00pm"}, {"days": "Sun", "time": "Closed"}], "id": "2260100069", "name": "USPS COLLECTION BOX - BLUE BOX", "address": {"city": "WINCHESTER", "state": "VA", "street": "2232 VALLEY AVE", "postcode": "22601"}}},
{"geometry": {"type": "Point", "coordinates": [-78.1667470725, 39.1853704783]}, "type": "Feature", "properties": {"collection_times": [{"days": "Mon-Fri", "time": "2:00pm"}, {"days": "Sat-Sun", "time": "Closed"}], "id": "2260100076", "name": "USPS COLLECTION BOX - BLUE BOX", "address": {"city": "WINCHESTER", "state": "VA", "street": "35 N BRADDOCK ST", "postcode": "22601"}}},
{"geometry": {"type": "Point", "coordinates": [-78.1625830569, 39.1837190676]}, "type": "Feature", "properties": {"collection_times": [{"days": "Mon-Fri", "time": "2:00pm"}, {"days": "Sat-Sun", "time": "Closed"}], "id": "2260100078", "name": "USPS COLLECTION BOX - BLUE BOX", "address": {"city": "WINCHESTER", "state": "VA", "street": "2 N KENT ST", "postcode": "22601"}}},
{"geometry": {"type": "Point", "coordinates": [-78.1611800676, 39.19835227]}, "type": "Feature", "properties": {"collection_times": [{"days": "Mon-Sat", "time": "10:45am"}, {"days": "Sun", "time": "Closed"}], "id": "2260100082", "name": "USPS COLLECTION BOX - BLUE BOX", "address": {"city": "WINCHESTER", "state": "VA", "street": "717 N BRADDOCK ST", "postcode": "22601"}}},
{"geometry": {"type": "Point", "coordinates": [-78.1633687914, 39.1815357803]}, "type": "Feature", "properties": {"collection_times": [{"days": "Mon-Fri", "time": "2:00pm"}, {"days": "Sat-Sun", "time": "Closed"}], "id": "2260100088", "name": "USPS COLLECTION BOX - BLUE BOX", "address": {"city": "WINCHESTER", "state": "VA", "street": "200 E CORK ST", "postcode": "22601"}}},
{"geometry": {"type": "Point", "coordinates": [-78.1662951822, 39.1823421033]}, "type": "Feature", "properties": {"collection_times": [{"days": "Mon-Fri", "time": "2:00pm"}, {"days": "Sat-Sun", "time": "Closed"}], "id": "2260100089", "name": "USPS COLLECTION BOX - BLUE BOX", "address": {"city": "WINCHESTER", "state": "VA", "street": "141 S LOUDOUN ST", "postcode": "22601"}}},
{"geometry": {"type": "Point", "coordinates": [-78.1826858871, 39.1550104509]}, "type": "Feature", "properties": {"collection_times": [{"days": "Mon-Sat", "time": "9:45am"}, {"days": "Sun", "time": "Closed"}], "id": "2260100100", "name": "USPS COLLECTION BOX - BLUE BOX", "address": {"city": "WINCHESTER", "state": "VA", "street": "221 PEPPERTREE LN", "postcode": "22601"}}},
{"geometry": {"type": "Point", "coordinates": [-78.1706171423, 39.1771324745]}, "type": "Feature", "properties": {"collection_times": [{"days": "Mon-Fri", "time": "2:00pm"}, {"days": "Sat-Sun", "time": "Closed"}], "id": "2260100101", "name": "USPS COLLECTION BOX - BLUE BOX", "address": {"city": "WINCHESTER", "state": "VA", "street": "205 N CAMERON ST", "postcode": "22601"}}},
{"geometry": {"type": "Point", "coordinates": [-78.1703669269, 39.184570798]}, "type": "Feature", "properties": {"collection_times": [{"days": "Mon-Fri", "time": "2:00pm"}, {"days": "Sat-Sun", "time": "Closed"}], "id": "2260100106", "name": "USPS COLLECTION BOX - BLUE BOX", "address": {"city": "WINCHESTER", "state": "VA", "street": "9 S STEWART ST", "postcode": "22601"}}},
{"geometry": {"type": "Point", "coordinates": [-78.1790498457, 39.1588059518]}, "type": "Feature", "properties": {"collection_times": [{"days": "Mon-Sat", "time": "9:45am"}, {"days": "Sun", "time": "Closed"}], "id": "2260100107", "name": "USPS COLLECTION BOX - BLUE BOX", "address": {"city": "WINCHESTER", "state": "VA", "street": "114 TAFT AVE", "postcode": "22601"}}},
{"geometry": {"type": "Point", "coordinates": [-78.1686628202, 39.1847045976]}, "type": "Feature", "properties": {"collection_times": [{"days": "Mon-Fri", "time": "2:00pm"}, {"days": "Sat-Sun", "time": "Closed"}], "id": "2260100108", "name": "USPS COLLECTION BOX - BLUE BOX", "address": {"city": "WINCHESTER", "state": "VA", "street": "4 S WASHINGTON ST", "postcode": "22601"}}},
{"geometry": {"type": "Point", "coordinates": [-78.1867859102, 39.1460205829]}, "type": "Feature", "properties": {"collection_times": [{"days": "Mon-Sat", "time": "11:00am"}, {"days": "Sun", "time": "Closed"}], "id": "2260100109", "name": "USPS COLLECTION BOX - BLUE BOX", "address": {"city": "WINCHESTER", "state": "VA", "street": "412 PIN OAK LN", "postcode": "22601"}}},
{"geometry": {"type": "Point", "coordinates": [-78.1725222782, 39.1834611825]}, "type": "Feature", "properties": {"collection_times": [{"days": "Mon-Fri", "time": "2:30pm"}, {"days": "Sat-Sun", "time": "Closed"}], "id": "2260100119", "name": "USPS COLLECTION BOX - BLUE BOX", "address": {"city": "WINCHESTER", "state": "VA", "street": "333 W CORK ST", "postcode": "22601"}}},
{"geometry": {"type": "Point", "coordinates": [-78.1965638506, 39.1911881187]}, "type": "Feature", "properties": {"collection_times": [{"days": "Mon-Fri", "time": "2:00pm"}, {"days": "Sat-Sun", "time": "Closed"}], "id": "2260100120", "name": "USPS COLLECTION BOX - BLUE BOX", "address": {"city": "WINCHESTER", "state": "VA", "street": "1870 AMHERST ST", "postcode": "22601"}}},
{"geometry": {"type": "Point", "coordinates": [-78.1952806716, 39.1918358181]}, "type": "Feature", "properties": {"collection_times": [{"days": "Mon-Fri", "time": "2:00pm"}, {"days": "Sat-Sun", "time": "Closed"}], "id": "2260100121", "name": "USPS COLLECTION BOX - BLUE BOX", "address": {"city": "WINCHESTER", "state": "VA", "street": "190 CAMPUS BLVD", "postcode": "22601"}}},
{"geometry": {"type": "Point", "coordinates": [-78.1533417815, 39.1857135364]}, "type": "Feature", "properties": {"collection_times": [{"days": "Mon-Sat", "time": "5:00pm"}, {"days": "Sun", "time": "Closed"}], "id": "2260100124", "name": "USPS COLLECTION BOX - BLUE BOX", "address": {"city": "WINCHESTER", "state": "VA", "street": "340 N PLEASANT VALLEY RD", "postcode": "22601"}}},
{"geometry": {"type": "Point", "coordinates": [-78.1533417815, 39.1857135364]}, "type": "Feature", "properties": {"collection_times": [{"days": "Mon-Sat", "time": "5:00pm"}, {"days": "Sun", "time": "Closed"}], "id": "2260100125", "name": "USPS COLLECTION BOX - BLUE BOX", "address": {"city": "WINCHESTER", "state": "VA", "street": "340 N PLEASANT VALLEY RD", "postcode": "22601"}}},
{"geometry": {"type": "Point", "coordinates": [-78.1811124763, 39.1699656988]}, "type": "Feature", "properties": {"collection_times": [{"days": "Mon-Fri", "time": "2:30pm"}, {"days": "Sat-Sun", "time": "Closed"}], "id": "2260100130", "name": "USPS COLLECTION BOX - BLUE BOX", "address": {"city": "WINCHESTER", "state": "VA", "street": "440 W JUBAL EARLY DR", "postcode": "22601"}}},
{"geometry": {"type": "Point", "coordinates": [-78.1716018699, 39.1588691202]}, "type": "Feature", "properties": {"collection_times": [{"days": "Mon-Sat", "time": "9:00am"}, {"days": "Sun", "time": "Closed"}], "id": "2260100131", "name": "USPS COLLECTION BOX - BLUE BOX", "address": {"city": "WINCHESTER", "state": "VA", "street": "2300 S PLEASANT VALLEY RD", "postcode": "22601"}}},
{"geometry": {"type": "Point", "coordinates": [-78.1533417815, 39.1857135364]}, "type": "Feature", "properties": {"collection_times": [{"days": "Mon-Fri", "time": "5:30pm"}, {"days": "Sat", "time": "5:00pm"}, {"days": "Sun", "time": "Closed"}], "id": "2260100132", "name": "USPS COLLECTION BOX - APC", "address": {"city": "WINCHESTER", "state": "VA", "street": "340 N PLEASANT VALLEY RD", "postcode": "22601"}}},
{"geometry": {"type": "Point", "coordinates": [-78.1533417815, 39.1857135364]}, "type": "Feature", "properties": {"collection_times": [{"days": "Mon-Fri", "time": "5:30pm"}, {"days": "Sat", "time": "5:00pm"}, {"days": "Sun", "time": "Closed"}], "id": "2260100133", "name": "USPS COLLECTION BOX - PO LOBBY", "address": {"city": "WINCHESTER", "state": "VA", "street": "340 N PLEASANT VALLEY RD", "postcode": "22601"}}},
{"geometry": {"type": "Point", "coordinates": [-78.1533417815, 39.1857135364]}, "type": "Feature", "properties": {"collection_times": [{"days": "Mon-Fri", "time": "5:30pm"}, {"days": "Sat", "time": "5:00pm"}, {"days": "Sun", "time": "Closed"}], "id": "2260100134", "name": "USPS COLLECTION BOX - PO LOBBY", "address": {"city": "WINCHESTER", "state": "VA", "street": "340 N PLEASANT VALLEY RD", "postcode": "22601"}}},
{"geometry": {"type": "Point", "coordinates": [-78.1640002591, 39.1839263809]}, "type": "Feature", "properties": {"collection_times": [{"days": "Mon-Fri", "time": "2:00pm"}, {"days": "Sat-Sun", "time": "Closed"}], "id": "2260100136", "name": "USPS COLLECTION BOX - BLUE BOX", "address": {"city": "WINCHESTER", "state": "VA", "street": "22 N CAMERON ST", "postcode": "22601"}}},
{"geometry": {"type": "Point", "coordinates": [-78.1623488311, 39.1843034493]}, "type": "Feature", "properties": {"collection_times": [{"days": "Mon-Fri", "time": "2:00pm"}, {"days": "Sat-Sun", "time": "Closed"}], "id": "2260100137", "name": "USPS COLLECTION BOX - BLUE BOX", "address": {"city": "WINCHESTER", "state": "VA", "street": "107 N KENT ST", "postcode": "22601"}}},
{"geometry": {"type": "Point", "coordinates": [-78.1816322448, 39.1894729804]}, "type": "Feature", "properties": {"collection_times": [{"days": "Mon-Fri", "time": "2:00pm"}, {"days": "Sat-Sun", "time": "Closed"}], "id": "2260100140", "name": "USPS COLLECTION BOX - BLUE BOX", "address": {"city": "WINCHESTER", "state": "VA", "street": "1104 AMHERST ST", "postcode": "22601"}}},
{"geometry": {"type": "Point", "coordinates": [-78.1867689121, 39.1627807691]}, "type": "Feature", "properties": {"collection_times": [{"days": "Mon-Fri", "time": "2:30pm"}, {"days": "Sat-Sun", "time": "Closed"}], "id": "2260100141", "name": "USPS COLLECTION BOX - BLUE BOX", "address": {"city": "WINCHESTER", "state": "VA", "street": "629 CEDAR CREEK GRADE", "postcode": "22601"}}},
{"geometry": {"type": "Point", "coordinates": [-78.15344, 39.18529]}, "type": "Feature", "properties": {"collection_times": [{"days": "Mon-Fri", "time": "5:30pm"}, {"days": "Sat", "time": "5:00pm"}, {"days": "Sun", "time": "Closed"}], "id": "2260100143", "name": "USPS COLLECTION BOX - APC", "address": {"city": "WINCHESTER", "state": "VA", "street": "340 N PLEASANT VALLEY RD", "postcode": "22601"}}},
{"geometry": {"type": "Point", "coordinates": [-78.1699958063, 39.1768805103]}, "type": "Feature", "properties": {"collection_times": [{"days": "Mon-Fri", "time": "5:30pm"}, {"days": "Sat", "time": "5:00pm"}, {"days": "Sun", "time": "Closed"}], "id": "2260100144", "name": "USPS COLLECTION BOX - APC", "address": {"city": "WINCHESTER", "state": "VA", "street": "340 N PLEASANT VALLEY RD", "postcode": "22601"}}},
{"geometry": {"type": "Point", "coordinates": [-78.1699958063, 39.1768805103]}, "type": "Feature", "properties": {"collection_times": [{"days": "Mon-Fri", "time": "5:30pm"}, {"days": "Sat", "time": "5:00pm"}, {"days": "Sun", "time": "Closed"}], "id": "2260100145", "name": "USPS COLLECTION BOX - APC", "address": {"city": "WINCHESTER", "state": "VA", "street": "340 N PLEASANT VALLEY RD", "postcode": "22601"}}},
{"geometry": {"type": "Point", "coordinates": [-78.1237311357, 39.1816346939]}, "type": "Feature", "properties": {"collection_times": [{"days": "Mon-Sat", "time": "12:45pm"}, {"days": "Sun", "time": "Closed"}], "id": "2260200000", "name": "USPS COLLECTION BOX - BLUE BOX", "address": {"city": "WINCHESTER", "state": "VA", "street": "100 ASH HOLLOW DR", "postcode": "22602"}}},
{"geometry": {"type": "Point", "coordinates": [-78.1911183117, 39.1410047768]}, "type": "Feature", "properties": {"collection_times": [{"days": "Mon-Fri", "time": "9:00am"}, {"days": "Sat", "time": "10:00am"}, {"days": "Sun", "time": "Closed"}], "id": "2260200001", "name": "USPS COLLECTION BOX - BLUE BOX", "address": {"city": "WINCHESTER", "state": "VA", "street": "126 CREEKSIDE LN", "postcode": "22602"}}},
{"geometry": {"type": "Point", "coordinates": [-78.1321030214, 39.1691832265]}, "type": "Feature", "properties": {"collection_times": [{"days": "Mon-Sat", "time": "10:30am"}, {"days": "Sun", "time": "Closed"}], "id": "2260200005", "name": "USPS COLLECTION BOX - BLUE BOX", "address": {"city": "WINCHESTER", "state": "VA", "street": "301 KASSIE LN", "postcode": "22602"}}},
{"geometry": {"type": "Point", "coordinates": [-78.1547151969, 39.1591324484]}, "type": "Feature", "properties": {"collection_times": [{"days": "Mon-Fri", "time": "3:00pm"}, {"days": "Sat", "time": "4:30pm"}, {"days": "Sun", "time": "Closed"}], "id": "2260200006", "name": "USPS COLLECTION BOX - BLUE BOX", "address": {"city": "WINCHESTER", "state": "VA", "street": "170 DELCO PLZ STE 4", "postcode": "22602"}}},
{"geometry": {"type": "Point", "coordinates": [-78.1255606352, 39.1910972892]}, "type": "Feature", "properties": {"collection_times": [{"days": "Mon-Sat", "time": "10:00am"}, {"days": "Sun", "time": "Closed"}], "id": "2260300001", "name": "USPS COLLECTION BOX - BLUE BOX", "address": {"city": "WINCHESTER", "state": "VA", "street": "216 REGENCY LAKES DR", "postcode": "22603"}}},
{"geometry": {"type": "Point", "coordinates": [-78.1955096788, 39.2575411463]}, "type": "Feature", "properties": {"collection_times": [{"days": "Mon-Sat", "time": "10:00am"}, {"days": "Sun", "time": "Closed"}], "id": "2260300003", "name": "USPS COLLECTION BOX - BLUE BOX", "address": {"city": "WINCHESTER", "state": "VA", "street": "4780 NORTHWESTERN PIKE", "postcode": "22603"}}},
{"geometry": {"type": "Point", "coordinates": [-78.1472176029, 39.2217937848]}, "type": "Feature", "properties": {"collection_times": [{"days": "Mon-Sat", "time": "12:00pm"}, {"days": "Sun", "time": "Closed"}], "id": "2260300004", "name": "USPS COLLECTION BOX - BLUE BOX", "address": {"city": "WINCHESTER", "state": "VA", "street": "275 MCGHEE RD", "postcode": "22603"}}},
{"geometry": {"type": "Point", "coordinates": [-78.1768182088, 39.2104426202]}, "type": "Feature", "properties": {"collection_times": [{"days": "Mon-Fri", "time": "10:00am"}, {"days": "Sat-Sun", "time": "Closed"}], "id": "2260300006", "name": "USPS COLLECTION BOX - BLUE BOX", "address": {"city": "WINCHESTER", "state": "VA", "street": "160 EXETER DR", "postcode": "22603"}}},
{"geometry": {"type": "Point", "coordinates": [-78.2399595125, 39.1946368529]}, "type": "Feature", "properties": {"collection_times": [{"days": "Mon-Sat", "time": "11:00am"}, {"days": "Sun", "time": "Closed"}], "id": "2260300007", "name": "USPS COLLECTION BOX - BLUE BOX", "address": {"city": "WINCHESTER", "state": "VA", "street": "2765 NORTHWESTERN PIKE", "postcode": "22603"}}},
{"geometry": {"type": "Point", "coordinates": [-78.317568534, 38.8315360073]}, "type": "Feature", "properties": {"collection_times": [{"days": "Mon-Fri", "time": "4:45pm"}, {"days": "Sat", "time": "11:30am"}, {"days": "Sun", "time": "Closed"}], "id": "2261000000", "name": "USPS COLLECTION BOX - BLUE BOX", "address": {"city": "BENTONVILLE", "state": "VA", "street": "2590 STONEWALL JACKSON HWY", "postcode": "22610"}}},
{"geometry": {"type": "Point", "coordinates": [-78.317568534, 38.8315360073]}, "type": "Feature", "properties": {"collection_times": [{"days": "Mon-Fri", "time": "4:30pm"}, {"days": "Sat", "time": "12:30pm"}, {"days": "Sun", "time": "Closed"}], "id": "2261000001", "name": "USPS COLLECTION BOX - PO LOBBY", "address": {"city": "BENTONVILLE", "state": "VA", "street": "2590 STONEWALL JACKSON HWY", "postcode": "22610"}}},
{"geometry": {"type": "Point", "coordinates": [-78.2891575823, 38.8253304142]}, "type": "Feature", "properties": {"collection_times": [{"days": "Mon-Sat", "time": "10:00am"}, {"days": "Sun", "time": "Closed"}], "id": "2261000002", "name": "USPS COLLECTION BOX - BLUE BOX", "address": {"city": "BENTONVILLE", "state": "VA", "street": "2868 STONEWALL JACKSON HWY", "postcode": "22610"}}},
{"geometry": {"type": "Point", "coordinates": [-77.983679274, 39.1549931953]}, "type": "Feature", "properties": {"collection_times": [{"days": "Mon-Fri", "time": "5:00pm"}, {"days": "Sat", "time": "3:30pm"}, {"days": "Sun", "time": "Closed"}], "id": "2261100003", "name": "USPS COLLECTION BOX - BLUE BOX", "address": {"city": "BERRYVILLE", "state": "VA", "street": "12 ACADEMY ST", "postcode": "22611"}}},
{"geometry": {"type": "Point", "coordinates": [-77.982896322, 39.1598185646]}, "type": "Feature", "properties": {"collection_times": [{"days": "Mon-Sat", "time": "10:00am"}, {"days": "Sun", "time": "Closed"}], "id": "2261100015", "name": "USPS COLLECTION BOX - BLUE BOX", "address": {"city": "BERRYVILLE", "state": "VA", "street": "300 MOSBY BLVD", "postcode": "22611"}}},
{"geometry": {"type": "Point", "coordinates": [-77.9809385249, 39.1517484186]}, "type": "Feature", "properties": {"collection_times": [{"days": "Mon-Fri", "time": "5:00pm"}, {"days": "Sat", "time": "4:00pm"}, {"days": "Sun", "time": "Closed"}], "id": "2261100019", "name": "USPS COLLECTION BOX - PO LOBBY", "address": {"city": "BERRYVILLE", "state": "VA", "street": "27 N CHURCH ST", "postcode": "22611"}}},
{"geometry": {"type": "Point", "coordinates": [-77.9809385249, 39.1517484186]}, "type": "Feature", "properties": {"collection_times": [{"days": "Mon-Fri", "time": "5:00pm"}, {"days": "Sat", "time": "4:00pm"}, {"days": "Sun", "time": "Closed"}], "id": "2261100020", "name": "USPS COLLECTION BOX - PO LOBBY", "address": {"city": "BERRYVILLE", "state": "VA", "street": "27 N CHURCH ST", "postcode": "22611"}}},
{"geometry": {"type": "Point", "coordinates": [-78.0624930451, 39.0946285167]}, "type": "Feature", "properties": {"collection_times": [{"days": "Mon-Fri", "time": "4:15pm"}, {"days": "Sat", "time": "11:30am"}, {"days": "Sun", "time": "Closed"}], "id": "2262000001", "name": "USPS COLLECTION BOX - BLUE BOX", "address": {"city": "BOYCE", "state": "VA", "street": "112 W MAIN ST", "postcode": "22620"}}},
{"geometry": {"type": "Point", "coordinates": [-78.0624930451, 39.0946285167]}, "type": "Feature", "properties": {"collection_times": [{"days": "Mon-Fri", "time": "4:15pm"}, {"days": "Sat", "time": "11:30am"}, {"days": "Sun", "time": "Closed"}], "id": "2262000002", "name": "USPS COLLECTION BOX - PO LOBBY", "address": {"city": "BOYCE", "state": "VA", "street": "112 W MAIN ST", "postcode": "22620"}}},
{"geometry": {"type": "Point", "coordinates": [-78.0386680147, 39.0656136097]}, "type": "Feature", "properties": {"collection_times": [{"days": "Mon-Sat", "time": "10:00am"}, {"days": "Sun", "time": "Closed"}], "id": "2262000003", "name": "USPS COLLECTION BOX - BLUE BOX", "address": {"city": "BOYCE", "state": "VA", "street": "8204 JOHN MOSBY HWY", "postcode": "22620"}}},
{"geometry": {"type": "Point", "coordinates": [-78.0948693028, 39.2565041668]}, "type": "Feature", "properties": {"collection_times": [{"days": "Mon-Fri", "time": "4:30pm"}, {"days": "Sat", "time": "11:30am"}, {"days": "Sun", "time": "Closed"}], "id": "2262400000", "name": "USPS COLLECTION BOX - BLUE BOX", "address": {"city": "CLEAR BROOK", "state": "VA", "street": "1164 BRUCETOWN RD", "postcode": "22624"}}},
{"geometry": {"type": "Point", "coordinates": [-78.0865933219, 39.2912204635]}, "type": "Feature", "properties": {"collection_times": [{"days": "Mon-Sat", "time": "12:00pm"}, {"days": "Sun", "time": "Closed"}], "id": "2262400001", "name": "USPS COLLECTION BOX - BLUE BOX", "address": {"city": "CLEAR BROOK", "state": "VA", "street": "1530 REST CHURCH RD", "postcode": "22624"}}},
{"geometry": {"type": "Point", "coordinates": [-78.0948693028, 39.2565041668]}, "type": "Feature", "properties": {"collection_times": [{"days": "Mon-Fri", "time": "4:30pm"}, {"days": "Sat", "time": "11:30am"}, {"days": "Sun", "time": "Closed"}], "id": "2262400002", "name": "USPS COLLECTION BOX - PO LOBBY", "address": {"city": "CLEAR BROOK", "state": "VA", "street": "1164 BRUCETOWN RD", "postcode": "22624"}}},
{"geometry": {"type": "Point", "coordinates": [-78.2923973165, 39.3167412888]}, "type": "Feature", "properties": {"collection_times": [{"days": "Mon-Fri", "time": "4:00pm"}, {"days": "Sat", "time": "12:00pm"}, {"days": "Sun", "time": "Closed"}], "id": "2262500001", "name": "USPS COLLECTION BOX - BLUE BOX", "address": {"city": "CROSS JUNCTION", "state": "VA", "street": "6654 N FREDERICK PIKE", "postcode": "22625"}}},
{"geometry": {"type": "Point", "coordinates": [-78.3159442231, 39.3168752946]}, "type": "Feature", "properties": {"collection_times": [{"days": "Mon-Sat", "time": "11:00am"}, {"days": "Sun", "time": "Closed"}], "id": "2262500002", "name": "USPS COLLECTION BOX - BLUE BOX", "address": {"city": "CROSS JUNCTION", "state": "VA", "street": "100 MASTERS DR", "postcode": "22625"}}},
{"geometry": {"type": "Point", "coordinates": [-78.298563007, 39.382534249]}, "type": "Feature", "properties": {"collection_times": [{"days": "Mon-Sat", "time": "10:00am"}, {"days": "Sun", "time": "Closed"}], "id": "2262500003", "name": "USPS COLLECTION BOX - BLUE BOX", "address": {"city": "CROSS JUNCTION", "state": "VA", "street": "9181 N FREDERICK PIKE", "postcode": "22625"}}},
{"geometry": {"type": "Point", "coordinates": [-78.2923973165, 39.3167412888]}, "type": "Feature", "properties": {"collection_times": [{"days": "Mon-Fri", "time": "4:30pm"}, {"days": "Sat", "time": "12:00pm"}, {"days": "Sun", "time": "Closed"}], "id": "2262500004", "name": "USPS COLLECTION BOX - PO LOBBY", "address": {"city": "CROSS JUNCTION", "state": "VA", "street": "6654 N FREDERICK PIKE", "postcode": "22625"}}},
{"geometry": {"type": "Point", "coordinates": [-78.3061397713, 39.3402905807]}, "type": "Feature", "properties": {"collection_times": [{"days": "Mon-Sat", "time": "11:00am"}, {"days": "Sun", "time": "Closed"}], "id": "2262500008", "name": "USPS COLLECTION BOX - BLUE BOX", "address": {"city": "CROSS JUNCTION", "state": "VA", "street": "1778 BLOOMERY PIKE", "postcode": "22625"}}},
{"geometry": {"type": "Point", "coordinates": [-78.0799586025, 38.765973294]}, "type": "Feature", "properties": {"collection_times": [{"days": "Mon-Fri", "time": "4:00pm"}, {"days": "Sat", "time": "12:00pm"}, {"days": "Sun", "time": "Closed"}], "id": "2262700001", "name": "USPS COLLECTION BOX - BLUE BOX", "address": {"city": "FLINT HILL", "state": "VA", "street": "664F ZACHARY TAYLOR HWY", "postcode": "22627"}}},
{"geometry": {"type": "Point", "coordinates": [-78.0799586025, 38.765973294]}, "type": "Feature", "properties": {"collection_times": [{"days": "Mon-Fri", "time": "4:00pm"}, {"days": "Sat", "time": "12:00pm"}, {"days": "Sun", "time": "Closed"}], "id": "2262700002", "name": "USPS COLLECTION BOX - PO LOBBY", "address": {"city": "FLINT HILL", "state": "VA", "street": "664F ZACHARY TAYLOR HWY", "postcode": "22627"}}},
{"geometry": {"type": "Point", "coordinates": [-78.1925616451, 38.9228998485]}, "type": "Feature", "properties": {"collection_times": [{"days": "Mon-Fri", "time": "5:00pm"}, {"days": "Sat", "time": "4:15pm"}, {"days": "Sun", "time": "Closed"}], "id": "2263000001", "name": "USPS COLLECTION BOX - BLUE BOX", "address": {"city": "FRONT ROYAL", "state": "VA", "street": "120 E 3RD ST", "postcode": "22630"}}},
{"geometry": {"type": "Point", "coordinates": [-78.1880275817, 38.911338398]}, "type": "Feature", "properties": {"collection_times": [{"days": "Mon-Sat", "time": "10:00am"}, {"days": "Sun", "time": "Closed"}], "id": "2263000003", "name": "USPS COLLECTION BOX - BLUE BOX", "address": {"city": "FRONT ROYAL", "state": "VA", "street": "423 SOUTH ST", "postcode": "22630"}}},
{"geometry": {"type": "Point", "coordinates": [-78.1848203097, 38.9088086256]}, "type": "Feature", "properties": {"collection_times": [{"days": "Mon-Sat", "time": "10:00am"}, {"days": "Sun", "time": "Closed"}], "id": "2263000004", "name": "USPS COLLECTION BOX - BLUE BOX", "address": {"city": "FRONT ROYAL", "state": "VA", "street": "300 REMOUNT RD", "postcode": "22630"}}},
{"geometry": {"type": "Point", "coordinates": [-78.1460526661, 38.951999978]}, "type": "Feature", "properties": {"collection_times": [{"days": "Mon-Sat", "time": "10:00am"}, {"days": "Sun", "time": "Closed"}], "id": "2263000008", "name": "USPS COLLECTION BOX - BLUE BOX", "address": {"city": "FRONT ROYAL", "state": "VA", "street": "134 CHRISTENDOM DR", "postcode": "22630"}}},
{"geometry": {"type": "Point", "coordinates": [-78.1468864223, 38.8747058806]}, "type": "Feature", "properties": {"collection_times": [{"days": "Mon-Sat", "time": "10:00am"}, {"days": "Sun", "time": "Closed"}], "id": "2263000009", "name": "USPS COLLECTION BOX - BLUE BOX", "address": {"city": "FRONT ROYAL", "state": "VA", "street": "115 LAKE FRONT RD", "postcode": "22630"}}},
{"geometry": {"type": "Point", "coordinates": [-78.1925616451, 38.9228998485]}, "type": "Feature", "properties": {"collection_times": [{"days": "Mon-Fri", "time": "5:00pm"}, {"days": "Sat", "time": "4:15pm"}, {"days": "Sun", "time": "Closed"}], "id": "2263000012", "name": "USPS COLLECTION BOX - BLUE BOX", "address": {"city": "FRONT ROYAL", "state": "VA", "street": "120 E 3RD ST", "postcode": "22630"}}},
{"geometry": {"type": "Point", "coordinates": [-78.1950323905, 38.9237238248]}, "type": "Feature", "properties": {"collection_times": [{"days": "Mon-Sat", "time": "10:00am"}, {"days": "Sun", "time": "Closed"}], "id": "2263000014", "name": "USPS COLLECTION BOX - BLUE BOX", "address": {"city": "FRONT ROYAL", "state": "VA", "street": "80 W 4TH ST", "postcode": "22630"}}},
{"geometry": {"type": "Point", "coordinates": [-78.1922617126, 38.9178039328]}, "type": "Feature", "properties": {"collection_times": [{"days": "Mon-Sat", "time": "10:00am"}, {"days": "Sun", "time": "Closed"}], "id": "2263000017", "name": "USPS COLLECTION BOX - BLUE BOX", "address": {"city": "FRONT ROYAL", "state": "VA", "street": "131 E MAIN ST", "postcode": "22630"}}},
{"geometry": {"type": "Point", "coordinates": [-78.1936086694, 38.9180059852]}, "type": "Feature", "properties": {"collection_times": [{"days": "Mon-Fri", "time": "3:00pm"}, {"days": "Sat", "time": "12:00pm"}, {"days": "Sun", "time": "Closed"}], "id": "2263000018", "name": "USPS COLLECTION BOX - BLUE BOX", "address": {"city": "FRONT ROYAL", "state": "VA", "street": "3 E MAIN ST", "postcode": "22630"}}},
{"geometry": {"type": "Point", "coordinates": [-78.1848665071, 38.9108785323]}, "type": "Feature", "properties": {"collection_times": [{"days": "Mon-Sat", "time": "10:00am"}, {"days": "Sun", "time": "Closed"}], "id": "2263000027", "name": "USPS COLLECTION BOX - BLUE BOX", "address": {"city": "FRONT ROYAL", "state": "VA", "street": "490 S COMMERCE AVE", "postcode": "22630"}}},
{"geometry": {"type": "Point", "coordinates": [-78.1925616451, 38.9228998485]}, "type": "Feature", "properties": {"collection_times": [{"days": "Mon-Fri", "time": "5:00pm"}, {"days": "Sat", "time": "4:15pm"}, {"days": "Sun", "time": "Closed"}], "id": "2263000032", "name": "USPS COLLECTION BOX - PO LOBBY", "address": {"city": "FRONT ROYAL", "state": "VA", "street": "120 E 3RD ST", "postcode": "22630"}}},
{"geometry": {"type": "Point", "coordinates": [-78.308910694, 39.2683883523]}, "type": "Feature", "properties": {"collection_times": [{"days": "Mon-Fri", "time": "4:30pm"}, {"days": "Sat", "time": "12:30pm"}, {"days": "Sun", "time": "Closed"}], "id": "2263700001", "name": "USPS COLLECTION BOX - BLUE BOX", "address": {"city": "GORE", "state": "VA", "street": "6819 NORTHWESTERN PIKE", "postcode": "22637"}}},
{"geometry": {"type": "Point", "coordinates": [-78.308910694, 39.2683883523]}, "type": "Feature", "properties": {"collection_times": [{"days": "Mon-Fri", "time": "4:30pm"}, {"days": "Sat", "time": "1:00pm"}, {"days": "Sun", "time": "Closed"}], "id": "2263700002", "name": "USPS COLLECTION BOX - PO LOBBY", "address": {"city": "GORE", "state": "VA", "street": "6819 NORTHWESTERN PIKE", "postcode": "22637"}}},
{"geometry": {"type": "Point", "coordinates": [-78.308910694, 39.2683883523]}, "type": "Feature", "properties": {"collection_times": [{"days": "Mon-Fri", "time": "4:30pm"}, {"days": "Sat", "time": "1:00pm"}, {"days": "Sun", "time": "Closed"}], "id": "2263700003", "name": "USPS COLLECTION BOX - PO LOBBY", "address": {"city": "GORE", "state": "VA", "street": "6819 NORTHWESTERN PIKE", "postcode": "22637"}}},
{"geometry": {"type": "Point", "coordinates": [-78.3604373976, 39.2631331683]}, "type": "Feature", "properties": {"collection_times": [{"days": "Mon-Sat", "time": "12:00pm"}, {"days": "Sun", "time": "Closed"}], "id": "2263700004", "name": "USPS COLLECTION BOX - BLUE BOX", "address": {"city": "GORE", "state": "VA", "street": "305 GORE RD", "postcode": "22637"}}},
{"geometry": {"type": "Point", "coordinates": [-77.9992720229, 38.8311062081]}, "type": "Feature", "properties": {"collection_times": [{"days": "Mon-Fri", "time": "4:00pm"}, {"days": "Sat", "time": "11:30am"}, {"days": "Sun", "time": "Closed"}], "id": "2263900001", "name": "USPS COLLECTION BOX - BLUE BOX", "address": {"city": "HUME", "state": "VA", "street": "5046 LEEDS MANOR RD", "postcode": "22639"}}},
{"geometry": {"type": "Point", "coordinates": [-77.9992720229, 38.8311062081]}, "type": "Feature", "properties": {"collection_times": [{"days": "Mon-Fri", "time": "4:00pm"}, {"days": "Sat", "time": "11:30am"}, {"days": "Sun", "time": "Closed"}], "id": "2263900002", "name": "USPS COLLECTION BOX - PO LOBBY", "address": {"city": "HUME", "state": "VA", "street": "5046 LEEDS MANOR RD", "postcode": "22639"}}},
{"geometry": {"type": "Point", "coordinates": [-78.0735035726, 38.9095469468]}, "type": "Feature", "properties": {"collection_times": [{"days": "Mon-Fri", "time": "4:30pm"}, {"days": "Sat", "time": "12:00pm"}, {"days": "Sun", "time": "Closed"}], "id": "2264200001", "name": "USPS COLLECTION BOX - BLUE BOX", "address": {"city": "LINDEN", "state": "VA", "street": "13474 JOHN MARSHALL HWY", "postcode": "22642"}}},
{"geometry": {"type": "Point", "coordinates": [-78.1011253652, 38.9134331322]}, "type": "Feature", "properties": {"collection_times": [{"days": "Mon-Sat", "time": "11:00am"}, {"days": "Sun", "time": "Closed"}], "id": "2264200002", "name": "USPS COLLECTION BOX - BLUE BOX", "address": {"city": "LINDEN", "state": "VA", "street": "4675 JOHN MARSHALL HWY", "postcode": "22642"}}},
{"geometry": {"type": "Point", "coordinates": [-78.0735035726, 38.9095469468]}, "type": "Feature", "properties": {"collection_times": [{"days": "Mon-Fri", "time": "4:45pm"}, {"days": "Sat", "time": "12:00pm"}, {"days": "Sun", "time": "Closed"}], "id": "2264200003", "name": "USPS COLLECTION BOX - PO LOBBY", "address": {"city": "LINDEN", "state": "VA", "street": "13474 JOHN MARSHALL HWY", "postcode": "22642"}}},
{"geometry": {"type": "Point", "coordinates": [-77.99445738, 38.9048968225]}, "type": "Feature", "properties": {"collection_times": [{"days": "Mon-Fri", "time": "4:30pm"}, {"days": "Sat", "time": "12:00pm"}, {"days": "Sun", "time": "Closed"}], "id": "2264300001", "name": "USPS COLLECTION BOX - BLUE BOX", "address": {"city": "MARKHAM", "state": "VA", "street": "11524 OLD MARKHAM RD", "postcode": "22643"}}},
{"geometry": {"type": "Point", "coordinates": [-77.99445738, 38.9048968225]}, "type": "Feature", "properties": {"collection_times": [{"days": "Mon-Sat", "time": "12:30pm"}, {"days": "Sun", "time": "Closed"}], "id": "2264300002", "name": "USPS COLLECTION BOX - PO LOBBY", "address": {"city": "MARKHAM", "state": "VA", "street": "11524 OLD MARKHAM RD", "postcode": "22643"}}},
{"geometry": {"type": "Point", "coordinates": [-78.4644528915, 38.9285299767]}, "type": "Feature", "properties": {"collection_times": [{"days": "Mon-Fri", "time": "3:45pm"}, {"days": "Sat", "time": "11:00am"}, {"days": "Sun", "time": "Closed"}], "id": "2264400003", "name": "USPS COLLECTION BOX - BLUE BOX", "address": {"city": "MAURERTOWN", "state": "VA", "street": "24784 OLD VALLEY PIKE", "postcode": "22644"}}},
{"geometry": {"type": "Point", "coordinates": [-78.4644528915, 38.9285299767]}, "type": "Feature", "properties": {"collection_times": [{"days": "Mon-Fri", "time": "4:15pm"}, {"days": "Sat", "time": "11:45am"}, {"days": "Sun", "time": "Closed"}], "id": "2264400004", "name": "USPS COLLECTION BOX - PO LOBBY", "address": {"city": "MAURERTOWN", "state": "VA", "street": "24784 OLD VALLEY PIKE", "postcode": "22644"}}},
{"geometry": {"type": "Point", "coordinates": [-78.2810302855, 39.0271640493]}, "type": "Feature", "properties": {"collection_times": [{"days": "Mon-Fri", "time": "4:00pm"}, {"days": "Sat", "time": "11:30am"}, {"days": "Sun", "time": "Closed"}], "id": "2264500001", "name": "USPS COLLECTION BOX - BLUE BOX", "address": {"city": "MIDDLETOWN", "state": "VA", "street": "7922 MAIN ST", "postcode": "22645"}}},
{"geometry": {"type": "Point", "coordinates": [-78.2743787234, 39.0319840326]}, "type": "Feature", "properties": {"collection_times": [{"days": "Mon-Sat", "time": "9:30am"}, {"days": "Sun", "time": "Closed"}], "id": "2264500002", "name": "USPS COLLECTION BOX - BLUE BOX", "address": {"city": "MIDDLETOWN", "state": "VA", "street": "7601 MAIN ST", "postcode": "22645"}}},
{"geometry": {"type": "Point", "coordinates": [-78.2810302855, 39.0271640493]}, "type": "Feature", "properties": {"collection_times": [{"days": "Mon-Fri", "time": "4:00pm"}, {"days": "Sat", "time": "11:00am"}, {"days": "Sun", "time": "Closed"}], "id": "2264500003", "name": "USPS COLLECTION BOX - PO LOBBY", "address": {"city": "MIDDLETOWN", "state": "VA", "street": "7922 MAIN ST", "postcode": "22645"}}},
{"geometry": {"type": "Point", "coordinates": [-78.0377654845, 39.068238301]}, "type": "Feature", "properties": {"collection_times": [{"days": "Mon-Fri", "time": "4:20pm"}, {"days": "Sat", "time": "11:30am"}, {"days": "Sun", "time": "Closed"}], "id": "2264600001", "name": "USPS COLLECTION BOX - BLUE BOX", "address": {"city": "MILLWOOD", "state": "VA", "street": "2009 MILLWOOD RD", "postcode": "22646"}}},
{"geometry": {"type": "Point", "coordinates": [-78.0377654845, 39.068238301]}, "type": "Feature", "properties": {"collection_times": [{"days": "Mon-Fri", "time": "4:15pm"}, {"days": "Sat", "time": "12:00pm"}, {"days": "Sun", "time": "Closed"}], "id": "2264600002", "name": "USPS COLLECTION BOX - PO LOBBY", "address": {"city": "MILLWOOD", "state": "VA", "street": "2009 MILLWOOD RD", "postcode": "22646"}}},
{"geometry": {"type": "Point", "coordinates": [-78.3876340748, 38.7633319554]}, "type": "Feature", "properties": {"collection_times": [{"days": "Mon-Fri", "time": "4:15pm"}, {"days": "Sat", "time": "11:30am"}, {"days": "Sun", "time": "Closed"}], "id": "2265000001", "name": "USPS COLLECTION BOX - BLUE BOX", "address": {"city": "RILEYVILLE", "state": "VA", "street": "560 RILEYVILLE RD", "postcode": "22650"}}},
{"geometry": {"type": "Point", "coordinates": [-78.3876340748, 38.7633319554]}, "type": "Feature", "properties": {"collection_times": [{"days": "Mon-Fri", "time": "4:15pm"}, {"days": "Sat", "time": "11:30am"}, {"days": "Sun", "time": "Closed"}], "id": "2265000002", "name": "USPS COLLECTION BOX - PO LOBBY", "address": {"city": "RILEYVILLE", "state": "VA", "street": "560 RILEYVILLE RD", "postcode": "22650"}}},
{"geometry": {"type": "Point", "coordinates": [-78.4160913937, 38.844780038]}, "type": "Feature", "properties": {"collection_times": [{"days": "Mon-Sat", "time": "2:00pm"}, {"days": "Sun", "time": "Closed"}], "id": "2265200001", "name": "USPS COLLECTION BOX - BLUE BOX", "address": {"city": "FORT VALLEY", "state": "VA", "street": "7151 FORT VALLEY RD", "postcode": "22652"}}},
{"geometry": {"type": "Point", "coordinates": [-78.4160913937, 38.844780038]}, "type": "Feature", "properties": {"collection_times": [{"days": "Mon-Sat", "time": "2:15pm"}, {"days": "Sun", "time": "Closed"}], "id": "2265200002", "name": "USPS COLLECTION BOX - PO LOBBY", "address": {"city": "FORT VALLEY", "state": "VA", "street": "7151 FORT VALLEY RD", "postcode": "22652"}}},
{"geometry": {"type": "Point", "coordinates": [-78.4310958147, 39.0763324186]}, "type": "Feature", "properties": {"collection_times": [{"days": "Mon-Sat", "time": "12:30pm"}, {"days": "Sun", "time": "Closed"}], "id": "2265400000", "name": "USPS COLLECTION BOX - BLUE BOX", "address": {"city": "STAR TANNERY", "state": "VA", "street": "2523 GRAVEL SPRINGS RD", "postcode": "22654"}}},
{"geometry": {"type": "Point", "coordinates": [-78.4425797265, 39.0742731593]}, "type": "Feature", "properties": {"collection_times": [{"days": "Mon-Fri", "time": "12:00pm"}, {"days": "Sat", "time": "12:30pm"}, {"days": "Sun", "time": "Closed"}], "id": "2265400001", "name": "USPS COLLECTION BOX - PO LOBBY", "address": {"city": "STAR TANNERY", "state": "VA", "street": "2112 STAR TANNERY RD", "postcode": "22654"}}},
{"geometry": {"type": "Point", "coordinates": [-78.212676747, 39.0894428472]}, "type": "Feature", "properties": {"collection_times": [{"days": "Mon-Fri", "time": "5:00pm"}, {"days": "Sat", "time": "2:30pm"}, {"days": "Sun", "time": "Closed"}], "id": "2265500001", "name": "USPS COLLECTION BOX - BLUE BOX", "address": {"city": "STEPHENS CITY", "state": "VA", "street": "5071 MAIN ST", "postcode": "22655"}}},
{"geometry": {"type": "Point", "coordinates": [-78.190419868, 39.1066928396]}, "type": "Feature", "properties": {"collection_times": [{"days": "Mon-Sat", "time": "9:30am"}, {"days": "Sun", "time": "Closed"}], "id": "2265500002", "name": "USPS COLLECTION BOX - BLUE BOX", "address": {"city": "STEPHENS CITY", "state": "VA", "street": "109 LAKERIDGE DR", "postcode": "22655"}}},
{"geometry": {"type": "Point", "coordinates": [-78.1936742905, 39.1055903981]}, "type": "Feature", "properties": {"collection_times": [{"days": "Mon-Sat", "time": "9:30am"}, {"days": "Sun", "time": "Closed"}], "id": "2265500003", "name": "USPS COLLECTION BOX - BLUE BOX", "address": {"city": "STEPHENS CITY", "state": "VA", "street": "100-1 TIMBERLAKE TER", "postcode": "22655"}}},
{"geometry": {"type": "Point", "coordinates": [-78.2029606796, 39.0807553402]}, "type": "Feature", "properties": {"collection_times": [{"days": "Mon-Sat", "time": "9:30am"}, {"days": "Sun", "time": "Closed"}], "id": "2265500004", "name": "USPS COLLECTION BOX - BLUE BOX", "address": {"city": "STEPHENS CITY", "state": "VA", "street": "358 FAIRFAX PIKE", "postcode": "22655"}}},
{"geometry": {"type": "Point", "coordinates": [-78.212676747, 39.0894428472]}, "type": "Feature", "properties": {"collection_times": [{"days": "Mon-Fri", "time": "5:00pm"}, {"days": "Sat", "time": "2:30pm"}, {"days": "Sun", "time": "Closed"}], "id": "2265500005", "name": "USPS COLLECTION BOX - PO LOBBY", "address": {"city": "STEPHENS CITY", "state": "VA", "street": "5071 MAIN ST", "postcode": "22655"}}},
{"geometry": {"type": "Point", "coordinates": [-78.1128886748, 39.2345664114]}, "type": "Feature", "properties": {"collection_times": [{"days": "Mon-Fri", "time": "4:30pm"}, {"days": "Sat", "time": "11:30am"}, {"days": "Sun", "time": "Closed"}], "id": "2265600001", "name": "USPS COLLECTION BOX - BLUE BOX", "address": {"city": "STEPHENSON", "state": "VA", "street": "2546-2 MARTINSBURG PIKE", "postcode": "22656"}}},
{"geometry": {"type": "Point", "coordinates": [-78.1128886748, 39.2345664114]}, "type": "Feature", "properties": {"collection_times": [{"days": "Mon-Fri", "time": "4:30pm"}, {"days": "Sat", "time": "12:00pm"}, {"days": "Sun", "time": "Closed"}], "id": "2265600002", "name": "USPS COLLECTION BOX - PO LOBBY", "address": {"city": "STEPHENSON", "state": "VA", "street": "2546-2 MARTINSBURG PIKE", "postcode": "22656"}}},
{"geometry": {"type": "Point", "coordinates": [-78.3504357576, 38.997591121]}, "type": "Feature", "properties": {"collection_times": [{"days": "Mon-Sat", "time": "9:00am"}, {"days": "Sun", "time": "Closed"}], "id": "2265700008", "name": "USPS COLLECTION BOX - BLUE BOX", "address": {"city": "STRASBURG", "state": "VA", "street": "792 SHOPPING CENTER RD", "postcode": "22657"}}},
{"geometry": {"type": "Point", "coordinates": [-78.3636541297, 38.9897281062]}, "type": "Feature", "properties": {"collection_times": [{"days": "Mon-Sat", "time": "2:30pm"}, {"days": "Sun", "time": "Closed"}], "id": "2265700009", "name": "USPS COLLECTION BOX - BLUE BOX", "address": {"city": "STRASBURG", "state": "VA", "street": "100 S FORT ST", "postcode": "22657"}}},
{"geometry": {"type": "Point", "coordinates": [-78.3627243354, 38.9895103284]}, "type": "Feature", "properties": {"collection_times": [{"days": "Mon-Fri", "time": "5:00pm"}, {"days": "Sat", "time": "3:00pm"}, {"days": "Sun", "time": "Closed"}], "id": "2265700010", "name": "USPS COLLECTION BOX - BLUE BOX", "address": {"city": "STRASBURG", "state": "VA", "street": "152 W KING ST", "postcode": "22657"}}},
{"geometry": {"type": "Point", "coordinates": [-78.3584988059, 38.9883912492]}, "type": "Feature", "properties": {"collection_times": [{"days": "Mon-Fri", "time": "1:30pm"}, {"days": "Sat", "time": "12:30pm"}, {"days": "Sun", "time": "Closed"}], "id": "2265700013", "name": "USPS COLLECTION BOX - BLUE BOX", "address": {"city": "STRASBURG", "state": "VA", "street": "318 E KING ST", "postcode": "22657"}}},
{"geometry": {"type": "Point", "coordinates": [-78.3627243354, 38.9895103284]}, "type": "Feature", "properties": {"collection_times": [{"days": "Mon-Fri", "time": "4:30pm"}, {"days": "Sat", "time": "3:00pm"}, {"days": "Sun", "time": "Closed"}], "id": "2265700016", "name": "USPS COLLECTION BOX - PO LOBBY", "address": {"city": "STRASBURG", "state": "VA", "street": "152 W KING ST", "postcode": "22657"}}},
{"geometry": {"type": "Point", "coordinates": [-78.4400957665, 38.94639384]}, "type": "Feature", "properties": {"collection_times": [{"days": "Mon-Fri", "time": "4:00pm"}, {"days": "Sat", "time": "11:45am"}, {"days": "Sun", "time": "Closed"}], "id": "2266000001", "name": "USPS COLLECTION BOX - BLUE BOX", "address": {"city": "TOMS BROOK", "state": "VA", "street": "3374 S MAIN ST", "postcode": "22660"}}},
{"geometry": {"type": "Point", "coordinates": [-78.4386371781, 38.9662143175]}, "type": "Feature", "properties": {"collection_times": [{"days": "Mon-Sat", "time": "11:30am"}, {"days": "Sun", "time": "Closed"}], "id": "2266000002", "name": "USPS COLLECTION BOX - BLUE BOX", "address": {"city": "TOMS BROOK", "state": "VA", "street": "1015 MOUNT OLIVE RD", "postcode": "22660"}}},
{"geometry": {"type": "Point", "coordinates": [-78.4387945116, 38.9663160519]}, "type": "Feature", "properties": {"collection_times": [{"days": "Mon-Sat", "time": "11:30am"}, {"days": "Sun", "time": "Closed"}], "id": "2266000004", "name": "USPS COLLECTION BOX - BLUE BOX", "address": {"city": "TOMS BROOK", "state": "VA", "street": "1014 MOUNT OLIVE RD", "postcode": "22660"}}},
{"geometry": {"type": "Point", "coordinates": [-78.4400957665, 38.94639384]}, "type": "Feature", "properties": {"collection_times": [{"days": "Mon-Fri", "time": "4:00pm"}, {"days": "Sat", "time": "12:15pm"}, {"days": "Sun", "time": "Closed"}], "id": "2266000005", "name": "USPS COLLECTION BOX - PO LOBBY", "address": {"city": "TOMS BROOK", "state": "VA", "street": "3374 S MAIN ST", "postcode": "22660"}}},
{"geometry": {"type": "Point", "coordinates": [-78.1061168767, 39.0580758129]}, "type": "Feature", "properties": {"collection_times": [{"days": "Mon-Fri", "time": "4:15pm"}, {"days": "Sat", "time": "12:45pm"}, {"days": "Sun", "time": "Closed"}], "id": "2266300001", "name": "USPS COLLECTION BOX - BLUE BOX", "address": {"city": "WHITE POST", "state": "VA", "street": "14725 LORD FAIRFAX HWY", "postcode": "22663"}}},
{"geometry": {"type": "Point", "coordinates": [-78.1061168767, 39.0580758129]}, "type": "Feature", "properties": {"collection_times": [{"days": "Mon-Fri", "time": "4:15pm"}, {"days": "Sat", "time": "12:45pm"}, {"days": "Sun", "time": "Closed"}], "id": "2266300002", "name": "USPS COLLECTION BOX - PO LOBBY", "address": {"city": "WHITE POST", "state": "VA", "street": "14725 LORD FAIRFAX HWY", "postcode": "22663"}}},
{"geometry": {"type": "Point", "coordinates": [-78.5072913845, 38.881991188]}, "type": "Feature", "properties": {"collection_times": [{"days": "Mon-Fri", "time": "5:00pm"}, {"days": "Sat", "time": "4:00pm"}, {"days": "Sun", "time": "Closed"}], "id": "2266400001", "name": "USPS COLLECTION BOX - BLUE BOX", "address": {"city": "WOODSTOCK", "state": "VA", "street": "120 S MUHLENBERG ST", "postcode": "22664"}}},
{"geometry": {"type": "Point", "coordinates": [-78.5136296787, 38.8664956085]}, "type": "Feature", "properties": {"collection_times": [{"days": "Mon-Sat", "time": "9:00am"}, {"days": "Sun", "time": "Closed"}], "id": "2266400003", "name": "USPS COLLECTION BOX - BLUE BOX", "address": {"city": "WOODSTOCK", "state": "VA", "street": "170 E RESERVOIR RD", "postcode": "22664"}}},
{"geometry": {"type": "Point", "coordinates": [-78.5207416384, 38.8632818735]}, "type": "Feature", "properties": {"collection_times": [{"days": "Mon-Sat", "time": "11:30am"}, {"days": "Sun", "time": "Closed"}], "id": "2266400005", "name": "USPS COLLECTION BOX - BLUE BOX", "address": {"city": "WOODSTOCK", "state": "VA", "street": "1101 S MAIN ST", "postcode": "22664"}}},
{"geometry": {"type": "Point", "coordinates": [-78.5052249471, 38.8818524697]}, "type": "Feature", "properties": {"collection_times": [{"days": "Mon-Sat", "time": "10:00am"}, {"days": "Sun", "time": "Closed"}], "id": "2266400006", "name": "USPS COLLECTION BOX - BLUE BOX", "address": {"city": "WOODSTOCK", "state": "VA", "street": "100 N MAIN ST", "postcode": "22664"}}},
{"geometry": {"type": "Point", "coordinates": [-78.5006391439, 38.8876428334]}, "type": "Feature", "properties": {"collection_times": [{"days": "Mon-Sat", "time": "10:00am"}, {"days": "Sun", "time": "Closed"}], "id": "2266400007", "name": "USPS COLLECTION BOX - BLUE BOX", "address": {"city": "WOODSTOCK", "state": "VA", "street": "476 N MAIN ST", "postcode": "22664"}}},
{"geometry": {"type": "Point", "coordinates": [-78.4996471037, 38.8889126809]}, "type": "Feature", "properties": {"collection_times": [{"days": "Mon-Fri", "time": "10:00am"}, {"days": "Sat", "time": "9:00am"}, {"days": "Sun", "time": "Closed"}], "id": "2266400018", "name": "USPS COLLECTION BOX - BLUE BOX", "address": {"city": "WOODSTOCK", "state": "VA", "street": "600 N MAIN ST", "postcode": "22664"}}},
{"geometry": {"type": "Point", "coordinates": [-78.5305649192, 38.8724731002]}, "type": "Feature", "properties": {"collection_times": [{"days": "Mon-Sat", "time": "10:30am"}, {"days": "Sun", "time": "Closed"}], "id": "2266400020", "name": "USPS COLLECTION BOX - BLUE BOX", "address": {"city": "WOODSTOCK", "state": "VA", "street": "465 W RESERVOIR RD", "postcode": "22664"}}},
{"geometry": {"type": "Point", "coordinates": [-78.5072913845, 38.881991188]}, "type": "Feature", "properties": {"collection_times": [{"days": "Mon-Fri", "time": "4:45pm"}, {"days": "Sat", "time": "4:00pm"}, {"days": "Sun", "time": "Closed"}], "id": "2266400021", "name": "USPS COLLECTION BOX - PO LOBBY", "address": {"city": "WOODSTOCK", "state": "VA", "street": "120 S MUHLENBERG ST", "postcode": "22664"}}}
]}
