{"type": "FeatureCollection", "features": [
{"geometry": {"type": "Point", "coordinates": [-77.9760915512, 38.4820131728]}, "type": "Feature", "properties": {"collection_times": [{"days": "Mon-Fri", "time": "4:45pm"}, {"days": "Sat", "time": "4:00pm"}, {"days": "Sun", "time": "Closed"}], "id": "2270100001", "name": "USPS COLLECTION BOX - BLUE BOX", "address": {"city": "CULPEPER", "state": "VA", "street": "723 DOMINION SQ SHOPPING CTR", "postcode": "22701"}}},
{"geometry": {"type": "Point", "coordinates": [-77.9968552378, 38.4713920461]}, "type": "Feature", "properties": {"collection_times": [{"days": "Mon-Fri", "time": "4:45pm"}, {"days": "Sat", "time": "4:15pm"}, {"days": "Sun", "time": "Closed"}], "id": "2270100003", "name": "USPS COLLECTION BOX - BLUE BOX", "address": {"city": "CULPEPER", "state": "VA", "street": "400 S MAIN ST", "postcode": "22701"}}},
{"geometry": {"type": "Point", "coordinates": [-78.0110473896, 38.4590088763]}, "type": "Feature", "properties": {"collection_times": [{"days": "Mon-Fri", "time": "5:00pm"}, {"days": "Sat", "time": "4:15pm"}, {"days": "Sun", "time": "Closed"}], "id": "2270100005", "name": "USPS COLLECTION BOX - BLUE BOX", "address": {"city": "CULPEPER", "state": "VA", "street": "517 MEADOWBROOK SHOPPING CTR", "postcode": "22701"}}},
{"geometry": {"type": "Point", "coordinates": [-77.9956265308, 38.4747279278]}, "type": "Feature", "properties": {"collection_times": [{"days": "Mon-Fri", "time": "4:45pm"}, {"days": "Sat", "time": "4:00pm"}, {"days": "Sun", "time": "Closed"}], "id": "2270100008", "name": "USPS COLLECTION BOX - BLUE BOX", "address": {"city": "CULPEPER", "state": "VA", "street": "302 N MAIN ST", "postcode": "22701"}}},
{"geometry": {"type": "Point", "coordinates": [-77.9760915512, 38.4820131728]}, "type": "Feature", "properties": {"collection_times": [{"days": "Mon-Fri", "time": "4:45pm"}, {"days": "Sat", "time": "4:00pm"}, {"days": "Sun", "time": "Closed"}], "id": "2270100010", "name": "USPS COLLECTION BOX - BLUE BOX", "address": {"city": "CULPEPER", "state": "VA", "street": "723 DOMINION SQ SHOPPING CTR", "postcode": "22701"}}},
{"geometry": {"type": "Point", "coordinates": [-78.0178786281, 38.456860188]}, "type": "Feature", "properties": {"collection_times": [{"days": "Mon-Fri", "time": "5:00pm"}, {"days": "Sat", "time": "4:15pm"}, {"days": "Sun", "time": "Closed"}], "id": "2270100013", "name": "USPS COLLECTION BOX - BLUE BOX", "address": {"city": "CULPEPER", "state": "VA", "street": "763 MADISON RD", "postcode": "22701"}}},
{"geometry": {"type": "Point", "coordinates": [-77.9961346233, 38.4734078877]}, "type": "Feature", "properties": {"collection_times": [{"days": "Mon-Fri", "time": "4:45pm"}, {"days": "Sat", "time": "4:00pm"}, {"days": "Sun", "time": "Closed"}], "id": "2270100014", "name": "USPS COLLECTION BOX - BLUE BOX", "address": {"city": "CULPEPER", "state": "VA", "street": "106 W DAVIS ST", "postcode": "22701"}}},
{"geometry": {"type": "Point", "coordinates": [-78.0017716152, 38.4632450077]}, "type": "Feature", "properties": {"collection_times": [{"days": "Mon-Fri", "time": "5:00pm"}, {"days": "Sat", "time": "4:15pm"}, {"days": "Sun", "time": "Closed"}], "id": "2270100016", "name": "USPS COLLECTION BOX - BLUE BOX", "address": {"city": "CULPEPER", "state": "VA", "street": "231 SOUTHGATE SHOPPING CTR", "postcode": "22701"}}},
{"geometry": {"type": "Point", "coordinates": [-77.9749563014, 38.4821486919]}, "type": "Feature", "properties": {"collection_times": [{"days": "Mon-Fri", "time": "4:45pm"}, {"days": "Sat", "time": "4:00pm"}, {"days": "Sun", "time": "Closed"}], "id": "2270100018", "name": "USPS COLLECTION BOX - BLUE BOX", "address": {"city": "CULPEPER", "state": "VA", "street": "801 JAMES MADISON HWY", "postcode": "22701"}}},
{"geometry": {"type": "Point", "coordinates": [-77.9965713276, 38.4721574205]}, "type": "Feature", "properties": {"collection_times": [{"days": "Mon-Fri", "time": "5:15pm"}, {"days": "Sat", "time": "4:30pm"}, {"days": "Sun", "time": "Closed"}], "id": "2270100024", "name": "USPS COLLECTION BOX - BLUE BOX", "address": {"city": "CULPEPER", "state": "VA", "street": "205 S MAIN ST", "postcode": "22701"}}},
{"geometry": {"type": "Point", "coordinates": [-78.0153356261, 38.4604577392]}, "type": "Feature", "properties": {"collection_times": [{"days": "Mon-Fri", "time": "5:00pm"}, {"days": "Sat", "time": "4:15pm"}, {"days": "Sun", "time": "Closed"}], "id": "2270100027", "name": "USPS COLLECTION BOX - BLUE BOX", "address": {"city": "CULPEPER", "state": "VA", "street": "1450 SUNSET LN", "postcode": "22701"}}},
{"geometry": {"type": "Point", "coordinates": [-77.9965713276, 38.4721574205]}, "type": "Feature", "properties": {"collection_times": [{"days": "Mon-Fri", "time": "5:30pm"}, {"days": "Sat", "time": "4:30pm"}, {"days": "Sun", "time": "Closed"}], "id": "2270100028", "name": "USPS COLLECTION BOX - PO LOBBY", "address": {"city": "CULPEPER", "state": "VA", "street": "205 S MAIN ST", "postcode": "22701"}}},
{"geometry": {"type": "Point", "coordinates": [-77.7615491749, 38.5770915431]}, "type": "Feature", "properties": {"collection_times": [{"days": "Mon-Fri", "time": "4:00pm"}, {"days": "Sat", "time": "3:00pm"}, {"days": "Sun", "time": "Closed"}], "id": "2271200000", "name": "USPS COLLECTION BOX - BLUE BOX", "address": {"city": "BEALETON", "state": "VA", "street": "6189 STATION DR", "postcode": "22712"}}},
{"geometry": {"type": "Point", "coordinates": [-77.7620256501, 38.5822445159]}, "type": "Feature", "properties": {"collection_times": [{"days": "Mon-Fri", "time": "10:00am"}, {"days": "Sat", "time": "9:00am"}, {"days": "Sun", "time": "Closed"}], "id": "2271200001", "name": "USPS COLLECTION BOX - BLUE BOX", "address": {"city": "BEALETON", "state": "VA", "street": "6370 VILLAGE CENTER DR", "postcode": "22712"}}},
{"geometry": {"type": "Point", "coordinates": [-77.7615491749, 38.5770915431]}, "type": "Feature", "properties": {"collection_times": [{"days": "Mon-Fri", "time": "5:00pm"}, {"days": "Sat", "time": "12:00pm"}, {"days": "Sun", "time": "Closed"}], "id": "2271200005", "name": "USPS COLLECTION BOX - PO LOBBY", "address": {"city": "BEALETON", "state": "VA", "street": "6189 STATION DR", "postcode": "22712"}}},
{"geometry": {"type": "Point", "coordinates": [-78.1281589511, 38.5420975034]}, "type": "Feature", "properties": {"collection_times": [{"days": "Mon-Fri", "time": "3:45pm"}, {"days": "Sat", "time": "11:00am"}, {"days": "Sun", "time": "Closed"}], "id": "2271300001", "name": "USPS COLLECTION BOX - BLUE BOX", "address": {"city": "BOSTON", "state": "VA", "street": "6276 SPERRYVILLE PIKE", "postcode": "22713"}}},
{"geometry": {"type": "Point", "coordinates": [-77.8965462323, 38.5007767468]}, "type": "Feature", "properties": {"collection_times": [{"days": "Mon-Fri", "time": "4:00pm"}, {"days": "Sat", "time": "12:00pm"}, {"days": "Sun", "time": "Closed"}], "id": "2271400001", "name": "USPS COLLECTION BOX - BLUE BOX", "address": {"city": "BRANDY STATION", "state": "VA", "street": "19329 BRANDY RD", "postcode": "22714"}}},
{"geometry": {"type": "Point", "coordinates": [-77.8965462323, 38.5007767468]}, "type": "Feature", "properties": {"collection_times": [{"days": "Mon-Fri", "time": "4:00pm"}, {"days": "Sat", "time": "12:30pm"}, {"days": "Sun", "time": "Closed"}], "id": "2271400002", "name": "USPS COLLECTION BOX - PO LOBBY", "address": {"city": "BRANDY STATION", "state": "VA", "street": "19329 BRANDY RD", "postcode": "22714"}}},
{"geometry": {"type": "Point", "coordinates": [-78.1937223641, 38.420200184]}, "type": "Feature", "properties": {"collection_times": [{"days": "Mon-Fri", "time": "4:00pm"}, {"days": "Sat", "time": "11:30am"}, {"days": "Sun", "time": "Closed"}], "id": "2271500000", "name": "USPS COLLECTION BOX - BLUE BOX", "address": {"city": "BRIGHTWOOD", "state": "VA", "street": "4362 N SEMINOLE TRL", "postcode": "22715"}}},
{"geometry": {"type": "Point", "coordinates": [-78.1937223641, 38.420200184]}, "type": "Feature", "properties": {"collection_times": [{"days": "Mon-Fri", "time": "3:45pm"}, {"days": "Sat", "time": "11:30am"}, {"days": "Sun", "time": "Closed"}], "id": "2271500001", "name": "USPS COLLECTION BOX - PO LOBBY", "address": {"city": "BRIGHTWOOD", "state": "VA", "street": "4362 N SEMINOLE TRL", "postcode": "22715"}}},
{"geometry": {"type": "Point", "coordinates": [-77.8519368131, 38.5140598116]}, "type": "Feature", "properties": {"collection_times": [{"days": "Mon-Fri", "time": "1:15pm"}, {"days": "Sat", "time": "12:45pm"}, {"days": "Sun", "time": "Closed"}], "id": "2271800001", "name": "USPS COLLECTION BOX - PO LOBBY", "address": {"city": "ELKWOOD", "state": "VA", "street": "22098 JAMES MADISON HWY", "postcode": "22718"}}},
{"geometry": {"type": "Point", "coordinates": [-77.8146837673, 38.4469034409]}, "type": "Feature", "properties": {"collection_times": [{"days": "Mon-Fri", "time": "4:00pm"}, {"days": "Sat", "time": "11:45am"}, {"days": "Sun", "time": "Closed"}], "id": "2271800002", "name": "USPS COLLECTION BOX - BLUE BOX", "address": {"city": "ELKWOOD", "state": "VA", "street": "22098 JAMES MADISON HWY", "postcode": "22718"}}},
{"geometry": {"type": "Point", "coordinates": [-78.3854060029, 38.3536075931]}, "type": "Feature", "properties": {"collection_times": [{"days": "Mon-Sat", "time": "11:30am"}, {"days": "Sun", "time": "Closed"}], "id": "2272300001", "name": "USPS COLLECTION BOX - BLUE BOX", "address": {"city": "HOOD", "state": "VA", "street": "1815 WOLFTOWN HOOD RD", "postcode": "22723"}}},
{"geometry": {"type": "Point", "coordinates": [-78.3854060029, 38.3536075931]}, "type": "Feature", "properties": {"collection_times": [{"days": "Mon-Sat", "time": "11:30am"}, {"days": "Sun", "time": "Closed"}], "id": "2272300002", "name": "USPS COLLECTION BOX - PO LOBBY", "address": {"city": "HOOD", "state": "VA", "street": "1815 WOLFTOWN HOOD RD", "postcode": "22723"}}},
{"geometry": {"type": "Point", "coordinates": [-77.914976733, 38.6340642822]}, "type": "Feature", "properties": {"collection_times": [{"days": "Mon-Fri", "time": "4:00pm"}, {"days": "Sat", "time": "12:00pm"}, {"days": "Sun", "time": "Closed"}], "id": "2272400000", "name": "USPS COLLECTION BOX - BLUE BOX", "address": {"city": "JEFFERSONTON", "state": "VA", "street": "5073 JEFFERSONTON RD", "postcode": "22724"}}},
{"geometry": {"type": "Point", "coordinates": [-77.914976733, 38.6340642822]}, "type": "Feature", "properties": {"collection_times": [{"days": "Mon-Fri", "time": "4:00pm"}, {"days": "Sat", "time": "12:00pm"}, {"days": "Sun", "time": "Closed"}], "id": "2272400001", "name": "USPS COLLECTION BOX - PO LOBBY", "address": {"city": "JEFFERSONTON", "state": "VA", "street": "5073 JEFFERSONTON RD", "postcode": "22724"}}},
{"geometry": {"type": "Point", "coordinates": [-77.8267279942, 38.415813085]}, "type": "Feature", "properties": {"collection_times": [{"days": "Mon-Fri", "time": "4:30pm"}, {"days": "Sat", "time": "12:00pm"}, {"days": "Sun", "time": "Closed"}], "id": "2272600000", "name": "USPS COLLECTION BOX - BLUE BOX", "address": {"city": "LIGNUM", "state": "VA", "street": "23395 LIGNUM RD", "postcode": "22726"}}},
{"geometry": {"type": "Point", "coordinates": [-77.8267279942, 38.415813085]}, "type": "Feature", "properties": {"collection_times": [{"days": "Mon-Fri", "time": "4:30pm"}, {"days": "Sat", "time": "12:00pm"}, {"days": "Sun", "time": "Closed"}], "id": "2272600001", "name": "USPS COLLECTION BOX - PO LOBBY", "address": {"city": "LIGNUM", "state": "VA", "street": "23395 LIGNUM RD", "postcode": "22726"}}},
{"geometry": {"type": "Point", "coordinates": [-78.2584381898, 38.379711221]}, "type": "Feature", "properties": {"collection_times": [{"days": "Mon-Sat", "time": "1:00pm"}, {"days": "Sun", "time": "Closed"}], "id": "2272700001", "name": "USPS COLLECTION BOX - BLUE BOX", "address": {"city": "MADISON", "state": "VA", "street": "97 COURT SQ", "postcode": "22727"}}},
{"geometry": {"type": "Point", "coordinates": [-78.2468552018, 38.3892603302]}, "type": "Feature", "properties": {"collection_times": [{"days": "Mon-Fri", "time": "4:45pm"}, {"days": "Sat", "time": "2:00pm"}, {"days": "Sun", "time": "Closed"}], "id": "2272700003", "name": "USPS COLLECTION BOX - BLUE BOX", "address": {"city": "MADISON", "state": "VA", "street": "1438 N MAIN ST", "postcode": "22727"}}},
{"geometry": {"type": "Point", "coordinates": [-78.2233771922, 38.371163826]}, "type": "Feature", "properties": {"collection_times": [{"days": "Mon-Sat", "time": "9:00am"}, {"days": "Sun", "time": "Closed"}], "id": "2272700005", "name": "USPS COLLECTION BOX - BLUE BOX", "address": {"city": "MADISON", "state": "VA", "street": "100 MALVERN DR", "postcode": "22727"}}},
{"geometry": {"type": "Point", "coordinates": [-78.3179229772, 38.4120501638]}, "type": "Feature", "properties": {"collection_times": [{"days": "Mon-Sat", "time": "9:30am"}, {"days": "Sun", "time": "Closed"}], "id": "2272700006", "name": "USPS COLLECTION BOX - BLUE BOX", "address": {"city": "MADISON", "state": "VA", "street": "16 MADISON PLAZA DR", "postcode": "22727"}}},
{"geometry": {"type": "Point", "coordinates": [-78.2468552018, 38.3892603302]}, "type": "Feature", "properties": {"collection_times": [{"days": "Mon-Fri", "time": "4:45pm"}, {"days": "Sat", "time": "2:00pm"}, {"days": "Sun", "time": "Closed"}], "id": "2272700007", "name": "USPS COLLECTION BOX - PO LOBBY", "address": {"city": "MADISON", "state": "VA", "street": "1438 N MAIN ST", "postcode": "22727"}}},
{"geometry": {"type": "Point", "coordinates": [-77.7248018839, 38.5986488567]}, "type": "Feature", "properties": {"collection_times": [{"days": "Mon-Fri", "time": "1:00pm"}, {"days": "Sat", "time": "12:00pm"}, {"days": "Sun", "time": "Closed"}], "id": "2272800000", "name": "USPS COLLECTION BOX - PO LOBBY", "address": {"city": "MIDLAND", "state": "VA", "street": "5473 MIDLAND RD", "postcode": "22728"}}},
{"geometry": {"type": "Point", "coordinates": [-77.7248018839, 38.5986488567]}, "type": "Feature", "properties": {"collection_times": [{"days": "Mon-Fri", "time": "4:15pm"}, {"days": "Sat", "time": "11:30am"}, {"days": "Sun", "time": "Closed"}], "id": "2272800001", "name": "USPS COLLECTION BOX - BLUE BOX", "address": {"city": "MIDLAND", "state": "VA", "street": "5473 MIDLAND RD", "postcode": "22728"}}},
{"geometry": {"type": "Point", "coordinates": [-77.6101897216, 38.5217009249]}, "type": "Feature", "properties": {"collection_times": [{"days": "Mon-Sat", "time": "12:00pm"}, {"days": "Sun", "time": "Closed"}], "id": "2272800002", "name": "USPS COLLECTION BOX - BLUE BOX", "address": {"city": "MIDLAND", "state": "VA", "street": "2392 MIDLAND RD", "postcode": "22728"}}},
{"geometry": {"type": "Point", "coordinates": [-78.0379961847, 38.3776259867]}, "type": "Feature", "properties": {"collection_times": [{"days": "Mon-Fri", "time": "4:00pm"}, {"days": "Sat", "time": "12:30pm"}, {"days": "Sun", "time": "Closed"}], "id": "2272900000", "name": "USPS COLLECTION BOX - BLUE BOX", "address": {"city": "MITCHELLS", "state": "VA", "street": "11320 MITCHELL RD", "postcode": "22729"}}},
{"geometry": {"type": "Point", "coordinates": [-78.0379961847, 38.3776259867]}, "type": "Feature", "properties": {"collection_times": [{"days": "Mon-Sat", "time": "12:45pm"}, {"days": "Sun", "time": "Closed"}], "id": "2272900001", "name": "USPS COLLECTION BOX - PO LOBBY", "address": {"city": "MITCHELLS", "state": "VA", "street": "11320 MITCHELL RD", "postcode": "22729"}}},
{"geometry": {"type": "Point", "coordinates": [-78.1596440503, 38.3663417582]}, "type": "Feature", "properties": {"collection_times": [{"days": "Mon-Sat", "time": "9:00am"}, {"days": "Sun", "time": "Closed"}], "id": "2273000000", "name": "USPS COLLECTION BOX - BLUE BOX", "address": {"city": "OAK PARK", "state": "VA", "street": "6321 OAK PARK RD", "postcode": "22730"}}},
{"geometry": {"type": "Point", "coordinates": [-78.2730304331, 38.3535891229]}, "type": "Feature", "properties": {"collection_times": [{"days": "Mon-Fri", "time": "1:15pm"}, {"days": "Sat", "time": "11:30am"}, {"days": "Sun", "time": "Closed"}], "id": "2273100001", "name": "USPS COLLECTION BOX - BLUE BOX", "address": {"city": "PRATTS", "state": "VA", "street": "623 ORANGE RD", "postcode": "22731"}}},
{"geometry": {"type": "Point", "coordinates": [-78.2730304331, 38.3535891229]}, "type": "Feature", "properties": {"collection_times": [{"days": "Mon-Sat", "time": "12:00pm"}, {"days": "Sun", "time": "Closed"}], "id": "2273100002", "name": "USPS COLLECTION BOX - PO LOBBY", "address": {"city": "PRATTS", "state": "VA", "street": "623 ORANGE RD", "postcode": "22731"}}},
{"geometry": {"type": "Point", "coordinates": [-78.2046798639, 38.312262766]}, "type": "Feature", "properties": {"collection_times": [{"days": "Mon-Sat", "time": "1:00pm"}, {"days": "Sun", "time": "Closed"}], "id": "2273200001", "name": "USPS COLLECTION BOX - BLUE BOX", "address": {"city": "RADIANT", "state": "VA", "street": "379 RADIANT WAY", "postcode": "22732"}}},
{"geometry": {"type": "Point", "coordinates": [-78.066726709, 38.3139756966]}, "type": "Feature", "properties": {"collection_times": [{"days": "Mon-Fri", "time": "2:00pm"}, {"days": "Sat", "time": "12:00pm"}, {"days": "Sun", "time": "Closed"}], "id": "2273300001", "name": "USPS COLLECTION BOX - PO LOBBY", "address": {"city": "RAPIDAN", "state": "VA", "street": "9767 LOCUST DALE RD", "postcode": "22733"}}},
{"geometry": {"type": "Point", "coordinates": [-78.066726709, 38.3139756966]}, "type": "Feature", "properties": {"collection_times": [{"days": "Mon-Fri", "time": "4:00pm"}, {"days": "Sat", "time": "11:30am"}, {"days": "Sun", "time": "Closed"}], "id": "2273300002", "name": "USPS COLLECTION BOX - BLUE BOX", "address": {"city": "RAPIDAN", "state": "VA", "street": "9767 LOCUST DALE RD", "postcode": "22733"}}},
{"geometry": {"type": "Point", "coordinates": [-77.8067099626, 38.53686291]}, "type": "Feature", "properties": {"collection_times": [{"days": "Mon-Fri", "time": "4:00pm"}, {"days": "Sat", "time": "10:30am"}, {"days": "Sun", "time": "Closed"}], "id": "2273400001", "name": "USPS COLLECTION BOX - BLUE BOX", "address": {"city": "REMINGTON", "state": "VA", "street": "501 N JAMES MADISON ST", "postcode": "22734"}}},
{"geometry": {"type": "Point", "coordinates": [-77.8067099626, 38.53686291]}, "type": "Feature", "properties": {"collection_times": [{"days": "Mon-Fri", "time": "4:00pm"}, {"days": "Sat", "time": "10:30am"}, {"days": "Sun", "time": "Closed"}], "id": "2273400002", "name": "USPS COLLECTION BOX - PO LOBBY", "address": {"city": "REMINGTON", "state": "VA", "street": "501 N JAMES MADISON ST", "postcode": "22734"}}},
{"geometry": {"type": "Point", "coordinates": [-78.1574467308, 38.4843340221]}, "type": "Feature", "properties": {"collection_times": [{"days": "Mon-Fri", "time": "4:15pm"}, {"days": "Sat", "time": "11:30am"}, {"days": "Sun", "time": "Closed"}], "id": "2273500001", "name": "USPS COLLECTION BOX - BLUE BOX", "address": {"city": "REVA", "state": "VA", "street": "7005 JAMES MONROE HWY", "postcode": "22735"}}},
{"geometry": {"type": "Point", "coordinates": [-77.9776605456, 38.5809659861]}, "type": "Feature", "properties": {"collection_times": [{"days": "Mon-Fri", "time": "4:15pm"}, {"days": "Sat", "time": "10:45am"}, {"days": "Sun", "time": "Closed"}], "id": "2273700000", "name": "USPS COLLECTION BOX - BLUE BOX", "address": {"city": "RIXEYVILLE", "state": "VA", "street": "8623 RIXEYVILLE RD", "postcode": "22737"}}},
{"geometry": {"type": "Point", "coordinates": [-77.9776605456, 38.5809659861]}, "type": "Feature", "properties": {"collection_times": [{"days": "Mon-Fri", "time": "4:15pm"}, {"days": "Sat", "time": "10:45am"}, {"days": "Sun", "time": "Closed"}], "id": "2273700001", "name": "USPS COLLECTION BOX - PO LOBBY", "address": {"city": "RIXEYVILLE", "state": "VA", "street": "8623 RIXEYVILLE RD", "postcode": "22737"}}},
{"geometry": {"type": "Point", "coordinates": [-78.2733149739, 38.2890961018]}, "type": "Feature", "properties": {"collection_times": [{"days": "Mon-Sat", "time": "12:30pm"}, {"days": "Sun", "time": "Closed"}], "id": "2273800000", "name": "USPS COLLECTION BOX - BLUE BOX", "address": {"city": "ROCHELLE", "state": "VA", "street": "4225 JACKS SHOP RD", "postcode": "22738"}}},
{"geometry": {"type": "Point", "coordinates": [-78.2366090858, 38.6101440168]}, "type": "Feature", "properties": {"collection_times": [{"days": "Mon-Fri", "time": "4:00pm"}, {"days": "Sat", "time": "12:00pm"}, {"days": "Sun", "time": "Closed"}], "id": "2274000001", "name": "USPS COLLECTION BOX - BLUE BOX", "address": {"city": "SPERRYVILLE", "state": "VA", "street": "43 MAIN ST", "postcode": "22740"}}},
{"geometry": {"type": "Point", "coordinates": [-78.2366090858, 38.6101440168]}, "type": "Feature", "properties": {"collection_times": [{"days": "Mon-Fri", "time": "4:30pm"}, {"days": "Sat", "time": "12:00pm"}, {"days": "Sun", "time": "Closed"}], "id": "2274000002", "name": "USPS COLLECTION BOX - PO LOBBY", "address": {"city": "SPERRYVILLE", "state": "VA", "street": "43 MAIN ST", "postcode": "22740"}}},
{"geometry": {"type": "Point", "coordinates": [-77.897190945, 38.4411840059]}, "type": "Feature", "properties": {"collection_times": [{"days": "Mon-Fri", "time": "4:30pm"}, {"days": "Sat", "time": "1:00pm"}, {"days": "Sun", "time": "Closed"}], "id": "2274100000", "name": "USPS COLLECTION BOX - BLUE BOX", "address": {"city": "STEVENSBURG", "state": "VA", "street": "19312 GERMANNA HWY", "postcode": "22741"}}},
{"geometry": {"type": "Point", "coordinates": [-77.7268022675, 38.4551736787]}, "type": "Feature", "properties": {"collection_times": [{"days": "Mon-Fri", "time": "3:00pm"}, {"days": "Sat", "time": "12:00pm"}, {"days": "Sun", "time": "Closed"}], "id": "2274200000", "name": "USPS COLLECTION BOX - BLUE BOX", "address": {"city": "SUMERDUCK", "state": "VA", "street": "5338 SUMERDUCK RD", "postcode": "22742"}}},
{"geometry": {"type": "Point", "coordinates": [-77.7268022675, 38.4551736787]}, "type": "Feature", "properties": {"collection_times": [{"days": "Mon-Fri", "time": "3:30pm"}, {"days": "Sat", "time": "12:30pm"}, {"days": "Sun", "time": "Closed"}], "id": "2274200001", "name": "USPS COLLECTION BOX - PO LOBBY", "address": {"city": "SUMERDUCK", "state": "VA", "street": "5338 SUMERDUCK RD", "postcode": "22742"}}},
{"geometry": {"type": "Point", "coordinates": [-78.16000307, 38.713182785]}, "type": "Feature", "properties": {"collection_times": [{"days": "Mon-Fri", "time": "3:30pm"}, {"days": "Sat", "time": "11:00am"}, {"days": "Sun", "time": "Closed"}], "id": "2274700000", "name": "USPS COLLECTION BOX - PO LOBBY", "address": {"city": "WASHINGTON", "state": "VA", "street": "389 MAIN ST STE B", "postcode": "22747"}}},
{"geometry": {"type": "Point", "coordinates": [-78.16000307, 38.713182785]}, "type": "Feature", "properties": {"collection_times": [{"days": "Mon-Fri", "time": "3:30pm"}, {"days": "Sat", "time": "11:00am"}, {"days": "Sun", "time": "Closed"}], "id": "2274700001", "name": "USPS COLLECTION BOX - BLUE BOX", "address": {"city": "WASHINGTON", "state": "VA", "street": "389 MAIN ST STE B", "postcode": "22747"}}},
{"geometry": {"type": "Point", "coordinates": [-78.3480436194, 38.3557430329]}, "type": "Feature", "properties": {"collection_times": [{"days": "Mon-Sat", "time": "12:00pm"}, {"days": "Sun", "time": "Closed"}], "id": "2274800000", "name": "USPS COLLECTION BOX - BLUE BOX", "address": {"city": "WOLFTOWN", "state": "VA", "street": "216 RAPIDAN CHURCH LN", "postcode": "22748"}}},
{"geometry": {"type": "Point", "coordinates": [-78.3480436194, 38.3557430329]}, "type": "Feature", "properties": {"collection_times": [{"days": "Mon-Fri", "time": "12:00pm"}, {"days": "Sat", "time": "10:30am"}, {"days": "Sun", "time": "Closed"}], "id": "2274800002", "name": "USPS COLLECTION BOX - PO LOBBY", "address": {"city": "WOLFTOWN", "state": "VA", "street": "216 RAPIDAN CHURCH LN", "postcode": "22748"}}}
]}
