{"type": "FeatureCollection", "features": [
{"geometry": {"type": "Point", "coordinates": [-78.855004651, 38.443363686]}, "type": "Feature", "properties": {"collection_times": [{"days": "Mon-Fri", "time": "4:45pm"}, {"days": "Sat", "time": "3:45pm"}, {"days": "Sun", "time": "Closed"}], "id": "2280100007", "name": "USPS COLLECTION BOX - BLUE BOX", "address": {"city": "HARRISONBURG", "state": "VA", "street": "31 S CARLTON ST", "postcode": "22801"}}},
{"geometry": {"type": "Point", "coordinates": [-78.846751602, 38.427054559]}, "type": "Feature", "properties": {"collection_times": [{"days": "Mon-Fri", "time": "4:15pm"}, {"days": "Sat", "time": "3:45pm"}, {"days": "Sun", "time": "Closed"}], "id": "2280100011", "name": "USPS COLLECTION BOX - BLUE BOX", "address": {"city": "HARRISONBURG", "state": "VA", "street": "182 NEFF AVE", "postcode": "22801"}}},
{"geometry": {"type": "Point", "coordinates": [-78.842249196, 38.430004491]}, "type": "Feature", "properties": {"collection_times": [{"days": "Mon-Fri", "time": "4:15pm"}, {"days": "Sat", "time": "3:45pm"}, {"days": "Sun", "time": "Closed"}], "id": "2280100013", "name": "USPS COLLECTION BOX - BLUE BOX", "address": {"city": "HARRISONBURG", "state": "VA", "street": "1925 E MARKET ST", "postcode": "22801"}}},
{"geometry": {"type": "Point", "coordinates": [-78.88147595, 38.434041854]}, "type": "Feature", "properties": {"collection_times": [{"days": "Mon-Fri", "time": "4:30pm"}, {"days": "Sat", "time": "4:00pm"}, {"days": "Sun", "time": "Closed"}], "id": "2280100028", "name": "USPS COLLECTION BOX - BLUE BOX", "address": {"city": "HARRISONBURG", "state": "VA", "street": "1356 S MAIN ST", "postcode": "22801"}}},
{"geometry": {"type": "Point", "coordinates": [-78.870881212, 38.444456103]}, "type": "Feature", "properties": {"collection_times": [{"days": "Mon-Fri", "time": "4:45pm"}, {"days": "Sat", "time": "4:00pm"}, {"days": "Sun", "time": "Closed"}], "id": "2280100033", "name": "USPS COLLECTION BOX - BLUE BOX", "address": {"city": "HARRISONBURG", "state": "VA", "street": "501 S MAIN ST", "postcode": "22801"}}},
{"geometry": {"type": "Point", "coordinates": [-78.868783433, 38.4488393]}, "type": "Feature", "properties": {"collection_times": [{"days": "Mon-Fri", "time": "4:45pm"}, {"days": "Sat", "time": "4:00pm"}, {"days": "Sun", "time": "Closed"}], "id": "2280100036", "name": "USPS COLLECTION BOX - BLUE BOX", "address": {"city": "HARRISONBURG", "state": "VA", "street": "57 S MAIN ST", "postcode": "22801"}}},
{"geometry": {"type": "Point", "coordinates": [-78.853116509, 38.417922708]}, "type": "Feature", "properties": {"collection_times": [{"days": "Mon-Sat", "time": "10:00am"}, {"days": "Sun", "time": "Closed"}], "id": "2280100045", "name": "USPS COLLECTION BOX - BLUE BOX", "address": {"city": "HARRISONBURG", "state": "VA", "street": "2389 BRECKENRIDGE CT", "postcode": "22801"}}},
{"geometry": {"type": "Point", "coordinates": [-78.882915511, 38.433817679]}, "type": "Feature", "properties": {"collection_times": [{"days": "Mon-Sat", "time": "1:00pm"}, {"days": "Sun", "time": "Closed"}], "id": "2280100047", "name": "USPS COLLECTION BOX - BLUE BOX", "address": {"city": "HARRISONBURG", "state": "VA", "street": "11 SOUTH AVE", "postcode": "22801"}}},
{"geometry": {"type": "Point", "coordinates": [-78.848214329, 38.429857636]}, "type": "Feature", "properties": {"collection_times": [{"days": "Mon-Fri", "time": "4:15pm"}, {"days": "Sat", "time": "3:45pm"}, {"days": "Sun", "time": "Closed"}], "id": "2280100051", "name": "USPS COLLECTION BOX - BLUE BOX", "address": {"city": "HARRISONBURG", "state": "VA", "street": "129 UNIVERSITY BLVD", "postcode": "22801"}}},
{"geometry": {"type": "Point", "coordinates": [-78.869609787, 38.449197116]}, "type": "Feature", "properties": {"collection_times": [{"days": "Mon-Fri", "time": "4:45pm"}, {"days": "Sat", "time": "4:00pm"}, {"days": "Sun", "time": "Closed"}], "id": "2280100055", "name": "USPS COLLECTION BOX - BLUE BOX", "address": {"city": "HARRISONBURG", "state": "VA", "street": "61 COURT SQ", "postcode": "22801"}}},
{"geometry": {"type": "Point", "coordinates": [-78.842784171, 38.431438082]}, "type": "Feature", "properties": {"collection_times": [{"days": "Mon-Sat", "time": "11:00am"}, {"days": "Sun", "time": "Closed"}], "id": "2280100056", "name": "USPS COLLECTION BOX - BLUE BOX", "address": {"city": "HARRISONBURG", "state": "VA", "street": "1790 E MARKET ST", "postcode": "22801"}}},
{"geometry": {"type": "Point", "coordinates": [-78.9135605432, 38.3986711208]}, "type": "Feature", "properties": {"collection_times": [{"days": "Mon-Fri", "time": "5:30pm"}, {"days": "Sat", "time": "5:00pm"}, {"days": "Sun", "time": "Closed"}], "id": "2280100057", "name": "USPS COLLECTION BOX - BLUE BOX", "address": {"city": "HARRISONBURG", "state": "VA", "street": "3811 S MAIN ST", "postcode": "22801"}}},
{"geometry": {"type": "Point", "coordinates": [-78.8750163989, 38.4232609852]}, "type": "Feature", "properties": {"collection_times": [{"days": "Mon-Fri", "time": "2:30pm"}, {"days": "Sat-Sun", "time": "Closed"}], "id": "2280100059", "name": "USPS COLLECTION BOX - EXPRESS", "address": {"city": "HARRISONBURG", "state": "VA", "street": "3811 S MAIN ST", "postcode": "22801"}}},
{"geometry": {"type": "Point", "coordinates": [-78.9135605432, 38.3986711208]}, "type": "Feature", "properties": {"collection_times": [{"days": "Mon-Fri", "time": "5:30pm"}, {"days": "Sat", "time": "5:00pm"}, {"days": "Sun", "time": "Closed"}], "id": "2280100060", "name": "USPS COLLECTION BOX - PO LOBBY", "address": {"city": "HARRISONBURG", "state": "VA", "street": "3811 S MAIN ST", "postcode": "22801"}}},
{"geometry": {"type": "Point", "coordinates": [-78.8660444608, 38.451848674]}, "type": "Feature", "properties": {"collection_times": [{"days": "Mon-Fri", "time": "5:15pm"}, {"days": "Sat", "time": "4:00pm"}, {"days": "Sun", "time": "Closed"}], "id": "2280200001", "name": "USPS COLLECTION BOX - BLUE BOX", "address": {"city": "HARRISONBURG", "state": "VA", "street": "281 N MASON ST", "postcode": "22802"}}},
{"geometry": {"type": "Point", "coordinates": [-78.8660112318, 38.4522124773]}, "type": "Feature", "properties": {"collection_times": [{"days": "Mon-Fri", "time": "5:15pm"}, {"days": "Sat", "time": "4:00pm"}, {"days": "Sun", "time": "Closed"}], "id": "2280200002", "name": "USPS COLLECTION BOX - BLUE BOX", "address": {"city": "HARRISONBURG", "state": "VA", "street": "281 N MASON ST", "postcode": "22802"}}},
{"geometry": {"type": "Point", "coordinates": [-78.866044461, 38.451848674]}, "type": "Feature", "properties": {"collection_times": [{"days": "Mon-Fri", "time": "2:30pm"}, {"days": "Sat-Sun", "time": "Closed"}], "id": "2280200003", "name": "USPS COLLECTION BOX - EXPRESS", "address": {"city": "HARRISONBURG", "state": "VA", "street": "281 N MASON ST", "postcode": "22802"}}},
{"geometry": {"type": "Point", "coordinates": [-78.867075946, 38.453377837]}, "type": "Feature", "properties": {"collection_times": [{"days": "Mon-Fri", "time": "1:00pm"}, {"days": "Sat-Sun", "time": "Closed"}], "id": "2280200004", "name": "USPS COLLECTION BOX - BLUE BOX", "address": {"city": "HARRISONBURG", "state": "VA", "street": "20 E GAY ST", "postcode": "22802"}}},
{"geometry": {"type": "Point", "coordinates": [-78.870834749, 38.480926077]}, "type": "Feature", "properties": {"collection_times": [{"days": "Mon-Sat", "time": "9:30am"}, {"days": "Sun", "time": "Closed"}], "id": "2280200005", "name": "USPS COLLECTION BOX - BLUE BOX", "address": {"city": "HARRISONBURG", "state": "VA", "street": "1751 VIRGINIA AVE", "postcode": "22802"}}},
{"geometry": {"type": "Point", "coordinates": [-78.7895879801, 38.8075499463]}, "type": "Feature", "properties": {"collection_times": [{"days": "Mon-Fri", "time": "3:45pm"}, {"days": "Sat", "time": "11:00am"}, {"days": "Sun", "time": "Closed"}], "id": "2281000000", "name": "USPS COLLECTION BOX - BLUE BOX", "address": {"city": "BASYE", "state": "VA", "street": "1540 ORKNEY GRADE", "postcode": "22810"}}},
{"geometry": {"type": "Point", "coordinates": [-78.7895879801, 38.8075499463]}, "type": "Feature", "properties": {"collection_times": [{"days": "Mon-Fri", "time": "4:00pm"}, {"days": "Sat", "time": "11:00am"}, {"days": "Sun", "time": "Closed"}], "id": "2281000001", "name": "USPS COLLECTION BOX - PO LOBBY", "address": {"city": "BASYE", "state": "VA", "street": "1540 ORKNEY GRADE", "postcode": "22810"}}},
{"geometry": {"type": "Point", "coordinates": [-78.9718597943, 38.777097162]}, "type": "Feature", "properties": {"collection_times": [{"days": "Mon-Fri", "time": "3:55pm"}, {"days": "Sat", "time": "10:55am"}, {"days": "Sun", "time": "Closed"}], "id": "2281100000", "name": "USPS COLLECTION BOX - BLUE BOX", "address": {"city": "BERGTON", "state": "VA", "street": "17175 BERGTON RD", "postcode": "22811"}}},
{"geometry": {"type": "Point", "coordinates": [-78.9718597943, 38.777097162]}, "type": "Feature", "properties": {"collection_times": [{"days": "Mon-Fri", "time": "3:55pm"}, {"days": "Sat", "time": "10:55am"}, {"days": "Sun", "time": "Closed"}], "id": "2281100001", "name": "USPS COLLECTION BOX - PO LOBBY", "address": {"city": "BERGTON", "state": "VA", "street": "17175 BERGTON RD", "postcode": "22811"}}},
{"geometry": {"type": "Point", "coordinates": [-78.9593964057, 38.780972253]}, "type": "Feature", "properties": {"collection_times": [{"days": "Mon-Sat", "time": "1:00pm"}, {"days": "Sun", "time": "Closed"}], "id": "2281100003", "name": "USPS COLLECTION BOX - BLUE BOX", "address": {"city": "BERGTON", "state": "VA", "street": "16979 BERGTON RD", "postcode": "22811"}}},
{"geometry": {"type": "Point", "coordinates": [-78.9772825027, 38.382548996]}, "type": "Feature", "properties": {"collection_times": [{"days": "Mon-Fri", "time": "5:00pm"}, {"days": "Sat", "time": "11:00am"}, {"days": "Sun", "time": "Closed"}], "id": "2281200001", "name": "USPS COLLECTION BOX - BLUE BOX", "address": {"city": "BRIDGEWATER", "state": "VA", "street": "100 W COLLEGE ST", "postcode": "22812"}}},
{"geometry": {"type": "Point", "coordinates": [-78.9735087795, 38.3801237343]}, "type": "Feature", "properties": {"collection_times": [{"days": "Mon-Sat", "time": "9:00am"}, {"days": "Sun", "time": "Closed"}], "id": "2281200002", "name": "USPS COLLECTION BOX - BLUE BOX", "address": {"city": "BRIDGEWATER", "state": "VA", "street": "402 E COLLEGE ST", "postcode": "22812"}}},
{"geometry": {"type": "Point", "coordinates": [-78.966881787, 38.3899280731]}, "type": "Feature", "properties": {"collection_times": [{"days": "Mon-Sat", "time": "9:00am"}, {"days": "Sun", "time": "Closed"}], "id": "2281200004", "name": "USPS COLLECTION BOX - BLUE BOX", "address": {"city": "BRIDGEWATER", "state": "VA", "street": "610 N MAIN ST", "postcode": "22812"}}},
{"geometry": {"type": "Point", "coordinates": [-78.9771430649, 38.3824812715]}, "type": "Feature", "properties": {"collection_times": [{"days": "Mon-Fri", "time": "4:30pm"}, {"days": "Sat", "time": "11:00am"}, {"days": "Sun", "time": "Closed"}], "id": "2281200006", "name": "USPS COLLECTION BOX - BLUE BOX", "address": {"city": "BRIDGEWATER", "state": "VA", "street": "102 N GROVE ST", "postcode": "22812"}}},
{"geometry": {"type": "Point", "coordinates": [-78.9772825027, 38.382548996]}, "type": "Feature", "properties": {"collection_times": [{"days": "Mon-Fri", "time": "4:30pm"}, {"days": "Sat", "time": "11:00am"}, {"days": "Sun", "time": "Closed"}], "id": "2281200007", "name": "USPS COLLECTION BOX - PO LOBBY", "address": {"city": "BRIDGEWATER", "state": "VA", "street": "100 W COLLEGE ST", "postcode": "22812"}}},
{"geometry": {"type": "Point", "coordinates": [-78.7984334381, 38.6131135519]}, "type": "Feature", "properties": {"collection_times": [{"days": "Mon-Fri", "time": "4:30pm"}, {"days": "Sat", "time": "11:00am"}, {"days": "Sun", "time": "Closed"}], "id": "2281500001", "name": "USPS COLLECTION BOX - BLUE BOX", "address": {"city": "BROADWAY", "state": "VA", "street": "151 N CENTRAL ST", "postcode": "22815"}}},
{"geometry": {"type": "Point", "coordinates": [-78.8018682313, 38.613520086]}, "type": "Feature", "properties": {"collection_times": [{"days": "Mon-Fri", "time": "12:00pm"}, {"days": "Sat", "time": "11:00am"}, {"days": "Sun", "time": "Closed"}], "id": "2281500002", "name": "USPS COLLECTION BOX - BLUE BOX", "address": {"city": "BROADWAY", "state": "VA", "street": "182 N CENTRAL ST", "postcode": "22815"}}},
{"geometry": {"type": "Point", "coordinates": [-78.7984334381, 38.6131135519]}, "type": "Feature", "properties": {"collection_times": [{"days": "Mon-Fri", "time": "4:30pm"}, {"days": "Sat", "time": "11:00am"}, {"days": "Sun", "time": "Closed"}], "id": "2281500003", "name": "USPS COLLECTION BOX - PO LOBBY", "address": {"city": "BROADWAY", "state": "VA", "street": "151 N CENTRAL ST", "postcode": "22815"}}},
{"geometry": {"type": "Point", "coordinates": [-78.7984334381, 38.6131135519]}, "type": "Feature", "properties": {"collection_times": [{"days": "Mon-Fri", "time": "4:30pm"}, {"days": "Sat", "time": "11:00am"}, {"days": "Sun", "time": "Closed"}], "id": "2281500004", "name": "USPS COLLECTION BOX - PO LOBBY", "address": {"city": "BROADWAY", "state": "VA", "street": "151 N CENTRAL ST", "postcode": "22815"}}},
{"geometry": {"type": "Point", "coordinates": [-78.7984334381, 38.6131135519]}, "type": "Feature", "properties": {"collection_times": [{"days": "Mon-Fri", "time": "4:30pm"}, {"days": "Sat", "time": "11:00am"}, {"days": "Sun", "time": "Closed"}], "id": "2281500005", "name": "USPS COLLECTION BOX - PO LOBBY", "address": {"city": "BROADWAY", "state": "VA", "street": "151 N CENTRAL ST", "postcode": "22815"}}},
{"geometry": {"type": "Point", "coordinates": [-78.9956973364, 38.7497860714]}, "type": "Feature", "properties": {"collection_times": [{"days": "Mon-Sat", "time": "11:30am"}, {"days": "Sun", "time": "Closed"}], "id": "2282000001", "name": "USPS COLLECTION BOX - PO LOBBY", "address": {"city": "CRIDERS", "state": "VA", "street": "20856 CRIDERS RD", "postcode": "22820"}}},
{"geometry": {"type": "Point", "coordinates": [-78.9392015526, 38.4141473663]}, "type": "Feature", "properties": {"collection_times": [{"days": "Mon-Fri", "time": "5:00pm"}, {"days": "Sat", "time": "9:00am"}, {"days": "Sun", "time": "Closed"}], "id": "2282100001", "name": "USPS COLLECTION BOX - BLUE BOX", "address": {"city": "DAYTON", "state": "VA", "street": "242 MAIN ST", "postcode": "22821"}}},
{"geometry": {"type": "Point", "coordinates": [-79.0147170158, 38.4414839383]}, "type": "Feature", "properties": {"collection_times": [{"days": "Mon-Fri", "time": "4:45pm"}, {"days": "Sat", "time": "9:00am"}, {"days": "Sun", "time": "Closed"}], "id": "2282100002", "name": "USPS COLLECTION BOX - BLUE BOX", "address": {"city": "DAYTON", "state": "VA", "street": "275 DINGLEDINE LN", "postcode": "22821"}}},
{"geometry": {"type": "Point", "coordinates": [-78.9392015526, 38.4141473663]}, "type": "Feature", "properties": {"collection_times": [{"days": "Mon-Fri", "time": "5:00pm"}, {"days": "Sat", "time": "9:00am"}, {"days": "Sun", "time": "Closed"}], "id": "2282100003", "name": "USPS COLLECTION BOX - PO LOBBY", "address": {"city": "DAYTON", "state": "VA", "street": "242 MAIN ST", "postcode": "22821"}}},
{"geometry": {"type": "Point", "coordinates": [-78.5626727915, 38.8213396989]}, "type": "Feature", "properties": {"collection_times": [{"days": "Mon-Fri", "time": "4:15pm"}, {"days": "Sat", "time": "10:45am"}, {"days": "Sun", "time": "Closed"}], "id": "2282400000", "name": "USPS COLLECTION BOX - BLUE BOX", "address": {"city": "EDINBURG", "state": "VA", "street": "205 N MAIN ST", "postcode": "22824"}}},
{"geometry": {"type": "Point", "coordinates": [-78.5626727915, 38.8213396989]}, "type": "Feature", "properties": {"collection_times": [{"days": "Mon-Fri", "time": "4:25pm"}, {"days": "Sat", "time": "10:45am"}, {"days": "Sun", "time": "Closed"}], "id": "2282400002", "name": "USPS COLLECTION BOX - PO LOBBY", "address": {"city": "EDINBURG", "state": "VA", "street": "205 N MAIN ST", "postcode": "22824"}}},
{"geometry": {"type": "Point", "coordinates": [-78.6190644453, 38.4083367844]}, "type": "Feature", "properties": {"collection_times": [{"days": "Mon-Fri", "time": "5:00pm"}, {"days": "Sat", "time": "11:00am"}, {"days": "Sun", "time": "Closed"}], "id": "2282700004", "name": "USPS COLLECTION BOX - BLUE BOX", "address": {"city": "ELKTON", "state": "VA", "street": "102 W ROCKINGHAM ST", "postcode": "22827"}}},
{"geometry": {"type": "Point", "coordinates": [-78.6190644453, 38.4083367844]}, "type": "Feature", "properties": {"collection_times": [{"days": "Mon-Fri", "time": "5:00pm"}, {"days": "Sat", "time": "11:00am"}, {"days": "Sun", "time": "Closed"}], "id": "2282700007", "name": "USPS COLLECTION BOX - PO LOBBY", "address": {"city": "ELKTON", "state": "VA", "street": "102 W ROCKINGHAM ST", "postcode": "22827"}}},
{"geometry": {"type": "Point", "coordinates": [-78.6190644453, 38.4083367844]}, "type": "Feature", "properties": {"collection_times": [{"days": "Mon-Fri", "time": "5:00pm"}, {"days": "Sat", "time": "11:00am"}, {"days": "Sun", "time": "Closed"}], "id": "2282700008", "name": "USPS COLLECTION BOX - PO LOBBY", "address": {"city": "ELKTON", "state": "VA", "street": "102 W ROCKINGHAM ST", "postcode": "22827"}}},
{"geometry": {"type": "Point", "coordinates": [-78.8863919083, 38.6448961723]}, "type": "Feature", "properties": {"collection_times": [{"days": "Mon-Fri", "time": "3:45pm"}, {"days": "Sat", "time": "10:30am"}, {"days": "Sun", "time": "Closed"}], "id": "2283000001", "name": "USPS COLLECTION BOX - PO LOBBY", "address": {"city": "FULKS RUN", "state": "VA", "street": "12274 BROCKS GAP RD", "postcode": "22830"}}},
{"geometry": {"type": "Point", "coordinates": [-78.8863919083, 38.6448961723]}, "type": "Feature", "properties": {"collection_times": [{"days": "Mon-Fri", "time": "3:45pm"}, {"days": "Sat", "time": "10:30am"}, {"days": "Sun", "time": "Closed"}], "id": "2283000002", "name": "USPS COLLECTION BOX - BLUE BOX", "address": {"city": "FULKS RUN", "state": "VA", "street": "12274 BROCKS GAP RD", "postcode": "22830"}}},
{"geometry": {"type": "Point", "coordinates": [-78.9809232515, 38.4718482371]}, "type": "Feature", "properties": {"collection_times": [{"days": "Mon-Fri", "time": "4:15pm"}, {"days": "Sat", "time": "11:15am"}, {"days": "Sun", "time": "Closed"}], "id": "2283100000", "name": "USPS COLLECTION BOX - BLUE BOX", "address": {"city": "HINTON", "state": "VA", "street": "6121 RAWLEY PIKE", "postcode": "22831"}}},
{"geometry": {"type": "Point", "coordinates": [-78.9809232515, 38.4718482371]}, "type": "Feature", "properties": {"collection_times": [{"days": "Mon-Fri", "time": "4:15pm"}, {"days": "Sat", "time": "11:15am"}, {"days": "Sun", "time": "Closed"}], "id": "2283100001", "name": "USPS COLLECTION BOX - PO LOBBY", "address": {"city": "HINTON", "state": "VA", "street": "6121 RAWLEY PIKE", "postcode": "22831"}}},
{"geometry": {"type": "Point", "coordinates": [-78.7686471314, 38.5394050699]}, "type": "Feature", "properties": {"collection_times": [{"days": "Mon-Fri", "time": "4:30pm"}, {"days": "Sat", "time": "10:45am"}, {"days": "Sun", "time": "Closed"}], "id": "2283300000", "name": "USPS COLLECTION BOX - BLUE BOX", "address": {"city": "LACEY SPRING", "state": "VA", "street": "8975 N VALLEY PIKE", "postcode": "22833"}}},
{"geometry": {"type": "Point", "coordinates": [-78.7686471314, 38.5394050699]}, "type": "Feature", "properties": {"collection_times": [{"days": "Mon-Fri", "time": "4:30pm"}, {"days": "Sat", "time": "10:45am"}, {"days": "Sun", "time": "Closed"}], "id": "2283300001", "name": "USPS COLLECTION BOX - PO LOBBY", "address": {"city": "LACEY SPRING", "state": "VA", "street": "8975 N VALLEY PIKE", "postcode": "22833"}}},
{"geometry": {"type": "Point", "coordinates": [-78.8634674815, 38.5586908057]}, "type": "Feature", "properties": {"collection_times": [{"days": "Mon-Sat", "time": "11:00am"}, {"days": "Sun", "time": "Closed"}], "id": "2283400000", "name": "USPS COLLECTION BOX - BLUE BOX", "address": {"city": "LINVILLE", "state": "VA", "street": "5090 KRATZER RD", "postcode": "22834"}}},
{"geometry": {"type": "Point", "coordinates": [-78.8457711026, 38.5221681733]}, "type": "Feature", "properties": {"collection_times": [{"days": "Mon-Fri", "time": "4:15pm"}, {"days": "Sat", "time": "11:00am"}, {"days": "Sun", "time": "Closed"}], "id": "2283400001", "name": "USPS COLLECTION BOX - PO LOBBY", "address": {"city": "LINVILLE", "state": "VA", "street": "3754 LINVILLE EDOM RD", "postcode": "22834"}}},
{"geometry": {"type": "Point", "coordinates": [-78.8457711026, 38.5221681733]}, "type": "Feature", "properties": {"collection_times": [{"days": "Mon-Fri", "time": "4:15pm"}, {"days": "Sat", "time": "10:45am"}, {"days": "Sun", "time": "Closed"}], "id": "2283400002", "name": "USPS COLLECTION BOX - BLUE BOX", "address": {"city": "LINVILLE", "state": "VA", "street": "3754 LINVILLE EDOM RD", "postcode": "22834"}}},
{"geometry": {"type": "Point", "coordinates": [-78.4644957644, 38.6648633139]}, "type": "Feature", "properties": {"collection_times": [{"days": "Mon-Fri", "time": "4:45pm"}, {"days": "Sat", "time": "10:30am"}, {"days": "Sun", "time": "Closed"}], "id": "2283500002", "name": "USPS COLLECTION BOX - BLUE BOX", "address": {"city": "LURAY", "state": "VA", "street": "116 S COURT ST STE A", "postcode": "22835"}}},
{"geometry": {"type": "Point", "coordinates": [-78.444174305, 38.6664472381]}, "type": "Feature", "properties": {"collection_times": [{"days": "Mon-Fri", "time": "4:45pm"}, {"days": "Sat", "time": "10:00am"}, {"days": "Sun", "time": "Closed"}], "id": "2283500005", "name": "USPS COLLECTION BOX - BLUE BOX", "address": {"city": "LURAY", "state": "VA", "street": "7 E LURAY SHOPPING CTR", "postcode": "22835"}}},
{"geometry": {"type": "Point", "coordinates": [-78.4609240335, 38.6653173928]}, "type": "Feature", "properties": {"collection_times": [{"days": "Mon-Fri", "time": "4:45pm"}, {"days": "Sat", "time": "10:00am"}, {"days": "Sun", "time": "Closed"}], "id": "2283500007", "name": "USPS COLLECTION BOX - BLUE BOX", "address": {"city": "LURAY", "state": "VA", "street": "18 VOGT ST", "postcode": "22835"}}},
{"geometry": {"type": "Point", "coordinates": [-78.4605078027, 38.6640990007]}, "type": "Feature", "properties": {"collection_times": [{"days": "Mon-Fri", "time": "5:00pm"}, {"days": "Sat", "time": "10:00am"}, {"days": "Sun", "time": "Closed"}], "id": "2283500008", "name": "USPS COLLECTION BOX - BLUE BOX", "address": {"city": "LURAY", "state": "VA", "street": "102 S BROAD ST", "postcode": "22835"}}},
{"geometry": {"type": "Point", "coordinates": [-78.4605078027, 38.6640990007]}, "type": "Feature", "properties": {"collection_times": [{"days": "Mon-Fri", "time": "5:00pm"}, {"days": "Sat", "time": "10:00am"}, {"days": "Sun", "time": "Closed"}], "id": "2283500012", "name": "USPS COLLECTION BOX - PO LOBBY", "address": {"city": "LURAY", "state": "VA", "street": "102 S BROAD ST", "postcode": "22835"}}},
{"geometry": {"type": "Point", "coordinates": [-78.7325835535, 38.3708511807]}, "type": "Feature", "properties": {"collection_times": [{"days": "Mon-Fri", "time": "4:15pm"}, {"days": "Sat", "time": "11:00am"}, {"days": "Sun", "time": "Closed"}], "id": "2284000000", "name": "USPS COLLECTION BOX - BLUE BOX", "address": {"city": "MCGAHEYSVILLE", "state": "VA", "street": "419 JACOB BURNER DR", "postcode": "22840"}}},
{"geometry": {"type": "Point", "coordinates": [-78.7325835535, 38.3708511807]}, "type": "Feature", "properties": {"collection_times": [{"days": "Mon-Fri", "time": "4:15pm"}, {"days": "Sat", "time": "11:00am"}, {"days": "Sun", "time": "Closed"}], "id": "2284000002", "name": "USPS COLLECTION BOX - PO LOBBY", "address": {"city": "MCGAHEYSVILLE", "state": "VA", "street": "419 JACOB BURNER DR", "postcode": "22840"}}},
{"geometry": {"type": "Point", "coordinates": [-78.9404010527, 38.3582053493]}, "type": "Feature", "properties": {"collection_times": [{"days": "Mon-Fri", "time": "4:00pm"}, {"days": "Sat", "time": "10:45am"}, {"days": "Sun", "time": "Closed"}], "id": "2284100000", "name": "USPS COLLECTION BOX - BLUE BOX", "address": {"city": "MOUNT CRAWFORD", "state": "VA", "street": "411 N MAIN ST", "postcode": "22841"}}},
{"geometry": {"type": "Point", "coordinates": [-78.9404010527, 38.3582053493]}, "type": "Feature", "properties": {"collection_times": [{"days": "Mon-Fri", "time": "4:00pm"}, {"days": "Sat", "time": "10:45am"}, {"days": "Sun", "time": "Closed"}], "id": "2284100001", "name": "USPS COLLECTION BOX - PO LOBBY", "address": {"city": "MOUNT CRAWFORD", "state": "VA", "street": "411 N MAIN ST", "postcode": "22841"}}},
{"geometry": {"type": "Point", "coordinates": [-78.6272304111, 38.7609839496]}, "type": "Feature", "properties": {"collection_times": [{"days": "Mon-Fri", "time": "4:30pm"}, {"days": "Sat", "time": "11:00am"}, {"days": "Sun", "time": "Closed"}], "id": "2284200001", "name": "USPS COLLECTION BOX - BLUE BOX", "address": {"city": "MOUNT JACKSON", "state": "VA", "street": "5240 MAIN ST", "postcode": "22842"}}},
{"geometry": {"type": "Point", "coordinates": [-78.6272304111, 38.7609839496]}, "type": "Feature", "properties": {"collection_times": [{"days": "Mon-Fri", "time": "4:30pm"}, {"days": "Sat", "time": "11:00am"}, {"days": "Sun", "time": "Closed"}], "id": "2284200003", "name": "USPS COLLECTION BOX - PO LOBBY", "address": {"city": "MOUNT JACKSON", "state": "VA", "street": "5240 MAIN ST", "postcode": "22842"}}},
{"geometry": {"type": "Point", "coordinates": [-79.085332086, 38.3439622547]}, "type": "Feature", "properties": {"collection_times": [{"days": "Mon-Fri", "time": "4:15pm"}, {"days": "Sat", "time": "10:30am"}, {"days": "Sun", "time": "Closed"}], "id": "2284300001", "name": "USPS COLLECTION BOX - PO LOBBY", "address": {"city": "MOUNT SOLON", "state": "VA", "street": "885 NATURAL CHIMNEYS RD", "postcode": "22843"}}},
{"geometry": {"type": "Point", "coordinates": [-79.1023557767, 38.3273319538]}, "type": "Feature", "properties": {"collection_times": [{"days": "Mon-Sat", "time": "10:00am"}, {"days": "Sun", "time": "Closed"}], "id": "2284300003", "name": "USPS COLLECTION BOX - BLUE BOX", "address": {"city": "MOUNT SOLON", "state": "VA", "street": "3028 SCENIC HWY", "postcode": "22843"}}},
{"geometry": {"type": "Point", "coordinates": [-78.6719699191, 38.6457341724]}, "type": "Feature", "properties": {"collection_times": [{"days": "Mon-Fri", "time": "4:45pm"}, {"days": "Sat", "time": "10:30am"}, {"days": "Sun", "time": "Closed"}], "id": "2284400000", "name": "USPS COLLECTION BOX - BLUE BOX", "address": {"city": "NEW MARKET", "state": "VA", "street": "9444 JOHN SEVIER RD", "postcode": "22844"}}},
{"geometry": {"type": "Point", "coordinates": [-78.6717637662, 38.6459312165]}, "type": "Feature", "properties": {"collection_times": [{"days": "Mon-Fri", "time": "4:45pm"}, {"days": "Sat", "time": "10:30am"}, {"days": "Sun", "time": "Closed"}], "id": "2284400001", "name": "USPS COLLECTION BOX - PO LOBBY", "address": {"city": "NEW MARKET", "state": "VA", "street": "9444 JOHN SEIVER RD", "postcode": "22844"}}},
{"geometry": {"type": "Point", "coordinates": [-78.8145117426, 38.7952306116]}, "type": "Feature", "properties": {"collection_times": [{"days": "Mon-Fri", "time": "2:45pm"}, {"days": "Sat", "time": "12:15pm"}, {"days": "Sun", "time": "Closed"}], "id": "2284500000", "name": "USPS COLLECTION BOX - BLUE BOX", "address": {"city": "ORKNEY SPRINGS", "state": "VA", "street": "4506 ORKNEY SPRINGS RD", "postcode": "22845"}}},
{"geometry": {"type": "Point", "coordinates": [-78.7981549403, 38.3795363363]}, "type": "Feature", "properties": {"collection_times": [{"days": "Mon-Fri", "time": "4:15pm"}, {"days": "Sat", "time": "11:15am"}, {"days": "Sun", "time": "Closed"}], "id": "2284600000", "name": "USPS COLLECTION BOX - BLUE BOX", "address": {"city": "PENN LAIRD", "state": "VA", "street": "5375 SPOTSWOOD TRL", "postcode": "22846"}}},
{"geometry": {"type": "Point", "coordinates": [-78.7981549403, 38.3795363363]}, "type": "Feature", "properties": {"collection_times": [{"days": "Mon-Fri", "time": "4:30pm"}, {"days": "Sat", "time": "11:15am"}, {"days": "Sun", "time": "Closed"}], "id": "2284600001", "name": "USPS COLLECTION BOX - PO LOBBY", "address": {"city": "PENN LAIRD", "state": "VA", "street": "5375 SPOTSWOOD TRL", "postcode": "22846"}}},
{"geometry": {"type": "Point", "coordinates": [-78.6836670174, 38.6930347866]}, "type": "Feature", "properties": {"collection_times": [{"days": "Mon-Fri", "time": "3:45pm"}, {"days": "Sat", "time": "11:20am"}, {"days": "Sun", "time": "Closed"}], "id": "2284700001", "name": "USPS COLLECTION BOX - PO LOBBY", "address": {"city": "QUICKSBURG", "state": "VA", "street": "4199 RIDGE RD", "postcode": "22847"}}},
{"geometry": {"type": "Point", "coordinates": [-78.6836670174, 38.6930347866]}, "type": "Feature", "properties": {"collection_times": [{"days": "Mon-Fri", "time": "3:45pm"}, {"days": "Sat", "time": "11:20am"}, {"days": "Sun", "time": "Closed"}], "id": "2284700002", "name": "USPS COLLECTION BOX - BLUE BOX", "address": {"city": "QUICKSBURG", "state": "VA", "street": "4199 RIDGE RD", "postcode": "22847"}}},
{"geometry": {"type": "Point", "coordinates": [-78.7059087849, 38.7143937337]}, "type": "Feature", "properties": {"collection_times": [{"days": "Mon-Sat", "time": "10:30am"}, {"days": "Sun", "time": "Closed"}], "id": "2284700005", "name": "USPS COLLECTION BOX - BLUE BOX", "address": {"city": "QUICKSBURG", "state": "VA", "street": "261 CAVERNS RD", "postcode": "22847"}}},
{"geometry": {"type": "Point", "coordinates": [-78.625124812, 38.486845857]}, "type": "Feature", "properties": {"collection_times": [{"days": "Mon-Fri", "time": "4:45pm"}, {"days": "Sat", "time": "11:00am"}, {"days": "Sun", "time": "Closed"}], "id": "2284900006", "name": "USPS COLLECTION BOX - BLUE BOX", "address": {"city": "SHENANDOAH", "state": "VA", "street": "206 VIRGINIA AVE", "postcode": "22849"}}},
{"geometry": {"type": "Point", "coordinates": [-78.625124812, 38.486845857]}, "type": "Feature", "properties": {"collection_times": [{"days": "Mon-Fri", "time": "5:00pm"}, {"days": "Sat", "time": "11:00am"}, {"days": "Sun", "time": "Closed"}], "id": "2284900007", "name": "USPS COLLECTION BOX - PO LOBBY", "address": {"city": "SHENANDOAH", "state": "VA", "street": "206 VIRGINIA AVE", "postcode": "22849"}}},
{"geometry": {"type": "Point", "coordinates": [-78.9140085831, 38.5527124847]}, "type": "Feature", "properties": {"collection_times": [{"days": "Mon-Fri", "time": "4:15pm"}, {"days": "Sat", "time": "10:45am"}, {"days": "Sun", "time": "Closed"}], "id": "2285000000", "name": "USPS COLLECTION BOX - BLUE BOX", "address": {"city": "SINGERS GLEN", "state": "VA", "street": "9858 SINGERS GLEN RD", "postcode": "22850"}}},
{"geometry": {"type": "Point", "coordinates": [-78.9140085831, 38.5527124847]}, "type": "Feature", "properties": {"collection_times": [{"days": "Mon-Fri", "time": "4:15pm"}, {"days": "Sat", "time": "10:45am"}, {"days": "Sun", "time": "Closed"}], "id": "2285000001", "name": "USPS COLLECTION BOX - PO LOBBY", "address": {"city": "SINGERS GLEN", "state": "VA", "street": "9858 SINGERS GLEN RD", "postcode": "22850"}}},
{"geometry": {"type": "Point", "coordinates": [-78.5013071532, 38.5751094212]}, "type": "Feature", "properties": {"collection_times": [{"days": "Mon-Fri", "time": "5:00pm"}, {"days": "Sat", "time": "9:00am"}, {"days": "Sun", "time": "Closed"}], "id": "2285100000", "name": "USPS COLLECTION BOX - PO LOBBY", "address": {"city": "STANLEY", "state": "VA", "street": "151 E MAIN ST", "postcode": "22851"}}},
{"geometry": {"type": "Point", "coordinates": [-78.5013071532, 38.5751094212]}, "type": "Feature", "properties": {"collection_times": [{"days": "Mon-Fri", "time": "4:55pm"}, {"days": "Sat", "time": "9:00am"}, {"days": "Sun", "time": "Closed"}], "id": "2285100001", "name": "USPS COLLECTION BOX - BLUE BOX", "address": {"city": "STANLEY", "state": "VA", "street": "151 E MAIN ST", "postcode": "22851"}}},
{"geometry": {"type": "Point", "coordinates": [-78.7775187896, 38.6308938342]}, "type": "Feature", "properties": {"collection_times": [{"days": "Mon-Fri", "time": "4:30pm"}, {"days": "Sat", "time": "9:30am"}, {"days": "Sun", "time": "Closed"}], "id": "2285300000", "name": "USPS COLLECTION BOX - BLUE BOX", "address": {"city": "TIMBERVILLE", "state": "VA", "street": "172 S MAIN ST", "postcode": "22853"}}},
{"geometry": {"type": "Point", "coordinates": [-78.7775187896, 38.6308938342]}, "type": "Feature", "properties": {"collection_times": [{"days": "Mon-Fri", "time": "4:30pm"}, {"days": "Sat", "time": "9:30am"}, {"days": "Sun", "time": "Closed"}], "id": "2285300001", "name": "USPS COLLECTION BOX - PO LOBBY", "address": {"city": "TIMBERVILLE", "state": "VA", "street": "172 S MAIN ST", "postcode": "22853"}}}
]}
