{"type": "FeatureCollection", "features": [
{"geometry": {"type": "Point", "coordinates": [-78.4719149967, 38.078379955]}, "type": "Feature", "properties": {"collection_times": [{"days": "Mon-Fri", "time": "4:00pm"}, {"days": "Sat", "time": "12:00pm"}, {"days": "Sun", "time": "Closed"}], "id": "2290100002", "name": "USPS COLLECTION BOX - BLUE BOX", "address": {"city": "CHARLOTTESVILLE", "state": "VA", "street": "1600 RIO ROAD EAST", "postcode": "22901"}}},
{"geometry": {"type": "Point", "coordinates": [-78.4713495423, 38.0824138451]}, "type": "Feature", "properties": {"collection_times": [{"days": "Mon-Fri", "time": "4:00pm"}, {"days": "Sat", "time": "10:00am"}, {"days": "Sun", "time": "Closed"}], "id": "2290100006", "name": "USPS COLLECTION BOX - BLUE BOX", "address": {"city": "CHARLOTTESVILLE", "state": "VA", "street": "404 ALBEMARLE SQ", "postcode": "22901"}}},
{"geometry": {"type": "Point", "coordinates": [-78.4707521272, 38.0868627003]}, "type": "Feature", "properties": {"collection_times": [{"days": "Mon-Fri", "time": "4:00pm"}, {"days": "Sat", "time": "12:00pm"}, {"days": "Sun", "time": "Closed"}], "id": "2290100007", "name": "USPS COLLECTION BOX - BLUE BOX", "address": {"city": "CHARLOTTESVILLE", "state": "VA", "street": "1853 SEMINOLE TRL", "postcode": "22901"}}},
{"geometry": {"type": "Point", "coordinates": [-78.5086672602, 38.069951208]}, "type": "Feature", "properties": {"collection_times": [{"days": "Mon-Sat", "time": "10:30am"}, {"days": "Sun", "time": "Closed"}], "id": "2290100009", "name": "USPS COLLECTION BOX - BLUE BOX", "address": {"city": "CHARLOTTESVILLE", "state": "VA", "street": "500 TWENTYNINTH PLACE CT", "postcode": "22901"}}},
{"geometry": {"type": "Point", "coordinates": [-78.4887476694, 38.0635265239]}, "type": "Feature", "properties": {"collection_times": [{"days": "Mon-Fri", "time": "5:00pm"}, {"days": "Sat", "time": "11:00am"}, {"days": "Sun", "time": "Closed"}], "id": "2290100011", "name": "USPS COLLECTION BOX - BLUE BOX", "address": {"city": "CHARLOTTESVILLE", "state": "VA", "street": "220 ZAN RD", "postcode": "22901"}}},
{"geometry": {"type": "Point", "coordinates": [-78.4955564316, 38.0594490627]}, "type": "Feature", "properties": {"collection_times": [{"days": "Mon-Fri", "time": "5:00pm"}, {"days": "Sat", "time": "10:30am"}, {"days": "Sun", "time": "Closed"}], "id": "2290100019", "name": "USPS COLLECTION BOX - BLUE BOX", "address": {"city": "CHARLOTTESVILLE", "state": "VA", "street": "2114 ANGUS RD", "postcode": "22901"}}},
{"geometry": {"type": "Point", "coordinates": [-78.4619639459, 38.0360974528]}, "type": "Feature", "properties": {"collection_times": [{"days": "Mon-Fri", "time": "5:00pm"}, {"days": "Sat", "time": "10:30am"}, {"days": "Sun", "time": "Closed"}], "id": "2290100022", "name": "USPS COLLECTION BOX - BLUE BOX", "address": {"city": "CHARLOTTESVILLE", "state": "VA", "street": "1305 LONG ST", "postcode": "22901"}}},
{"geometry": {"type": "Point", "coordinates": [-78.4968967241, 38.075297164]}, "type": "Feature", "properties": {"collection_times": [{"days": "Mon-Fri", "time": "5:00pm"}, {"days": "Sat", "time": "10:30am"}, {"days": "Sun", "time": "Closed"}], "id": "2290100023", "name": "USPS COLLECTION BOX - BLUE BOX", "address": {"city": "CHARLOTTESVILLE", "state": "VA", "street": "90 WHITEWOOD RD", "postcode": "22901"}}},
{"geometry": {"type": "Point", "coordinates": [-78.4957445094, 38.0672147652]}, "type": "Feature", "properties": {"collection_times": [{"days": "Mon-Sat", "time": "10:00am"}, {"days": "Sun", "time": "Closed"}], "id": "2290100025", "name": "USPS COLLECTION BOX - BLUE BOX", "address": {"city": "CHARLOTTESVILLE", "state": "VA", "street": "1939 COMMONWEALTH DR", "postcode": "22901"}}},
{"geometry": {"type": "Point", "coordinates": [-78.4896196433, 38.0712809245]}, "type": "Feature", "properties": {"collection_times": [{"days": "Mon-Sat", "time": "12:00pm"}, {"days": "Sun", "time": "Closed"}], "id": "2290100026", "name": "USPS COLLECTION BOX - BLUE BOX", "address": {"city": "CHARLOTTESVILLE", "state": "VA", "street": "2401 PEYTON DR", "postcode": "22901"}}},
{"geometry": {"type": "Point", "coordinates": [-78.478854234, 38.081896892]}, "type": "Feature", "properties": {"collection_times": [{"days": "Mon-Fri", "time": "5:00pm"}, {"days": "Sat", "time": "10:30am"}, {"days": "Sun", "time": "Closed"}], "id": "2290100028", "name": "USPS COLLECTION BOX - BLUE BOX", "address": {"city": "CHARLOTTESVILLE", "state": "VA", "street": "3025 BERKMAR DR", "postcode": "22901"}}},
{"geometry": {"type": "Point", "coordinates": [-78.4714323528, 38.0875725878]}, "type": "Feature", "properties": {"collection_times": [{"days": "Mon-Sat", "time": "12:00pm"}, {"days": "Sun", "time": "Closed"}], "id": "2290100033", "name": "USPS COLLECTION BOX - BLUE BOX", "address": {"city": "CHARLOTTESVILLE", "state": "VA", "street": "1954 RIO HILL CTR", "postcode": "22901"}}},
{"geometry": {"type": "Point", "coordinates": [-78.4884595022, 38.0839069867]}, "type": "Feature", "properties": {"collection_times": [{"days": "Mon-Sat", "time": "10:00am"}, {"days": "Sun", "time": "Closed"}], "id": "2290100038", "name": "USPS COLLECTION BOX - BLUE BOX", "address": {"city": "CHARLOTTESVILLE", "state": "VA", "street": "301 RIO ROAD WEST", "postcode": "22901"}}},
{"geometry": {"type": "Point", "coordinates": [-78.4781396428, 38.0846194943]}, "type": "Feature", "properties": {"collection_times": [{"days": "Mon-Sat", "time": "10:30am"}, {"days": "Sun", "time": "Closed"}], "id": "2290100041", "name": "USPS COLLECTION BOX - BLUE BOX", "address": {"city": "CHARLOTTESVILLE", "state": "VA", "street": "690 BERKMAR CIR", "postcode": "22901"}}},
{"geometry": {"type": "Point", "coordinates": [-78.481908634, 38.0680645529]}, "type": "Feature", "properties": {"collection_times": [{"days": "Mon-Fri", "time": "5:00pm"}, {"days": "Sat", "time": "4:00pm"}, {"days": "Sun", "time": "Closed"}], "id": "2290100047", "name": "USPS COLLECTION BOX - BLUE BOX", "address": {"city": "CHARLOTTESVILLE", "state": "VA", "street": "1160 PEPSI PL", "postcode": "22901"}}},
{"geometry": {"type": "Point", "coordinates": [-78.4785466647, 38.0307327339]}, "type": "Feature", "properties": {"collection_times": [{"days": "Mon-Sat", "time": "10:00am"}, {"days": "Sun", "time": "Closed"}], "id": "2290200000", "name": "USPS COLLECTION BOX - BLUE BOX", "address": {"city": "CHARLOTTESVILLE", "state": "VA", "street": "401 EAST MARKET ST", "postcode": "22902"}}},
{"geometry": {"type": "Point", "coordinates": [-78.4777714215, 38.0313189718]}, "type": "Feature", "properties": {"collection_times": [{"days": "Mon-Fri", "time": "5:00pm"}, {"days": "Sat", "time": "10:00am"}, {"days": "Sun", "time": "Closed"}], "id": "2290200001", "name": "USPS COLLECTION BOX - BLUE BOX", "address": {"city": "CHARLOTTESVILLE", "state": "VA", "street": "500 COURT SQ", "postcode": "22902"}}},
{"geometry": {"type": "Point", "coordinates": [-78.4750297277, 38.03133486]}, "type": "Feature", "properties": {"collection_times": [{"days": "Mon-Sat", "time": "11:00am"}, {"days": "Sun", "time": "Closed"}], "id": "2290200005", "name": "USPS COLLECTION BOX - BLUE BOX", "address": {"city": "CHARLOTTESVILLE", "state": "VA", "street": "801 E HIGH ST", "postcode": "22902"}}},
{"geometry": {"type": "Point", "coordinates": [-78.4780784294, 38.0323103047]}, "type": "Feature", "properties": {"collection_times": [{"days": "Mon-Sat", "time": "10:00am"}, {"days": "Sun", "time": "Closed"}], "id": "2290200006", "name": "USPS COLLECTION BOX - BLUE BOX", "address": {"city": "CHARLOTTESVILLE", "state": "VA", "street": "411 E HIGH ST", "postcode": "22902"}}},
{"geometry": {"type": "Point", "coordinates": [-78.4788222941, 38.0324681347]}, "type": "Feature", "properties": {"collection_times": [{"days": "Mon-Fri", "time": "5:00pm"}, {"days": "Sat", "time": "10:00am"}, {"days": "Sun", "time": "Closed"}], "id": "2290200007", "name": "USPS COLLECTION BOX - BLUE BOX", "address": {"city": "CHARLOTTESVILLE", "state": "VA", "street": "301 E HIGH ST", "postcode": "22902"}}},
{"geometry": {"type": "Point", "coordinates": [-78.5008722138, 38.0139222511]}, "type": "Feature", "properties": {"collection_times": [{"days": "Mon-Fri", "time": "10:00am"}, {"days": "Sat", "time": "12:00pm"}, {"days": "Sun", "time": "Closed"}], "id": "2290200008", "name": "USPS COLLECTION BOX - BLUE BOX", "address": {"city": "CHARLOTTESVILLE", "state": "VA", "street": "1133 5TH ST SW", "postcode": "22902"}}},
{"geometry": {"type": "Point", "coordinates": [-78.4795729404, 38.0293757211]}, "type": "Feature", "properties": {"collection_times": [{"days": "Mon-Sat", "time": "1:00pm"}, {"days": "Sun", "time": "Closed"}], "id": "2290200010", "name": "USPS COLLECTION BOX - BLUE BOX", "address": {"city": "CHARLOTTESVILLE", "state": "VA", "street": "401 E WATER ST", "postcode": "22902"}}},
{"geometry": {"type": "Point", "coordinates": [-78.4839025576, 38.030944051]}, "type": "Feature", "properties": {"collection_times": [{"days": "Mon-Fri", "time": "9:30am"}, {"days": "Sat-Sun", "time": "Closed"}], "id": "2290200012", "name": "USPS COLLECTION BOX - BLUE BOX", "address": {"city": "CHARLOTTESVILLE", "state": "VA", "street": "255 W MAIN ST", "postcode": "22902"}}},
{"geometry": {"type": "Point", "coordinates": [-78.4750499526, 38.0254105566]}, "type": "Feature", "properties": {"collection_times": [{"days": "Mon-Fri", "time": "2:00pm"}, {"days": "Sat", "time": "1:00pm"}, {"days": "Sun", "time": "Closed"}], "id": "2290200014", "name": "USPS COLLECTION BOX - EXPRESS", "address": {"city": "CHARLOTTESVILLE", "state": "VA", "street": "201 W WATER ST", "postcode": "22902"}}},
{"geometry": {"type": "Point", "coordinates": [-78.4757619793, 38.0310367543]}, "type": "Feature", "properties": {"collection_times": [{"days": "Mon-Sat", "time": "10:00am"}, {"days": "Sun", "time": "Closed"}], "id": "2290200016", "name": "USPS COLLECTION BOX - BLUE BOX", "address": {"city": "CHARLOTTESVILLE", "state": "VA", "street": "700 E JEFFERSON ST", "postcode": "22902"}}},
{"geometry": {"type": "Point", "coordinates": [-78.4687896592, 38.0269570539]}, "type": "Feature", "properties": {"collection_times": [{"days": "Mon-Fri", "time": "2:00pm"}, {"days": "Sat", "time": "1:00pm"}, {"days": "Sun", "time": "Closed"}], "id": "2290200017", "name": "USPS COLLECTION BOX - BLUE BOX", "address": {"city": "CHARLOTTESVILLE", "state": "VA", "street": "1215 EAST MARKET ST", "postcode": "22902"}}},
{"geometry": {"type": "Point", "coordinates": [-78.4740629008, 38.0204264922]}, "type": "Feature", "properties": {"collection_times": [{"days": "Mon-Sat", "time": "9:45am"}, {"days": "Sun", "time": "Closed"}], "id": "2290200020", "name": "USPS COLLECTION BOX - BLUE BOX", "address": {"city": "CHARLOTTESVILLE", "state": "VA", "street": "1101 MONTICELLO AVE", "postcode": "22902"}}},
{"geometry": {"type": "Point", "coordinates": [-78.469541981, 38.0224200812]}, "type": "Feature", "properties": {"collection_times": [{"days": "Mon-Sat", "time": "11:30am"}, {"days": "Sun", "time": "Closed"}], "id": "2290200023", "name": "USPS COLLECTION BOX - BLUE BOX", "address": {"city": "CHARLOTTESVILLE", "state": "VA", "street": "1301 CARLTON AVE", "postcode": "22902"}}},
{"geometry": {"type": "Point", "coordinates": [-78.4710277775, 38.032168846]}, "type": "Feature", "properties": {"collection_times": [{"days": "Mon-Sat", "time": "1:00pm"}, {"days": "Sun", "time": "Closed"}], "id": "2290200027", "name": "USPS COLLECTION BOX - BLUE BOX", "address": {"city": "CHARLOTTESVILLE", "state": "VA", "street": "400 LOCUST AVE", "postcode": "22902"}}},
{"geometry": {"type": "Point", "coordinates": [-78.4720936235, 38.0295959103]}, "type": "Feature", "properties": {"collection_times": [{"days": "Mon-Sat", "time": "10:30am"}, {"days": "Sun", "time": "Closed"}], "id": "2290200029", "name": "USPS COLLECTION BOX - BLUE BOX", "address": {"city": "CHARLOTTESVILLE", "state": "VA", "street": "1011 E JEFFERSON ST", "postcode": "22902"}}},
{"geometry": {"type": "Point", "coordinates": [-78.4738515005, 38.030468934]}, "type": "Feature", "properties": {"collection_times": [{"days": "Mon-Fri", "time": "5:00pm"}, {"days": "Sat", "time": "10:00am"}, {"days": "Sun", "time": "Closed"}], "id": "2290200030", "name": "USPS COLLECTION BOX - BLUE BOX", "address": {"city": "CHARLOTTESVILLE", "state": "VA", "street": "914 E JEFFERSON ST", "postcode": "22902"}}},
{"geometry": {"type": "Point", "coordinates": [-78.4882788681, 38.0310615964]}, "type": "Feature", "properties": {"collection_times": [{"days": "Mon-Fri", "time": "5:00pm"}, {"days": "Sat", "time": "1:00pm"}, {"days": "Sun", "time": "Closed"}], "id": "2290200036", "name": "USPS COLLECTION BOX - BLUE BOX", "address": {"city": "CHARLOTTESVILLE", "state": "VA", "street": "513 E MAIN ST", "postcode": "22902"}}},
{"geometry": {"type": "Point", "coordinates": [-78.4882788681, 38.0310615964]}, "type": "Feature", "properties": {"collection_times": [{"days": "Mon-Fri", "time": "5:00pm"}, {"days": "Sat", "time": "1:00pm"}, {"days": "Sun", "time": "Closed"}], "id": "2290200038", "name": "USPS COLLECTION BOX - BLUE BOX", "address": {"city": "CHARLOTTESVILLE", "state": "VA", "street": "513 E MAIN ST", "postcode": "22902"}}},
{"geometry": {"type": "Point", "coordinates": [-78.4800028871, 38.0311822583]}, "type": "Feature", "properties": {"collection_times": [{"days": "Mon-Fri", "time": "5:00pm"}, {"days": "Sat", "time": "1:00pm"}, {"days": "Sun", "time": "Closed"}], "id": "2290200039", "name": "USPS COLLECTION BOX - BLUE BOX", "address": {"city": "CHARLOTTESVILLE", "state": "VA", "street": "201 EAST MARKET ST", "postcode": "22902"}}},
{"geometry": {"type": "Point", "coordinates": [-78.4750499526, 38.0254105566]}, "type": "Feature", "properties": {"collection_times": [{"days": "Mon-Fri", "time": "5:00pm"}, {"days": "Sat", "time": "1:00pm"}, {"days": "Sun", "time": "Closed"}], "id": "2290200044", "name": "USPS COLLECTION BOX - EXPRESS", "address": {"city": "CHARLOTTESVILLE", "state": "VA", "street": "513 E MAIN ST", "postcode": "22902"}}},
{"geometry": {"type": "Point", "coordinates": [-78.482746169, 38.0303281619]}, "type": "Feature", "properties": {"collection_times": [{"days": "Mon-Fri", "time": "2:00pm"}, {"days": "Sat-Sun", "time": "Closed"}], "id": "2290200046", "name": "USPS COLLECTION BOX - BLUE BOX", "address": {"city": "CHARLOTTESVILLE", "state": "VA", "street": "201 W WATER ST", "postcode": "22902"}}},
{"geometry": {"type": "Point", "coordinates": [-78.4882788681, 38.0310615964]}, "type": "Feature", "properties": {"collection_times": [{"days": "Mon-Fri", "time": "5:00pm"}, {"days": "Sat", "time": "8:00am"}, {"days": "Sun", "time": "Closed"}], "id": "2290200048", "name": "USPS COLLECTION BOX - PO LOBBY", "address": {"city": "CHARLOTTESVILLE", "state": "VA", "street": "513 E MAIN ST", "postcode": "22902"}}},
{"geometry": {"type": "Point", "coordinates": [-78.4836975413, 38.0337443557]}, "type": "Feature", "properties": {"collection_times": [{"days": "Mon-Fri", "time": "5:00pm"}, {"days": "Sat", "time": "1:00pm"}, {"days": "Sun", "time": "Closed"}], "id": "2290200051", "name": "USPS COLLECTION BOX - BLUE BOX", "address": {"city": "CHARLOTTESVILLE", "state": "VA", "street": "300 PRESTON AVE", "postcode": "22902"}}},
{"geometry": {"type": "Point", "coordinates": [-78.5122073199, 38.0481865548]}, "type": "Feature", "properties": {"collection_times": [{"days": "Mon-Fri", "time": "5:00pm"}, {"days": "Sat-Sun", "time": "Closed"}], "id": "2290300000", "name": "USPS COLLECTION BOX - BLUE BOX", "address": {"city": "CHARLOTTESVILLE", "state": "VA", "street": "520 MASSIE RD", "postcode": "22903"}}},
{"geometry": {"type": "Point", "coordinates": [-78.5057771971, 38.0532976761]}, "type": "Feature", "properties": {"collection_times": [{"days": "Mon-Fri", "time": "5:00pm"}, {"days": "Sat-Sun", "time": "Closed"}], "id": "2290300001", "name": "USPS COLLECTION BOX - BLUE BOX", "address": {"city": "CHARLOTTESVILLE", "state": "VA", "street": "600 MASSIE RD", "postcode": "22903"}}},
{"geometry": {"type": "Point", "coordinates": [-78.5143938702, 38.0365280498]}, "type": "Feature", "properties": {"collection_times": [{"days": "Mon-Fri", "time": "5:00pm"}, {"days": "Sat", "time": "1:00pm"}, {"days": "Sun", "time": "Closed"}], "id": "2290300002", "name": "USPS COLLECTION BOX - BLUE BOX", "address": {"city": "CHARLOTTESVILLE", "state": "VA", "street": "575 ALDERMAN RD", "postcode": "22903"}}},
{"geometry": {"type": "Point", "coordinates": [-78.5135882754, 38.032238641]}, "type": "Feature", "properties": {"collection_times": [{"days": "Mon-Fri", "time": "5:00pm"}, {"days": "Sat", "time": "1:00pm"}, {"days": "Sun", "time": "Closed"}], "id": "2290300003", "name": "USPS COLLECTION BOX - BLUE BOX", "address": {"city": "CHARLOTTESVILLE", "state": "VA", "street": "450 WHITEHEAD RD", "postcode": "22903"}}},
{"geometry": {"type": "Point", "coordinates": [-78.499661804, 38.0340540035]}, "type": "Feature", "properties": {"collection_times": [{"days": "Mon-Sat", "time": "1:00pm"}, {"days": "Sun", "time": "Closed"}], "id": "2290300004", "name": "USPS COLLECTION BOX - BLUE BOX", "address": {"city": "CHARLOTTESVILLE", "state": "VA", "street": "1404 UNIVERSITY AVE", "postcode": "22903"}}},
{"geometry": {"type": "Point", "coordinates": [-78.5036432012, 38.0319691831]}, "type": "Feature", "properties": {"collection_times": [{"days": "Mon-Fri", "time": "4:00pm"}, {"days": "Sat", "time": "11:00am"}, {"days": "Sun", "time": "Closed"}], "id": "2290300008", "name": "USPS COLLECTION BOX - BLUE BOX", "address": {"city": "CHARLOTTESVILLE", "state": "VA", "street": "400 BRANDON AVE", "postcode": "22903"}}},
{"geometry": {"type": "Point", "coordinates": [-78.515155604, 38.0259905712]}, "type": "Feature", "properties": {"collection_times": [{"days": "Mon-Fri", "time": "5:00pm"}, {"days": "Sat", "time": "10:30am"}, {"days": "Sun", "time": "Closed"}], "id": "2290300010", "name": "USPS COLLECTION BOX - BLUE BOX", "address": {"city": "CHARLOTTESVILLE", "state": "VA", "street": "2203 FONTAINE AVE", "postcode": "22903"}}},
{"geometry": {"type": "Point", "coordinates": [-78.5045642199, 38.0482142747]}, "type": "Feature", "properties": {"collection_times": [{"days": "Mon-Fri", "time": "11:00am"}, {"days": "Sat", "time": "1:00pm"}, {"days": "Sun", "time": "Closed"}], "id": "2290300015", "name": "USPS COLLECTION BOX - BLUE BOX", "address": {"city": "CHARLOTTESVILLE", "state": "VA", "street": "1936 ARLINGTON BLVD", "postcode": "22903"}}},
{"geometry": {"type": "Point", "coordinates": [-78.5015631041, 38.050642957]}, "type": "Feature", "properties": {"collection_times": [{"days": "Mon-Fri", "time": "5:00pm"}, {"days": "Sat", "time": "4:00pm"}, {"days": "Sun", "time": "Closed"}], "id": "2290300017", "name": "USPS COLLECTION BOX - BLUE BOX", "address": {"city": "CHARLOTTESVILLE", "state": "VA", "street": "973 EMMET ST N", "postcode": "22903"}}},
{"geometry": {"type": "Point", "coordinates": [-78.5015631041, 38.050642957]}, "type": "Feature", "properties": {"collection_times": [{"days": "Mon-Fri", "time": "5:00pm"}, {"days": "Sat", "time": "4:00pm"}, {"days": "Sun", "time": "Closed"}], "id": "2290300018", "name": "USPS COLLECTION BOX - BLUE BOX", "address": {"city": "CHARLOTTESVILLE", "state": "VA", "street": "973 EMMET ST N", "postcode": "22903"}}},
{"geometry": {"type": "Point", "coordinates": [-78.5010707018, 38.0355523001]}, "type": "Feature", "properties": {"collection_times": [{"days": "Mon-Fri", "time": "5:00pm"}, {"days": "Sat", "time": "11:00am"}, {"days": "Sun", "time": "Closed"}], "id": "2290300034", "name": "USPS COLLECTION BOX - BLUE BOX", "address": {"city": "CHARLOTTESVILLE", "state": "VA", "street": "1619 UNIVERSITY AVE", "postcode": "22903"}}},
{"geometry": {"type": "Point", "coordinates": [-78.486292768, 38.03051152]}, "type": "Feature", "properties": {"collection_times": [{"days": "Mon-Fri", "time": "5:00pm"}, {"days": "Sat", "time": "9:00am"}, {"days": "Sun", "time": "Closed"}], "id": "2290300035", "name": "USPS COLLECTION BOX - BLUE BOX", "address": {"city": "CHARLOTTESVILLE", "state": "VA", "street": "324 W MAIN ST", "postcode": "22903"}}},
{"geometry": {"type": "Point", "coordinates": [-78.492841933, 38.0322300984]}, "type": "Feature", "properties": {"collection_times": [{"days": "Mon-Sat", "time": "12:00pm"}, {"days": "Sun", "time": "Closed"}], "id": "2290300036", "name": "USPS COLLECTION BOX - BLUE BOX", "address": {"city": "CHARLOTTESVILLE", "state": "VA", "street": "909 W MAIN ST", "postcode": "22903"}}},
{"geometry": {"type": "Point", "coordinates": [-78.4782296317, 38.0408718751]}, "type": "Feature", "properties": {"collection_times": [{"days": "Mon-Fri", "time": "5:00pm"}, {"days": "Sat", "time": "9:45am"}, {"days": "Sun", "time": "Closed"}], "id": "2290300049", "name": "USPS COLLECTION BOX - BLUE BOX", "address": {"city": "CHARLOTTESVILLE", "state": "VA", "street": "1701 ALLIED ST", "postcode": "22903"}}},
{"geometry": {"type": "Point", "coordinates": [-78.4830584702, 38.0378340365]}, "type": "Feature", "properties": {"collection_times": [{"days": "Mon-Fri", "time": "5:00pm"}, {"days": "Sat", "time": "9:30am"}, {"days": "Sun", "time": "Closed"}], "id": "2290300050", "name": "USPS COLLECTION BOX - BLUE BOX", "address": {"city": "CHARLOTTESVILLE", "state": "VA", "street": "600 CONCORD AVE", "postcode": "22903"}}},
{"geometry": {"type": "Point", "coordinates": [-78.4898766184, 38.0378008086]}, "type": "Feature", "properties": {"collection_times": [{"days": "Mon-Fri", "time": "5:00pm"}, {"days": "Sat", "time": "10:00am"}, {"days": "Sun", "time": "Closed"}], "id": "2290300051", "name": "USPS COLLECTION BOX - BLUE BOX", "address": {"city": "CHARLOTTESVILLE", "state": "VA", "street": "941 PRESTON AVE", "postcode": "22903"}}},
{"geometry": {"type": "Point", "coordinates": [-78.5423676671, 38.0495801764]}, "type": "Feature", "properties": {"collection_times": [{"days": "Mon-Fri", "time": "5:00pm"}, {"days": "Sat", "time": "12:00pm"}, {"days": "Sun", "time": "Closed"}], "id": "2290300052", "name": "USPS COLLECTION BOX - BLUE BOX", "address": {"city": "CHARLOTTESVILLE", "state": "VA", "street": "1 VILLAGE GREEN CIR", "postcode": "22903"}}},
{"geometry": {"type": "Point", "coordinates": [-78.5003267937, 38.0539997101]}, "type": "Feature", "properties": {"collection_times": [{"days": "Mon-Sat", "time": "10:00am"}, {"days": "Sun", "time": "Closed"}], "id": "2290300056", "name": "USPS COLLECTION BOX - BLUE BOX", "address": {"city": "CHARLOTTESVILLE", "state": "VA", "street": "2132 BARRACKS RD", "postcode": "22903"}}},
{"geometry": {"type": "Point", "coordinates": [-78.4980105202, 38.0542759875]}, "type": "Feature", "properties": {"collection_times": [{"days": "Mon-Fri", "time": "5:00pm"}, {"days": "Sat", "time": "9:30am"}, {"days": "Sun", "time": "Closed"}], "id": "2290300057", "name": "USPS COLLECTION BOX - BLUE BOX", "address": {"city": "CHARLOTTESVILLE", "state": "VA", "street": "1301 EMMET ST N", "postcode": "22903"}}},
{"geometry": {"type": "Point", "coordinates": [-78.4998521992, 38.0521645911]}, "type": "Feature", "properties": {"collection_times": [{"days": "Mon-Sat", "time": "2:00pm"}, {"days": "Sun", "time": "Closed"}], "id": "2290300058", "name": "USPS COLLECTION BOX - BLUE BOX", "address": {"city": "CHARLOTTESVILLE", "state": "VA", "street": "1137 EMMET ST N", "postcode": "22903"}}},
{"geometry": {"type": "Point", "coordinates": [-78.5283177775, 38.0496577763]}, "type": "Feature", "properties": {"collection_times": [{"days": "Mon-Sat", "time": "11:30am"}, {"days": "Sun", "time": "Closed"}], "id": "2290300061", "name": "USPS COLLECTION BOX - BLUE BOX", "address": {"city": "CHARLOTTESVILLE", "state": "VA", "street": "1 CANTERBURY RD", "postcode": "22903"}}},
{"geometry": {"type": "Point", "coordinates": [-78.5247515145, 38.0511244964]}, "type": "Feature", "properties": {"collection_times": [{"days": "Mon-Fri", "time": "5:00pm"}, {"days": "Sat", "time": "10:30am"}, {"days": "Sun", "time": "Closed"}], "id": "2290300062", "name": "USPS COLLECTION BOX - BLUE BOX", "address": {"city": "CHARLOTTESVILLE", "state": "VA", "street": "505 FAULCONER DR", "postcode": "22903"}}},
{"geometry": {"type": "Point", "coordinates": [-78.5995012549, 38.0144065376]}, "type": "Feature", "properties": {"collection_times": [{"days": "Mon-Fri", "time": "5:00pm"}, {"days": "Sat-Sun", "time": "Closed"}], "id": "2290300065", "name": "USPS COLLECTION BOX - BLUE BOX", "address": {"city": "CHARLOTTESVILLE", "state": "VA", "street": "100 MCCORMICK RD", "postcode": "22903"}}},
{"geometry": {"type": "Point", "coordinates": [-78.4951442951, 38.0547390791]}, "type": "Feature", "properties": {"collection_times": [{"days": "Mon-Fri", "time": "5:00pm"}, {"days": "Sat", "time": "10:00am"}, {"days": "Sun", "time": "Closed"}], "id": "2290300072", "name": "USPS COLLECTION BOX - BLUE BOX", "address": {"city": "CHARLOTTESVILLE", "state": "VA", "street": "1 MORTON DR", "postcode": "22903"}}},
{"geometry": {"type": "Point", "coordinates": [-78.501575644, 38.0522726462]}, "type": "Feature", "properties": {"collection_times": [{"days": "Mon-Fri", "time": "5:00pm"}, {"days": "Sat", "time": "1:00pm"}, {"days": "Sun", "time": "Closed"}], "id": "2290300073", "name": "USPS COLLECTION BOX - BLUE BOX", "address": {"city": "CHARLOTTESVILLE", "state": "VA", "street": "2150 WISE ST", "postcode": "22903"}}},
{"geometry": {"type": "Point", "coordinates": [-78.5006681051, 38.0351129539]}, "type": "Feature", "properties": {"collection_times": [{"days": "Mon-Fri", "time": "5:00pm"}, {"days": "Sat-Sun", "time": "Closed"}], "id": "2290300079", "name": "USPS COLLECTION BOX - EXPRESS", "address": {"city": "CHARLOTTESVILLE", "state": "VA", "street": "2150 WISE ST", "postcode": "22903"}}},
{"geometry": {"type": "Point", "coordinates": [-78.524605155, 38.0264991585]}, "type": "Feature", "properties": {"collection_times": [{"days": "Mon-Fri", "time": "5:00pm"}, {"days": "Sat", "time": "2:00pm"}, {"days": "Sun", "time": "Closed"}], "id": "2290300086", "name": "USPS COLLECTION BOX - BLUE BOX", "address": {"city": "CHARLOTTESVILLE", "state": "VA", "street": "400 RAY C HUNT DR", "postcode": "22903"}}},
{"geometry": {"type": "Point", "coordinates": [-78.4840001055, 38.0429692614]}, "type": "Feature", "properties": {"collection_times": [{"days": "Mon-Fri", "time": "5:00pm"}, {"days": "Sat", "time": "9:30am"}, {"days": "Sun", "time": "Closed"}], "id": "2290300088", "name": "USPS COLLECTION BOX - BLUE BOX", "address": {"city": "CHARLOTTESVILLE", "state": "VA", "street": "1143 ROSE HILL DR", "postcode": "22903"}}},
{"geometry": {"type": "Point", "coordinates": [-78.5121941457, 38.043066101]}, "type": "Feature", "properties": {"collection_times": [{"days": "Mon-Fri", "time": "5:00pm"}, {"days": "Sat", "time": "1:00pm"}, {"days": "Sun", "time": "Closed"}], "id": "2290300089", "name": "USPS COLLECTION BOX - BLUE BOX", "address": {"city": "CHARLOTTESVILLE", "state": "VA", "street": "2125 IVY RD", "postcode": "22903"}}},
{"geometry": {"type": "Point", "coordinates": [-78.500763817, 38.0565058608]}, "type": "Feature", "properties": {"collection_times": [{"days": "Mon-Sat", "time": "10:00am"}, {"days": "Sun", "time": "Closed"}], "id": "2290300090", "name": "USPS COLLECTION BOX - BLUE BOX", "address": {"city": "CHARLOTTESVILLE", "state": "VA", "street": "1228 CEDARS CT", "postcode": "22903"}}},
{"geometry": {"type": "Point", "coordinates": [-78.5047377466, 38.0371975818]}, "type": "Feature", "properties": {"collection_times": [{"days": "Mon-Fri", "time": "5:00pm"}, {"days": "Sat-Sun", "time": "Closed"}], "id": "2290300091", "name": "USPS COLLECTION BOX - BLUE BOX", "address": {"city": "CHARLOTTESVILLE", "state": "VA", "street": "201 MCCORMICK RD", "postcode": "22903"}}},
{"geometry": {"type": "Point", "coordinates": [-78.5014734249, 38.0521887938]}, "type": "Feature", "properties": {"collection_times": [{"days": "Mon-Fri", "time": "5:00pm"}, {"days": "Sat", "time": "8:00am"}, {"days": "Sun", "time": "Closed"}], "id": "2290500000", "name": "USPS COLLECTION BOX - PO LOBBY", "address": {"city": "CHARLOTTESVILLE", "state": "VA", "street": "2150 WISE ST", "postcode": "22905"}}},
{"geometry": {"type": "Point", "coordinates": [-78.5014734249, 38.0521887938]}, "type": "Feature", "properties": {"collection_times": [{"days": "Mon-Fri", "time": "5:00pm"}, {"days": "Sat", "time": "1:00pm"}, {"days": "Sun", "time": "Closed"}], "id": "2290500002", "name": "USPS COLLECTION BOX - APC", "address": {"city": "CHARLOTTESVILLE", "state": "VA", "street": "2150 WISE ST", "postcode": "22905"}}},
{"geometry": {"type": "Point", "coordinates": [-78.4845064784, 38.0697228194]}, "type": "Feature", "properties": {"collection_times": [{"days": "Mon-Sat", "time": "5:00pm"}, {"days": "Sun", "time": "Closed"}], "id": "2290600000", "name": "USPS COLLECTION BOX - BLUE BOX", "address": {"city": "CHARLOTTESVILLE", "state": "VA", "street": "1155 SEMINOLE TRL", "postcode": "22906"}}},
{"geometry": {"type": "Point", "coordinates": [-78.4845064784, 38.0697228194]}, "type": "Feature", "properties": {"collection_times": [{"days": "Mon-Sat", "time": "5:00pm"}, {"days": "Sun", "time": "Closed"}], "id": "2290600004", "name": "USPS COLLECTION BOX - BLUE BOX", "address": {"city": "CHARLOTTESVILLE", "state": "VA", "street": "1155 SEMINOLE TRL", "postcode": "22906"}}},
{"geometry": {"type": "Point", "coordinates": [-78.4845064784, 38.0697228194]}, "type": "Feature", "properties": {"collection_times": [{"days": "Mon-Sat", "time": "5:00pm"}, {"days": "Sun", "time": "Closed"}], "id": "2290600005", "name": "USPS COLLECTION BOX - PO LOBBY", "address": {"city": "CHARLOTTESVILLE", "state": "VA", "street": "1155 SEMINOLE TRL", "postcode": "22906"}}},
{"geometry": {"type": "Point", "coordinates": [-78.4845064784, 38.0697228194]}, "type": "Feature", "properties": {"collection_times": [{"days": "Mon-Sat", "time": "5:00pm"}, {"days": "Sun", "time": "Closed"}], "id": "2290600007", "name": "USPS COLLECTION BOX - APC", "address": {"city": "CHARLOTTESVILLE", "state": "VA", "street": "1155 SEMINOLE TRL", "postcode": "22906"}}},
{"geometry": {"type": "Point", "coordinates": [-78.4567980348, 38.0315694]}, "type": "Feature", "properties": {"collection_times": [{"days": "Mon-Fri", "time": "4:00pm"}, {"days": "Sat", "time": "10:00am"}, {"days": "Sun", "time": "Closed"}], "id": "2291100001", "name": "USPS COLLECTION BOX - BLUE BOX", "address": {"city": "CHARLOTTESVILLE", "state": "VA", "street": "560 PANTOPS SHOPPING CTR", "postcode": "22911"}}},
{"geometry": {"type": "Point", "coordinates": [-78.4371431009, 38.1284971946]}, "type": "Feature", "properties": {"collection_times": [{"days": "Mon-Sat", "time": "11:30am"}, {"days": "Sun", "time": "Closed"}], "id": "2291100003", "name": "USPS COLLECTION BOX - BLUE BOX", "address": {"city": "CHARLOTTESVILLE", "state": "VA", "street": "1764 TIMBERWOOD BLVD", "postcode": "22911"}}},
{"geometry": {"type": "Point", "coordinates": [-78.4496867789, 38.037265117]}, "type": "Feature", "properties": {"collection_times": [{"days": "Mon-Sat", "time": "10:00am"}, {"days": "Sun", "time": "Closed"}], "id": "2291100004", "name": "USPS COLLECTION BOX - BLUE BOX", "address": {"city": "CHARLOTTESVILLE", "state": "VA", "street": "1475 WILTON FARM RD", "postcode": "22911"}}},
{"geometry": {"type": "Point", "coordinates": [-78.4455978053, 38.0251783379]}, "type": "Feature", "properties": {"collection_times": [{"days": "Mon-Fri", "time": "4:00pm"}, {"days": "Sat", "time": "11:00am"}, {"days": "Sun", "time": "Closed"}], "id": "2291100006", "name": "USPS COLLECTION BOX - BLUE BOX", "address": {"city": "CHARLOTTESVILLE", "state": "VA", "street": "1575 STATE FARM BLVD", "postcode": "22911"}}},
{"geometry": {"type": "Point", "coordinates": [-78.4373668812, 38.0232701709]}, "type": "Feature", "properties": {"collection_times": [{"days": "Mon-Fri", "time": "4:00pm"}, {"days": "Sat-Sun", "time": "Closed"}], "id": "2291100009", "name": "USPS COLLECTION BOX - BLUE BOX", "address": {"city": "CHARLOTTESVILLE", "state": "VA", "street": "675 PETER JEFFERSON PKWY", "postcode": "22911"}}},
{"geometry": {"type": "Point", "coordinates": [-78.4085150339, 38.1601336958]}, "type": "Feature", "properties": {"collection_times": [{"days": "Mon-Sat", "time": "11:00am"}, {"days": "Sun", "time": "Closed"}], "id": "2291100011", "name": "USPS COLLECTION BOX - BLUE BOX", "address": {"city": "CHARLOTTESVILLE", "state": "VA", "street": "2055 BOULDERS RD", "postcode": "22911"}}},
{"geometry": {"type": "Point", "coordinates": [-78.4181589754, 38.0168649059]}, "type": "Feature", "properties": {"collection_times": [{"days": "Mon-Fri", "time": "4:00pm"}, {"days": "Sat", "time": "11:00am"}, {"days": "Sun", "time": "Closed"}], "id": "2291100012", "name": "USPS COLLECTION BOX - BLUE BOX", "address": {"city": "CHARLOTTESVILLE", "state": "VA", "street": "2320 HUNTERS WAY", "postcode": "22911"}}},
{"geometry": {"type": "Point", "coordinates": [-78.4490685102, 38.1393851489]}, "type": "Feature", "properties": {"collection_times": [{"days": "Mon-Fri", "time": "10:00am"}, {"days": "Sat-Sun", "time": "Closed"}], "id": "2291100013", "name": "USPS COLLECTION BOX - BLUE BOX", "address": {"city": "CHARLOTTESVILLE", "state": "VA", "street": "100 BOWEN LOOP", "postcode": "22911"}}},
{"geometry": {"type": "Point", "coordinates": [-78.4472678873, 38.119300202]}, "type": "Feature", "properties": {"collection_times": [{"days": "Mon-Fri", "time": "10:00am"}, {"days": "Sat-Sun", "time": "Closed"}], "id": "2291100014", "name": "USPS COLLECTION BOX - BLUE BOX", "address": {"city": "CHARLOTTESVILLE", "state": "VA", "street": "1522A INSURANCE LN", "postcode": "22911"}}},
{"geometry": {"type": "Point", "coordinates": [-78.845625159, 38.0287411938]}, "type": "Feature", "properties": {"collection_times": [{"days": "Mon-Fri", "time": "4:30pm"}, {"days": "Sat", "time": "11:00am"}, {"days": "Sun", "time": "Closed"}], "id": "2292000001", "name": "USPS COLLECTION BOX - BLUE BOX", "address": {"city": "AFTON", "state": "VA", "street": "3154 AFTON MOUNTAIN RD", "postcode": "22920"}}},
{"geometry": {"type": "Point", "coordinates": [-78.845625159, 38.0287411938]}, "type": "Feature", "properties": {"collection_times": [{"days": "Mon-Fri", "time": "4:30pm"}, {"days": "Sat", "time": "11:00am"}, {"days": "Sun", "time": "Closed"}], "id": "2292000002", "name": "USPS COLLECTION BOX - PO LOBBY", "address": {"city": "AFTON", "state": "VA", "street": "3154 AFTON MOUNTAIN RD", "postcode": "22920"}}},
{"geometry": {"type": "Point", "coordinates": [-78.9010416991, 37.6825949615]}, "type": "Feature", "properties": {"collection_times": [{"days": "Mon-Fri", "time": "3:45pm"}, {"days": "Sat", "time": "10:30am"}, {"days": "Sun", "time": "Closed"}], "id": "2292200000", "name": "USPS COLLECTION BOX - BLUE BOX", "address": {"city": "ARRINGTON", "state": "VA", "street": "17 PHOENIX RD", "postcode": "22922"}}},
{"geometry": {"type": "Point", "coordinates": [-78.9010416991, 37.6825949615]}, "type": "Feature", "properties": {"collection_times": [{"days": "Mon-Fri", "time": "3:45pm"}, {"days": "Sat", "time": "10:30am"}, {"days": "Sun", "time": "Closed"}], "id": "2292200001", "name": "USPS COLLECTION BOX - PO LOBBY", "address": {"city": "ARRINGTON", "state": "VA", "street": "17 PHOENIX RD", "postcode": "22922"}}},
{"geometry": {"type": "Point", "coordinates": [-78.2806704945, 38.1692190849]}, "type": "Feature", "properties": {"collection_times": [{"days": "Mon-Fri", "time": "3:45pm"}, {"days": "Sat", "time": "10:30am"}, {"days": "Sun", "time": "Closed"}], "id": "2292300002", "name": "USPS COLLECTION BOX - PO LOBBY", "address": {"city": "BARBOURSVILLE", "state": "VA", "street": "5285 BARBOURSVILLE COMM CTR DR", "postcode": "22923"}}},
{"geometry": {"type": "Point", "coordinates": [-78.2806704945, 38.1692190849]}, "type": "Feature", "properties": {"collection_times": [{"days": "Mon-Fri", "time": "3:45pm"}, {"days": "Sat", "time": "10:30am"}, {"days": "Sun", "time": "Closed"}], "id": "2292300003", "name": "USPS COLLECTION BOX - BLUE BOX", "address": {"city": "BARBOURSVILLE", "state": "VA", "street": "5285 BARBOURSVILLE COMM CTR DR", "postcode": "22923"}}},
{"geometry": {"type": "Point", "coordinates": [-78.27918, 38.17118]}, "type": "Feature", "properties": {"collection_times": [{"days": "Mon-Sat", "time": "1:00pm"}, {"days": "Sun", "time": "Closed"}], "id": "2292300005", "name": "USPS COLLECTION BOX - BLUE BOX", "address": {"city": "BARBOURSVILLE", "state": "VA", "street": "5515 SPOTSWOOD TRL", "postcode": "22923"}}},
{"geometry": {"type": "Point", "coordinates": [-78.7209968436, 37.9953324988]}, "type": "Feature", "properties": {"collection_times": [{"days": "Mon-Fri", "time": "2:30pm"}, {"days": "Sat", "time": "11:15am"}, {"days": "Sun", "time": "Closed"}], "id": "2292400000", "name": "USPS COLLECTION BOX - PO LOBBY", "address": {"city": "BATESVILLE", "state": "VA", "street": "6620 PLANK RD", "postcode": "22924"}}},
{"geometry": {"type": "Point", "coordinates": [-78.7043392253, 37.8909247286]}, "type": "Feature", "properties": {"collection_times": [{"days": "Mon-Fri", "time": "4:45pm"}, {"days": "Sat", "time": "10:00am"}, {"days": "Sun", "time": "Closed"}], "id": "2293100000", "name": "USPS COLLECTION BOX - BLUE BOX", "address": {"city": "COVESVILLE", "state": "VA", "street": "5912 COVESVILLE STORE RD", "postcode": "22931"}}},
{"geometry": {"type": "Point", "coordinates": [-78.7043392253, 37.8909247286]}, "type": "Feature", "properties": {"collection_times": [{"days": "Mon-Fri", "time": "4:45pm"}, {"days": "Sat", "time": "10:00am"}, {"days": "Sun", "time": "Closed"}], "id": "2293100001", "name": "USPS COLLECTION BOX - PO LOBBY", "address": {"city": "COVESVILLE", "state": "VA", "street": "5912 COVESVILLE STORE RD", "postcode": "22931"}}},
{"geometry": {"type": "Point", "coordinates": [-78.7008167495, 38.0694510257]}, "type": "Feature", "properties": {"collection_times": [{"days": "Mon-Fri", "time": "4:00pm"}, {"days": "Sat", "time": "11:00am"}, {"days": "Sun", "time": "Closed"}], "id": "2293200001", "name": "USPS COLLECTION BOX - BLUE BOX", "address": {"city": "CROZET", "state": "VA", "street": "1210 CROZET AVE", "postcode": "22932"}}},
{"geometry": {"type": "Point", "coordinates": [-78.7008167495, 38.0694510257]}, "type": "Feature", "properties": {"collection_times": [{"days": "Mon-Fri", "time": "4:00pm"}, {"days": "Sat", "time": "11:00am"}, {"days": "Sun", "time": "Closed"}], "id": "2293200006", "name": "USPS COLLECTION BOX - PO LOBBY", "address": {"city": "CROZET", "state": "VA", "street": "1210 CROZET AVE", "postcode": "22932"}}},
{"geometry": {"type": "Point", "coordinates": [-78.5395824535, 38.253842887]}, "type": "Feature", "properties": {"collection_times": [{"days": "Mon-Fri", "time": "4:30pm"}, {"days": "Sat", "time": "10:30am"}, {"days": "Sun", "time": "Closed"}], "id": "2293500000", "name": "USPS COLLECTION BOX - BLUE BOX", "address": {"city": "DYKE", "state": "VA", "street": "8607 DYKE RD", "postcode": "22935"}}},
{"geometry": {"type": "Point", "coordinates": [-78.4756014666, 38.1500124966]}, "type": "Feature", "properties": {"collection_times": [{"days": "Mon-Fri", "time": "4:45pm"}, {"days": "Sat", "time": "11:00am"}, {"days": "Sun", "time": "Closed"}], "id": "2293600000", "name": "USPS COLLECTION BOX - BLUE BOX", "address": {"city": "EARLYSVILLE", "state": "VA", "street": "675 BENT OAKS DR", "postcode": "22936"}}},
{"geometry": {"type": "Point", "coordinates": [-78.4756014666, 38.1500124966]}, "type": "Feature", "properties": {"collection_times": [{"days": "Mon-Fri", "time": "4:45pm"}, {"days": "Sat", "time": "11:00am"}, {"days": "Sun", "time": "Closed"}], "id": "2293600002", "name": "USPS COLLECTION BOX - PO LOBBY", "address": {"city": "EARLYSVILLE", "state": "VA", "street": "675 BENT OAKS DR", "postcode": "22936"}}},
{"geometry": {"type": "Point", "coordinates": [-78.6076131602, 37.8295426713]}, "type": "Feature", "properties": {"collection_times": [{"days": "Mon-Fri", "time": "4:30pm"}, {"days": "Sat", "time": "10:30am"}, {"days": "Sun", "time": "Closed"}], "id": "2293700000", "name": "USPS COLLECTION BOX - BLUE BOX", "address": {"city": "ESMONT", "state": "VA", "street": "7514 ESMONT RD", "postcode": "22937"}}},
{"geometry": {"type": "Point", "coordinates": [-78.6076131602, 37.8295426713]}, "type": "Feature", "properties": {"collection_times": [{"days": "Mon-Fri", "time": "4:30pm"}, {"days": "Sat", "time": "10:30am"}, {"days": "Sun", "time": "Closed"}], "id": "2293700001", "name": "USPS COLLECTION BOX - PO LOBBY", "address": {"city": "ESMONT", "state": "VA", "street": "7514 ESMONT RD", "postcode": "22937"}}},
{"geometry": {"type": "Point", "coordinates": [-78.7372777685, 37.8314118722]}, "type": "Feature", "properties": {"collection_times": [{"days": "Mon-Fri", "time": "3:00pm"}, {"days": "Sat", "time": "10:00am"}, {"days": "Sun", "time": "Closed"}], "id": "2293800000", "name": "USPS COLLECTION BOX - BLUE BOX", "address": {"city": "FABER", "state": "VA", "street": "68 POST OFFICE LN", "postcode": "22938"}}},
{"geometry": {"type": "Point", "coordinates": [-78.7373495941, 37.8308505602]}, "type": "Feature", "properties": {"collection_times": [{"days": "Mon-Fri", "time": "12:00pm"}, {"days": "Sat", "time": "10:00am"}, {"days": "Sun", "time": "Closed"}], "id": "2293800001", "name": "USPS COLLECTION BOX - PO LOBBY", "address": {"city": "FABER", "state": "VA", "street": "68 POST OFFICE LN", "postcode": "22938"}}},
{"geometry": {"type": "Point", "coordinates": [-78.9774845712, 38.1037434735]}, "type": "Feature", "properties": {"collection_times": [{"days": "Mon-Fri", "time": "5:00pm"}, {"days": "Sat", "time": "11:00am"}, {"days": "Sun", "time": "Closed"}], "id": "2293900000", "name": "USPS COLLECTION BOX - BLUE BOX", "address": {"city": "FISHERSVILLE", "state": "VA", "street": "1595 JEFFERSON HWY", "postcode": "22939"}}},
{"geometry": {"type": "Point", "coordinates": [-78.9866363408, 38.0930966878]}, "type": "Feature", "properties": {"collection_times": [{"days": "Mon-Sat", "time": "9:00am"}, {"days": "Sun", "time": "Closed"}], "id": "2293900001", "name": "USPS COLLECTION BOX - BLUE BOX", "address": {"city": "FISHERSVILLE", "state": "VA", "street": "70 MEDICAL CENTER DR", "postcode": "22939"}}},
{"geometry": {"type": "Point", "coordinates": [-78.9774845712, 38.1037434735]}, "type": "Feature", "properties": {"collection_times": [{"days": "Mon-Fri", "time": "5:00pm"}, {"days": "Sat", "time": "11:00am"}, {"days": "Sun", "time": "Closed"}], "id": "2293900004", "name": "USPS COLLECTION BOX - PO LOBBY", "address": {"city": "FISHERSVILLE", "state": "VA", "street": "1595 JEFFERSON HWY", "postcode": "22939"}}},
{"geometry": {"type": "Point", "coordinates": [-78.9774845712, 38.1037434735]}, "type": "Feature", "properties": {"collection_times": [{"days": "Mon-Fri", "time": "5:15pm"}, {"days": "Sat", "time": "11:00am"}, {"days": "Sun", "time": "Closed"}], "id": "2293900006", "name": "USPS COLLECTION BOX - BLUE BOX", "address": {"city": "FISHERSVILLE", "state": "VA", "street": "1595 JEFFERSON HWY", "postcode": "22939"}}},
{"geometry": {"type": "Point", "coordinates": [-78.5643687797, 38.1548931082]}, "type": "Feature", "properties": {"collection_times": [{"days": "Mon-Fri", "time": "4:30pm"}, {"days": "Sat", "time": "11:00am"}, {"days": "Sun", "time": "Closed"}], "id": "2294000000", "name": "USPS COLLECTION BOX - BLUE BOX", "address": {"city": "FREE UNION", "state": "VA", "street": "4270 FREE UNION RD", "postcode": "22940"}}},
{"geometry": {"type": "Point", "coordinates": [-78.5643687797, 38.1548931082]}, "type": "Feature", "properties": {"collection_times": [{"days": "Mon-Fri", "time": "4:30pm"}, {"days": "Sat", "time": "11:00am"}, {"days": "Sun", "time": "Closed"}], "id": "2294000001", "name": "USPS COLLECTION BOX - PO LOBBY", "address": {"city": "FREE UNION", "state": "VA", "street": "4270 FREE UNION RD", "postcode": "22940"}}},
{"geometry": {"type": "Point", "coordinates": [-78.5913483698, 38.1776421693]}, "type": "Feature", "properties": {"collection_times": [{"days": "Mon-Fri", "time": "4:30pm"}, {"days": "Sat", "time": "11:00am"}, {"days": "Sun", "time": "Closed"}], "id": "2294000002", "name": "USPS COLLECTION BOX - PO LOBBY", "address": {"city": "FREE UNION", "state": "VA", "street": "4270 FREE UNION RD", "postcode": "22940"}}},
{"geometry": {"type": "Point", "coordinates": [-78.2188623309, 37.9713942256]}, "type": "Feature", "properties": {"collection_times": [{"days": "Mon-Sat", "time": "11:00am"}, {"days": "Sun", "time": "Closed"}], "id": "2294200002", "name": "USPS COLLECTION BOX - BLUE BOX", "address": {"city": "ZION CROSSROADS", "state": "VA", "street": "11445 JAMES MADISON HWY", "postcode": "22942"}}},
{"geometry": {"type": "Point", "coordinates": [-78.1863421448, 38.1344731278]}, "type": "Feature", "properties": {"collection_times": [{"days": "Mon-Fri", "time": "4:30pm"}, {"days": "Sat", "time": "10:00am"}, {"days": "Sun", "time": "Closed"}], "id": "2294200003", "name": "USPS COLLECTION BOX - BLUE BOX", "address": {"city": "ZION CROSSROADS", "state": "VA", "street": "200 S MAIN ST", "postcode": "22942"}}},
{"geometry": {"type": "Point", "coordinates": [-78.1864737734, 38.134437032]}, "type": "Feature", "properties": {"collection_times": [{"days": "Mon-Fri", "time": "4:30pm"}, {"days": "Sat", "time": "10:00am"}, {"days": "Sun", "time": "Closed"}], "id": "2294200004", "name": "USPS COLLECTION BOX - PO LOBBY", "address": {"city": "ZION CROSSROADS", "state": "VA", "street": "201 S MAIN ST", "postcode": "22942"}}},
{"geometry": {"type": "Point", "coordinates": [-78.1864737734, 38.134437032]}, "type": "Feature", "properties": {"collection_times": [{"days": "Mon-Fri", "time": "4:30pm"}, {"days": "Sat", "time": "10:00am"}, {"days": "Sun", "time": "Closed"}], "id": "2294200005", "name": "USPS COLLECTION BOX - BLUE BOX", "address": {"city": "ZION CROSSROADS", "state": "VA", "street": "201 S MAIN ST", "postcode": "22942"}}},
{"geometry": {"type": "Point", "coordinates": [-78.7557750063, 38.0553853372]}, "type": "Feature", "properties": {"collection_times": [{"days": "Mon-Fri", "time": "4:00pm"}, {"days": "Sat", "time": "10:30am"}, {"days": "Sun", "time": "Closed"}], "id": "2294300000", "name": "USPS COLLECTION BOX - BLUE BOX", "address": {"city": "GREENWOOD", "state": "VA", "street": "788 GREENWOOD RD", "postcode": "22943"}}},
{"geometry": {"type": "Point", "coordinates": [-78.7557750063, 38.0553853372]}, "type": "Feature", "properties": {"collection_times": [{"days": "Mon-Fri", "time": "4:00pm"}, {"days": "Sat", "time": "10:30am"}, {"days": "Sun", "time": "Closed"}], "id": "2294300001", "name": "USPS COLLECTION BOX - PO LOBBY", "address": {"city": "GREENWOOD", "state": "VA", "street": "788 GREENWOOD RD", "postcode": "22943"}}},
{"geometry": {"type": "Point", "coordinates": [-78.5969111638, 38.0567644012]}, "type": "Feature", "properties": {"collection_times": [{"days": "Mon-Fri", "time": "3:45pm"}, {"days": "Sat", "time": "11:45am"}, {"days": "Sun", "time": "Closed"}], "id": "2294500000", "name": "USPS COLLECTION BOX - BLUE BOX", "address": {"city": "IVY", "state": "VA", "street": "4301 IVY RD", "postcode": "22945"}}},
{"geometry": {"type": "Point", "coordinates": [-78.5969111638, 38.0567644012]}, "type": "Feature", "properties": {"collection_times": [{"days": "Mon-Fri", "time": "4:00pm"}, {"days": "Sat", "time": "12:00pm"}, {"days": "Sun", "time": "Closed"}], "id": "2294500001", "name": "USPS COLLECTION BOX - PO LOBBY", "address": {"city": "IVY", "state": "VA", "street": "4301 IVY RD", "postcode": "22945"}}},
{"geometry": {"type": "Point", "coordinates": [-78.5573252853, 37.8613955851]}, "type": "Feature", "properties": {"collection_times": [{"days": "Mon-Fri", "time": "3:30pm"}, {"days": "Sat", "time": "10:30am"}, {"days": "Sun", "time": "Closed"}], "id": "2294600000", "name": "USPS COLLECTION BOX - BLUE BOX", "address": {"city": "KEENE", "state": "VA", "street": "6246 ESMONT RD", "postcode": "22946"}}},
{"geometry": {"type": "Point", "coordinates": [-78.5573252853, 37.8613955851]}, "type": "Feature", "properties": {"collection_times": [{"days": "Mon-Fri", "time": "3:30pm"}, {"days": "Sat", "time": "10:30am"}, {"days": "Sun", "time": "Closed"}], "id": "2294600001", "name": "USPS COLLECTION BOX - PO LOBBY", "address": {"city": "KEENE", "state": "VA", "street": "6246 ESMONT RD", "postcode": "22946"}}},
{"geometry": {"type": "Point", "coordinates": [-78.3771556373, 38.018258454]}, "type": "Feature", "properties": {"collection_times": [{"days": "Mon-Fri", "time": "4:45pm"}, {"days": "Sat", "time": "11:00am"}, {"days": "Sun", "time": "Closed"}], "id": "2294700001", "name": "USPS COLLECTION BOX - BLUE BOX", "address": {"city": "KESWICK", "state": "VA", "street": "3991 LOUISA RD", "postcode": "22947"}}},
{"geometry": {"type": "Point", "coordinates": [-78.3771556373, 38.018258454]}, "type": "Feature", "properties": {"collection_times": [{"days": "Mon-Fri", "time": "4:45pm"}, {"days": "Sat", "time": "11:00am"}, {"days": "Sun", "time": "Closed"}], "id": "2294700002", "name": "USPS COLLECTION BOX - PO LOBBY", "address": {"city": "KESWICK", "state": "VA", "street": "3991 LOUISA RD", "postcode": "22947"}}},
{"geometry": {"type": "Point", "coordinates": [-78.1273065422, 38.3286032052]}, "type": "Feature", "properties": {"collection_times": [{"days": "Mon-Fri", "time": "3:00pm"}, {"days": "Sat", "time": "1:00pm"}, {"days": "Sun", "time": "Closed"}], "id": "2294800000", "name": "USPS COLLECTION BOX - BLUE BOX", "address": {"city": "LOCUST DALE", "state": "VA", "street": "1296 N JAMES MADISON HWY", "postcode": "22948"}}},
{"geometry": {"type": "Point", "coordinates": [-78.8725344213, 37.7600488382]}, "type": "Feature", "properties": {"collection_times": [{"days": "Mon-Fri", "time": "4:30pm"}, {"days": "Sat", "time": "10:00am"}, {"days": "Sun", "time": "Closed"}], "id": "2294900001", "name": "USPS COLLECTION BOX - BLUE BOX", "address": {"city": "LOVINGSTON", "state": "VA", "street": "131 MAIN ST", "postcode": "22949"}}},
{"geometry": {"type": "Point", "coordinates": [-78.8725344213, 37.7600488382]}, "type": "Feature", "properties": {"collection_times": [{"days": "Mon-Fri", "time": "4:30pm"}, {"days": "Sat", "time": "10:00am"}, {"days": "Sun", "time": "Closed"}], "id": "2294900003", "name": "USPS COLLECTION BOX - PO LOBBY", "address": {"city": "LOVINGSTON", "state": "VA", "street": "131 MAIN ST", "postcode": "22949"}}},
{"geometry": {"type": "Point", "coordinates": [-78.8725344213, 37.7600488382]}, "type": "Feature", "properties": {"collection_times": [{"days": "Mon-Fri", "time": "4:30pm"}, {"days": "Sat", "time": "10:00am"}, {"days": "Sun", "time": "Closed"}], "id": "2294900004", "name": "USPS COLLECTION BOX - PO LOBBY", "address": {"city": "LOVINGSTON", "state": "VA", "street": "131 MAIN ST", "postcode": "22949"}}},
{"geometry": {"type": "Point", "coordinates": [-78.944786624, 38.0273667523]}, "type": "Feature", "properties": {"collection_times": [{"days": "Mon-Fri", "time": "4:15pm"}, {"days": "Sat", "time": "10:45am"}, {"days": "Sun", "time": "Closed"}], "id": "2295200000", "name": "USPS COLLECTION BOX - BLUE BOX", "address": {"city": "LYNDHURST", "state": "VA", "street": "555 MT TORREY RD", "postcode": "22952"}}},
{"geometry": {"type": "Point", "coordinates": [-78.944786624, 38.0273667523]}, "type": "Feature", "properties": {"collection_times": [{"days": "Mon-Fri", "time": "4:20pm"}, {"days": "Sat", "time": "10:45am"}, {"days": "Sun", "time": "Closed"}], "id": "2295200001", "name": "USPS COLLECTION BOX - PO LOBBY", "address": {"city": "LYNDHURST", "state": "VA", "street": "555 MT TORREY RD", "postcode": "22952"}}},
{"geometry": {"type": "Point", "coordinates": [-78.176617383, 38.2275711754]}, "type": "Feature", "properties": {"collection_times": [{"days": "Mon-Fri", "time": "4:30pm"}, {"days": "Sat", "time": "11:30am"}, {"days": "Sun", "time": "Closed"}], "id": "2295700002", "name": "USPS COLLECTION BOX - PO LOBBY", "address": {"city": "MNTPELIER STA", "state": "VA", "street": "11350 CONSTITUTION HWY", "postcode": "22957"}}},
{"geometry": {"type": "Point", "coordinates": [-78.8697733663, 37.8923824838]}, "type": "Feature", "properties": {"collection_times": [{"days": "Mon-Fri", "time": "3:00pm"}, {"days": "Sat", "time": "10:30am"}, {"days": "Sun", "time": "Closed"}], "id": "2295800000", "name": "USPS COLLECTION BOX - BLUE BOX", "address": {"city": "NELLYSFORD", "state": "VA", "street": "2663 ROCKFISH VALLEY HWY", "postcode": "22958"}}},
{"geometry": {"type": "Point", "coordinates": [-78.8697733663, 37.8923824838]}, "type": "Feature", "properties": {"collection_times": [{"days": "Mon-Fri", "time": "3:45pm"}, {"days": "Sat", "time": "10:30am"}, {"days": "Sun", "time": "Closed"}], "id": "2295800002", "name": "USPS COLLECTION BOX - PO LOBBY", "address": {"city": "NELLYSFORD", "state": "VA", "street": "2663 ROCKFISH VALLEY HWY", "postcode": "22958"}}},
{"geometry": {"type": "Point", "coordinates": [-78.6779526492, 37.969379249]}, "type": "Feature", "properties": {"collection_times": [{"days": "Mon-Fri", "time": "3:45pm"}, {"days": "Sat", "time": "10:45am"}, {"days": "Sun", "time": "Closed"}], "id": "2295900000", "name": "USPS COLLECTION BOX - BLUE BOX", "address": {"city": "NORTH GARDEN", "state": "VA", "street": "4917 PLANK RD", "postcode": "22959"}}},
{"geometry": {"type": "Point", "coordinates": [-78.6779526492, 37.969379249]}, "type": "Feature", "properties": {"collection_times": [{"days": "Mon-Fri", "time": "3:45pm"}, {"days": "Sat", "time": "10:45am"}, {"days": "Sun", "time": "Closed"}], "id": "2295900001", "name": "USPS COLLECTION BOX - PO LOBBY", "address": {"city": "NORTH GARDEN", "state": "VA", "street": "4917 PLANK RD", "postcode": "22959"}}},
{"geometry": {"type": "Point", "coordinates": [-78.6779526492, 37.969379249]}, "type": "Feature", "properties": {"collection_times": [{"days": "Mon-Fri", "time": "3:45pm"}, {"days": "Sat", "time": "10:45am"}, {"days": "Sun", "time": "Closed"}], "id": "2295900002", "name": "USPS COLLECTION BOX - PO LOBBY", "address": {"city": "NORTH GARDEN", "state": "VA", "street": "4917 PLANK RD", "postcode": "22959"}}},
{"geometry": {"type": "Point", "coordinates": [-78.0974971004, 38.245645153]}, "type": "Feature", "properties": {"collection_times": [{"days": "Mon-Fri", "time": "4:00pm"}, {"days": "Sat", "time": "12:00pm"}, {"days": "Sun", "time": "Closed"}], "id": "2296000001", "name": "USPS COLLECTION BOX - BLUE BOX", "address": {"city": "ORANGE", "state": "VA", "street": "200 SELMA RD", "postcode": "22960"}}},
{"geometry": {"type": "Point", "coordinates": [-78.1124191331, 38.2483791782]}, "type": "Feature", "properties": {"collection_times": [{"days": "Mon-Fri", "time": "4:00pm"}, {"days": "Sat", "time": "12:00pm"}, {"days": "Sun", "time": "Closed"}], "id": "2296000003", "name": "USPS COLLECTION BOX - BLUE BOX", "address": {"city": "ORANGE", "state": "VA", "street": "195 MADISON RD", "postcode": "22960"}}},
{"geometry": {"type": "Point", "coordinates": [-78.11113365, 38.2451112591]}, "type": "Feature", "properties": {"collection_times": [{"days": "Mon-Fri", "time": "4:00pm"}, {"days": "Sat", "time": "12:00pm"}, {"days": "Sun", "time": "Closed"}], "id": "2296000005", "name": "USPS COLLECTION BOX - BLUE BOX", "address": {"city": "ORANGE", "state": "VA", "street": "100 S MADISON RD", "postcode": "22960"}}},
{"geometry": {"type": "Point", "coordinates": [-78.1125587658, 38.2447297494]}, "type": "Feature", "properties": {"collection_times": [{"days": "Mon-Fri", "time": "5:00pm"}, {"days": "Sat", "time": "12:00pm"}, {"days": "Sun", "time": "Closed"}], "id": "2296000006", "name": "USPS COLLECTION BOX - BLUE BOX", "address": {"city": "ORANGE", "state": "VA", "street": "129 W MAIN ST", "postcode": "22960"}}},
{"geometry": {"type": "Point", "coordinates": [-78.1125587658, 38.2447297494]}, "type": "Feature", "properties": {"collection_times": [{"days": "Mon-Fri", "time": "5:00pm"}, {"days": "Sat", "time": "12:00pm"}, {"days": "Sun", "time": "Closed"}], "id": "2296000007", "name": "USPS COLLECTION BOX - PO LOBBY", "address": {"city": "ORANGE", "state": "VA", "street": "129 W MAIN ST", "postcode": "22960"}}},
{"geometry": {"type": "Point", "coordinates": [-78.2636122759, 37.862793479]}, "type": "Feature", "properties": {"collection_times": [{"days": "Mon-Fri", "time": "4:30pm"}, {"days": "Sat", "time": "11:00am"}, {"days": "Sun", "time": "Closed"}], "id": "2296300000", "name": "USPS COLLECTION BOX - BLUE BOX", "address": {"city": "PALMYRA", "state": "VA", "street": "13683 JAMES MADISON HWY", "postcode": "22963"}}},
{"geometry": {"type": "Point", "coordinates": [-78.3089495561, 37.9229187462]}, "type": "Feature", "properties": {"collection_times": [{"days": "Mon-Sat", "time": "10:00am"}, {"days": "Sun", "time": "Closed"}], "id": "2296300002", "name": "USPS COLLECTION BOX - BLUE BOX", "address": {"city": "PALMYRA", "state": "VA", "street": "100 CROFTON PL", "postcode": "22963"}}},
{"geometry": {"type": "Point", "coordinates": [-78.2636122759, 37.862793479]}, "type": "Feature", "properties": {"collection_times": [{"days": "Mon-Fri", "time": "4:30pm"}, {"days": "Sat", "time": "11:00am"}, {"days": "Sun", "time": "Closed"}], "id": "2296300004", "name": "USPS COLLECTION BOX - PO LOBBY", "address": {"city": "PALMYRA", "state": "VA", "street": "13683 JAMES MADISON HWY", "postcode": "22963"}}},
{"geometry": {"type": "Point", "coordinates": [-78.3415359822, 37.9043964838]}, "type": "Feature", "properties": {"collection_times": [{"days": "Mon-Sat", "time": "9:00am"}, {"days": "Sun", "time": "Closed"}], "id": "2296300006", "name": "USPS COLLECTION BOX - BLUE BOX", "address": {"city": "PALMYRA", "state": "VA", "street": "264 TURKEY SAG TRL", "postcode": "22963"}}},
{"geometry": {"type": "Point", "coordinates": [-79.0110890996, 37.7275251895]}, "type": "Feature", "properties": {"collection_times": [{"days": "Mon-Fri", "time": "4:00pm"}, {"days": "Sat", "time": "11:30am"}, {"days": "Sun", "time": "Closed"}], "id": "2296400000", "name": "USPS COLLECTION BOX - BLUE BOX", "address": {"city": "PINEY RIVER", "state": "VA", "street": "3577 PATRICK HENRY HWY", "postcode": "22964"}}},
{"geometry": {"type": "Point", "coordinates": [-79.0110890996, 37.7275251895]}, "type": "Feature", "properties": {"collection_times": [{"days": "Mon-Fri", "time": "4:00pm"}, {"days": "Sat", "time": "11:30am"}, {"days": "Sun", "time": "Closed"}], "id": "2296400001", "name": "USPS COLLECTION BOX - PO LOBBY", "address": {"city": "PINEY RIVER", "state": "VA", "street": "3577 PATRICK HENRY HWY", "postcode": "22964"}}},
{"geometry": {"type": "Point", "coordinates": [-78.3984672795, 38.2559158364]}, "type": "Feature", "properties": {"collection_times": [{"days": "Mon-Fri", "time": "3:45pm"}, {"days": "Sat", "time": "9:30am"}, {"days": "Sun", "time": "Closed"}], "id": "2296500000", "name": "USPS COLLECTION BOX - BLUE BOX", "address": {"city": "QUINQUE", "state": "VA", "street": "12817 SPOTSWOOD TRL", "postcode": "22965"}}},
{"geometry": {"type": "Point", "coordinates": [-78.9818498793, 37.7740201976]}, "type": "Feature", "properties": {"collection_times": [{"days": "Mon-Fri", "time": "3:30pm"}, {"days": "Sat", "time": "10:30am"}, {"days": "Sun", "time": "Closed"}], "id": "2296700000", "name": "USPS COLLECTION BOX - BLUE BOX", "address": {"city": "ROSELAND", "state": "VA", "street": "7877 PATRICK HENRY HWY", "postcode": "22967"}}},
{"geometry": {"type": "Point", "coordinates": [-78.9706778847, 37.9021167063]}, "type": "Feature", "properties": {"collection_times": [{"days": "Mon-Sat", "time": "10:30am"}, {"days": "Sun", "time": "Closed"}], "id": "2296700001", "name": "USPS COLLECTION BOX - BLUE BOX", "address": {"city": "ROSELAND", "state": "VA", "street": "1 WINTERGREEN DR", "postcode": "22967"}}},
{"geometry": {"type": "Point", "coordinates": [-78.9706778847, 37.9021167063]}, "type": "Feature", "properties": {"collection_times": [{"days": "Mon-Sat", "time": "10:45am"}, {"days": "Sun", "time": "Closed"}], "id": "2296700002", "name": "USPS COLLECTION BOX - BLUE BOX", "address": {"city": "ROSELAND", "state": "VA", "street": "1 WINTERGREEN DR", "postcode": "22967"}}},
{"geometry": {"type": "Point", "coordinates": [-78.9706778847, 37.9021167063]}, "type": "Feature", "properties": {"collection_times": [{"days": "Mon-Sat", "time": "11:00am"}, {"days": "Sun", "time": "Closed"}], "id": "2296700003", "name": "USPS COLLECTION BOX - BLUE BOX", "address": {"city": "ROSELAND", "state": "VA", "street": "1 WINTERGREEN DR", "postcode": "22967"}}},
{"geometry": {"type": "Point", "coordinates": [-78.9818498793, 37.7740201976]}, "type": "Feature", "properties": {"collection_times": [{"days": "Mon-Fri", "time": "3:45pm"}, {"days": "Sat", "time": "11:00am"}, {"days": "Sun", "time": "Closed"}], "id": "2296700004", "name": "USPS COLLECTION BOX - PO LOBBY", "address": {"city": "ROSELAND", "state": "VA", "street": "7877 PATRICK HENRY HWY", "postcode": "22967"}}},
{"geometry": {"type": "Point", "coordinates": [-78.3667093141, 38.2397398036]}, "type": "Feature", "properties": {"collection_times": [{"days": "Mon-Fri", "time": "5:00pm"}, {"days": "Sat", "time": "12:00pm"}, {"days": "Sun", "time": "Closed"}], "id": "2296800000", "name": "USPS COLLECTION BOX - BLUE BOX", "address": {"city": "RUCKERSVILLE", "state": "VA", "street": "8845 SEMINOLE TRL", "postcode": "22968"}}},
{"geometry": {"type": "Point", "coordinates": [-78.3667093141, 38.2397398036]}, "type": "Feature", "properties": {"collection_times": [{"days": "Mon-Fri", "time": "5:00pm"}, {"days": "Sat", "time": "12:00pm"}, {"days": "Sun", "time": "Closed"}], "id": "2296800001", "name": "USPS COLLECTION BOX - PO LOBBY", "address": {"city": "RUCKERSVILLE", "state": "VA", "street": "8845 SEMINOLE TRL", "postcode": "22968"}}},
{"geometry": {"type": "Point", "coordinates": [-78.7007087675, 37.7890135801]}, "type": "Feature", "properties": {"collection_times": [{"days": "Mon-Fri", "time": "4:00pm"}, {"days": "Sat", "time": "10:00am"}, {"days": "Sun", "time": "Closed"}], "id": "2296900000", "name": "USPS COLLECTION BOX - PO LOBBY", "address": {"city": "SCHUYLER", "state": "VA", "street": "6648 ROCKFISH RIVER RD", "postcode": "22969"}}},
{"geometry": {"type": "Point", "coordinates": [-78.7007087675, 37.7890135801]}, "type": "Feature", "properties": {"collection_times": [{"days": "Mon-Fri", "time": "4:00pm"}, {"days": "Sat", "time": "10:00am"}, {"days": "Sun", "time": "Closed"}], "id": "2296900001", "name": "USPS COLLECTION BOX - PO LOBBY", "address": {"city": "SCHUYLER", "state": "VA", "street": "6648 ROCKFISH RIVER RD", "postcode": "22969"}}},
{"geometry": {"type": "Point", "coordinates": [-78.8456685225, 37.7240717569]}, "type": "Feature", "properties": {"collection_times": [{"days": "Mon-Fri", "time": "4:00pm"}, {"days": "Sat", "time": "12:00pm"}, {"days": "Sun", "time": "Closed"}], "id": "2297100000", "name": "USPS COLLECTION BOX - BLUE BOX", "address": {"city": "SHIPMAN", "state": "VA", "street": "10697 JAMES RIVER RD", "postcode": "22971"}}},
{"geometry": {"type": "Point", "coordinates": [-78.8456685225, 37.7240717569]}, "type": "Feature", "properties": {"collection_times": [{"days": "Mon-Fri", "time": "4:00pm"}, {"days": "Sat", "time": "12:00pm"}, {"days": "Sun", "time": "Closed"}], "id": "2297100001", "name": "USPS COLLECTION BOX - PO LOBBY", "address": {"city": "SHIPMAN", "state": "VA", "street": "10697 JAMES RIVER RD", "postcode": "22971"}}},
{"geometry": {"type": "Point", "coordinates": [-78.2178298955, 38.2071055726]}, "type": "Feature", "properties": {"collection_times": [{"days": "Mon-Fri", "time": "4:30pm"}, {"days": "Sat", "time": "11:00am"}, {"days": "Sun", "time": "Closed"}], "id": "2297200001", "name": "USPS COLLECTION BOX - PO LOBBY", "address": {"city": "SOMERSET", "state": "VA", "street": "14257 BLUE RIDGE TPKE", "postcode": "22972"}}},
{"geometry": {"type": "Point", "coordinates": [-78.4412004242, 38.2964762171]}, "type": "Feature", "properties": {"collection_times": [{"days": "Mon-Fri", "time": "5:00pm"}, {"days": "Sat", "time": "11:30am"}, {"days": "Sun", "time": "Closed"}], "id": "2297300002", "name": "USPS COLLECTION BOX - PO LOBBY", "address": {"city": "STANARDSVILLE", "state": "VA", "street": "47 CELT RD", "postcode": "22973"}}},
{"geometry": {"type": "Point", "coordinates": [-78.4412004242, 38.2964762171]}, "type": "Feature", "properties": {"collection_times": [{"days": "Mon-Fri", "time": "5:00pm"}, {"days": "Sat", "time": "11:30am"}, {"days": "Sun", "time": "Closed"}], "id": "2297300003", "name": "USPS COLLECTION BOX - PO LOBBY", "address": {"city": "STANARDSVILLE", "state": "VA", "street": "47 CELT RD", "postcode": "22973"}}},
{"geometry": {"type": "Point", "coordinates": [-78.4412004242, 38.2964762171]}, "type": "Feature", "properties": {"collection_times": [{"days": "Mon-Fri", "time": "4:30pm"}, {"days": "Sat", "time": "11:30am"}, {"days": "Sun", "time": "Closed"}], "id": "2297300004", "name": "USPS COLLECTION BOX - BLUE BOX", "address": {"city": "STANARDSVILLE", "state": "VA", "street": "47 CELT RD", "postcode": "22973"}}},
{"geometry": {"type": "Point", "coordinates": [-78.2698862359, 37.9627737895]}, "type": "Feature", "properties": {"collection_times": [{"days": "Mon-Fri", "time": "4:45pm"}, {"days": "Sat", "time": "10:45am"}, {"days": "Sun", "time": "Closed"}], "id": "2297400000", "name": "USPS COLLECTION BOX - BLUE BOX", "address": {"city": "TROY", "state": "VA", "street": "25 TROY RD", "postcode": "22974"}}},
{"geometry": {"type": "Point", "coordinates": [-78.2698862359, 37.9627737895]}, "type": "Feature", "properties": {"collection_times": [{"days": "Mon-Fri", "time": "4:45pm"}, {"days": "Sat", "time": "10:45am"}, {"days": "Sun", "time": "Closed"}], "id": "2297400002", "name": "USPS COLLECTION BOX - PO LOBBY", "address": {"city": "TROY", "state": "VA", "street": "25 TROY RD", "postcode": "22974"}}},
{"geometry": {"type": "Point", "coordinates": [-78.9015842092, 38.0680709231]}, "type": "Feature", "properties": {"collection_times": [{"days": "Mon-Sat", "time": "10:00am"}, {"days": "Sun", "time": "Closed"}], "id": "2298000018", "name": "USPS COLLECTION BOX - BLUE BOX", "address": {"city": "WAYNESBORO", "state": "VA", "street": "1305 13TH ST", "postcode": "22980"}}},
{"geometry": {"type": "Point", "coordinates": [-78.9169188525, 38.0774152288]}, "type": "Feature", "properties": {"collection_times": [{"days": "Mon-Fri", "time": "5:00pm"}, {"days": "Sat", "time": "4:00pm"}, {"days": "Sun", "time": "Closed"}], "id": "2298000020", "name": "USPS COLLECTION BOX - BLUE BOX", "address": {"city": "WAYNESBORO", "state": "VA", "street": "2200 W MAIN ST", "postcode": "22980"}}},
{"geometry": {"type": "Point", "coordinates": [-78.9007692465, 38.0757908954]}, "type": "Feature", "properties": {"collection_times": [{"days": "Mon-Fri", "time": "5:00pm"}, {"days": "Sat", "time": "4:00pm"}, {"days": "Sun", "time": "Closed"}], "id": "2298000021", "name": "USPS COLLECTION BOX - BLUE BOX", "address": {"city": "WAYNESBORO", "state": "VA", "street": "2 STONERIDGE DR", "postcode": "22980"}}},
{"geometry": {"type": "Point", "coordinates": [-78.8932685733, 38.0705081619]}, "type": "Feature", "properties": {"collection_times": [{"days": "Mon-Fri", "time": "5:00pm"}, {"days": "Sat", "time": "4:00pm"}, {"days": "Sun", "time": "Closed"}], "id": "2298000024", "name": "USPS COLLECTION BOX - BLUE BOX", "address": {"city": "WAYNESBORO", "state": "VA", "street": "901 W BROAD ST", "postcode": "22980"}}},
{"geometry": {"type": "Point", "coordinates": [-78.8942202722, 38.0758967139]}, "type": "Feature", "properties": {"collection_times": [{"days": "Mon-Fri", "time": "5:00pm"}, {"days": "Sat", "time": "4:00pm"}, {"days": "Sun", "time": "Closed"}], "id": "2298000029", "name": "USPS COLLECTION BOX - BLUE BOX", "address": {"city": "WAYNESBORO", "state": "VA", "street": "1105 IVY ST", "postcode": "22980"}}},
{"geometry": {"type": "Point", "coordinates": [-78.8861829657, 38.0859481134]}, "type": "Feature", "properties": {"collection_times": [{"days": "Mon-Sat", "time": "9:00am"}, {"days": "Sun", "time": "Closed"}], "id": "2298000037", "name": "USPS COLLECTION BOX - BLUE BOX", "address": {"city": "WAYNESBORO", "state": "VA", "street": "1001 HOPEMAN PKWY", "postcode": "22980"}}},
{"geometry": {"type": "Point", "coordinates": [-78.940063015, 38.0554663061]}, "type": "Feature", "properties": {"collection_times": [{"days": "Mon-Sat", "time": "10:00am"}, {"days": "Sun", "time": "Closed"}], "id": "2298000051", "name": "USPS COLLECTION BOX - BLUE BOX", "address": {"city": "WAYNESBORO", "state": "VA", "street": "920 SHENANDOAH VILLAGE DR", "postcode": "22980"}}},
{"geometry": {"type": "Point", "coordinates": [-78.9007692465, 38.0757908954]}, "type": "Feature", "properties": {"collection_times": [{"days": "Mon-Sat", "time": "9:00am"}, {"days": "Sun", "time": "Closed"}], "id": "2298000052", "name": "USPS COLLECTION BOX - BLUE BOX", "address": {"city": "WAYNESBORO", "state": "VA", "street": "26 GRANDVIEW MANOR CT APT 106", "postcode": "22980"}}},
{"geometry": {"type": "Point", "coordinates": [-78.9007692465, 38.0757908954]}, "type": "Feature", "properties": {"collection_times": [{"days": "Mon-Sat", "time": "12:00pm"}, {"days": "Sun", "time": "Closed"}], "id": "2298000055", "name": "USPS COLLECTION BOX - BLUE BOX", "address": {"city": "WAYNESBORO", "state": "VA", "street": "200A TIFFANY DR", "postcode": "22980"}}},
{"geometry": {"type": "Point", "coordinates": [-78.9303881144, 38.081900134]}, "type": "Feature", "properties": {"collection_times": [{"days": "Mon-Fri", "time": "5:00pm"}, {"days": "Sat", "time": "4:00pm"}, {"days": "Sun", "time": "Closed"}], "id": "2298000060", "name": "USPS COLLECTION BOX - BLUE BOX", "address": {"city": "WAYNESBORO", "state": "VA", "street": "109 LEW DEWITT BLVD", "postcode": "22980"}}},
{"geometry": {"type": "Point", "coordinates": [-78.9303881144, 38.081900134]}, "type": "Feature", "properties": {"collection_times": [{"days": "Mon-Fri", "time": "5:00pm"}, {"days": "Sat", "time": "4:00pm"}, {"days": "Sun", "time": "Closed"}], "id": "2298000061", "name": "USPS COLLECTION BOX - BLUE BOX", "address": {"city": "WAYNESBORO", "state": "VA", "street": "109 LEW DEWITT BLVD", "postcode": "22980"}}},
{"geometry": {"type": "Point", "coordinates": [-78.8897685709, 38.0678613186]}, "type": "Feature", "properties": {"collection_times": [{"days": "Mon-Fri", "time": "5:30pm"}, {"days": "Sat", "time": "4:30pm"}, {"days": "Sun", "time": "Closed"}], "id": "2298000062", "name": "USPS COLLECTION BOX - BLUE BOX", "address": {"city": "WAYNESBORO", "state": "VA", "street": "200 S WAYNE AVE", "postcode": "22980"}}},
{"geometry": {"type": "Point", "coordinates": [-78.8897685709, 38.0678613186]}, "type": "Feature", "properties": {"collection_times": [{"days": "Mon-Fri", "time": "5:30pm"}, {"days": "Sat", "time": "4:30pm"}, {"days": "Sun", "time": "Closed"}], "id": "2298000063", "name": "USPS COLLECTION BOX - BLUE BOX", "address": {"city": "WAYNESBORO", "state": "VA", "street": "200 S WAYNE AVE", "postcode": "22980"}}},
{"geometry": {"type": "Point", "coordinates": [-78.8897685709, 38.0678613186]}, "type": "Feature", "properties": {"collection_times": [{"days": "Mon-Fri", "time": "5:30pm"}, {"days": "Sat", "time": "4:30pm"}, {"days": "Sun", "time": "Closed"}], "id": "2298000064", "name": "USPS COLLECTION BOX - BLUE BOX", "address": {"city": "WAYNESBORO", "state": "VA", "street": "200 S WAYNE AVE", "postcode": "22980"}}},
{"geometry": {"type": "Point", "coordinates": [-78.8897685709, 38.0678613186]}, "type": "Feature", "properties": {"collection_times": [{"days": "Mon-Fri", "time": "5:45pm"}, {"days": "Sat", "time": "4:45pm"}, {"days": "Sun", "time": "Closed"}], "id": "2298000066", "name": "USPS COLLECTION BOX - PO LOBBY", "address": {"city": "WAYNESBORO", "state": "VA", "street": "200 S WAYNE AVE", "postcode": "22980"}}},
{"geometry": {"type": "Point", "coordinates": [-78.9007692465, 38.0757908954]}, "type": "Feature", "properties": {"collection_times": [{"days": "Mon-Fri", "time": "11:30am"}, {"days": "Sat-Sun", "time": "Closed"}], "id": "2298000076", "name": "USPS COLLECTION BOX - PO LOBBY", "address": {"city": "WAYNESBORO", "state": "VA", "street": "422 N COMMERCE AVE", "postcode": "22980"}}},
{"geometry": {"type": "Point", "coordinates": [-78.6638358933, 38.1191518187]}, "type": "Feature", "properties": {"collection_times": [{"days": "Mon-Fri", "time": "2:00pm"}, {"days": "Sat", "time": "12:30pm"}, {"days": "Sun", "time": "Closed"}], "id": "2298700000", "name": "USPS COLLECTION BOX - BLUE BOX", "address": {"city": "WHITE HALL", "state": "VA", "street": "2958 BROWNS GAP TPKE", "postcode": "22987"}}},
{"geometry": {"type": "Point", "coordinates": [-78.6638358933, 38.1191518187]}, "type": "Feature", "properties": {"collection_times": [{"days": "Mon-Fri", "time": "2:00pm"}, {"days": "Sat", "time": "12:30pm"}, {"days": "Sun", "time": "Closed"}], "id": "2298700001", "name": "USPS COLLECTION BOX - PO LOBBY", "address": {"city": "WHITE HALL", "state": "VA", "street": "2958 BROWNS GAP TPKE", "postcode": "22987"}}}
]}
