{"type": "FeatureCollection", "features": [
{"geometry": {"type": "Point", "coordinates": [-76.4420278471, 37.2793563075]}, "type": "Feature", "properties": {"collection_times": [{"days": "Mon-Fri", "time": "3:45pm"}, {"days": "Sat", "time": "11:30am"}, {"days": "Sun", "time": "Closed"}], "id": "2300100001", "name": "USPS COLLECTION BOX - BLUE BOX", "address": {"city": "ACHILLES", "state": "VA", "street": "9363 GUINEA RD", "postcode": "23001"}}},
{"geometry": {"type": "Point", "coordinates": [-76.4420278471, 37.2793563075]}, "type": "Feature", "properties": {"collection_times": [{"days": "Mon-Fri", "time": "3:45pm"}, {"days": "Sat", "time": "11:30am"}, {"days": "Sun", "time": "Closed"}], "id": "2300100002", "name": "USPS COLLECTION BOX - PO LOBBY", "address": {"city": "ACHILLES", "state": "VA", "street": "9363 GUINEA RD", "postcode": "23001"}}},
{"geometry": {"type": "Point", "coordinates": [-77.9684624139, 37.3566499568]}, "type": "Feature", "properties": {"collection_times": [{"days": "Mon-Sat", "time": "2:00pm"}, {"days": "Sun", "time": "Closed"}], "id": "2300200003", "name": "USPS COLLECTION BOX - BLUE BOX", "address": {"city": "AMELIA CT HSE", "state": "VA", "street": "15103 PATRICK HENRY HWY", "postcode": "23002"}}},
{"geometry": {"type": "Point", "coordinates": [-77.9786652701, 37.3414591484]}, "type": "Feature", "properties": {"collection_times": [{"days": "Mon-Fri", "time": "5:00pm"}, {"days": "Sat", "time": "11:45am"}, {"days": "Sun", "time": "Closed"}], "id": "2300200004", "name": "USPS COLLECTION BOX - PO LOBBY", "address": {"city": "AMELIA CT HSE", "state": "VA", "street": "16400 CHURCH ST", "postcode": "23002"}}},
{"geometry": {"type": "Point", "coordinates": [-76.5764476593, 37.4375226224]}, "type": "Feature", "properties": {"collection_times": [{"days": "Mon-Fri", "time": "4:30pm"}, {"days": "Sat", "time": "11:30am"}, {"days": "Sun", "time": "Closed"}], "id": "2300300001", "name": "USPS COLLECTION BOX - BLUE BOX", "address": {"city": "ARK", "state": "VA", "street": "9458 GEORGE WASHINGTON MEMORIAL HWY", "postcode": "23003"}}},
{"geometry": {"type": "Point", "coordinates": [-76.5764476593, 37.4375226224]}, "type": "Feature", "properties": {"collection_times": [{"days": "Mon-Fri", "time": "4:30pm"}, {"days": "Sat", "time": "11:30am"}, {"days": "Sun", "time": "Closed"}], "id": "2300300002", "name": "USPS COLLECTION BOX - PO LOBBY", "address": {"city": "ARK", "state": "VA", "street": "9458 GEORGE WASHINGTON MEMORIAL HWY", "postcode": "23003"}}},
{"geometry": {"type": "Point", "coordinates": [-78.4128470446, 37.6682777344]}, "type": "Feature", "properties": {"collection_times": [{"days": "Mon-Fri", "time": "4:00pm"}, {"days": "Sat", "time": "11:00am"}, {"days": "Sun", "time": "Closed"}], "id": "2300400001", "name": "USPS COLLECTION BOX - BLUE BOX", "address": {"city": "ARVONIA", "state": "VA", "street": "36 ARVON RD", "postcode": "23004"}}},
{"geometry": {"type": "Point", "coordinates": [-78.4128470446, 37.6682777344]}, "type": "Feature", "properties": {"collection_times": [{"days": "Mon-Fri", "time": "4:00pm"}, {"days": "Sat", "time": "11:00am"}, {"days": "Sun", "time": "Closed"}], "id": "2300400002", "name": "USPS COLLECTION BOX - PO LOBBY", "address": {"city": "ARVONIA", "state": "VA", "street": "36 ARVON RD", "postcode": "23004"}}},
{"geometry": {"type": "Point", "coordinates": [-77.478272549, 37.7587535459]}, "type": "Feature", "properties": {"collection_times": [{"days": "Mon-Fri", "time": "5:00pm"}, {"days": "Sat", "time": "3:00pm"}, {"days": "Sun", "time": "Closed"}], "id": "2300500009", "name": "USPS COLLECTION BOX - BLUE BOX", "address": {"city": "ASHLAND", "state": "VA", "street": "301 ENGLAND ST", "postcode": "23005"}}},
{"geometry": {"type": "Point", "coordinates": [-77.4761407035, 37.7586065007]}, "type": "Feature", "properties": {"collection_times": [{"days": "Mon-Fri", "time": "5:00pm"}, {"days": "Sat", "time": "3:00pm"}, {"days": "Sun", "time": "Closed"}], "id": "2300500010", "name": "USPS COLLECTION BOX - BLUE BOX", "address": {"city": "ASHLAND", "state": "VA", "street": "301 ENGLAND ST", "postcode": "23005"}}},
{"geometry": {"type": "Point", "coordinates": [-77.4817810518, 37.7594353008]}, "type": "Feature", "properties": {"collection_times": [{"days": "Mon-Fri", "time": "5:00pm"}, {"days": "Sat-Sun", "time": "Closed"}], "id": "2300500013", "name": "USPS COLLECTION BOX - BLUE BOX", "address": {"city": "ASHLAND", "state": "VA", "street": "10030 SLIDING HILL RD", "postcode": "23005"}}},
{"geometry": {"type": "Point", "coordinates": [-77.4817810518, 37.7594353008]}, "type": "Feature", "properties": {"collection_times": [{"days": "Mon-Fri", "time": "5:00pm"}, {"days": "Sat-Sun", "time": "Closed"}], "id": "2300500014", "name": "USPS COLLECTION BOX - BLUE BOX", "address": {"city": "ASHLAND", "state": "VA", "street": "10030 SLIDING HILL RD", "postcode": "23005"}}},
{"geometry": {"type": "Point", "coordinates": [-77.4817810518, 37.7594353008]}, "type": "Feature", "properties": {"collection_times": [{"days": "Mon-Fri", "time": "5:00pm"}, {"days": "Sat-Sun", "time": "Closed"}], "id": "2300500015", "name": "USPS COLLECTION BOX - BLUE BOX", "address": {"city": "ASHLAND", "state": "VA", "street": "10030 SLIDING HILL RD", "postcode": "23005"}}},
{"geometry": {"type": "Point", "coordinates": [-77.45306438, 37.6977510785]}, "type": "Feature", "properties": {"collection_times": [{"days": "Mon-Fri", "time": "4:00pm"}, {"days": "Sat-Sun", "time": "Closed"}], "id": "2300500020", "name": "USPS COLLECTION BOX - BLUE BOX", "address": {"city": "ASHLAND", "state": "VA", "street": "10487 LAKERIDGE PKWY", "postcode": "23005"}}},
{"geometry": {"type": "Point", "coordinates": [-77.4761407035, 37.7586065007]}, "type": "Feature", "properties": {"collection_times": [{"days": "Mon-Fri", "time": "5:00pm"}, {"days": "Sat", "time": "3:00pm"}, {"days": "Sun", "time": "Closed"}], "id": "2300500021", "name": "USPS COLLECTION BOX - PO LOBBY", "address": {"city": "ASHLAND", "state": "VA", "street": "301 ENGLAND ST", "postcode": "23005"}}},
{"geometry": {"type": "Point", "coordinates": [-77.4713623893, 37.7564270261]}, "type": "Feature", "properties": {"collection_times": [{"days": "Mon-Sat", "time": "10:00am"}, {"days": "Sun", "time": "Closed"}], "id": "2300500023", "name": "USPS COLLECTION BOX - BLUE BOX", "address": {"city": "ASHLAND", "state": "VA", "street": "201 N WASHINGTON HWY", "postcode": "23005"}}},
{"geometry": {"type": "Point", "coordinates": [-77.189636396, 37.8160578459]}, "type": "Feature", "properties": {"collection_times": [{"days": "Mon-Fri", "time": "4:45pm"}, {"days": "Sat", "time": "11:45am"}, {"days": "Sun", "time": "Closed"}], "id": "2300900001", "name": "USPS COLLECTION BOX - BLUE BOX", "address": {"city": "AYLETT", "state": "VA", "street": "56 MILL RD", "postcode": "23009"}}},
{"geometry": {"type": "Point", "coordinates": [-77.189636396, 37.8160578459]}, "type": "Feature", "properties": {"collection_times": [{"days": "Mon-Fri", "time": "4:45pm"}, {"days": "Sat", "time": "11:45am"}, {"days": "Sun", "time": "Closed"}], "id": "2300900002", "name": "USPS COLLECTION BOX - PO LOBBY", "address": {"city": "AYLETT", "state": "VA", "street": "56 MILL RD", "postcode": "23009"}}},
{"geometry": {"type": "Point", "coordinates": [-76.8408654793, 37.4554261759]}, "type": "Feature", "properties": {"collection_times": [{"days": "Mon-Fri", "time": "3:00pm"}, {"days": "Sat", "time": "10:45am"}, {"days": "Sun", "time": "Closed"}], "id": "2301100001", "name": "USPS COLLECTION BOX - BLUE BOX", "address": {"city": "BARHAMSVILLE", "state": "VA", "street": "18428 NEW KENT HWY", "postcode": "23011"}}},
{"geometry": {"type": "Point", "coordinates": [-76.8408654793, 37.4554261759]}, "type": "Feature", "properties": {"collection_times": [{"days": "Mon-Fri", "time": "3:00pm"}, {"days": "Sat", "time": "10:45am"}, {"days": "Sun", "time": "Closed"}], "id": "2301100002", "name": "USPS COLLECTION BOX - PO LOBBY", "address": {"city": "BARHAMSVILLE", "state": "VA", "street": "18428 NEW KENT HWY", "postcode": "23011"}}},
{"geometry": {"type": "Point", "coordinates": [-77.6522155218, 37.9405025388]}, "type": "Feature", "properties": {"collection_times": [{"days": "Mon-Fri", "time": "4:30pm"}, {"days": "Sat", "time": "12:00pm"}, {"days": "Sun", "time": "Closed"}], "id": "2301500001", "name": "USPS COLLECTION BOX - BLUE BOX", "address": {"city": "BEAVERDAM", "state": "VA", "street": "16176 BEAVERDAM SCHOOL RD", "postcode": "23015"}}},
{"geometry": {"type": "Point", "coordinates": [-77.6522155218, 37.9405025388]}, "type": "Feature", "properties": {"collection_times": [{"days": "Mon-Fri", "time": "4:30pm"}, {"days": "Sat", "time": "12:00pm"}, {"days": "Sun", "time": "Closed"}], "id": "2301500002", "name": "USPS COLLECTION BOX - PO LOBBY", "address": {"city": "BEAVERDAM", "state": "VA", "street": "16176 BEAVERDAM SCHOOL RD", "postcode": "23015"}}},
{"geometry": {"type": "Point", "coordinates": [-76.4604341169, 37.2705204457]}, "type": "Feature", "properties": {"collection_times": [{"days": "Mon-Fri", "time": "3:45pm"}, {"days": "Sat", "time": "11:45am"}, {"days": "Sun", "time": "Closed"}], "id": "2301800001", "name": "USPS COLLECTION BOX - BLUE BOX", "address": {"city": "BENA", "state": "VA", "street": "8833 GUINEA RD", "postcode": "23018"}}},
{"geometry": {"type": "Point", "coordinates": [-76.4604341169, 37.2705204457]}, "type": "Feature", "properties": {"collection_times": [{"days": "Mon-Fri", "time": "3:45pm"}, {"days": "Sat", "time": "11:45am"}, {"days": "Sun", "time": "Closed"}], "id": "2301800002", "name": "USPS COLLECTION BOX - PO LOBBY", "address": {"city": "BENA", "state": "VA", "street": "8833 GUINEA RD", "postcode": "23018"}}},
{"geometry": {"type": "Point", "coordinates": [-78.262648757, 37.7223158716]}, "type": "Feature", "properties": {"collection_times": [{"days": "Mon-Fri", "time": "4:00pm"}, {"days": "Sat", "time": "11:00am"}, {"days": "Sun", "time": "Closed"}], "id": "2302200001", "name": "USPS COLLECTION BOX - BLUE BOX", "address": {"city": "BREMO BLUFF", "state": "VA", "street": "538 BREMO RD", "postcode": "23022"}}},
{"geometry": {"type": "Point", "coordinates": [-78.262648757, 37.7223158716]}, "type": "Feature", "properties": {"collection_times": [{"days": "Mon-Fri", "time": "4:00pm"}, {"days": "Sat", "time": "11:00am"}, {"days": "Sun", "time": "Closed"}], "id": "2302200002", "name": "USPS COLLECTION BOX - PO LOBBY", "address": {"city": "BREMO BLUFF", "state": "VA", "street": "538 BREMO RD", "postcode": "23022"}}},
{"geometry": {"type": "Point", "coordinates": [-77.7553186763, 37.9573691677]}, "type": "Feature", "properties": {"collection_times": [{"days": "Mon-Fri", "time": "4:30pm"}, {"days": "Sat", "time": "11:30am"}, {"days": "Sun", "time": "Closed"}], "id": "2302400001", "name": "USPS COLLECTION BOX - BLUE BOX", "address": {"city": "BUMPASS", "state": "VA", "street": "68 FREDERICKS HALL RD", "postcode": "23024"}}},
{"geometry": {"type": "Point", "coordinates": [-77.7553186763, 37.9573691677]}, "type": "Feature", "properties": {"collection_times": [{"days": "Mon-Fri", "time": "4:30pm"}, {"days": "Sat", "time": "11:30am"}, {"days": "Sun", "time": "Closed"}], "id": "2302400002", "name": "USPS COLLECTION BOX - PO LOBBY", "address": {"city": "BUMPASS", "state": "VA", "street": "68 FREDERICKS HALL RD", "postcode": "23024"}}},
{"geometry": {"type": "Point", "coordinates": [-78.0904421022, 37.6669708177]}, "type": "Feature", "properties": {"collection_times": [{"days": "Mon-Fri", "time": "4:15pm"}, {"days": "Sat", "time": "11:15am"}, {"days": "Sun", "time": "Closed"}], "id": "2302700001", "name": "USPS COLLECTION BOX - BLUE BOX", "address": {"city": "CARTERSVILLE", "state": "VA", "street": "28 HIGH ST", "postcode": "23027"}}},
{"geometry": {"type": "Point", "coordinates": [-78.0904421022, 37.6669708177]}, "type": "Feature", "properties": {"collection_times": [{"days": "Mon-Fri", "time": "4:15pm"}, {"days": "Sat", "time": "11:15am"}, {"days": "Sun", "time": "Closed"}], "id": "2302700002", "name": "USPS COLLECTION BOX - PO LOBBY", "address": {"city": "CARTERSVILLE", "state": "VA", "street": "28 HIGH ST", "postcode": "23027"}}},
{"geometry": {"type": "Point", "coordinates": [-78.1278492531, 37.6300324361]}, "type": "Feature", "properties": {"collection_times": [{"days": "Mon-Sat", "time": "11:00am"}, {"days": "Sun", "time": "Closed"}], "id": "2302700004", "name": "USPS COLLECTION BOX - BLUE BOX", "address": {"city": "CARTERSVILLE", "state": "VA", "street": "1942 CARTERSVILLE RD", "postcode": "23027"}}},
{"geometry": {"type": "Point", "coordinates": [-77.0732398324, 37.3416121996]}, "type": "Feature", "properties": {"collection_times": [{"days": "Mon-Fri", "time": "4:30pm"}, {"days": "Sat", "time": "11:30am"}, {"days": "Sun", "time": "Closed"}], "id": "2303000001", "name": "USPS COLLECTION BOX - BLUE BOX", "address": {"city": "CHARLES CITY", "state": "VA", "street": "10800 COURTHOUSE RD", "postcode": "23030"}}},
{"geometry": {"type": "Point", "coordinates": [-77.0732398324, 37.3416121996]}, "type": "Feature", "properties": {"collection_times": [{"days": "Mon-Fri", "time": "4:30pm"}, {"days": "Sat", "time": "11:30am"}, {"days": "Sun", "time": "Closed"}], "id": "2303000002", "name": "USPS COLLECTION BOX - PO LOBBY", "address": {"city": "CHARLES CITY", "state": "VA", "street": "10800 COURTHOUSE RD", "postcode": "23030"}}},
{"geometry": {"type": "Point", "coordinates": [-76.6796622455, 37.6779069456]}, "type": "Feature", "properties": {"collection_times": [{"days": "Mon-Fri", "time": "2:45pm"}, {"days": "Sat", "time": "11:45am"}, {"days": "Sun", "time": "Closed"}], "id": "2303200001", "name": "USPS COLLECTION BOX - BLUE BOX", "address": {"city": "CHURCH VIEW", "state": "VA", "street": "51 WARES BRIDGE RD", "postcode": "23032"}}},
{"geometry": {"type": "Point", "coordinates": [-76.6796622455, 37.6779069456]}, "type": "Feature", "properties": {"collection_times": [{"days": "Mon-Fri", "time": "2:45pm"}, {"days": "Sat", "time": "11:45am"}, {"days": "Sun", "time": "Closed"}], "id": "2303200002", "name": "USPS COLLECTION BOX - PO LOBBY", "address": {"city": "CHURCH VIEW", "state": "VA", "street": "51 WARES BRIDGE RD", "postcode": "23032"}}},
{"geometry": {"type": "Point", "coordinates": [-76.3985193392, 37.5039891642]}, "type": "Feature", "properties": {"collection_times": [{"days": "Mon-Fri", "time": "4:15pm"}, {"days": "Sat", "time": "12:00pm"}, {"days": "Sun", "time": "Closed"}], "id": "2303500001", "name": "USPS COLLECTION BOX - BLUE BOX", "address": {"city": "COBBS CREEK", "state": "VA", "street": "2963 BUCKLEY HALL RD", "postcode": "23035"}}},
{"geometry": {"type": "Point", "coordinates": [-76.3985193392, 37.5039891642]}, "type": "Feature", "properties": {"collection_times": [{"days": "Mon-Fri", "time": "4:15pm"}, {"days": "Sat", "time": "12:00pm"}, {"days": "Sun", "time": "Closed"}], "id": "2303500002", "name": "USPS COLLECTION BOX - PO LOBBY", "address": {"city": "COBBS CREEK", "state": "VA", "street": "2963 BUCKLEY HALL RD", "postcode": "23035"}}},
{"geometry": {"type": "Point", "coordinates": [-78.1615099851, 37.7537468816]}, "type": "Feature", "properties": {"collection_times": [{"days": "Mon-Fri", "time": "2:45pm"}, {"days": "Sat", "time": "10:45am"}, {"days": "Sun", "time": "Closed"}], "id": "2303800001", "name": "USPS COLLECTION BOX - BLUE BOX", "address": {"city": "COLUMBIA", "state": "VA", "street": "17 CAMERON ST", "postcode": "23038"}}},
{"geometry": {"type": "Point", "coordinates": [-78.1415765622, 37.7707831107]}, "type": "Feature", "properties": {"collection_times": [{"days": "Mon-Fri", "time": "2:45pm"}, {"days": "Sat", "time": "10:45am"}, {"days": "Sun", "time": "Closed"}], "id": "2303800002", "name": "USPS COLLECTION BOX - PO LOBBY", "address": {"city": "COLUMBIA", "state": "VA", "street": "17 CAMERON STEET", "postcode": "23038"}}},
{"geometry": {"type": "Point", "coordinates": [-77.7956471482, 37.6373617586]}, "type": "Feature", "properties": {"collection_times": [{"days": "Mon-Fri", "time": "4:15pm"}, {"days": "Sat", "time": "11:00am"}, {"days": "Sun", "time": "Closed"}], "id": "2303900001", "name": "USPS COLLECTION BOX - BLUE BOX", "address": {"city": "CROZIER", "state": "VA", "street": "1531 RIVER RD WEST", "postcode": "23039"}}},
{"geometry": {"type": "Point", "coordinates": [-77.7956471482, 37.6373617586]}, "type": "Feature", "properties": {"collection_times": [{"days": "Mon-Fri", "time": "4:30pm"}, {"days": "Sat", "time": "11:00am"}, {"days": "Sun", "time": "Closed"}], "id": "2303900002", "name": "USPS COLLECTION BOX - PO LOBBY", "address": {"city": "CROZIER", "state": "VA", "street": "1531 RIVER RD WEST", "postcode": "23039"}}},
{"geometry": {"type": "Point", "coordinates": [-78.2597725867, 37.4871783353]}, "type": "Feature", "properties": {"collection_times": [{"days": "Mon-Fri", "time": "4:30pm"}, {"days": "Sat", "time": "11:45am"}, {"days": "Sun", "time": "Closed"}], "id": "2304000001", "name": "USPS COLLECTION BOX - BLUE BOX", "address": {"city": "CUMBERLAND", "state": "VA", "street": "1489 ANDERSON HWY", "postcode": "23040"}}},
{"geometry": {"type": "Point", "coordinates": [-78.2597725867, 37.4871783353]}, "type": "Feature", "properties": {"collection_times": [{"days": "Mon-Fri", "time": "4:45pm"}, {"days": "Sat", "time": "12:00pm"}, {"days": "Sun", "time": "Closed"}], "id": "2304000002", "name": "USPS COLLECTION BOX - PO LOBBY", "address": {"city": "CUMBERLAND", "state": "VA", "street": "1489 ANDERSON HWY", "postcode": "23040"}}},
{"geometry": {"type": "Point", "coordinates": [-76.3367178425, 37.554943904]}, "type": "Feature", "properties": {"collection_times": [{"days": "Mon-Fri", "time": "4:45pm"}, {"days": "Sat", "time": "11:30am"}, {"days": "Sun", "time": "Closed"}], "id": "2304300002", "name": "USPS COLLECTION BOX - BLUE BOX", "address": {"city": "DELTAVILLE", "state": "VA", "street": "17283 GENERAL PULLER HWY", "postcode": "23043"}}},
{"geometry": {"type": "Point", "coordinates": [-76.3367178425, 37.554943904]}, "type": "Feature", "properties": {"collection_times": [{"days": "Mon-Fri", "time": "4:45pm"}, {"days": "Sat", "time": "11:30am"}, {"days": "Sun", "time": "Closed"}], "id": "2304300004", "name": "USPS COLLECTION BOX - PO LOBBY", "address": {"city": "DELTAVILLE", "state": "VA", "street": "17283 GENERAL PULLER HWY", "postcode": "23043"}}},
{"geometry": {"type": "Point", "coordinates": [-76.3367178425, 37.554943904]}, "type": "Feature", "properties": {"collection_times": [{"days": "Mon-Fri", "time": "4:45pm"}, {"days": "Sat", "time": "11:30am"}, {"days": "Sun", "time": "Closed"}], "id": "2304300005", "name": "USPS COLLECTION BOX - PO LOBBY", "address": {"city": "DELTAVILLE", "state": "VA", "street": "17283 GENERAL PULLER HWY", "postcode": "23043"}}},
{"geometry": {"type": "Point", "coordinates": [-77.4641688964, 37.8497802443]}, "type": "Feature", "properties": {"collection_times": [{"days": "Mon-Fri", "time": "4:30pm"}, {"days": "Sat", "time": "11:45am"}, {"days": "Sun", "time": "Closed"}], "id": "2304700001", "name": "USPS COLLECTION BOX - BLUE BOX", "address": {"city": "DOSWELL", "state": "VA", "street": "16410 WASHINGTON HWY", "postcode": "23047"}}},
{"geometry": {"type": "Point", "coordinates": [-77.4641688964, 37.8497802443]}, "type": "Feature", "properties": {"collection_times": [{"days": "Mon-Fri", "time": "4:30pm"}, {"days": "Sat", "time": "11:45am"}, {"days": "Sun", "time": "Closed"}], "id": "2304700002", "name": "USPS COLLECTION BOX - PO LOBBY", "address": {"city": "DOSWELL", "state": "VA", "street": "16410 WASHINGTON HWY", "postcode": "23047"}}},
{"geometry": {"type": "Point", "coordinates": [-76.4581180297, 37.4980689492]}, "type": "Feature", "properties": {"collection_times": [{"days": "Mon-Fri", "time": "4:15pm"}, {"days": "Sat", "time": "1:15pm"}, {"days": "Sun", "time": "Closed"}], "id": "2305000001", "name": "USPS COLLECTION BOX - BLUE BOX", "address": {"city": "DUTTON", "state": "VA", "street": "9226 DUTTON RD", "postcode": "23050"}}},
{"geometry": {"type": "Point", "coordinates": [-76.4581180297, 37.4980689492]}, "type": "Feature", "properties": {"collection_times": [{"days": "Mon-Fri", "time": "4:15pm"}, {"days": "Sat", "time": "1:15pm"}, {"days": "Sun", "time": "Closed"}], "id": "2305000002", "name": "USPS COLLECTION BOX - PO LOBBY", "address": {"city": "DUTTON", "state": "VA", "street": "9226 DUTTON RD", "postcode": "23050"}}},
{"geometry": {"type": "Point", "coordinates": [-78.2212215076, 37.7763937907]}, "type": "Feature", "properties": {"collection_times": [{"days": "Mon-Fri", "time": "4:30pm"}, {"days": "Sat", "time": "10:30am"}, {"days": "Sun", "time": "Closed"}], "id": "2305500001", "name": "USPS COLLECTION BOX - BLUE BOX", "address": {"city": "FORK UNION", "state": "VA", "street": "4885 JAMES MADISON HWY", "postcode": "23055"}}},
{"geometry": {"type": "Point", "coordinates": [-78.2212215076, 37.7763937907]}, "type": "Feature", "properties": {"collection_times": [{"days": "Mon-Fri", "time": "4:30pm"}, {"days": "Sat", "time": "10:30am"}, {"days": "Sun", "time": "Closed"}], "id": "2305500002", "name": "USPS COLLECTION BOX - PO LOBBY", "address": {"city": "FORK UNION", "state": "VA", "street": "4885 JAMES MADISON HWY", "postcode": "23055"}}},
{"geometry": {"type": "Point", "coordinates": [-76.3847716189, 37.4531329088]}, "type": "Feature", "properties": {"collection_times": [{"days": "Mon-Fri", "time": "4:15pm"}, {"days": "Sat", "time": "11:45am"}, {"days": "Sun", "time": "Closed"}], "id": "2305600001", "name": "USPS COLLECTION BOX - BLUE BOX", "address": {"city": "FOSTER", "state": "VA", "street": "15315 JOHN CLAYTON MEMORIAL HWY", "postcode": "23056"}}},
{"geometry": {"type": "Point", "coordinates": [-77.590918054, 37.687420119]}, "type": "Feature", "properties": {"collection_times": [{"days": "Mon-Fri", "time": "4:00pm"}, {"days": "Sat-Sun", "time": "Closed"}], "id": "2305900000", "name": "USPS COLLECTION BOX - BLUE BOX", "address": {"city": "GLEN ALLEN", "state": "VA", "street": "200 CONCOURSE BLVD", "postcode": "23059"}}},
{"geometry": {"type": "Point", "coordinates": [-77.4610304257, 37.6761514307]}, "type": "Feature", "properties": {"collection_times": [{"days": "Mon-Fri", "time": "4:00pm"}, {"days": "Sat", "time": "10:00am"}, {"days": "Sun", "time": "Closed"}], "id": "2305900002", "name": "USPS COLLECTION BOX - BLUE BOX", "address": {"city": "GLEN ALLEN", "state": "VA", "street": "10101 BROOK RD", "postcode": "23059"}}},
{"geometry": {"type": "Point", "coordinates": [-77.4548009737, 37.6678242634]}, "type": "Feature", "properties": {"collection_times": [{"days": "Mon-Fri", "time": "4:00pm"}, {"days": "Sat-Sun", "time": "Closed"}], "id": "2305900003", "name": "USPS COLLECTION BOX - BLUE BOX", "address": {"city": "GLEN ALLEN", "state": "VA", "street": "1031 TECHNOLOGY PARK DR", "postcode": "23059"}}},
{"geometry": {"type": "Point", "coordinates": [-77.5756804427, 37.664699205]}, "type": "Feature", "properties": {"collection_times": [{"days": "Mon-Fri", "time": "5:00pm"}, {"days": "Sat", "time": "3:30pm"}, {"days": "Sun", "time": "Closed"}], "id": "2306000001", "name": "USPS COLLECTION BOX - BLUE BOX", "address": {"city": "GLEN ALLEN", "state": "VA", "street": "4990 SADLER PL", "postcode": "23060"}}},
{"geometry": {"type": "Point", "coordinates": [-77.5756804427, 37.664699205]}, "type": "Feature", "properties": {"collection_times": [{"days": "Mon-Fri", "time": "5:00pm"}, {"days": "Sat", "time": "3:30pm"}, {"days": "Sun", "time": "Closed"}], "id": "2306000002", "name": "USPS COLLECTION BOX - BLUE BOX", "address": {"city": "GLEN ALLEN", "state": "VA", "street": "4990 SADLER PL", "postcode": "23060"}}},
{"geometry": {"type": "Point", "coordinates": [-77.5756804427, 37.664699205]}, "type": "Feature", "properties": {"collection_times": [{"days": "Mon-Fri", "time": "5:00pm"}, {"days": "Sat", "time": "3:30pm"}, {"days": "Sun", "time": "Closed"}], "id": "2306000003", "name": "USPS COLLECTION BOX - BLUE BOX", "address": {"city": "GLEN ALLEN", "state": "VA", "street": "4990 SADLER PL", "postcode": "23060"}}},
{"geometry": {"type": "Point", "coordinates": [-77.5074909584, 37.6665249099]}, "type": "Feature", "properties": {"collection_times": [{"days": "Mon-Fri", "time": "4:15pm"}, {"days": "Sat", "time": "10:00am"}, {"days": "Sun", "time": "Closed"}], "id": "2306000006", "name": "USPS COLLECTION BOX - BLUE BOX", "address": {"city": "GLEN ALLEN", "state": "VA", "street": "3017 MOUNTAIN RD", "postcode": "23060"}}},
{"geometry": {"type": "Point", "coordinates": [-77.5611827875, 37.6408409002]}, "type": "Feature", "properties": {"collection_times": [{"days": "Mon-Fri", "time": "4:00pm"}, {"days": "Sat", "time": "10:00am"}, {"days": "Sun", "time": "Closed"}], "id": "2306000011", "name": "USPS COLLECTION BOX - BLUE BOX", "address": {"city": "GLEN ALLEN", "state": "VA", "street": "9621 W BROAD ST", "postcode": "23060"}}},
{"geometry": {"type": "Point", "coordinates": [-77.5816253419, 37.6512482956]}, "type": "Feature", "properties": {"collection_times": [{"days": "Mon-Fri", "time": "5:00pm"}, {"days": "Sat", "time": "10:00am"}, {"days": "Sun", "time": "Closed"}], "id": "2306000020", "name": "USPS COLLECTION BOX - BLUE BOX", "address": {"city": "GLEN ALLEN", "state": "VA", "street": "4200 INNSLAKE DR", "postcode": "23060"}}},
{"geometry": {"type": "Point", "coordinates": [-77.5816253419, 37.6512482956]}, "type": "Feature", "properties": {"collection_times": [{"days": "Mon-Fri", "time": "5:00pm"}, {"days": "Sat", "time": "10:00am"}, {"days": "Sun", "time": "Closed"}], "id": "2306000021", "name": "USPS COLLECTION BOX - BLUE BOX", "address": {"city": "GLEN ALLEN", "state": "VA", "street": "4200 INNSLAKE DR", "postcode": "23060"}}},
{"geometry": {"type": "Point", "coordinates": [-77.5816253419, 37.6512482956]}, "type": "Feature", "properties": {"collection_times": [{"days": "Mon-Fri", "time": "5:00pm"}, {"days": "Sat", "time": "10:00am"}, {"days": "Sun", "time": "Closed"}], "id": "2306000022", "name": "USPS COLLECTION BOX - BLUE BOX", "address": {"city": "GLEN ALLEN", "state": "VA", "street": "4200 INNSLAKE DR", "postcode": "23060"}}},
{"geometry": {"type": "Point", "coordinates": [-77.5756804427, 37.664699205]}, "type": "Feature", "properties": {"collection_times": [{"days": "Mon-Fri", "time": "5:00pm"}, {"days": "Sat", "time": "3:30pm"}, {"days": "Sun", "time": "Closed"}], "id": "2306000025", "name": "USPS COLLECTION BOX - PO LOBBY", "address": {"city": "GLEN ALLEN", "state": "VA", "street": "4990 SADLER PL", "postcode": "23060"}}},
{"geometry": {"type": "Point", "coordinates": [-77.5756804427, 37.664699205]}, "type": "Feature", "properties": {"collection_times": [{"days": "Mon-Fri", "time": "5:00pm"}, {"days": "Sat", "time": "3:30pm"}, {"days": "Sun", "time": "Closed"}], "id": "2306000028", "name": "USPS COLLECTION BOX - APC", "address": {"city": "GLEN ALLEN", "state": "VA", "street": "4990 SADLER PL", "postcode": "23060"}}},
{"geometry": {"type": "Point", "coordinates": [-76.524286599, 37.4133181427]}, "type": "Feature", "properties": {"collection_times": [{"days": "Mon-Fri", "time": "5:00pm"}, {"days": "Sat", "time": "4:00pm"}, {"days": "Sun", "time": "Closed"}], "id": "2306100002", "name": "USPS COLLECTION BOX - PO LOBBY", "address": {"city": "GLOUCESTER", "state": "VA", "street": "6892 MAIN ST", "postcode": "23061"}}},
{"geometry": {"type": "Point", "coordinates": [-76.524286599, 37.4133181427]}, "type": "Feature", "properties": {"collection_times": [{"days": "Mon-Fri", "time": "4:30pm"}, {"days": "Sat", "time": "3:30pm"}, {"days": "Sun", "time": "Closed"}], "id": "2306100003", "name": "USPS COLLECTION BOX - BLUE BOX", "address": {"city": "GLOUCESTER", "state": "VA", "street": "6892 MAIN ST", "postcode": "23061"}}},
{"geometry": {"type": "Point", "coordinates": [-76.4960172625, 37.2567139086]}, "type": "Feature", "properties": {"collection_times": [{"days": "Mon-Fri", "time": "4:45pm"}, {"days": "Sat", "time": "11:45am"}, {"days": "Sun", "time": "Closed"}], "id": "2306200001", "name": "USPS COLLECTION BOX - BLUE BOX", "address": {"city": "GLOUCESTER PT", "state": "VA", "street": "1451 GEORGE WASHINGTON MEMORIAL HWY", "postcode": "23062"}}},
{"geometry": {"type": "Point", "coordinates": [-76.5028738069, 37.2481012849]}, "type": "Feature", "properties": {"collection_times": [{"days": "Mon-Fri", "time": "4:45pm"}, {"days": "Sat", "time": "11:45am"}, {"days": "Sun", "time": "Closed"}], "id": "2306200002", "name": "USPS COLLECTION BOX - PO LOBBY", "address": {"city": "GLOUCESTER PT", "state": "VA", "street": "1451 GEORGE WASHINGTON MEMORIAL HWY", "postcode": "23062"}}},
{"geometry": {"type": "Point", "coordinates": [-76.5028738069, 37.2481012849]}, "type": "Feature", "properties": {"collection_times": [{"days": "Mon-Fri", "time": "4:45pm"}, {"days": "Sat", "time": "11:45am"}, {"days": "Sun", "time": "Closed"}], "id": "2306200003", "name": "USPS COLLECTION BOX - PO LOBBY", "address": {"city": "GLOUCESTER PT", "state": "VA", "street": "1451 GEORGE WASHINGTON MEMORIAL HWY", "postcode": "23062"}}},
{"geometry": {"type": "Point", "coordinates": [-76.5028738069, 37.2481012849]}, "type": "Feature", "properties": {"collection_times": [{"days": "Mon-Fri", "time": "4:45pm"}, {"days": "Sat", "time": "11:45am"}, {"days": "Sun", "time": "Closed"}], "id": "2306200004", "name": "USPS COLLECTION BOX - PO LOBBY", "address": {"city": "GLOUCESTER PT", "state": "VA", "street": "1451 GEORGE WASHINGTON MEMORIAL HWY", "postcode": "23062"}}},
{"geometry": {"type": "Point", "coordinates": [-77.8896982942, 37.6948786558]}, "type": "Feature", "properties": {"collection_times": [{"days": "Mon-Fri", "time": "4:45pm"}, {"days": "Sat", "time": "11:45am"}, {"days": "Sun", "time": "Closed"}], "id": "2306300001", "name": "USPS COLLECTION BOX - BLUE BOX", "address": {"city": "GOOCHLAND", "state": "VA", "street": "2972 RIVER RD W", "postcode": "23063"}}},
{"geometry": {"type": "Point", "coordinates": [-77.8896982942, 37.6948786558]}, "type": "Feature", "properties": {"collection_times": [{"days": "Mon-Fri", "time": "5:00pm"}, {"days": "Sat", "time": "12:00pm"}, {"days": "Sun", "time": "Closed"}], "id": "2306300003", "name": "USPS COLLECTION BOX - PO LOBBY", "address": {"city": "GOOCHLAND", "state": "VA", "street": "2972 RIVER RD W", "postcode": "23063"}}},
{"geometry": {"type": "Point", "coordinates": [-76.3008656855, 37.5001037367]}, "type": "Feature", "properties": {"collection_times": [{"days": "Mon-Sat", "time": "12:45pm"}, {"days": "Sun", "time": "Closed"}], "id": "2306400002", "name": "USPS COLLECTION BOX - PO LOBBY", "address": {"city": "GRIMSTEAD", "state": "VA", "street": "1150 OLD FERRY RD", "postcode": "23064"}}},
{"geometry": {"type": "Point", "coordinates": [-77.9158347723, 37.7882582214]}, "type": "Feature", "properties": {"collection_times": [{"days": "Mon-Sat", "time": "12:00pm"}, {"days": "Sun", "time": "Closed"}], "id": "2306500001", "name": "USPS COLLECTION BOX - BLUE BOX", "address": {"city": "GUM SPRING", "state": "VA", "street": "3250 BROAD STREET RD", "postcode": "23065"}}},
{"geometry": {"type": "Point", "coordinates": [-77.9158347723, 37.7882582214]}, "type": "Feature", "properties": {"collection_times": [{"days": "Mon-Sat", "time": "12:00pm"}, {"days": "Sun", "time": "Closed"}], "id": "2306500003", "name": "USPS COLLECTION BOX - PO LOBBY", "address": {"city": "GUM SPRING", "state": "VA", "street": "3250 BROAD STREET RD", "postcode": "23065"}}},
{"geometry": {"type": "Point", "coordinates": [-76.286677793, 37.4987354589]}, "type": "Feature", "properties": {"collection_times": [{"days": "Mon-Sat", "time": "12:45pm"}, {"days": "Sun", "time": "Closed"}], "id": "2306600002", "name": "USPS COLLECTION BOX - PO LOBBY", "address": {"city": "GWYNN", "state": "VA", "street": "11 NORTH BAY HAVEN RD", "postcode": "23066"}}},
{"geometry": {"type": "Point", "coordinates": [-76.3407216133, 37.4935737469]}, "type": "Feature", "properties": {"collection_times": [{"days": "Mon-Fri", "time": "1:00pm"}, {"days": "Sat", "time": "11:30am"}, {"days": "Sun", "time": "Closed"}], "id": "2306800002", "name": "USPS COLLECTION BOX - PO LOBBY", "address": {"city": "HALLIEFORD", "state": "VA", "street": "1811 HALLIEFORD RD", "postcode": "23068"}}},
{"geometry": {"type": "Point", "coordinates": [-77.3708572507, 37.7746103515]}, "type": "Feature", "properties": {"collection_times": [{"days": "Mon-Fri", "time": "4:30pm"}, {"days": "Sat", "time": "10:30am"}, {"days": "Sun", "time": "Closed"}], "id": "2306900001", "name": "USPS COLLECTION BOX - BLUE BOX", "address": {"city": "HANOVER", "state": "VA", "street": "13228 HANOVER COURTHOUSE RD", "postcode": "23069"}}},
{"geometry": {"type": "Point", "coordinates": [-77.3708572507, 37.7746103515]}, "type": "Feature", "properties": {"collection_times": [{"days": "Mon-Fri", "time": "4:30pm"}, {"days": "Sat", "time": "10:30am"}, {"days": "Sun", "time": "Closed"}], "id": "2306900002", "name": "USPS COLLECTION BOX - PO LOBBY", "address": {"city": "HANOVER", "state": "VA", "street": "13228 HANOVER COURTHOUSE RD", "postcode": "23069"}}},
{"geometry": {"type": "Point", "coordinates": [-76.3746847065, 37.5563215044]}, "type": "Feature", "properties": {"collection_times": [{"days": "Mon-Fri", "time": "4:00pm"}, {"days": "Sat", "time": "11:30am"}, {"days": "Sun", "time": "Closed"}], "id": "2307000001", "name": "USPS COLLECTION BOX - BLUE BOX", "address": {"city": "HARDYVILLE", "state": "VA", "street": "15224 GENERAL PULLER HWY", "postcode": "23070"}}},
{"geometry": {"type": "Point", "coordinates": [-76.3746847065, 37.5563215044]}, "type": "Feature", "properties": {"collection_times": [{"days": "Mon-Fri", "time": "4:00pm"}, {"days": "Sat", "time": "11:30am"}, {"days": "Sun", "time": "Closed"}], "id": "2307000002", "name": "USPS COLLECTION BOX - PO LOBBY", "address": {"city": "HARDYVILLE", "state": "VA", "street": "15224 GENERAL PULLER HWY", "postcode": "23070"}}},
{"geometry": {"type": "Point", "coordinates": [-76.4396991805, 37.5325032563]}, "type": "Feature", "properties": {"collection_times": [{"days": "Mon-Fri", "time": "4:30pm"}, {"days": "Sat", "time": "11:30am"}, {"days": "Sun", "time": "Closed"}], "id": "2307100001", "name": "USPS COLLECTION BOX - BLUE BOX", "address": {"city": "HARTFIELD", "state": "VA", "street": "11 GRAFTON CHURCH RD", "postcode": "23071"}}},
{"geometry": {"type": "Point", "coordinates": [-76.4396991805, 37.5325032563]}, "type": "Feature", "properties": {"collection_times": [{"days": "Mon-Fri", "time": "4:30pm"}, {"days": "Sat", "time": "11:30am"}, {"days": "Sun", "time": "Closed"}], "id": "2307100002", "name": "USPS COLLECTION BOX - PO LOBBY", "address": {"city": "HARTFIELD", "state": "VA", "street": "11 GRAFTON CHURCH RD", "postcode": "23071"}}},
{"geometry": {"type": "Point", "coordinates": [-76.5009910402, 37.2777100478]}, "type": "Feature", "properties": {"collection_times": [{"days": "Mon-Fri", "time": "4:45pm"}, {"days": "Sat", "time": "11:45am"}, {"days": "Sun", "time": "Closed"}], "id": "2307200001", "name": "USPS COLLECTION BOX - BLUE BOX", "address": {"city": "HAYES", "state": "VA", "street": "2344 GEORGE WASHINGTON MEM HWY", "postcode": "23072"}}},
{"geometry": {"type": "Point", "coordinates": [-76.5009910402, 37.2777100478]}, "type": "Feature", "properties": {"collection_times": [{"days": "Mon-Fri", "time": "4:45pm"}, {"days": "Sat", "time": "12:00pm"}, {"days": "Sun", "time": "Closed"}], "id": "2307200002", "name": "USPS COLLECTION BOX - PO LOBBY", "address": {"city": "HAYES", "state": "VA", "street": "2344 GEORGE WASHINGTON MEM HWY", "postcode": "23072"}}},
{"geometry": {"type": "Point", "coordinates": [-77.3248801295, 37.5432672843]}, "type": "Feature", "properties": {"collection_times": [{"days": "Mon-Fri", "time": "5:00pm"}, {"days": "Sat", "time": "1:00pm"}, {"days": "Sun", "time": "Closed"}], "id": "2307500001", "name": "USPS COLLECTION BOX - BLUE BOX", "address": {"city": "HENRICO", "state": "VA", "street": "405 E NINE MILE RD", "postcode": "23075"}}},
{"geometry": {"type": "Point", "coordinates": [-77.3276013304, 37.5459190291]}, "type": "Feature", "properties": {"collection_times": [{"days": "Mon-Sat", "time": "1:00pm"}, {"days": "Sun", "time": "Closed"}], "id": "2307500003", "name": "USPS COLLECTION BOX - BLUE BOX", "address": {"city": "HENRICO", "state": "VA", "street": "1 E NINE MILE RD", "postcode": "23075"}}},
{"geometry": {"type": "Point", "coordinates": [-77.3248801295, 37.5432672843]}, "type": "Feature", "properties": {"collection_times": [{"days": "Mon-Fri", "time": "5:00pm"}, {"days": "Sat", "time": "1:00pm"}, {"days": "Sun", "time": "Closed"}], "id": "2307500005", "name": "USPS COLLECTION BOX - BLUE BOX", "address": {"city": "HENRICO", "state": "VA", "street": "405 E NINE MILE RD", "postcode": "23075"}}},
{"geometry": {"type": "Point", "coordinates": [-77.3235757001, 37.5433843364]}, "type": "Feature", "properties": {"collection_times": [{"days": "Mon-Fri", "time": "4:30pm"}, {"days": "Sat", "time": "12:00pm"}, {"days": "Sun", "time": "Closed"}], "id": "2307500006", "name": "USPS COLLECTION BOX - PO LOBBY", "address": {"city": "HENRICO", "state": "VA", "street": "405 E NINE MILE RD", "postcode": "23075"}}},
{"geometry": {"type": "Point", "coordinates": [-76.3267228765, 37.4714467308]}, "type": "Feature", "properties": {"collection_times": [{"days": "Mon-Fri", "time": "4:15pm"}, {"days": "Sat", "time": "11:15am"}, {"days": "Sun", "time": "Closed"}], "id": "2307600003", "name": "USPS COLLECTION BOX - PO LOBBY", "address": {"city": "HUDGINS", "state": "VA", "street": "8251 BUCKLEY HALL RD", "postcode": "23076"}}},
{"geometry": {"type": "Point", "coordinates": [-78.0876482519, 37.2825107855]}, "type": "Feature", "properties": {"collection_times": [{"days": "Mon-Fri", "time": "4:00pm"}, {"days": "Sat", "time": "11:00am"}, {"days": "Sun", "time": "Closed"}], "id": "2308300001", "name": "USPS COLLECTION BOX - BLUE BOX", "address": {"city": "JETERSVILLE", "state": "VA", "street": "21595 JETERSVILLE RD", "postcode": "23083"}}},
{"geometry": {"type": "Point", "coordinates": [-78.0876482519, 37.2825107855]}, "type": "Feature", "properties": {"collection_times": [{"days": "Mon-Fri", "time": "4:15pm"}, {"days": "Sat", "time": "11:15am"}, {"days": "Sun", "time": "Closed"}], "id": "2308300002", "name": "USPS COLLECTION BOX - PO LOBBY", "address": {"city": "JETERSVILLE", "state": "VA", "street": "21595 JETERSVILLE RD", "postcode": "23083"}}},
{"geometry": {"type": "Point", "coordinates": [-78.1296493078, 37.8788188391]}, "type": "Feature", "properties": {"collection_times": [{"days": "Mon-Fri", "time": "4:30pm"}, {"days": "Sat", "time": "11:30am"}, {"days": "Sun", "time": "Closed"}], "id": "2308400001", "name": "USPS COLLECTION BOX - PO LOBBY", "address": {"city": "KENTS STORE", "state": "VA", "street": "16 KENTS STORE WAY", "postcode": "23084"}}},
{"geometry": {"type": "Point", "coordinates": [-78.1296493078, 37.8788188391]}, "type": "Feature", "properties": {"collection_times": [{"days": "Mon-Fri", "time": "4:00pm"}, {"days": "Sat", "time": "11:00am"}, {"days": "Sun", "time": "Closed"}], "id": "2308400002", "name": "USPS COLLECTION BOX - BLUE BOX", "address": {"city": "KENTS STORE", "state": "VA", "street": "16 KENTS STORE WAY", "postcode": "23084"}}},
{"geometry": {"type": "Point", "coordinates": [-76.8396089587, 37.7281311446]}, "type": "Feature", "properties": {"collection_times": [{"days": "Mon-Fri", "time": "2:00pm"}, {"days": "Sat", "time": "12:15pm"}, {"days": "Sun", "time": "Closed"}], "id": "2308500001", "name": "USPS COLLECTION BOX - BLUE BOX", "address": {"city": "KING & QUEEN CTH", "state": "VA", "street": "352 ALLENS CIR", "postcode": "23085"}}},
{"geometry": {"type": "Point", "coordinates": [-76.8396089587, 37.7281311446]}, "type": "Feature", "properties": {"collection_times": [{"days": "Mon-Fri", "time": "2:00pm"}, {"days": "Sat", "time": "12:15pm"}, {"days": "Sun", "time": "Closed"}], "id": "2308500003", "name": "USPS COLLECTION BOX - PO LOBBY", "address": {"city": "KING & QUEEN CTH", "state": "VA", "street": "352 ALLENS CIR", "postcode": "23085"}}},
{"geometry": {"type": "Point", "coordinates": [-77.0141942221, 37.6865916097]}, "type": "Feature", "properties": {"collection_times": [{"days": "Mon-Fri", "time": "4:30pm"}, {"days": "Sat", "time": "11:30am"}, {"days": "Sun", "time": "Closed"}], "id": "2308600001", "name": "USPS COLLECTION BOX - BLUE BOX", "address": {"city": "KING WILLIAM", "state": "VA", "street": "17 HORSE LANDING RD", "postcode": "23086"}}},
{"geometry": {"type": "Point", "coordinates": [-77.0141942221, 37.6865916097]}, "type": "Feature", "properties": {"collection_times": [{"days": "Mon-Fri", "time": "4:30pm"}, {"days": "Sat", "time": "11:30am"}, {"days": "Sun", "time": "Closed"}], "id": "2308600002", "name": "USPS COLLECTION BOX - PO LOBBY", "address": {"city": "KING WILLIAM", "state": "VA", "street": "17 HORSE LANDING RD", "postcode": "23086"}}},
{"geometry": {"type": "Point", "coordinates": [-76.9174475433, 37.4227859811]}, "type": "Feature", "properties": {"collection_times": [{"days": "Mon-Fri", "time": "5:00pm"}, {"days": "Sat", "time": "11:30am"}, {"days": "Sun", "time": "Closed"}], "id": "2308900001", "name": "USPS COLLECTION BOX - BLUE BOX", "address": {"city": "LANEXA", "state": "VA", "street": "15545 POCAHONTAS TRL", "postcode": "23089"}}},
{"geometry": {"type": "Point", "coordinates": [-76.9174475433, 37.4227859811]}, "type": "Feature", "properties": {"collection_times": [{"days": "Mon-Fri", "time": "5:00pm"}, {"days": "Sat", "time": "11:30am"}, {"days": "Sun", "time": "Closed"}], "id": "2308900002", "name": "USPS COLLECTION BOX - PO LOBBY", "address": {"city": "LANEXA", "state": "VA", "street": "15545 POCAHONTAS TRL", "postcode": "23089"}}},
{"geometry": {"type": "Point", "coordinates": [-76.7489472463, 37.3356336018]}, "type": "Feature", "properties": {"collection_times": [{"days": "Mon-Fri", "time": "4:45pm"}, {"days": "Sat", "time": "11:45am"}, {"days": "Sun", "time": "Closed"}], "id": "2309000001", "name": "USPS COLLECTION BOX - BLUE BOX", "address": {"city": "LIGHTFOOT", "state": "VA", "street": "6376 RICHMOND RD", "postcode": "23090"}}},
{"geometry": {"type": "Point", "coordinates": [-76.7489472463, 37.3356336018]}, "type": "Feature", "properties": {"collection_times": [{"days": "Mon-Fri", "time": "4:45pm"}, {"days": "Sat", "time": "11:45am"}, {"days": "Sun", "time": "Closed"}], "id": "2309000002", "name": "USPS COLLECTION BOX - PO LOBBY", "address": {"city": "LIGHTFOOT", "state": "VA", "street": "6376 RICHMOND RD", "postcode": "23090"}}},
{"geometry": {"type": "Point", "coordinates": [-76.7489472463, 37.3356336018]}, "type": "Feature", "properties": {"collection_times": [{"days": "Mon-Fri", "time": "4:45pm"}, {"days": "Sat", "time": "11:45am"}, {"days": "Sun", "time": "Closed"}], "id": "2309000003", "name": "USPS COLLECTION BOX - PO LOBBY", "address": {"city": "LIGHTFOOT", "state": "VA", "street": "6376 RICHMOND RD", "postcode": "23090"}}},
{"geometry": {"type": "Point", "coordinates": [-76.5124693392, 37.5993439414]}, "type": "Feature", "properties": {"collection_times": [{"days": "Mon-Fri", "time": "4:30pm"}, {"days": "Sat", "time": "11:15am"}, {"days": "Sun", "time": "Closed"}], "id": "2309200001", "name": "USPS COLLECTION BOX - BLUE BOX", "address": {"city": "LOCUST HILL", "state": "VA", "street": "5924 GENERAL PULLER HWY", "postcode": "23092"}}},
{"geometry": {"type": "Point", "coordinates": [-76.5124693392, 37.5993439414]}, "type": "Feature", "properties": {"collection_times": [{"days": "Mon-Fri", "time": "4:30pm"}, {"days": "Sat", "time": "11:15am"}, {"days": "Sun", "time": "Closed"}], "id": "2309200002", "name": "USPS COLLECTION BOX - PO LOBBY", "address": {"city": "LOCUST HILL", "state": "VA", "street": "5924 GENERAL PULLER HWY", "postcode": "23092"}}},
{"geometry": {"type": "Point", "coordinates": [-78.0060861143, 38.0272108879]}, "type": "Feature", "properties": {"collection_times": [{"days": "Mon-Fri", "time": "4:45pm"}, {"days": "Sat", "time": "2:00pm"}, {"days": "Sun", "time": "Closed"}], "id": "2309300002", "name": "USPS COLLECTION BOX - BLUE BOX", "address": {"city": "LOUISA", "state": "VA", "street": "204 W MAIN ST", "postcode": "23093"}}},
{"geometry": {"type": "Point", "coordinates": [-77.9958435479, 38.0204437609]}, "type": "Feature", "properties": {"collection_times": [{"days": "Mon-Sat", "time": "12:00pm"}, {"days": "Sun", "time": "Closed"}], "id": "2309300003", "name": "USPS COLLECTION BOX - BLUE BOX", "address": {"city": "LOUISA", "state": "VA", "street": "501 EAST MAIN ST", "postcode": "23093"}}},
{"geometry": {"type": "Point", "coordinates": [-78.0060861143, 38.0272108879]}, "type": "Feature", "properties": {"collection_times": [{"days": "Mon-Fri", "time": "5:00pm"}, {"days": "Sat", "time": "2:30pm"}, {"days": "Sun", "time": "Closed"}], "id": "2309300008", "name": "USPS COLLECTION BOX - PO LOBBY", "address": {"city": "LOUISA", "state": "VA", "street": "204 W MAIN ST", "postcode": "23093"}}},
{"geometry": {"type": "Point", "coordinates": [-78.037659974, 37.9962208097]}, "type": "Feature", "properties": {"collection_times": [{"days": "Mon-Sat", "time": "10:30am"}, {"days": "Sun", "time": "Closed"}], "id": "2309300012", "name": "USPS COLLECTION BOX - BLUE BOX", "address": {"city": "LOUISA", "state": "VA", "street": "4834 BROAD STREET RD", "postcode": "23093"}}}
]}
