{"type": "FeatureCollection", "features": [
{"geometry": {"type": "Point", "coordinates": [-77.8855399821, 37.6688099874]}, "type": "Feature", "properties": {"collection_times": [{"days": "Mon-Fri", "time": "3:45pm"}, {"days": "Sat", "time": "9:45am"}, {"days": "Sun", "time": "Closed"}], "id": "2310200001", "name": "USPS COLLECTION BOX - BLUE BOX", "address": {"city": "MAIDENS", "state": "VA", "street": "2746 MAIDENS LOOP", "postcode": "23102"}}},
{"geometry": {"type": "Point", "coordinates": [-77.7143379989, 37.6014218707]}, "type": "Feature", "properties": {"collection_times": [{"days": "Mon-Fri", "time": "4:00pm"}, {"days": "Sat", "time": "10:30am"}, {"days": "Sun", "time": "Closed"}], "id": "2310300001", "name": "USPS COLLECTION BOX - BLUE BOX", "address": {"city": "MANAKIN SABOT", "state": "VA", "street": "334 RIVER ROAD WEST", "postcode": "23103"}}},
{"geometry": {"type": "Point", "coordinates": [-77.6823750741, 37.6699875165]}, "type": "Feature", "properties": {"collection_times": [{"days": "Mon-Fri", "time": "12:00pm"}, {"days": "Sat-Sun", "time": "Closed"}], "id": "2310300002", "name": "USPS COLLECTION BOX - BLUE BOX", "address": {"city": "MANAKIN SABOT", "state": "VA", "street": "40 BROAD STREET RD", "postcode": "23103"}}},
{"geometry": {"type": "Point", "coordinates": [-77.7143379989, 37.6014218707]}, "type": "Feature", "properties": {"collection_times": [{"days": "Mon-Fri", "time": "4:00pm"}, {"days": "Sat", "time": "10:30am"}, {"days": "Sun", "time": "Closed"}], "id": "2310300003", "name": "USPS COLLECTION BOX - PO LOBBY", "address": {"city": "MANAKIN SABOT", "state": "VA", "street": "334 RIVER ROAD WEST", "postcode": "23103"}}},
{"geometry": {"type": "Point", "coordinates": [-77.8245553816, 37.2505612576]}, "type": "Feature", "properties": {"collection_times": [{"days": "Mon-Sat", "time": "12:45pm"}, {"days": "Sun", "time": "Closed"}], "id": "2310500002", "name": "USPS COLLECTION BOX - PO LOBBY", "address": {"city": "MANNBORO", "state": "VA", "street": "3800 RICHMOND RD", "postcode": "23105"}}},
{"geometry": {"type": "Point", "coordinates": [-77.1556783077, 37.707945322]}, "type": "Feature", "properties": {"collection_times": [{"days": "Mon-Fri", "time": "4:15pm"}, {"days": "Sat", "time": "11:15am"}, {"days": "Sun", "time": "Closed"}], "id": "2310600001", "name": "USPS COLLECTION BOX - BLUE BOX", "address": {"city": "MANQUIN", "state": "VA", "street": "2171 RICHMOND TAPPAHANNOCK HWY", "postcode": "23106"}}},
{"geometry": {"type": "Point", "coordinates": [-77.1556783077, 37.707945322]}, "type": "Feature", "properties": {"collection_times": [{"days": "Mon-Fri", "time": "4:15pm"}, {"days": "Sat", "time": "11:15am"}, {"days": "Sun", "time": "Closed"}], "id": "2310600003", "name": "USPS COLLECTION BOX - PO LOBBY", "address": {"city": "MANQUIN", "state": "VA", "street": "2171 RICHMOND TAPPAHANNOCK HWY", "postcode": "23106"}}},
{"geometry": {"type": "Point", "coordinates": [-76.3243287152, 37.4272423394]}, "type": "Feature", "properties": {"collection_times": [{"days": "Mon-Fri", "time": "4:45pm"}, {"days": "Sat", "time": "12:30pm"}, {"days": "Sun", "time": "Closed"}], "id": "2310900001", "name": "USPS COLLECTION BOX - BLUE BOX", "address": {"city": "MATHEWS", "state": "VA", "street": "161 MAIN ST", "postcode": "23109"}}},
{"geometry": {"type": "Point", "coordinates": [-76.3243287152, 37.4272423394]}, "type": "Feature", "properties": {"collection_times": [{"days": "Mon-Fri", "time": "4:45pm"}, {"days": "Sat", "time": "12:30pm"}, {"days": "Sun", "time": "Closed"}], "id": "2310900003", "name": "USPS COLLECTION BOX - PO LOBBY", "address": {"city": "MATHEWS", "state": "VA", "street": "161 MAIN ST", "postcode": "23109"}}},
{"geometry": {"type": "Point", "coordinates": [-76.7568354447, 37.535869096]}, "type": "Feature", "properties": {"collection_times": [{"days": "Mon-Fri", "time": "4:45pm"}, {"days": "Sat", "time": "11:30am"}, {"days": "Sun", "time": "Closed"}], "id": "2311000002", "name": "USPS COLLECTION BOX - PO LOBBY", "address": {"city": "MATTAPONI", "state": "VA", "street": "6877 LEWIS B PULLER MEMORIAL HWY", "postcode": "23110"}}},
{"geometry": {"type": "Point", "coordinates": [-76.7568354447, 37.535869096]}, "type": "Feature", "properties": {"collection_times": [{"days": "Mon-Fri", "time": "4:45pm"}, {"days": "Sat", "time": "11:30am"}, {"days": "Sun", "time": "Closed"}], "id": "2311000003", "name": "USPS COLLECTION BOX - BLUE BOX", "address": {"city": "MATTAPONI", "state": "VA", "street": "6877 LEWIS B PULLER MEMORIAL HWY", "postcode": "23110"}}},
{"geometry": {"type": "Point", "coordinates": [-76.7672976809, 37.5821417855]}, "type": "Feature", "properties": {"collection_times": [{"days": "Mon-Sat", "time": "11:00am"}, {"days": "Sun", "time": "Closed"}], "id": "2311000005", "name": "USPS COLLECTION BOX - BLUE BOX", "address": {"city": "MATTAPONI", "state": "VA", "street": "5939 LEWIS B PULLER MEMORIAL HWY", "postcode": "23110"}}},
{"geometry": {"type": "Point", "coordinates": [-77.3747660461, 37.6006259284]}, "type": "Feature", "properties": {"collection_times": [{"days": "Mon-Fri", "time": "5:15pm"}, {"days": "Sat", "time": "3:30pm"}, {"days": "Sun", "time": "Closed"}], "id": "2311100001", "name": "USPS COLLECTION BOX - BLUE BOX", "address": {"city": "MECHANICSVILLE", "state": "VA", "street": "8050 MECHANICSVILLE TNPK", "postcode": "23111"}}},
{"geometry": {"type": "Point", "coordinates": [-77.3747660461, 37.6006259284]}, "type": "Feature", "properties": {"collection_times": [{"days": "Mon-Fri", "time": "5:15pm"}, {"days": "Sat", "time": "3:30pm"}, {"days": "Sun", "time": "Closed"}], "id": "2311100002", "name": "USPS COLLECTION BOX - BLUE BOX", "address": {"city": "MECHANICSVILLE", "state": "VA", "street": "8050 MECHANICSVILLE TNPK", "postcode": "23111"}}},
{"geometry": {"type": "Point", "coordinates": [-77.3738493138, 37.6027138478]}, "type": "Feature", "properties": {"collection_times": [{"days": "Mon-Fri", "time": "5:15pm"}, {"days": "Sat", "time": "3:30pm"}, {"days": "Sun", "time": "Closed"}], "id": "2311100003", "name": "USPS COLLECTION BOX - BLUE BOX", "address": {"city": "MECHANICSVILLE", "state": "VA", "street": "8050 MECHANICSVILLE TPKE", "postcode": "23111"}}},
{"geometry": {"type": "Point", "coordinates": [-77.3747660461, 37.6006259284]}, "type": "Feature", "properties": {"collection_times": [{"days": "Mon-Fri", "time": "5:15pm"}, {"days": "Sat", "time": "3:30pm"}, {"days": "Sun", "time": "Closed"}], "id": "2311100004", "name": "USPS COLLECTION BOX - BLUE BOX", "address": {"city": "MECHANICSVILLE", "state": "VA", "street": "8050 MECHANICSVILLE TNPK", "postcode": "23111"}}},
{"geometry": {"type": "Point", "coordinates": [-77.3390720883, 37.611971175]}, "type": "Feature", "properties": {"collection_times": [{"days": "Mon-Sat", "time": "1:45pm"}, {"days": "Sun", "time": "Closed"}], "id": "2311100005", "name": "USPS COLLECTION BOX - BLUE BOX", "address": {"city": "MECHANICSVILLE", "state": "VA", "street": "7047 MECHANICSVILLE TNPK", "postcode": "23111"}}},
{"geometry": {"type": "Point", "coordinates": [-77.3541784742, 37.6040216908]}, "type": "Feature", "properties": {"collection_times": [{"days": "Mon-Sat", "time": "12:30pm"}, {"days": "Sun", "time": "Closed"}], "id": "2311100006", "name": "USPS COLLECTION BOX - BLUE BOX", "address": {"city": "MECHANICSVILLE", "state": "VA", "street": "7336 BELL CREEK RD", "postcode": "23111"}}},
{"geometry": {"type": "Point", "coordinates": [-77.3747660461, 37.6006259284]}, "type": "Feature", "properties": {"collection_times": [{"days": "Mon-Fri", "time": "5:15pm"}, {"days": "Sat", "time": "3:30pm"}, {"days": "Sun", "time": "Closed"}], "id": "2311100008", "name": "USPS COLLECTION BOX - PO LOBBY", "address": {"city": "MECHANICSVILLE", "state": "VA", "street": "8050 MECHANICSVILLE TPKE", "postcode": "23111"}}},
{"geometry": {"type": "Point", "coordinates": [-77.337322649, 37.6087375956]}, "type": "Feature", "properties": {"collection_times": [{"days": "Mon-Sat", "time": "11:30am"}, {"days": "Sun", "time": "Closed"}], "id": "2311100009", "name": "USPS COLLECTION BOX - BLUE BOX", "address": {"city": "MECHANICSVILLE", "state": "VA", "street": "7484 LEE DAVIS RD", "postcode": "23111"}}},
{"geometry": {"type": "Point", "coordinates": [-77.3747660461, 37.6006259284]}, "type": "Feature", "properties": {"collection_times": [{"days": "Mon-Fri", "time": "5:15pm"}, {"days": "Sat", "time": "3:30pm"}, {"days": "Sun", "time": "Closed"}], "id": "2311100014", "name": "USPS COLLECTION BOX - PO LOBBY", "address": {"city": "MECHANICSVILLE", "state": "VA", "street": "8050 MECHANICSVILLE TPKE", "postcode": "23111"}}},
{"geometry": {"type": "Point", "coordinates": [-77.3205993713, 37.6088201193]}, "type": "Feature", "properties": {"collection_times": [{"days": "Mon-Fri", "time": "5:15pm"}, {"days": "Sat", "time": "3:30pm"}, {"days": "Sun", "time": "Closed"}], "id": "2311100015", "name": "USPS COLLECTION BOX - PO LOBBY", "address": {"city": "MECHANICSVILLE", "state": "VA", "street": "8050 MECHANICSVILLE TPKE", "postcode": "23111"}}},
{"geometry": {"type": "Point", "coordinates": [-77.6816772924, 37.4072782736]}, "type": "Feature", "properties": {"collection_times": [{"days": "Mon-Fri", "time": "2:00pm"}, {"days": "Sat", "time": "12:15pm"}, {"days": "Sun", "time": "Closed"}], "id": "2311200002", "name": "USPS COLLECTION BOX - BLUE BOX", "address": {"city": "MIDLOTHIAN", "state": "VA", "street": "14746 VILLAGE SQUARE PL", "postcode": "23112"}}},
{"geometry": {"type": "Point", "coordinates": [-77.655018704, 37.4573372264]}, "type": "Feature", "properties": {"collection_times": [{"days": "Mon-Fri", "time": "1:30pm"}, {"days": "Sat", "time": "12:00pm"}, {"days": "Sun", "time": "Closed"}], "id": "2311200004", "name": "USPS COLLECTION BOX - BLUE BOX", "address": {"city": "MIDLOTHIAN", "state": "VA", "street": "2461 COLONY CROSSING PL", "postcode": "23112"}}},
{"geometry": {"type": "Point", "coordinates": [-77.638157475, 37.4224155213]}, "type": "Feature", "properties": {"collection_times": [{"days": "Mon-Fri", "time": "4:00pm"}, {"days": "Sat", "time": "12:30pm"}, {"days": "Sun", "time": "Closed"}], "id": "2311200005", "name": "USPS COLLECTION BOX - BLUE BOX", "address": {"city": "MIDLOTHIAN", "state": "VA", "street": "4942 MILLRIDGE PKWY E", "postcode": "23112"}}},
{"geometry": {"type": "Point", "coordinates": [-77.638157475, 37.4224155213]}, "type": "Feature", "properties": {"collection_times": [{"days": "Mon-Fri", "time": "4:00pm"}, {"days": "Sat", "time": "12:30pm"}, {"days": "Sun", "time": "Closed"}], "id": "2311200006", "name": "USPS COLLECTION BOX - BLUE BOX", "address": {"city": "MIDLOTHIAN", "state": "VA", "street": "4942 MILLRIDGE PKWY E", "postcode": "23112"}}},
{"geometry": {"type": "Point", "coordinates": [-77.6452108136, 37.4494447396]}, "type": "Feature", "properties": {"collection_times": [{"days": "Mon-Fri", "time": "4:30pm"}, {"days": "Sat", "time": "12:45pm"}, {"days": "Sun", "time": "Closed"}], "id": "2311200009", "name": "USPS COLLECTION BOX - BLUE BOX", "address": {"city": "MIDLOTHIAN", "state": "VA", "street": "13501 E BOUNDARY RD", "postcode": "23112"}}},
{"geometry": {"type": "Point", "coordinates": [-77.6490120689, 37.4527082266]}, "type": "Feature", "properties": {"collection_times": [{"days": "Mon-Fri", "time": "1:30pm"}, {"days": "Sat-Sun", "time": "Closed"}], "id": "2311200010", "name": "USPS COLLECTION BOX - BLUE BOX", "address": {"city": "MIDLOTHIAN", "state": "VA", "street": "2820 WATERFORD LAKE DR", "postcode": "23112"}}},
{"geometry": {"type": "Point", "coordinates": [-77.6538068215, 37.4092272646]}, "type": "Feature", "properties": {"collection_times": [{"days": "Mon-Fri", "time": "1:45pm"}, {"days": "Sat", "time": "12:15pm"}, {"days": "Sun", "time": "Closed"}], "id": "2311200015", "name": "USPS COLLECTION BOX - BLUE BOX", "address": {"city": "MIDLOTHIAN", "state": "VA", "street": "13626 HULL STREET RD", "postcode": "23112"}}},
{"geometry": {"type": "Point", "coordinates": [-77.6041999183, 37.4378134627]}, "type": "Feature", "properties": {"collection_times": [{"days": "Mon-Fri", "time": "5:00pm"}, {"days": "Sat", "time": "1:00pm"}, {"days": "Sun", "time": "Closed"}], "id": "2311200019", "name": "USPS COLLECTION BOX - PO LOBBY", "address": {"city": "MIDLOTHIAN", "state": "VA", "street": "3530 POST OFFICE RD", "postcode": "23112"}}},
{"geometry": {"type": "Point", "coordinates": [-77.6041999183, 37.4378134627]}, "type": "Feature", "properties": {"collection_times": [{"days": "Mon-Fri", "time": "5:00pm"}, {"days": "Sat", "time": "1:00pm"}, {"days": "Sun", "time": "Closed"}], "id": "2311200020", "name": "USPS COLLECTION BOX - PO LOBBY", "address": {"city": "MIDLOTHIAN", "state": "VA", "street": "3530 POST OFFICE RD", "postcode": "23112"}}},
{"geometry": {"type": "Point", "coordinates": [-77.6041999183, 37.4378134627]}, "type": "Feature", "properties": {"collection_times": [{"days": "Mon-Fri", "time": "5:00pm"}, {"days": "Sat", "time": "1:00pm"}, {"days": "Sun", "time": "Closed"}], "id": "2311200021", "name": "USPS COLLECTION BOX - BLUE BOX", "address": {"city": "MIDLOTHIAN", "state": "VA", "street": "3530 POST OFFICE RD", "postcode": "23112"}}},
{"geometry": {"type": "Point", "coordinates": [-77.6041999183, 37.4378134627]}, "type": "Feature", "properties": {"collection_times": [{"days": "Mon-Fri", "time": "5:00pm"}, {"days": "Sat", "time": "1:00pm"}, {"days": "Sun", "time": "Closed"}], "id": "2311200022", "name": "USPS COLLECTION BOX - BLUE BOX", "address": {"city": "MIDLOTHIAN", "state": "VA", "street": "3530 POST OFFICE RD", "postcode": "23112"}}},
{"geometry": {"type": "Point", "coordinates": [-77.6041999183, 37.4378134627]}, "type": "Feature", "properties": {"collection_times": [{"days": "Mon-Fri", "time": "5:00pm"}, {"days": "Sat", "time": "1:00pm"}, {"days": "Sun", "time": "Closed"}], "id": "2311200024", "name": "USPS COLLECTION BOX - APC", "address": {"city": "MIDLOTHIAN", "state": "VA", "street": "3530 POST OFFICE RD", "postcode": "23112"}}},
{"geometry": {"type": "Point", "coordinates": [-77.6148843936, 37.5137547465]}, "type": "Feature", "properties": {"collection_times": [{"days": "Mon-Fri", "time": "3:00pm"}, {"days": "Sat", "time": "12:00pm"}, {"days": "Sun", "time": "Closed"}], "id": "2311300001", "name": "USPS COLLECTION BOX - BLUE BOX", "address": {"city": "MIDLOTHIAN", "state": "VA", "street": "1525 HUGUENOT RD", "postcode": "23113"}}},
{"geometry": {"type": "Point", "coordinates": [-77.6144066621, 37.5123144536]}, "type": "Feature", "properties": {"collection_times": [{"days": "Mon-Fri", "time": "3:00pm"}, {"days": "Sat", "time": "12:00pm"}, {"days": "Sun", "time": "Closed"}], "id": "2311300002", "name": "USPS COLLECTION BOX - BLUE BOX", "address": {"city": "MIDLOTHIAN", "state": "VA", "street": "1409 HUGUENOT RD", "postcode": "23113"}}},
{"geometry": {"type": "Point", "coordinates": [-77.6148389233, 37.5127917619]}, "type": "Feature", "properties": {"collection_times": [{"days": "Mon-Fri", "time": "3:00pm"}, {"days": "Sat", "time": "12:00pm"}, {"days": "Sun", "time": "Closed"}], "id": "2311300004", "name": "USPS COLLECTION BOX - BLUE BOX", "address": {"city": "MIDLOTHIAN", "state": "VA", "street": "1520 HUGUENOT RD", "postcode": "23113"}}},
{"geometry": {"type": "Point", "coordinates": [-77.6420014354, 37.5025915627]}, "type": "Feature", "properties": {"collection_times": [{"days": "Mon-Fri", "time": "3:00pm"}, {"days": "Sat", "time": "12:15pm"}, {"days": "Sun", "time": "Closed"}], "id": "2311300005", "name": "USPS COLLECTION BOX - BLUE BOX", "address": {"city": "MIDLOTHIAN", "state": "VA", "street": "13150 MIDLOTHIAN TPKE", "postcode": "23113"}}},
{"geometry": {"type": "Point", "coordinates": [-77.6526689786, 37.5065988248]}, "type": "Feature", "properties": {"collection_times": [{"days": "Mon-Fri", "time": "5:00pm"}, {"days": "Sat", "time": "1:00pm"}, {"days": "Sun", "time": "Closed"}], "id": "2311300010", "name": "USPS COLLECTION BOX - BLUE BOX", "address": {"city": "MIDLOTHIAN", "state": "VA", "street": "1201 SYCAMORE SQUARE DR", "postcode": "23113"}}},
{"geometry": {"type": "Point", "coordinates": [-77.6530764621, 37.505637389]}, "type": "Feature", "properties": {"collection_times": [{"days": "Mon-Fri", "time": "5:00pm"}, {"days": "Sat", "time": "1:00pm"}, {"days": "Sun", "time": "Closed"}], "id": "2311300011", "name": "USPS COLLECTION BOX - BLUE BOX", "address": {"city": "MIDLOTHIAN", "state": "VA", "street": "1201 SYCAMORE SQUARE DR", "postcode": "23113"}}},
{"geometry": {"type": "Point", "coordinates": [-77.665952414, 37.525087475]}, "type": "Feature", "properties": {"collection_times": [{"days": "Mon-Fri", "time": "2:30pm"}, {"days": "Sat", "time": "11:30am"}, {"days": "Sun", "time": "Closed"}], "id": "2311300012", "name": "USPS COLLECTION BOX - BLUE BOX", "address": {"city": "MIDLOTHIAN", "state": "VA", "street": "14051 STEEPLESTONE DR", "postcode": "23113"}}},
{"geometry": {"type": "Point", "coordinates": [-77.6138489915, 37.5048528756]}, "type": "Feature", "properties": {"collection_times": [{"days": "Mon-Fri", "time": "2:45pm"}, {"days": "Sat", "time": "11:45am"}, {"days": "Sun", "time": "Closed"}], "id": "2311300016", "name": "USPS COLLECTION BOX - BLUE BOX", "address": {"city": "MIDLOTHIAN", "state": "VA", "street": "11643 MIDLOTHIAN TPKE", "postcode": "23113"}}},
{"geometry": {"type": "Point", "coordinates": [-77.6530764621, 37.505637389]}, "type": "Feature", "properties": {"collection_times": [{"days": "Mon-Fri", "time": "5:00pm"}, {"days": "Sat", "time": "1:00pm"}, {"days": "Sun", "time": "Closed"}], "id": "2311300023", "name": "USPS COLLECTION BOX - BLUE BOX", "address": {"city": "MIDLOTHIAN", "state": "VA", "street": "1201 SYCAMORE SQUARE DR", "postcode": "23113"}}},
{"geometry": {"type": "Point", "coordinates": [-77.6530764621, 37.505637389]}, "type": "Feature", "properties": {"collection_times": [{"days": "Mon-Fri", "time": "5:00pm"}, {"days": "Sat", "time": "1:00pm"}, {"days": "Sun", "time": "Closed"}], "id": "2311300024", "name": "USPS COLLECTION BOX - PO LOBBY", "address": {"city": "MIDLOTHIAN", "state": "VA", "street": "1201 SYCAMORE SQUARE DR", "postcode": "23113"}}},
{"geometry": {"type": "Point", "coordinates": [-77.6530764621, 37.505637389]}, "type": "Feature", "properties": {"collection_times": [{"days": "Mon-Fri", "time": "5:00pm"}, {"days": "Sat", "time": "1:00pm"}, {"days": "Sun", "time": "Closed"}], "id": "2311300025", "name": "USPS COLLECTION BOX - PO LOBBY", "address": {"city": "MIDLOTHIAN", "state": "VA", "street": "1201 SYCAMORE SQUARE DR", "postcode": "23113"}}},
{"geometry": {"type": "Point", "coordinates": [-77.6530764621, 37.505637389]}, "type": "Feature", "properties": {"collection_times": [{"days": "Mon-Fri", "time": "5:00pm"}, {"days": "Sat", "time": "1:00pm"}, {"days": "Sun", "time": "Closed"}], "id": "2311300028", "name": "USPS COLLECTION BOX - APC", "address": {"city": "MIDLOTHIAN", "state": "VA", "street": "1201 SYCAMORE SQUARE DR", "postcode": "23113"}}},
{"geometry": {"type": "Point", "coordinates": [-77.610352271, 37.5231201783]}, "type": "Feature", "properties": {"collection_times": [{"days": "Mon-Fri", "time": "3:00pm"}, {"days": "Sat", "time": "12:00pm"}, {"days": "Sun", "time": "Closed"}], "id": "2311300029", "name": "USPS COLLECTION BOX - BLUE BOX", "address": {"city": "MIDLOTHIAN", "state": "VA", "street": "11500 W HUGUENOT RD", "postcode": "23113"}}},
{"geometry": {"type": "Point", "coordinates": [-76.9418486482, 37.8300980434]}, "type": "Feature", "properties": {"collection_times": [{"days": "Mon-Fri", "time": "4:45pm"}, {"days": "Sat", "time": "11:45am"}, {"days": "Sun", "time": "Closed"}], "id": "2311500001", "name": "USPS COLLECTION BOX - BLUE BOX", "address": {"city": "MILLERS TAVERN", "state": "VA", "street": "6908 RICHMOND HWY", "postcode": "23115"}}},
{"geometry": {"type": "Point", "coordinates": [-76.9418486482, 37.8300980434]}, "type": "Feature", "properties": {"collection_times": [{"days": "Mon-Fri", "time": "4:45pm"}, {"days": "Sat", "time": "11:45am"}, {"days": "Sun", "time": "Closed"}], "id": "2311500002", "name": "USPS COLLECTION BOX - PO LOBBY", "address": {"city": "MILLERS TAVERN", "state": "VA", "street": "6908 RICHMOND HWY", "postcode": "23115"}}},
{"geometry": {"type": "Point", "coordinates": [-77.3845841934, 37.6613393257]}, "type": "Feature", "properties": {"collection_times": [{"days": "Mon-Fri", "time": "5:15pm"}, {"days": "Sat", "time": "3:30pm"}, {"days": "Sun", "time": "Closed"}], "id": "2311600000", "name": "USPS COLLECTION BOX - BLUE BOX", "address": {"city": "MECHANICSVILLE", "state": "VA", "street": "9540 CHAMBERLAYNE RD", "postcode": "23116"}}},
{"geometry": {"type": "Point", "coordinates": [-77.3845841934, 37.6613393257]}, "type": "Feature", "properties": {"collection_times": [{"days": "Mon-Fri", "time": "5:15pm"}, {"days": "Sat", "time": "3:30pm"}, {"days": "Sun", "time": "Closed"}], "id": "2311600001", "name": "USPS COLLECTION BOX - BLUE BOX", "address": {"city": "MECHANICSVILLE", "state": "VA", "street": "9540 CHAMBERLAYNE RD", "postcode": "23116"}}},
{"geometry": {"type": "Point", "coordinates": [-77.3845841934, 37.6613393257]}, "type": "Feature", "properties": {"collection_times": [{"days": "Mon-Fri", "time": "5:15pm"}, {"days": "Sat", "time": "3:30pm"}, {"days": "Sun", "time": "Closed"}], "id": "2311600003", "name": "USPS COLLECTION BOX - PO LOBBY", "address": {"city": "MECHANICSVILLE", "state": "VA", "street": "9540 CHAMBERLAYNE RD", "postcode": "23116"}}},
{"geometry": {"type": "Point", "coordinates": [-77.3845841934, 37.6613393257]}, "type": "Feature", "properties": {"collection_times": [{"days": "Mon-Fri", "time": "5:15pm"}, {"days": "Sat", "time": "3:30pm"}, {"days": "Sun", "time": "Closed"}], "id": "2311600004", "name": "USPS COLLECTION BOX - PO LOBBY", "address": {"city": "MECHANICSVILLE", "state": "VA", "street": "9540 CHAMBERLAYNE RD", "postcode": "23116"}}},
{"geometry": {"type": "Point", "coordinates": [-77.3885788869, 37.6278188029]}, "type": "Feature", "properties": {"collection_times": [{"days": "Mon-Sat", "time": "1:30pm"}, {"days": "Sun", "time": "Closed"}], "id": "2311600005", "name": "USPS COLLECTION BOX - BLUE BOX", "address": {"city": "MECHANICSVILLE", "state": "VA", "street": "8266 ATLEE RD", "postcode": "23116"}}},
{"geometry": {"type": "Point", "coordinates": [-77.3845841934, 37.6613393257]}, "type": "Feature", "properties": {"collection_times": [{"days": "Mon-Fri", "time": "5:15pm"}, {"days": "Sat", "time": "3:30pm"}, {"days": "Sun", "time": "Closed"}], "id": "2311600006", "name": "USPS COLLECTION BOX - PO LOBBY", "address": {"city": "MECHANICSVILLE", "state": "VA", "street": "9540 CHAMBERLAYNE RD", "postcode": "23116"}}},
{"geometry": {"type": "Point", "coordinates": [-77.9088265294, 38.0066985566]}, "type": "Feature", "properties": {"collection_times": [{"days": "Mon-Fri", "time": "4:15pm"}, {"days": "Sat", "time": "10:45am"}, {"days": "Sun", "time": "Closed"}], "id": "2311700001", "name": "USPS COLLECTION BOX - BLUE BOX", "address": {"city": "MINERAL", "state": "VA", "street": "512 MINERAL AVE", "postcode": "23117"}}},
{"geometry": {"type": "Point", "coordinates": [-77.9088277123, 38.0073219759]}, "type": "Feature", "properties": {"collection_times": [{"days": "Mon-Fri", "time": "12:00pm"}, {"days": "Sat", "time": "10:45am"}, {"days": "Sun", "time": "Closed"}], "id": "2311700002", "name": "USPS COLLECTION BOX - BLUE BOX", "address": {"city": "MINERAL", "state": "VA", "street": "430 MINERAL AVE", "postcode": "23117"}}},
{"geometry": {"type": "Point", "coordinates": [-77.9088265294, 38.0066985566]}, "type": "Feature", "properties": {"collection_times": [{"days": "Mon-Fri", "time": "4:15pm"}, {"days": "Sat", "time": "10:45am"}, {"days": "Sun", "time": "Closed"}], "id": "2311700003", "name": "USPS COLLECTION BOX - PO LOBBY", "address": {"city": "MINERAL", "state": "VA", "street": "512 MINERAL AVE", "postcode": "23117"}}},
{"geometry": {"type": "Point", "coordinates": [-77.8667361476, 38.0027209379]}, "type": "Feature", "properties": {"collection_times": [{"days": "Mon-Sat", "time": "11:00am"}, {"days": "Sun", "time": "Closed"}], "id": "2311700007", "name": "USPS COLLECTION BOX - BLUE BOX", "address": {"city": "MINERAL", "state": "VA", "street": "911 CROSS COUNTY RD", "postcode": "23117"}}},
{"geometry": {"type": "Point", "coordinates": [-76.2768672725, 37.445409135]}, "type": "Feature", "properties": {"collection_times": [{"days": "Mon-Fri", "time": "1:50pm"}, {"days": "Sat", "time": "11:00am"}, {"days": "Sun", "time": "Closed"}], "id": "2311900001", "name": "USPS COLLECTION BOX - BLUE BOX", "address": {"city": "MOON", "state": "VA", "street": "184 HAVEN BEACH RD", "postcode": "23119"}}},
{"geometry": {"type": "Point", "coordinates": [-76.2768672725, 37.445409135]}, "type": "Feature", "properties": {"collection_times": [{"days": "Mon-Fri", "time": "1:50pm"}, {"days": "Sat", "time": "11:00am"}, {"days": "Sun", "time": "Closed"}], "id": "2311900002", "name": "USPS COLLECTION BOX - PO LOBBY", "address": {"city": "MOON", "state": "VA", "street": "184 HAVEN BEACH RD", "postcode": "23119"}}},
{"geometry": {"type": "Point", "coordinates": [-77.7995788152, 37.386928291]}, "type": "Feature", "properties": {"collection_times": [{"days": "Mon-Fri", "time": "4:00pm"}, {"days": "Sat", "time": "11:00am"}, {"days": "Sun", "time": "Closed"}], "id": "2312000001", "name": "USPS COLLECTION BOX - BLUE BOX", "address": {"city": "MOSELEY", "state": "VA", "street": "21431 HULL STREET RD", "postcode": "23120"}}},
{"geometry": {"type": "Point", "coordinates": [-77.7995788152, 37.386928291]}, "type": "Feature", "properties": {"collection_times": [{"days": "Mon-Fri", "time": "4:00pm"}, {"days": "Sat", "time": "11:00am"}, {"days": "Sun", "time": "Closed"}], "id": "2312000002", "name": "USPS COLLECTION BOX - PO LOBBY", "address": {"city": "MOSELEY", "state": "VA", "street": "21431 HULL STREET RD", "postcode": "23120"}}},
{"geometry": {"type": "Point", "coordinates": [-78.2950724918, 37.6483142842]}, "type": "Feature", "properties": {"collection_times": [{"days": "Mon-Fri", "time": "4:00pm"}, {"days": "Sat", "time": "11:00am"}, {"days": "Sun", "time": "Closed"}], "id": "2312300003", "name": "USPS COLLECTION BOX - PO LOBBY", "address": {"city": "NEW CANTON", "state": "VA", "street": "3708 C G WOODSON RD", "postcode": "23123"}}},
{"geometry": {"type": "Point", "coordinates": [-76.9740819624, 37.5176184516]}, "type": "Feature", "properties": {"collection_times": [{"days": "Mon-Fri", "time": "4:15pm"}, {"days": "Sat", "time": "11:15am"}, {"days": "Sun", "time": "Closed"}], "id": "2312400001", "name": "USPS COLLECTION BOX - BLUE BOX", "address": {"city": "NEW KENT", "state": "VA", "street": "12101 NEW KENT HWY", "postcode": "23124"}}},
{"geometry": {"type": "Point", "coordinates": [-76.9740819624, 37.5176184516]}, "type": "Feature", "properties": {"collection_times": [{"days": "Mon-Fri", "time": "4:30pm"}, {"days": "Sat", "time": "11:30am"}, {"days": "Sun", "time": "Closed"}], "id": "2312400002", "name": "USPS COLLECTION BOX - PO LOBBY", "address": {"city": "NEW KENT", "state": "VA", "street": "12101 NEW KENT HWY", "postcode": "23124"}}},
{"geometry": {"type": "Point", "coordinates": [-76.2856178874, 37.3438386353]}, "type": "Feature", "properties": {"collection_times": [{"days": "Mon-Sat", "time": "12:30pm"}, {"days": "Sun", "time": "Closed"}], "id": "2312500001", "name": "USPS COLLECTION BOX - BLUE BOX", "address": {"city": "NEW POINT", "state": "VA", "street": "393 SAND BANK RD", "postcode": "23125"}}},
{"geometry": {"type": "Point", "coordinates": [-76.2839983741, 37.3467206975]}, "type": "Feature", "properties": {"collection_times": [{"days": "Mon-Sat", "time": "12:30pm"}, {"days": "Sun", "time": "Closed"}], "id": "2312500002", "name": "USPS COLLECTION BOX - PO LOBBY", "address": {"city": "NEW POINT", "state": "VA", "street": "393 SAND BANK RD", "postcode": "23125"}}},
{"geometry": {"type": "Point", "coordinates": [-77.1348724261, 37.9142076926]}, "type": "Feature", "properties": {"collection_times": [{"days": "Mon-Sat", "time": "12:00pm"}, {"days": "Sun", "time": "Closed"}], "id": "2312600000", "name": "USPS COLLECTION BOX - PO LOBBY", "address": {"city": "NEWTOWN", "state": "VA", "street": "9933 NEWTOWN RD", "postcode": "23126"}}},
{"geometry": {"type": "Point", "coordinates": [-76.7777906028, 37.3728382781]}, "type": "Feature", "properties": {"collection_times": [{"days": "Mon-Fri", "time": "4:45pm"}, {"days": "Sat", "time": "12:00pm"}, {"days": "Sun", "time": "Closed"}], "id": "2312700001", "name": "USPS COLLECTION BOX - BLUE BOX", "address": {"city": "NORGE", "state": "VA", "street": "7489 RICHMOND RD", "postcode": "23127"}}},
{"geometry": {"type": "Point", "coordinates": [-76.7777906028, 37.3728382781]}, "type": "Feature", "properties": {"collection_times": [{"days": "Mon-Fri", "time": "4:45pm"}, {"days": "Sat", "time": "12:00pm"}, {"days": "Sun", "time": "Closed"}], "id": "2312700002", "name": "USPS COLLECTION BOX - PO LOBBY", "address": {"city": "NORGE", "state": "VA", "street": "7489 RICHMOND RD", "postcode": "23127"}}},
{"geometry": {"type": "Point", "coordinates": [-76.4451198681, 37.4651134074]}, "type": "Feature", "properties": {"collection_times": [{"days": "Mon-Fri", "time": "4:30pm"}, {"days": "Sat", "time": "11:30am"}, {"days": "Sun", "time": "Closed"}], "id": "2312800001", "name": "USPS COLLECTION BOX - BLUE BOX", "address": {"city": "NORTH", "state": "VA", "street": "13846 JOHN CLAYTON MEMORIAL HWY", "postcode": "23128"}}},
{"geometry": {"type": "Point", "coordinates": [-76.4451198681, 37.4651134074]}, "type": "Feature", "properties": {"collection_times": [{"days": "Mon-Fri", "time": "4:30pm"}, {"days": "Sat", "time": "11:30am"}, {"days": "Sun", "time": "Closed"}], "id": "2312800002", "name": "USPS COLLECTION BOX - PO LOBBY", "address": {"city": "NORTH", "state": "VA", "street": "13846 JOHN CLAYTON MEMORIAL HWY", "postcode": "23128"}}},
{"geometry": {"type": "Point", "coordinates": [-77.7813724625, 37.7022613449]}, "type": "Feature", "properties": {"collection_times": [{"days": "Mon-Fri", "time": "3:45pm"}, {"days": "Sat", "time": "11:45am"}, {"days": "Sun", "time": "Closed"}], "id": "2312900001", "name": "USPS COLLECTION BOX - BLUE BOX", "address": {"city": "OILVILLE", "state": "VA", "street": "1411 BROAD STREET RD", "postcode": "23129"}}},
{"geometry": {"type": "Point", "coordinates": [-77.7813724625, 37.7022613449]}, "type": "Feature", "properties": {"collection_times": [{"days": "Mon-Fri", "time": "3:45pm"}, {"days": "Sat", "time": "11:45am"}, {"days": "Sun", "time": "Closed"}], "id": "2312900002", "name": "USPS COLLECTION BOX - PO LOBBY", "address": {"city": "OILVILLE", "state": "VA", "street": "1411 BROAD STREET RD", "postcode": "23129"}}},
{"geometry": {"type": "Point", "coordinates": [-76.5135999787, 37.3151924885]}, "type": "Feature", "properties": {"collection_times": [{"days": "Mon-Fri", "time": "4:45pm"}, {"days": "Sat", "time": "11:45am"}, {"days": "Sun", "time": "Closed"}], "id": "2313100001", "name": "USPS COLLECTION BOX - BLUE BOX", "address": {"city": "ORDINARY", "state": "VA", "street": "3992 GEORGE WASHINGTON MEMORIAL HWY", "postcode": "23131"}}},
{"geometry": {"type": "Point", "coordinates": [-76.5136084168, 37.3164118014]}, "type": "Feature", "properties": {"collection_times": [{"days": "Mon-Fri", "time": "4:45pm"}, {"days": "Sat", "time": "11:45am"}, {"days": "Sun", "time": "Closed"}], "id": "2313100002", "name": "USPS COLLECTION BOX - PO LOBBY", "address": {"city": "ORDINARY", "state": "VA", "street": "3992 GEORGE WASHINGTON MEMORIAL HWY", "postcode": "23131"}}},
{"geometry": {"type": "Point", "coordinates": [-76.3021996022, 37.3703531824]}, "type": "Feature", "properties": {"collection_times": [{"days": "Mon-Fri", "time": "2:50pm"}, {"days": "Sat", "time": "12:00pm"}, {"days": "Sun", "time": "Closed"}], "id": "2313800000", "name": "USPS COLLECTION BOX - PO LOBBY", "address": {"city": "PORT HAYWOOD", "state": "VA", "street": "3781 NEW POINT COMFORT HWY", "postcode": "23138"}}},
{"geometry": {"type": "Point", "coordinates": [-77.8169252879, 37.5207349107]}, "type": "Feature", "properties": {"collection_times": [{"days": "Mon-Fri", "time": "11:00am"}, {"days": "Sat", "time": "10:30am"}, {"days": "Sun", "time": "Closed"}], "id": "2313900002", "name": "USPS COLLECTION BOX - BLUE BOX", "address": {"city": "POWHATAN", "state": "VA", "street": "2470 ANDERSON HWY", "postcode": "23139"}}},
{"geometry": {"type": "Point", "coordinates": [-77.8177502154, 37.5213089803]}, "type": "Feature", "properties": {"collection_times": [{"days": "Mon-Fri", "time": "2:00pm"}, {"days": "Sat", "time": "12:00pm"}, {"days": "Sun", "time": "Closed"}], "id": "2313900003", "name": "USPS COLLECTION BOX - BLUE BOX", "address": {"city": "POWHATAN", "state": "VA", "street": "2501 ANDERSON HWY", "postcode": "23139"}}},
{"geometry": {"type": "Point", "coordinates": [-77.8177502154, 37.5213089803]}, "type": "Feature", "properties": {"collection_times": [{"days": "Mon-Fri", "time": "2:00pm"}, {"days": "Sat", "time": "12:00pm"}, {"days": "Sun", "time": "Closed"}], "id": "2313900004", "name": "USPS COLLECTION BOX - BLUE BOX", "address": {"city": "POWHATAN", "state": "VA", "street": "2501 ANDERSON HWY", "postcode": "23139"}}},
{"geometry": {"type": "Point", "coordinates": [-77.8841725354, 37.5386211083]}, "type": "Feature", "properties": {"collection_times": [{"days": "Mon-Fri", "time": "1:00pm"}, {"days": "Sat", "time": "12:00pm"}, {"days": "Sun", "time": "Closed"}], "id": "2313900006", "name": "USPS COLLECTION BOX - BLUE BOX", "address": {"city": "POWHATAN", "state": "VA", "street": "2105 ACADEMY RD", "postcode": "23139"}}},
{"geometry": {"type": "Point", "coordinates": [-77.937673332, 37.554368564]}, "type": "Feature", "properties": {"collection_times": [{"days": "Mon-Fri", "time": "4:30pm"}, {"days": "Sat", "time": "12:00pm"}, {"days": "Sun", "time": "Closed"}], "id": "2313900007", "name": "USPS COLLECTION BOX - BLUE BOX", "address": {"city": "POWHATAN", "state": "VA", "street": "4195 ANDERSON HWY", "postcode": "23139"}}},
{"geometry": {"type": "Point", "coordinates": [-77.937673332, 37.554368564]}, "type": "Feature", "properties": {"collection_times": [{"days": "Mon-Fri", "time": "4:30pm"}, {"days": "Sat", "time": "12:00pm"}, {"days": "Sun", "time": "Closed"}], "id": "2313900008", "name": "USPS COLLECTION BOX - BLUE BOX", "address": {"city": "POWHATAN", "state": "VA", "street": "4195 ANDERSON HWY", "postcode": "23139"}}},
{"geometry": {"type": "Point", "coordinates": [-77.9167727408, 37.5376261324]}, "type": "Feature", "properties": {"collection_times": [{"days": "Mon-Sat", "time": "11:00am"}, {"days": "Sun", "time": "Closed"}], "id": "2313900009", "name": "USPS COLLECTION BOX - BLUE BOX", "address": {"city": "POWHATAN", "state": "VA", "street": "3834 OLD BUCKINGHAM RD", "postcode": "23139"}}},
{"geometry": {"type": "Point", "coordinates": [-77.8957998894, 37.5412205237]}, "type": "Feature", "properties": {"collection_times": [{"days": "Mon-Fri", "time": "11:00am"}, {"days": "Sat", "time": "10:30am"}, {"days": "Sun", "time": "Closed"}], "id": "2313900010", "name": "USPS COLLECTION BOX - BLUE BOX", "address": {"city": "POWHATAN", "state": "VA", "street": "1800 SOUTHCREEK ONE STE F", "postcode": "23139"}}},
{"geometry": {"type": "Point", "coordinates": [-77.937673332, 37.554368564]}, "type": "Feature", "properties": {"collection_times": [{"days": "Mon-Fri", "time": "4:30pm"}, {"days": "Sat", "time": "12:00pm"}, {"days": "Sun", "time": "Closed"}], "id": "2313900011", "name": "USPS COLLECTION BOX - PO LOBBY", "address": {"city": "POWHATAN", "state": "VA", "street": "4195 ANDERSON HWY", "postcode": "23139"}}},
{"geometry": {"type": "Point", "coordinates": [-77.0440560564, 37.4426643314]}, "type": "Feature", "properties": {"collection_times": [{"days": "Mon-Fri", "time": "5:00pm"}, {"days": "Sat", "time": "11:30am"}, {"days": "Sun", "time": "Closed"}], "id": "2314000001", "name": "USPS COLLECTION BOX - BLUE BOX", "address": {"city": "PROVDENCE FRG", "state": "VA", "street": "3511 N COURTHOUSE RD", "postcode": "23140"}}},
{"geometry": {"type": "Point", "coordinates": [-77.0440560564, 37.4426643314]}, "type": "Feature", "properties": {"collection_times": [{"days": "Mon-Fri", "time": "5:00pm"}, {"days": "Sat", "time": "11:30am"}, {"days": "Sun", "time": "Closed"}], "id": "2314000002", "name": "USPS COLLECTION BOX - PO LOBBY", "address": {"city": "PROVDENCE FRG", "state": "VA", "street": "3511 N COURTHOUSE RD", "postcode": "23140"}}},
{"geometry": {"type": "Point", "coordinates": [-77.1920939562, 37.5114476693]}, "type": "Feature", "properties": {"collection_times": [{"days": "Mon-Fri", "time": "4:45pm"}, {"days": "Sat", "time": "11:30am"}, {"days": "Sun", "time": "Closed"}], "id": "2314100001", "name": "USPS COLLECTION BOX - BLUE BOX", "address": {"city": "QUINTON", "state": "VA", "street": "2510 NEW KENT HWY", "postcode": "23141"}}},
{"geometry": {"type": "Point", "coordinates": [-77.1920939562, 37.5114476693]}, "type": "Feature", "properties": {"collection_times": [{"days": "Mon-Fri", "time": "4:45pm"}, {"days": "Sat", "time": "11:30am"}, {"days": "Sun", "time": "Closed"}], "id": "2314100002", "name": "USPS COLLECTION BOX - PO LOBBY", "address": {"city": "QUINTON", "state": "VA", "street": "2510 NEW KENT HWY", "postcode": "23141"}}},
{"geometry": {"type": "Point", "coordinates": [-77.6550375316, 37.7224956697]}, "type": "Feature", "properties": {"collection_times": [{"days": "Mon-Fri", "time": "3:45pm"}, {"days": "Sat", "time": "10:00am"}, {"days": "Sun", "time": "Closed"}], "id": "2314600001", "name": "USPS COLLECTION BOX - BLUE BOX", "address": {"city": "ROCKVILLE", "state": "VA", "street": "16590 POUNCEY TRACT RD", "postcode": "23146"}}},
{"geometry": {"type": "Point", "coordinates": [-77.6550375316, 37.7224956697]}, "type": "Feature", "properties": {"collection_times": [{"days": "Mon-Fri", "time": "3:45pm"}, {"days": "Sat", "time": "10:00am"}, {"days": "Sun", "time": "Closed"}], "id": "2314600002", "name": "USPS COLLECTION BOX - PO LOBBY", "address": {"city": "ROCKVILLE", "state": "VA", "street": "16590 POUNCEY TRACT RD", "postcode": "23146"}}},
{"geometry": {"type": "Point", "coordinates": [-77.0412878462, 37.3672022025]}, "type": "Feature", "properties": {"collection_times": [{"days": "Mon-Fri", "time": "4:15pm"}, {"days": "Sat", "time": "11:30am"}, {"days": "Sun", "time": "Closed"}], "id": "2314700001", "name": "USPS COLLECTION BOX - BLUE BOX", "address": {"city": "RUTHVILLE", "state": "VA", "street": "13121 THE GLEBE LN", "postcode": "23147"}}},
{"geometry": {"type": "Point", "coordinates": [-77.0412878462, 37.3672022025]}, "type": "Feature", "properties": {"collection_times": [{"days": "Mon-Fri", "time": "4:25pm"}, {"days": "Sat", "time": "11:30am"}, {"days": "Sun", "time": "Closed"}], "id": "2314700002", "name": "USPS COLLECTION BOX - PO LOBBY", "address": {"city": "RUTHVILLE", "state": "VA", "street": "13121 THE GLEBE LN", "postcode": "23147"}}},
{"geometry": {"type": "Point", "coordinates": [-77.0581047488, 37.8031314391]}, "type": "Feature", "properties": {"collection_times": [{"days": "Mon-Fri", "time": "4:35pm"}, {"days": "Sat", "time": "12:00pm"}, {"days": "Sun", "time": "Closed"}], "id": "2314800001", "name": "USPS COLLECTION BOX - BLUE BOX", "address": {"city": "ST STEPHENS CH", "state": "VA", "street": "13280 RICHMOND TAPPAHANNOCK HWY", "postcode": "23148"}}},
{"geometry": {"type": "Point", "coordinates": [-77.0581047488, 37.8031314391]}, "type": "Feature", "properties": {"collection_times": [{"days": "Mon-Fri", "time": "4:35pm"}, {"days": "Sat", "time": "12:00pm"}, {"days": "Sun", "time": "Closed"}], "id": "2314800002", "name": "USPS COLLECTION BOX - PO LOBBY", "address": {"city": "ST STEPHENS CH", "state": "VA", "street": "13280 RICHMOND TAPPAHANNOCK HWY", "postcode": "23148"}}},
{"geometry": {"type": "Point", "coordinates": [-76.5962563699, 37.6049390788]}, "type": "Feature", "properties": {"collection_times": [{"days": "Mon-Fri", "time": "4:45pm"}, {"days": "Sat", "time": "11:45am"}, {"days": "Sun", "time": "Closed"}], "id": "2314900001", "name": "USPS COLLECTION BOX - BLUE BOX", "address": {"city": "SALUDA", "state": "VA", "street": "880 GLOUCESTER RD", "postcode": "23149"}}},
{"geometry": {"type": "Point", "coordinates": [-76.5962563699, 37.6049390788]}, "type": "Feature", "properties": {"collection_times": [{"days": "Mon-Fri", "time": "4:45pm"}, {"days": "Sat", "time": "11:45am"}, {"days": "Sun", "time": "Closed"}], "id": "2314900002", "name": "USPS COLLECTION BOX - PO LOBBY", "address": {"city": "SALUDA", "state": "VA", "street": "880 GLOUCESTER RD", "postcode": "23149"}}},
{"geometry": {"type": "Point", "coordinates": [-77.3155797062, 37.5234030373]}, "type": "Feature", "properties": {"collection_times": [{"days": "Mon-Fri", "time": "5:00pm"}, {"days": "Sat", "time": "12:00pm"}, {"days": "Sun", "time": "Closed"}], "id": "2315000001", "name": "USPS COLLECTION BOX - BLUE BOX", "address": {"city": "SANDSTON", "state": "VA", "street": "40 W WILLIAMSBURG RD", "postcode": "23150"}}},
{"geometry": {"type": "Point", "coordinates": [-77.3155797062, 37.5234030373]}, "type": "Feature", "properties": {"collection_times": [{"days": "Mon-Fri", "time": "5:00pm"}, {"days": "Sat", "time": "12:00pm"}, {"days": "Sun", "time": "Closed"}], "id": "2315000016", "name": "USPS COLLECTION BOX - BLUE BOX", "address": {"city": "SANDSTON", "state": "VA", "street": "40 W WILLIAMSBURG RD", "postcode": "23150"}}},
{"geometry": {"type": "Point", "coordinates": [-77.3155797062, 37.5234030373]}, "type": "Feature", "properties": {"collection_times": [{"days": "Mon-Fri", "time": "5:00pm"}, {"days": "Sat", "time": "12:00pm"}, {"days": "Sun", "time": "Closed"}], "id": "2315000017", "name": "USPS COLLECTION BOX - PO LOBBY", "address": {"city": "SANDSTON", "state": "VA", "street": "40 W WILLIAMSBURG RD", "postcode": "23150"}}},
{"geometry": {"type": "Point", "coordinates": [-77.9773778591, 37.7946224624]}, "type": "Feature", "properties": {"collection_times": [{"days": "Mon-Sat", "time": "11:45am"}, {"days": "Sun", "time": "Closed"}], "id": "2315300001", "name": "USPS COLLECTION BOX - BLUE BOX", "address": {"city": "SANDY HOOK", "state": "VA", "street": "2883 SANDY HOOK RD", "postcode": "23153"}}},
{"geometry": {"type": "Point", "coordinates": [-76.4531213365, 37.3919094754]}, "type": "Feature", "properties": {"collection_times": [{"days": "Mon-Sat", "time": "10:15am"}, {"days": "Sun", "time": "Closed"}], "id": "2315400002", "name": "USPS COLLECTION BOX - PO LOBBY", "address": {"city": "SCHLEY", "state": "VA", "street": "5778 WARE NECK RD & SCHLEY LN RT 623", "postcode": "23154"}}},
{"geometry": {"type": "Point", "coordinates": [-76.7089748807, 37.5393216036]}, "type": "Feature", "properties": {"collection_times": [{"days": "Mon-Fri", "time": "4:15pm"}, {"days": "Sat", "time": "12:00pm"}, {"days": "Sun", "time": "Closed"}], "id": "2315600001", "name": "USPS COLLECTION BOX - BLUE BOX", "address": {"city": "SHACKLEFORDS", "state": "VA", "street": "30165 THE TRAIL", "postcode": "23156"}}},
{"geometry": {"type": "Point", "coordinates": [-76.7089748807, 37.5393216036]}, "type": "Feature", "properties": {"collection_times": [{"days": "Mon-Fri", "time": "4:15pm"}, {"days": "Sat", "time": "12:00pm"}, {"days": "Sun", "time": "Closed"}], "id": "2315600002", "name": "USPS COLLECTION BOX - PO LOBBY", "address": {"city": "SHACKLEFORDS", "state": "VA", "street": "30165 THE TRAIL", "postcode": "23156"}}},
{"geometry": {"type": "Point", "coordinates": [-77.2916700716, 37.6759286617]}, "type": "Feature", "properties": {"collection_times": [{"days": "Mon-Fri", "time": "3:45pm"}, {"days": "Sat", "time": "10:45am"}, {"days": "Sun", "time": "Closed"}], "id": "2316200001", "name": "USPS COLLECTION BOX - BLUE BOX", "address": {"city": "STUDLEY", "state": "VA", "street": "5411 STUDLEY RD", "postcode": "23162"}}},
{"geometry": {"type": "Point", "coordinates": [-77.2916700716, 37.6759286617]}, "type": "Feature", "properties": {"collection_times": [{"days": "Mon-Fri", "time": "3:45pm"}, {"days": "Sat", "time": "10:45am"}, {"days": "Sun", "time": "Closed"}], "id": "2316200002", "name": "USPS COLLECTION BOX - PO LOBBY", "address": {"city": "STUDLEY", "state": "VA", "street": "5411 STUDLEY RD", "postcode": "23162"}}},
{"geometry": {"type": "Point", "coordinates": [-76.3143658247, 37.3657453642]}, "type": "Feature", "properties": {"collection_times": [{"days": "Mon-Fri", "time": "1:30pm"}, {"days": "Sat", "time": "12:00pm"}, {"days": "Sun", "time": "Closed"}], "id": "2316300002", "name": "USPS COLLECTION BOX - PO LOBBY", "address": {"city": "SUSAN", "state": "VA", "street": "5297 NEW POINT COMFORT HWY", "postcode": "23163"}}},
{"geometry": {"type": "Point", "coordinates": [-76.8049566519, 37.3807275395]}, "type": "Feature", "properties": {"collection_times": [{"days": "Mon-Fri", "time": "4:45pm"}, {"days": "Sat", "time": "11:30am"}, {"days": "Sun", "time": "Closed"}], "id": "2316800001", "name": "USPS COLLECTION BOX - BLUE BOX", "address": {"city": "TOANO", "state": "VA", "street": "7890 RICHMOND RD", "postcode": "23168"}}},
{"geometry": {"type": "Point", "coordinates": [-76.8049566519, 37.3807275395]}, "type": "Feature", "properties": {"collection_times": [{"days": "Mon-Fri", "time": "4:45pm"}, {"days": "Sat", "time": "11:30am"}, {"days": "Sun", "time": "Closed"}], "id": "2316800002", "name": "USPS COLLECTION BOX - PO LOBBY", "address": {"city": "TOANO", "state": "VA", "street": "7890 RICHMOND RD", "postcode": "23168"}}},
{"geometry": {"type": "Point", "coordinates": [-76.4723829575, 37.5893511457]}, "type": "Feature", "properties": {"collection_times": [{"days": "Mon-Fri", "time": "4:45pm"}, {"days": "Sat", "time": "11:15am"}, {"days": "Sun", "time": "Closed"}], "id": "2316900001", "name": "USPS COLLECTION BOX - BLUE BOX", "address": {"city": "TOPPING", "state": "VA", "street": "882 GREYS POINT RD", "postcode": "23169"}}},
{"geometry": {"type": "Point", "coordinates": [-76.4723829575, 37.5893511457]}, "type": "Feature", "properties": {"collection_times": [{"days": "Mon-Fri", "time": "4:45pm"}, {"days": "Sat", "time": "11:30am"}, {"days": "Sun", "time": "Closed"}], "id": "2316900002", "name": "USPS COLLECTION BOX - PO LOBBY", "address": {"city": "TOPPING", "state": "VA", "street": "882 GREYS POINT RD", "postcode": "23169"}}},
{"geometry": {"type": "Point", "coordinates": [-76.5762728562, 37.6363880226]}, "type": "Feature", "properties": {"collection_times": [{"days": "Mon-Fri", "time": "4:45pm"}, {"days": "Sat", "time": "11:45am"}, {"days": "Sun", "time": "Closed"}], "id": "2317500001", "name": "USPS COLLECTION BOX - BLUE BOX", "address": {"city": "URBANNA", "state": "VA", "street": "251 VIRGINIA ST", "postcode": "23175"}}},
{"geometry": {"type": "Point", "coordinates": [-76.6073347625, 37.6513959669]}, "type": "Feature", "properties": {"collection_times": [{"days": "Mon-Fri", "time": "4:45pm"}, {"days": "Sat", "time": "11:45am"}, {"days": "Sun", "time": "Closed"}], "id": "2317500002", "name": "USPS COLLECTION BOX - PO LOBBY", "address": {"city": "URBANNA", "state": "VA", "street": "251 VIRGINIA ST & CORNER OF UPTON ST", "postcode": "23175"}}},
{"geometry": {"type": "Point", "coordinates": [-76.4280664644, 37.5661509128]}, "type": "Feature", "properties": {"collection_times": [{"days": "Mon-Fri", "time": "4:15pm"}, {"days": "Sat", "time": "11:45am"}, {"days": "Sun", "time": "Closed"}], "id": "2317600001", "name": "USPS COLLECTION BOX - BLUE BOX", "address": {"city": "WAKE", "state": "VA", "street": "1360 WAKE RD", "postcode": "23176"}}},
{"geometry": {"type": "Point", "coordinates": [-76.4280664644, 37.5661509128]}, "type": "Feature", "properties": {"collection_times": [{"days": "Mon-Fri", "time": "4:15pm"}, {"days": "Sat", "time": "11:45am"}, {"days": "Sun", "time": "Closed"}], "id": "2317600002", "name": "USPS COLLECTION BOX - PO LOBBY", "address": {"city": "WAKE", "state": "VA", "street": "1360 WAKE RD", "postcode": "23176"}}},
{"geometry": {"type": "Point", "coordinates": [-77.0229358751, 37.7264283079]}, "type": "Feature", "properties": {"collection_times": [{"days": "Mon-Fri", "time": "4:15pm"}, {"days": "Sat", "time": "10:45am"}, {"days": "Sun", "time": "Closed"}], "id": "2317700001", "name": "USPS COLLECTION BOX - BLUE BOX", "address": {"city": "WALKERTON", "state": "VA", "street": "2954 WALKERTON LANDING RD", "postcode": "23177"}}},
{"geometry": {"type": "Point", "coordinates": [-77.0229358751, 37.7264283079]}, "type": "Feature", "properties": {"collection_times": [{"days": "Mon-Fri", "time": "4:15pm"}, {"days": "Sat", "time": "11:00am"}, {"days": "Sun", "time": "Closed"}], "id": "2317700002", "name": "USPS COLLECTION BOX - PO LOBBY", "address": {"city": "WALKERTON", "state": "VA", "street": "2954 WALKERTON LANDING RD", "postcode": "23177"}}},
{"geometry": {"type": "Point", "coordinates": [-76.4565283789, 37.4021149741]}, "type": "Feature", "properties": {"collection_times": [{"days": "Mon-Fri", "time": "2:30pm"}, {"days": "Sat", "time": "12:30pm"}, {"days": "Sun", "time": "Closed"}], "id": "2317800001", "name": "USPS COLLECTION BOX - BLUE BOX", "address": {"city": "WARE NECK", "state": "VA", "street": "6495 WARE NECK RD", "postcode": "23178"}}},
{"geometry": {"type": "Point", "coordinates": [-76.4565283789, 37.4021149741]}, "type": "Feature", "properties": {"collection_times": [{"days": "Mon-Fri", "time": "2:30pm"}, {"days": "Sat", "time": "12:30pm"}, {"days": "Sun", "time": "Closed"}], "id": "2317800002", "name": "USPS COLLECTION BOX - PO LOBBY", "address": {"city": "WARE NECK", "state": "VA", "street": "6495 WARE NECK RD", "postcode": "23178"}}},
{"geometry": {"type": "Point", "coordinates": [-76.7973244323, 37.5334675752]}, "type": "Feature", "properties": {"collection_times": [{"days": "Mon-Fri", "time": "5:00pm"}, {"days": "Sat", "time": "12:00pm"}, {"days": "Sun", "time": "Closed"}], "id": "2318100001", "name": "USPS COLLECTION BOX - BLUE BOX", "address": {"city": "WEST POINT", "state": "VA", "street": "925 MAIN ST", "postcode": "23181"}}},
{"geometry": {"type": "Point", "coordinates": [-76.7973244323, 37.5334675752]}, "type": "Feature", "properties": {"collection_times": [{"days": "Mon-Fri", "time": "5:00pm"}, {"days": "Sat", "time": "12:00pm"}, {"days": "Sun", "time": "Closed"}], "id": "2318100002", "name": "USPS COLLECTION BOX - PO LOBBY", "address": {"city": "WEST POINT", "state": "VA", "street": "925 MAIN ST", "postcode": "23181"}}},
{"geometry": {"type": "Point", "coordinates": [-76.5202790024, 37.3418637441]}, "type": "Feature", "properties": {"collection_times": [{"days": "Mon-Fri", "time": "4:15pm"}, {"days": "Sat", "time": "12:00pm"}, {"days": "Sun", "time": "Closed"}], "id": "2318300001", "name": "USPS COLLECTION BOX - BLUE BOX", "address": {"city": "WHITE MARSH", "state": "VA", "street": "4898 GEORGE WASH MEMORIAL HWY", "postcode": "23183"}}},
{"geometry": {"type": "Point", "coordinates": [-76.5202790024, 37.3418637441]}, "type": "Feature", "properties": {"collection_times": [{"days": "Mon-Fri", "time": "4:15pm"}, {"days": "Sat", "time": "12:00pm"}, {"days": "Sun", "time": "Closed"}], "id": "2318300002", "name": "USPS COLLECTION BOX - PO LOBBY", "address": {"city": "WHITE MARSH", "state": "VA", "street": "4898 GEORGE WASHINGOTN PKWY", "postcode": "23183"}}},
{"geometry": {"type": "Point", "coordinates": [-76.5202790024, 37.3418637441]}, "type": "Feature", "properties": {"collection_times": [{"days": "Mon-Fri", "time": "4:15pm"}, {"days": "Sat", "time": "12:00pm"}, {"days": "Sun", "time": "Closed"}], "id": "2318300003", "name": "USPS COLLECTION BOX - PO LOBBY", "address": {"city": "WHITE MARSH", "state": "VA", "street": "4898 GEORGE WASHINGTON MEMORIAL HWY", "postcode": "23183"}}},
{"geometry": {"type": "Point", "coordinates": [-76.5191580031, 37.2922755056]}, "type": "Feature", "properties": {"collection_times": [{"days": "Mon-Fri", "time": "5:00pm"}, {"days": "Sat", "time": "12:00pm"}, {"days": "Sun", "time": "Closed"}], "id": "2318400001", "name": "USPS COLLECTION BOX - BLUE BOX", "address": {"city": "WICOMICO", "state": "VA", "street": "6926 POWHATAN DR", "postcode": "23184"}}},
{"geometry": {"type": "Point", "coordinates": [-76.5191580031, 37.2922755056]}, "type": "Feature", "properties": {"collection_times": [{"days": "Mon-Fri", "time": "5:00pm"}, {"days": "Sat", "time": "12:00pm"}, {"days": "Sun", "time": "Closed"}], "id": "2318400002", "name": "USPS COLLECTION BOX - PO LOBBY", "address": {"city": "WICOMICO", "state": "VA", "street": "6926 POWHATAN DR", "postcode": "23184"}}},
{"geometry": {"type": "Point", "coordinates": [-76.7064704391, 37.2708909166]}, "type": "Feature", "properties": {"collection_times": [{"days": "Mon-Fri", "time": "5:00pm"}, {"days": "Sat", "time": "3:30pm"}, {"days": "Sun", "time": "Closed"}], "id": "2318500002", "name": "USPS COLLECTION BOX - BLUE BOX", "address": {"city": "WILLIAMSBURG", "state": "VA", "street": "440 W DUKE OF GLOUCESTER ST", "postcode": "23185"}}},
{"geometry": {"type": "Point", "coordinates": [-76.7182205684, 37.2801885058]}, "type": "Feature", "properties": {"collection_times": [{"days": "Mon-Fri", "time": "3:45pm"}, {"days": "Sat", "time": "1:00pm"}, {"days": "Sun", "time": "Closed"}], "id": "2318500003", "name": "USPS COLLECTION BOX - BLUE BOX", "address": {"city": "WILLIAMSBURG", "state": "VA", "street": "1200 RICHMOND RD", "postcode": "23185"}}},
{"geometry": {"type": "Point", "coordinates": [-76.7326612977, 37.2531253048]}, "type": "Feature", "properties": {"collection_times": [{"days": "Mon-Fri", "time": "4:45pm"}, {"days": "Sat", "time": "2:15pm"}, {"days": "Sun", "time": "Closed"}], "id": "2318500005", "name": "USPS COLLECTION BOX - BLUE BOX", "address": {"city": "WILLIAMSBURG", "state": "VA", "street": "1301 JAMESTOWN RD", "postcode": "23185"}}},
{"geometry": {"type": "Point", "coordinates": [-76.7345600897, 37.2512704985]}, "type": "Feature", "properties": {"collection_times": [{"days": "Mon-Fri", "time": "4:45pm"}, {"days": "Sat", "time": "2:15pm"}, {"days": "Sun", "time": "Closed"}], "id": "2318500009", "name": "USPS COLLECTION BOX - BLUE BOX", "address": {"city": "WILLIAMSBURG", "state": "VA", "street": "1319 JAMESTOWN RD", "postcode": "23185"}}},
{"geometry": {"type": "Point", "coordinates": [-76.6816709562, 37.2466566968]}, "type": "Feature", "properties": {"collection_times": [{"days": "Mon-Fri", "time": "4:15pm"}, {"days": "Sat", "time": "2:30pm"}, {"days": "Sun", "time": "Closed"}], "id": "2318500012", "name": "USPS COLLECTION BOX - BLUE BOX", "address": {"city": "WILLIAMSBURG", "state": "VA", "street": "101 MOUNTS BAY RD", "postcode": "23185"}}},
{"geometry": {"type": "Point", "coordinates": [-76.6601127903, 37.2464545992]}, "type": "Feature", "properties": {"collection_times": [{"days": "Mon-Fri", "time": "4:15pm"}, {"days": "Sat", "time": "2:30pm"}, {"days": "Sun", "time": "Closed"}], "id": "2318500013", "name": "USPS COLLECTION BOX - BLUE BOX", "address": {"city": "WILLIAMSBURG", "state": "VA", "street": "240 MCLAWS CIR", "postcode": "23185"}}},
{"geometry": {"type": "Point", "coordinates": [-76.67899159, 37.2709761043]}, "type": "Feature", "properties": {"collection_times": [{"days": "Mon-Fri", "time": "4:45pm"}, {"days": "Sat", "time": "2:45pm"}, {"days": "Sun", "time": "Closed"}], "id": "2318500016", "name": "USPS COLLECTION BOX - BLUE BOX", "address": {"city": "WILLIAMSBURG", "state": "VA", "street": "601 MERRIMAC TRL STE C", "postcode": "23185"}}},
{"geometry": {"type": "Point", "coordinates": [-76.6799268087, 37.2742209273]}, "type": "Feature", "properties": {"collection_times": [{"days": "Mon-Fri", "time": "4:45pm"}, {"days": "Sat", "time": "3:00pm"}, {"days": "Sun", "time": "Closed"}], "id": "2318500017", "name": "USPS COLLECTION BOX - BLUE BOX", "address": {"city": "WILLIAMSBURG", "state": "VA", "street": "455 MERRIMAC TRL", "postcode": "23185"}}},
{"geometry": {"type": "Point", "coordinates": [-76.6867112925, 37.2859073038]}, "type": "Feature", "properties": {"collection_times": [{"days": "Mon-Fri", "time": "2:00pm"}, {"days": "Sat", "time": "3:15pm"}, {"days": "Sun", "time": "Closed"}], "id": "2318500022", "name": "USPS COLLECTION BOX - BLUE BOX", "address": {"city": "WILLIAMSBURG", "state": "VA", "street": "952 CAPITOL LANDING RD", "postcode": "23185"}}},
{"geometry": {"type": "Point", "coordinates": [-76.6179051699, 37.2195547291]}, "type": "Feature", "properties": {"collection_times": [{"days": "Mon-Sat", "time": "11:00am"}, {"days": "Sun", "time": "Closed"}], "id": "2318500028", "name": "USPS COLLECTION BOX - BLUE BOX", "address": {"city": "WILLIAMSBURG", "state": "VA", "street": "10 GRAY GABLES DR", "postcode": "23185"}}},
{"geometry": {"type": "Point", "coordinates": [-76.7683678202, 37.2505115974]}, "type": "Feature", "properties": {"collection_times": [{"days": "Mon-Fri", "time": "4:30pm"}, {"days": "Sat", "time": "2:00pm"}, {"days": "Sun", "time": "Closed"}], "id": "2318500029", "name": "USPS COLLECTION BOX - BLUE BOX", "address": {"city": "WILLIAMSBURG", "state": "VA", "street": "4400 JOHN TYLER HWY", "postcode": "23185"}}},
{"geometry": {"type": "Point", "coordinates": [-76.7097168603, 37.275600411]}, "type": "Feature", "properties": {"collection_times": [{"days": "Mon-Fri", "time": "5:00pm"}, {"days": "Sat", "time": "3:15pm"}, {"days": "Sun", "time": "Closed"}], "id": "2318500035", "name": "USPS COLLECTION BOX - BLUE BOX", "address": {"city": "WILLIAMSBURG", "state": "VA", "street": "600 JAMESTOWN RD", "postcode": "23185"}}},
{"geometry": {"type": "Point", "coordinates": [-76.7047939552, 37.2710821235]}, "type": "Feature", "properties": {"collection_times": [{"days": "Mon-Fri", "time": "5:00pm"}, {"days": "Sat", "time": "3:15pm"}, {"days": "Sun", "time": "Closed"}], "id": "2318500037", "name": "USPS COLLECTION BOX - BLUE BOX", "address": {"city": "WILLIAMSBURG", "state": "VA", "street": "345 W DUKE OF GLOUCESTER ST", "postcode": "23185"}}},
{"geometry": {"type": "Point", "coordinates": [-76.7077285165, 37.2756802728]}, "type": "Feature", "properties": {"collection_times": [{"days": "Mon-Sat", "time": "5:00pm"}, {"days": "Sun", "time": "Closed"}], "id": "2318500041", "name": "USPS COLLECTION BOX - BLUE BOX", "address": {"city": "WILLIAMSBURG", "state": "VA", "street": "425 N BOUNDARY ST", "postcode": "23185"}}},
{"geometry": {"type": "Point", "coordinates": [-76.7396910168, 37.2594940334]}, "type": "Feature", "properties": {"collection_times": [{"days": "Mon-Sat", "time": "2:00pm"}, {"days": "Sun", "time": "Closed"}], "id": "2318500045", "name": "USPS COLLECTION BOX - BLUE BOX", "address": {"city": "WILLIAMSBURG", "state": "VA", "street": "5251 JOHN TYLER HWY", "postcode": "23185"}}},
{"geometry": {"type": "Point", "coordinates": [-76.657866041, 37.2425932168]}, "type": "Feature", "properties": {"collection_times": [{"days": "Mon-Fri", "time": "4:30pm"}, {"days": "Sat", "time": "2:30pm"}, {"days": "Sun", "time": "Closed"}], "id": "2318500046", "name": "USPS COLLECTION BOX - BLUE BOX", "address": {"city": "WILLIAMSBURG", "state": "VA", "street": "100 KINGSMILL RD", "postcode": "23185"}}},
{"geometry": {"type": "Point", "coordinates": [-76.7377175796, 37.2608409313]}, "type": "Feature", "properties": {"collection_times": [{"days": "Mon-Fri", "time": "1:00pm"}, {"days": "Sat", "time": "1:45pm"}, {"days": "Sun", "time": "Closed"}], "id": "2318500048", "name": "USPS COLLECTION BOX - BLUE BOX", "address": {"city": "WILLIAMSBURG", "state": "VA", "street": "156 STRAWBERRY PLAINS RD", "postcode": "23185"}}},
{"geometry": {"type": "Point", "coordinates": [-76.6848404338, 37.2844755218]}, "type": "Feature", "properties": {"collection_times": [{"days": "Mon-Fri", "time": "2:00pm"}, {"days": "Sat", "time": "3:00pm"}, {"days": "Sun", "time": "Closed"}], "id": "2318500049", "name": "USPS COLLECTION BOX - BLUE BOX", "address": {"city": "WILLIAMSBURG", "state": "VA", "street": "181 MERRIMAC TRL", "postcode": "23185"}}},
{"geometry": {"type": "Point", "coordinates": [-76.7077285165, 37.2756802728]}, "type": "Feature", "properties": {"collection_times": [{"days": "Mon-Sat", "time": "5:00pm"}, {"days": "Sun", "time": "Closed"}], "id": "2318500050", "name": "USPS COLLECTION BOX - PO LOBBY", "address": {"city": "WILLIAMSBURG", "state": "VA", "street": "425 N BOUNDARY ST", "postcode": "23185"}}},
{"geometry": {"type": "Point", "coordinates": [-76.7077285165, 37.2756802728]}, "type": "Feature", "properties": {"collection_times": [{"days": "Mon-Sat", "time": "5:00pm"}, {"days": "Sun", "time": "Closed"}], "id": "2318500051", "name": "USPS COLLECTION BOX - PO LOBBY", "address": {"city": "WILLIAMSBURG", "state": "VA", "street": "425 N BOUNDARY ST", "postcode": "23185"}}},
{"geometry": {"type": "Point", "coordinates": [-76.7077285165, 37.2756802728]}, "type": "Feature", "properties": {"collection_times": [{"days": "Mon-Sat", "time": "5:00pm"}, {"days": "Sun", "time": "Closed"}], "id": "2318500053", "name": "USPS COLLECTION BOX - APC", "address": {"city": "WILLIAMSBURG", "state": "VA", "street": "425 N BOUNDARY ST", "postcode": "23185"}}},
{"geometry": {"type": "Point", "coordinates": [-76.7645066799, 37.3588624285]}, "type": "Feature", "properties": {"collection_times": [{"days": "Mon-Sat", "time": "12:30pm"}, {"days": "Sun", "time": "Closed"}], "id": "2318800001", "name": "USPS COLLECTION BOX - BLUE BOX", "address": {"city": "WILLIAMSBURG", "state": "VA", "street": "7100 RICHMOND RD", "postcode": "23188"}}},
{"geometry": {"type": "Point", "coordinates": [-76.7520274385, 37.3067123393]}, "type": "Feature", "properties": {"collection_times": [{"days": "Mon-Fri", "time": "12:45pm"}, {"days": "Sat", "time": "1:30pm"}, {"days": "Sun", "time": "Closed"}], "id": "2318800002", "name": "USPS COLLECTION BOX - BLUE BOX", "address": {"city": "WILLIAMSBURG", "state": "VA", "street": "4800 LONGHILL RD", "postcode": "23188"}}},
{"geometry": {"type": "Point", "coordinates": [-76.7583656718, 37.2702292732]}, "type": "Feature", "properties": {"collection_times": [{"days": "Mon-Fri", "time": "4:15pm"}, {"days": "Sat", "time": "1:45pm"}, {"days": "Sun", "time": "Closed"}], "id": "2318800007", "name": "USPS COLLECTION BOX - BLUE BOX", "address": {"city": "WILLIAMSBURG", "state": "VA", "street": "4680 MONTICELLO AVE", "postcode": "23188"}}},
{"geometry": {"type": "Point", "coordinates": [-76.7452449276, 37.2765437504]}, "type": "Feature", "properties": {"collection_times": [{"days": "Mon-Sat", "time": "5:00pm"}, {"days": "Sun", "time": "Closed"}], "id": "2318800008", "name": "USPS COLLECTION BOX - BLUE BOX", "address": {"city": "WILLIAMSBURG", "state": "VA", "street": "5219 MONTICELLO AVE", "postcode": "23188"}}},
{"geometry": {"type": "Point", "coordinates": [-76.7452449276, 37.2765437504]}, "type": "Feature", "properties": {"collection_times": [{"days": "Mon-Sat", "time": "5:00pm"}, {"days": "Sun", "time": "Closed"}], "id": "2318800009", "name": "USPS COLLECTION BOX - BLUE BOX", "address": {"city": "WILLIAMSBURG", "state": "VA", "street": "5219 MONTICELLO AVE", "postcode": "23188"}}},
{"geometry": {"type": "Point", "coordinates": [-76.7452952994, 37.2765656367]}, "type": "Feature", "properties": {"collection_times": [{"days": "Mon-Sat", "time": "5:00pm"}, {"days": "Sun", "time": "Closed"}], "id": "2318800010", "name": "USPS COLLECTION BOX - PO LOBBY", "address": {"city": "WILLIAMSBURG", "state": "VA", "street": "5219 MONTICELLO AVE", "postcode": "23188"}}},
{"geometry": {"type": "Point", "coordinates": [-76.7353427855, 37.3338404946]}, "type": "Feature", "properties": {"collection_times": [{"days": "Mon-Sat", "time": "11:00am"}, {"days": "Sun", "time": "Closed"}], "id": "2318800011", "name": "USPS COLLECTION BOX - BLUE BOX", "address": {"city": "WILLIAMSBURG", "state": "VA", "street": "109 BULIFANTS BLVD", "postcode": "23188"}}},
{"geometry": {"type": "Point", "coordinates": [-76.7452952994, 37.2765656367]}, "type": "Feature", "properties": {"collection_times": [{"days": "Mon-Sat", "time": "5:00pm"}, {"days": "Sun", "time": "Closed"}], "id": "2318800012", "name": "USPS COLLECTION BOX - APC", "address": {"city": "WILLIAMSBURG", "state": "VA", "street": "5219 MONTICELLO AVE", "postcode": "23188"}}},
{"geometry": {"type": "Point", "coordinates": [-76.5235709613, 37.4131942556]}, "type": "Feature", "properties": {"collection_times": [{"days": "Mon-Fri", "time": "2:30pm"}, {"days": "Sat", "time": "12:30pm"}, {"days": "Sun", "time": "Closed"}], "id": "2319000001", "name": "USPS COLLECTION BOX - BLUE BOX", "address": {"city": "WOODS CRS RDS", "state": "VA", "street": "9900 DAVENPORT RD", "postcode": "23190"}}},
{"geometry": {"type": "Point", "coordinates": [-76.5235709613, 37.4131942556]}, "type": "Feature", "properties": {"collection_times": [{"days": "Mon-Fri", "time": "2:30pm"}, {"days": "Sat", "time": "12:30pm"}, {"days": "Sun", "time": "Closed"}], "id": "2319000002", "name": "USPS COLLECTION BOX - PO LOBBY", "address": {"city": "WOODS CRS RDS", "state": "VA", "street": "9900 DAVENPORT RD", "postcode": "23190"}}},
{"geometry": {"type": "Point", "coordinates": [-77.6837147016, 37.819554772]}, "type": "Feature", "properties": {"collection_times": [{"days": "Mon-Fri", "time": "4:30pm"}, {"days": "Sat", "time": "11:00am"}, {"days": "Sun", "time": "Closed"}], "id": "2319200001", "name": "USPS COLLECTION BOX - BLUE BOX", "address": {"city": "MONTPELIER", "state": "VA", "street": "17132 MOUNTAIN RD", "postcode": "23192"}}},
{"geometry": {"type": "Point", "coordinates": [-77.6837147016, 37.819554772]}, "type": "Feature", "properties": {"collection_times": [{"days": "Mon-Fri", "time": "4:30pm"}, {"days": "Sat", "time": "11:00am"}, {"days": "Sun", "time": "Closed"}], "id": "2319200002", "name": "USPS COLLECTION BOX - PO LOBBY", "address": {"city": "MONTPELIER", "state": "VA", "street": "17132 MOUNTAIN RD", "postcode": "23192"}}}
]}
