{"type": "FeatureCollection", "features": [
{"geometry": {"type": "Point", "coordinates": [-77.433348003, 37.5405689549]}, "type": "Feature", "properties": {"collection_times": [{"days": "Mon-Fri", "time": "1:00pm"}, {"days": "Sat-Sun", "time": "Closed"}], "id": "2321900010", "name": "USPS COLLECTION BOX - BLUE BOX", "address": {"city": "RICHMOND", "state": "VA", "street": "900 E BROAD ST", "postcode": "23219"}}},
{"geometry": {"type": "Point", "coordinates": [-77.4325495057, 37.539930157]}, "type": "Feature", "properties": {"collection_times": [{"days": "Mon-Fri", "time": "5:00pm"}, {"days": "Sat-Sun", "time": "Closed"}], "id": "2321900012", "name": "USPS COLLECTION BOX - BLUE BOX", "address": {"city": "RICHMOND", "state": "VA", "street": "1001 E BROAD ST", "postcode": "23219"}}},
{"geometry": {"type": "Point", "coordinates": [-77.439925378, 37.536366215]}, "type": "Feature", "properties": {"collection_times": [{"days": "Mon-Fri", "time": "1:00pm"}, {"days": "Sat-Sun", "time": "Closed"}], "id": "2321900014", "name": "USPS COLLECTION BOX - BLUE BOX", "address": {"city": "RICHMOND", "state": "VA", "street": "701 E BYRD ST", "postcode": "23219"}}},
{"geometry": {"type": "Point", "coordinates": [-77.443534995, 37.541185643]}, "type": "Feature", "properties": {"collection_times": [{"days": "Mon-Fri", "time": "5:00pm"}, {"days": "Sat-Sun", "time": "Closed"}], "id": "2321900024", "name": "USPS COLLECTION BOX - BLUE BOX", "address": {"city": "RICHMOND", "state": "VA", "street": "117 E CARY ST", "postcode": "23219"}}},
{"geometry": {"type": "Point", "coordinates": [-77.431878625, 37.542949075]}, "type": "Feature", "properties": {"collection_times": [{"days": "Mon-Fri", "time": "4:30pm"}, {"days": "Sat-Sun", "time": "Closed"}], "id": "2321900033", "name": "USPS COLLECTION BOX - BLUE BOX", "address": {"city": "RICHMOND", "state": "VA", "street": "501 N 9TH ST", "postcode": "23219"}}},
{"geometry": {"type": "Point", "coordinates": [-77.436977862, 37.539034063]}, "type": "Feature", "properties": {"collection_times": [{"days": "Mon-Fri", "time": "5:00pm"}, {"days": "Sat-Sun", "time": "Closed"}], "id": "2321900044", "name": "USPS COLLECTION BOX - BLUE BOX", "address": {"city": "RICHMOND", "state": "VA", "street": "30 N 8TH ST", "postcode": "23219"}}},
{"geometry": {"type": "Point", "coordinates": [-77.431927577, 37.538092351]}, "type": "Feature", "properties": {"collection_times": [{"days": "Mon-Fri", "time": "4:30pm"}, {"days": "Sat-Sun", "time": "Closed"}], "id": "2321900048", "name": "USPS COLLECTION BOX - BLUE BOX", "address": {"city": "RICHMOND", "state": "VA", "street": "203 GOVERNOR ST", "postcode": "23219"}}},
{"geometry": {"type": "Point", "coordinates": [-77.433825586, 37.542147085]}, "type": "Feature", "properties": {"collection_times": [{"days": "Mon-Fri", "time": "4:30pm"}, {"days": "Sat-Sun", "time": "Closed"}], "id": "2321900056", "name": "USPS COLLECTION BOX - BLUE BOX", "address": {"city": "RICHMOND", "state": "VA", "street": "800 E MARSHALL ST", "postcode": "23219"}}},
{"geometry": {"type": "Point", "coordinates": [-77.443585112, 37.54262506]}, "type": "Feature", "properties": {"collection_times": [{"days": "Mon-Fri", "time": "5:00pm"}, {"days": "Sat-Sun", "time": "Closed"}], "id": "2321900063", "name": "USPS COLLECTION BOX - BLUE BOX", "address": {"city": "RICHMOND", "state": "VA", "street": "20 E MAIN ST", "postcode": "23219"}}},
{"geometry": {"type": "Point", "coordinates": [-77.440462221, 37.5407423156]}, "type": "Feature", "properties": {"collection_times": [{"days": "Mon-Fri", "time": "5:00pm"}, {"days": "Sat-Sun", "time": "Closed"}], "id": "2321900066", "name": "USPS COLLECTION BOX - BLUE BOX", "address": {"city": "RICHMOND", "state": "VA", "street": "430 E MAIN ST", "postcode": "23219"}}},
{"geometry": {"type": "Point", "coordinates": [-77.439275018, 37.54001546]}, "type": "Feature", "properties": {"collection_times": [{"days": "Mon-Fri", "time": "5:00pm"}, {"days": "Sat-Sun", "time": "Closed"}], "id": "2321900067", "name": "USPS COLLECTION BOX - BLUE BOX", "address": {"city": "RICHMOND", "state": "VA", "street": "530 E MAIN ST", "postcode": "23219"}}},
{"geometry": {"type": "Point", "coordinates": [-77.432130942, 37.541110511]}, "type": "Feature", "properties": {"collection_times": [{"days": "Mon-Fri", "time": "4:30pm"}, {"days": "Sat-Sun", "time": "Closed"}], "id": "2321900076", "name": "USPS COLLECTION BOX - BLUE BOX", "address": {"city": "RICHMOND", "state": "VA", "street": "1000 E MARSHALL ST", "postcode": "23219"}}},
{"geometry": {"type": "Point", "coordinates": [-77.4360651747, 37.5380154273]}, "type": "Feature", "properties": {"collection_times": [{"days": "Mon-Fri", "time": "5:00pm"}, {"days": "Sat-Sun", "time": "Closed"}], "id": "2321900077", "name": "USPS COLLECTION BOX - BLUE BOX", "address": {"city": "RICHMOND", "state": "VA", "street": "909 E MAIN ST", "postcode": "23219"}}},
{"geometry": {"type": "Point", "coordinates": [-77.433752348, 37.539486947]}, "type": "Feature", "properties": {"collection_times": [{"days": "Mon-Fri", "time": "5:00pm"}, {"days": "Sat-Sun", "time": "Closed"}], "id": "2321900081", "name": "USPS COLLECTION BOX - BLUE BOX", "address": {"city": "RICHMOND", "state": "VA", "street": "1 CAPITOL SQ", "postcode": "23219"}}},
{"geometry": {"type": "Point", "coordinates": [-77.438625822, 37.53962501]}, "type": "Feature", "properties": {"collection_times": [{"days": "Mon-Fri", "time": "5:00pm"}, {"days": "Sat-Sun", "time": "Closed"}], "id": "2321900091", "name": "USPS COLLECTION BOX - EXPRESS", "address": {"city": "RICHMOND", "state": "VA", "street": "600 E MAIN ST", "postcode": "23219"}}},
{"geometry": {"type": "Point", "coordinates": [-77.433825586, 37.542147085]}, "type": "Feature", "properties": {"collection_times": [{"days": "Mon-Fri", "time": "4:30pm"}, {"days": "Sat-Sun", "time": "Closed"}], "id": "2321900098", "name": "USPS COLLECTION BOX - BLUE BOX", "address": {"city": "RICHMOND", "state": "VA", "street": "800 E MARSHALL ST", "postcode": "23219"}}},
{"geometry": {"type": "Point", "coordinates": [-77.433825586, 37.542147085]}, "type": "Feature", "properties": {"collection_times": [{"days": "Mon-Fri", "time": "4:30pm"}, {"days": "Sat-Sun", "time": "Closed"}], "id": "2321900099", "name": "USPS COLLECTION BOX - BLUE BOX", "address": {"city": "RICHMOND", "state": "VA", "street": "800 E MARSHALL ST", "postcode": "23219"}}},
{"geometry": {"type": "Point", "coordinates": [-77.440462221, 37.540742316]}, "type": "Feature", "properties": {"collection_times": [{"days": "Mon-Fri", "time": "5:00pm"}, {"days": "Sat-Sun", "time": "Closed"}], "id": "2321900101", "name": "USPS COLLECTION BOX - BLUE BOX", "address": {"city": "RICHMOND", "state": "VA", "street": "430 E MAIN ST", "postcode": "23219"}}},
{"geometry": {"type": "Point", "coordinates": [-77.439275018, 37.54001546]}, "type": "Feature", "properties": {"collection_times": [{"days": "Mon-Fri", "time": "5:00pm"}, {"days": "Sat-Sun", "time": "Closed"}], "id": "2321900103", "name": "USPS COLLECTION BOX - BLUE BOX", "address": {"city": "RICHMOND", "state": "VA", "street": "530 E MAIN ST", "postcode": "23219"}}},
{"geometry": {"type": "Point", "coordinates": [-77.439275018, 37.54001546]}, "type": "Feature", "properties": {"collection_times": [{"days": "Mon-Fri", "time": "5:00pm"}, {"days": "Sat-Sun", "time": "Closed"}], "id": "2321900104", "name": "USPS COLLECTION BOX - BLUE BOX", "address": {"city": "RICHMOND", "state": "VA", "street": "530 E MAIN ST", "postcode": "23219"}}},
{"geometry": {"type": "Point", "coordinates": [-77.436977862, 37.539034063]}, "type": "Feature", "properties": {"collection_times": [{"days": "Mon-Fri", "time": "5:00pm"}, {"days": "Sat-Sun", "time": "Closed"}], "id": "2321900108", "name": "USPS COLLECTION BOX - BLUE BOX", "address": {"city": "RICHMOND", "state": "VA", "street": "30 N 8TH ST", "postcode": "23219"}}},
{"geometry": {"type": "Point", "coordinates": [-77.4360651747, 37.5380154273]}, "type": "Feature", "properties": {"collection_times": [{"days": "Mon-Fri", "time": "5:00pm"}, {"days": "Sat-Sun", "time": "Closed"}], "id": "2321900125", "name": "USPS COLLECTION BOX - BLUE BOX", "address": {"city": "RICHMOND", "state": "VA", "street": "909 E MAIN ST", "postcode": "23219"}}},
{"geometry": {"type": "Point", "coordinates": [-77.431927577, 37.538092351]}, "type": "Feature", "properties": {"collection_times": [{"days": "Mon-Fri", "time": "4:30pm"}, {"days": "Sat-Sun", "time": "Closed"}], "id": "2321900137", "name": "USPS COLLECTION BOX - BLUE BOX", "address": {"city": "RICHMOND", "state": "VA", "street": "203 GOVERNOR ST", "postcode": "23219"}}},
{"geometry": {"type": "Point", "coordinates": [-77.4325495057, 37.539930157]}, "type": "Feature", "properties": {"collection_times": [{"days": "Mon-Fri", "time": "5:00pm"}, {"days": "Sat-Sun", "time": "Closed"}], "id": "2321900146", "name": "USPS COLLECTION BOX - BLUE BOX", "address": {"city": "RICHMOND", "state": "VA", "street": "1001 E BROAD ST", "postcode": "23219"}}},
{"geometry": {"type": "Point", "coordinates": [-77.432130942, 37.5411105106]}, "type": "Feature", "properties": {"collection_times": [{"days": "Mon-Fri", "time": "4:30pm"}, {"days": "Sat-Sun", "time": "Closed"}], "id": "2321900147", "name": "USPS COLLECTION BOX - BLUE BOX", "address": {"city": "RICHMOND", "state": "VA", "street": "1000 E MARSHALL ST", "postcode": "23219"}}},
{"geometry": {"type": "Point", "coordinates": [-77.437146778, 37.537276487]}, "type": "Feature", "properties": {"collection_times": [{"days": "Mon-Fri", "time": "5:00pm"}, {"days": "Sat-Sun", "time": "Closed"}], "id": "2321900149", "name": "USPS COLLECTION BOX - BLUE BOX", "address": {"city": "RICHMOND", "state": "VA", "street": "901 E CARY ST", "postcode": "23219"}}},
{"geometry": {"type": "Point", "coordinates": [-77.437146778, 37.537276487]}, "type": "Feature", "properties": {"collection_times": [{"days": "Mon-Fri", "time": "5:00pm"}, {"days": "Sat-Sun", "time": "Closed"}], "id": "2321900159", "name": "USPS COLLECTION BOX - BLUE BOX", "address": {"city": "RICHMOND", "state": "VA", "street": "901 E CARY ST", "postcode": "23219"}}},
{"geometry": {"type": "Point", "coordinates": [-77.437146778, 37.537276487]}, "type": "Feature", "properties": {"collection_times": [{"days": "Mon-Fri", "time": "5:00pm"}, {"days": "Sat-Sun", "time": "Closed"}], "id": "2321900160", "name": "USPS COLLECTION BOX - BLUE BOX", "address": {"city": "RICHMOND", "state": "VA", "street": "901 E CARY ST", "postcode": "23219"}}},
{"geometry": {"type": "Point", "coordinates": [-77.4354481228, 37.5362956079]}, "type": "Feature", "properties": {"collection_times": [{"days": "Mon-Fri", "time": "5:00pm"}, {"days": "Sat-Sun", "time": "Closed"}], "id": "2321900161", "name": "USPS COLLECTION BOX - BLUE BOX", "address": {"city": "RICHMOND", "state": "VA", "street": "1111 E CARY ST", "postcode": "23219"}}},
{"geometry": {"type": "Point", "coordinates": [-77.438288988, 37.545069156]}, "type": "Feature", "properties": {"collection_times": [{"days": "Mon-Fri", "time": "1:00pm"}, {"days": "Sat-Sun", "time": "Closed"}], "id": "2321900165", "name": "USPS COLLECTION BOX - BLUE BOX", "address": {"city": "RICHMOND", "state": "VA", "street": "401 N 3RD ST", "postcode": "23219"}}},
{"geometry": {"type": "Point", "coordinates": [-77.4353075165, 37.5408816133]}, "type": "Feature", "properties": {"collection_times": [{"days": "Mon-Fri", "time": "5:00pm"}, {"days": "Sat", "time": "12:00pm"}, {"days": "Sun", "time": "Closed"}], "id": "2321900174", "name": "USPS COLLECTION BOX - PO LOBBY", "address": {"city": "RICHMOND", "state": "VA", "street": "700 E MAIN ST", "postcode": "23219"}}},
{"geometry": {"type": "Point", "coordinates": [-77.4608352375, 37.5568866908]}, "type": "Feature", "properties": {"collection_times": [{"days": "Mon-Sat", "time": "1:00pm"}, {"days": "Sun", "time": "Closed"}], "id": "2322000005", "name": "USPS COLLECTION BOX - BLUE BOX", "address": {"city": "RICHMOND", "state": "VA", "street": "2001 W BROAD ST", "postcode": "23220"}}},
{"geometry": {"type": "Point", "coordinates": [-77.4453555374, 37.5422357766]}, "type": "Feature", "properties": {"collection_times": [{"days": "Mon-Sat", "time": "1:00pm"}, {"days": "Sun", "time": "Closed"}], "id": "2322000008", "name": "USPS COLLECTION BOX - BLUE BOX", "address": {"city": "RICHMOND", "state": "VA", "street": "1 W CARY ST", "postcode": "23220"}}},
{"geometry": {"type": "Point", "coordinates": [-77.456492335, 37.5515736983]}, "type": "Feature", "properties": {"collection_times": [{"days": "Mon-Sat", "time": "1:00pm"}, {"days": "Sun", "time": "Closed"}], "id": "2322000017", "name": "USPS COLLECTION BOX - BLUE BOX", "address": {"city": "RICHMOND", "state": "VA", "street": "1213 W FRANKLIN ST", "postcode": "23220"}}},
{"geometry": {"type": "Point", "coordinates": [-77.4463682122, 37.5455684873]}, "type": "Feature", "properties": {"collection_times": [{"days": "Mon-Sat", "time": "1:00pm"}, {"days": "Sun", "time": "Closed"}], "id": "2322000025", "name": "USPS COLLECTION BOX - BLUE BOX", "address": {"city": "RICHMOND", "state": "VA", "street": "319 W FRANKLIN ST", "postcode": "23220"}}},
{"geometry": {"type": "Point", "coordinates": [-77.4525628054, 37.5492873624]}, "type": "Feature", "properties": {"collection_times": [{"days": "Mon-Sat", "time": "1:00pm"}, {"days": "Sun", "time": "Closed"}], "id": "2322000026", "name": "USPS COLLECTION BOX - BLUE BOX", "address": {"city": "RICHMOND", "state": "VA", "street": "901 W FRANKLIN ST", "postcode": "23220"}}},
{"geometry": {"type": "Point", "coordinates": [-77.4489192918, 37.5484379979]}, "type": "Feature", "properties": {"collection_times": [{"days": "Mon-Sat", "time": "1:00pm"}, {"days": "Sun", "time": "Closed"}], "id": "2322000034", "name": "USPS COLLECTION BOX - BLUE BOX", "address": {"city": "RICHMOND", "state": "VA", "street": "616 W GRACE ST", "postcode": "23220"}}},
{"geometry": {"type": "Point", "coordinates": [-77.4723513906, 37.5541996605]}, "type": "Feature", "properties": {"collection_times": [{"days": "Mon-Sat", "time": "1:00pm"}, {"days": "Sun", "time": "Closed"}], "id": "2322000038", "name": "USPS COLLECTION BOX - BLUE BOX", "address": {"city": "RICHMOND", "state": "VA", "street": "2621 GROVE AVE", "postcode": "23220"}}},
{"geometry": {"type": "Point", "coordinates": [-77.4616207222, 37.5517550148]}, "type": "Feature", "properties": {"collection_times": [{"days": "Mon-Sat", "time": "1:00pm"}, {"days": "Sun", "time": "Closed"}], "id": "2322000043", "name": "USPS COLLECTION BOX - BLUE BOX", "address": {"city": "RICHMOND", "state": "VA", "street": "1801 HANOVER AVE", "postcode": "23220"}}},
{"geometry": {"type": "Point", "coordinates": [-77.4502905162, 37.5606518313]}, "type": "Feature", "properties": {"collection_times": [{"days": "Mon-Sat", "time": "1:00pm"}, {"days": "Sun", "time": "Closed"}], "id": "2322000052", "name": "USPS COLLECTION BOX - BLUE BOX", "address": {"city": "RICHMOND", "state": "VA", "street": "1500 N LOMBARDY ST", "postcode": "23220"}}},
{"geometry": {"type": "Point", "coordinates": [-77.4571349418, 37.5460697141]}, "type": "Feature", "properties": {"collection_times": [{"days": "Mon-Sat", "time": "1:00pm"}, {"days": "Sun", "time": "Closed"}], "id": "2322000053", "name": "USPS COLLECTION BOX - BLUE BOX", "address": {"city": "RICHMOND", "state": "VA", "street": "1210 W MAIN ST", "postcode": "23220"}}},
{"geometry": {"type": "Point", "coordinates": [-77.4471803421, 37.5447045794]}, "type": "Feature", "properties": {"collection_times": [{"days": "Mon-Sat", "time": "1:00pm"}, {"days": "Sun", "time": "Closed"}], "id": "2322000055", "name": "USPS COLLECTION BOX - BLUE BOX", "address": {"city": "RICHMOND", "state": "VA", "street": "300 W MAIN ST", "postcode": "23220"}}},
{"geometry": {"type": "Point", "coordinates": [-77.425966339, 37.5319002316]}, "type": "Feature", "properties": {"collection_times": [{"days": "Mon-Sat", "time": "1:00pm"}, {"days": "Sun", "time": "Closed"}], "id": "2322000056", "name": "USPS COLLECTION BOX - BLUE BOX", "address": {"city": "RICHMOND", "state": "VA", "street": "1920 W MAIN ST", "postcode": "23220"}}},
{"geometry": {"type": "Point", "coordinates": [-77.4598029284, 37.5486291662]}, "type": "Feature", "properties": {"collection_times": [{"days": "Mon-Sat", "time": "1:00pm"}, {"days": "Sun", "time": "Closed"}], "id": "2322000062", "name": "USPS COLLECTION BOX - BLUE BOX", "address": {"city": "RICHMOND", "state": "VA", "street": "2038 MONUMENT & ALLISON AVE", "postcode": "23220"}}},
{"geometry": {"type": "Point", "coordinates": [-77.4706041126, 37.5588243776]}, "type": "Feature", "properties": {"collection_times": [{"days": "Mon-Fri", "time": "5:00pm"}, {"days": "Sat", "time": "1:00pm"}, {"days": "Sun", "time": "Closed"}], "id": "2322000065", "name": "USPS COLLECTION BOX - BLUE BOX", "address": {"city": "RICHMOND", "state": "VA", "street": "2701 PARK AVE", "postcode": "23220"}}},
{"geometry": {"type": "Point", "coordinates": [-77.472026911, 37.556762212]}, "type": "Feature", "properties": {"collection_times": [{"days": "Mon-Sat", "time": "1:00pm"}, {"days": "Sun", "time": "Closed"}], "id": "2322000074", "name": "USPS COLLECTION BOX - BLUE BOX", "address": {"city": "RICHMOND", "state": "VA", "street": "2701 STUART AVE", "postcode": "23220"}}},
{"geometry": {"type": "Point", "coordinates": [-77.4601961289, 37.5636382477]}, "type": "Feature", "properties": {"collection_times": [{"days": "Mon-Fri", "time": "4:00pm"}, {"days": "Sat", "time": "1:00pm"}, {"days": "Sun", "time": "Closed"}], "id": "2322000078", "name": "USPS COLLECTION BOX - BLUE BOX", "address": {"city": "RICHMOND", "state": "VA", "street": "1613 OWNBY LN", "postcode": "23220"}}},
{"geometry": {"type": "Point", "coordinates": [-77.4723513906, 37.5541996605]}, "type": "Feature", "properties": {"collection_times": [{"days": "Mon-Sat", "time": "1:00pm"}, {"days": "Sun", "time": "Closed"}], "id": "2322000084", "name": "USPS COLLECTION BOX - BLUE BOX", "address": {"city": "RICHMOND", "state": "VA", "street": "2621 GROVE AVE", "postcode": "23220"}}},
{"geometry": {"type": "Point", "coordinates": [-77.4502905162, 37.5606518313]}, "type": "Feature", "properties": {"collection_times": [{"days": "Mon-Sat", "time": "1:00pm"}, {"days": "Sun", "time": "Closed"}], "id": "2322000086", "name": "USPS COLLECTION BOX - BLUE BOX", "address": {"city": "RICHMOND", "state": "VA", "street": "1500 N LOMBARDY ST", "postcode": "23220"}}},
{"geometry": {"type": "Point", "coordinates": [-77.4570081849, 37.5545206124]}, "type": "Feature", "properties": {"collection_times": [{"days": "Mon-Fri", "time": "5:00pm"}, {"days": "Sat", "time": "12:00pm"}, {"days": "Sun", "time": "Closed"}], "id": "2322000110", "name": "USPS COLLECTION BOX - PO LOBBY", "address": {"city": "RICHMOND", "state": "VA", "street": "1625 W BROAD ST", "postcode": "23220"}}},
{"geometry": {"type": "Point", "coordinates": [-77.4570081849, 37.5545206124]}, "type": "Feature", "properties": {"collection_times": [{"days": "Mon-Fri", "time": "5:00pm"}, {"days": "Sat", "time": "1:00pm"}, {"days": "Sun", "time": "Closed"}], "id": "2322000111", "name": "USPS COLLECTION BOX - BLUE BOX", "address": {"city": "RICHMOND", "state": "VA", "street": "1625 W BROAD ST", "postcode": "23220"}}},
{"geometry": {"type": "Point", "coordinates": [-77.480078431, 37.5529793774]}, "type": "Feature", "properties": {"collection_times": [{"days": "Mon-Sat", "time": "1:00pm"}, {"days": "Sun", "time": "Closed"}], "id": "2322100004", "name": "USPS COLLECTION BOX - BLUE BOX", "address": {"city": "RICHMOND", "state": "VA", "street": "3035 W CARY ST", "postcode": "23221"}}},
{"geometry": {"type": "Point", "coordinates": [-77.4997190987, 37.5562561737]}, "type": "Feature", "properties": {"collection_times": [{"days": "Mon-Sat", "time": "1:00pm"}, {"days": "Sun", "time": "Closed"}], "id": "2322100010", "name": "USPS COLLECTION BOX - BLUE BOX", "address": {"city": "RICHMOND", "state": "VA", "street": "4205 DOVER RD", "postcode": "23221"}}},
{"geometry": {"type": "Point", "coordinates": [-77.4809514547, 37.5573385812]}, "type": "Feature", "properties": {"collection_times": [{"days": "Mon-Sat", "time": "1:00pm"}, {"days": "Sun", "time": "Closed"}], "id": "2322100018", "name": "USPS COLLECTION BOX - BLUE BOX", "address": {"city": "RICHMOND", "state": "VA", "street": "3232 GROVE AVE", "postcode": "23221"}}},
{"geometry": {"type": "Point", "coordinates": [-77.4933478365, 37.5607419779]}, "type": "Feature", "properties": {"collection_times": [{"days": "Mon-Sat", "time": "1:00pm"}, {"days": "Sun", "time": "Closed"}], "id": "2322100022", "name": "USPS COLLECTION BOX - BLUE BOX", "address": {"city": "RICHMOND", "state": "VA", "street": "29 MALVERN AVE", "postcode": "23221"}}},
{"geometry": {"type": "Point", "coordinates": [-77.4866320236, 37.5579986723]}, "type": "Feature", "properties": {"collection_times": [{"days": "Mon-Fri", "time": "5:00pm"}, {"days": "Sat", "time": "1:00pm"}, {"days": "Sun", "time": "Closed"}], "id": "2322100029", "name": "USPS COLLECTION BOX - BLUE BOX", "address": {"city": "RICHMOND", "state": "VA", "street": "3517 FLOYD AVE", "postcode": "23221"}}},
{"geometry": {"type": "Point", "coordinates": [-77.4866320236, 37.5579986723]}, "type": "Feature", "properties": {"collection_times": [{"days": "Mon-Fri", "time": "5:00pm"}, {"days": "Sat", "time": "1:00pm"}, {"days": "Sun", "time": "Closed"}], "id": "2322100030", "name": "USPS COLLECTION BOX - BLUE BOX", "address": {"city": "RICHMOND", "state": "VA", "street": "3517 FLOYD AVE", "postcode": "23221"}}},
{"geometry": {"type": "Point", "coordinates": [-77.4867053671, 37.5553086236]}, "type": "Feature", "properties": {"collection_times": [{"days": "Mon-Sat", "time": "1:00pm"}, {"days": "Sun", "time": "Closed"}], "id": "2322100032", "name": "USPS COLLECTION BOX - BLUE BOX", "address": {"city": "RICHMOND", "state": "VA", "street": "3501 W CARY ST", "postcode": "23221"}}},
{"geometry": {"type": "Point", "coordinates": [-77.4839514386, 37.5597104139]}, "type": "Feature", "properties": {"collection_times": [{"days": "Mon-Sat", "time": "1:00pm"}, {"days": "Sun", "time": "Closed"}], "id": "2322100072", "name": "USPS COLLECTION BOX - BLUE BOX", "address": {"city": "RICHMOND", "state": "VA", "street": "3442 HANOVER AVE", "postcode": "23221"}}},
{"geometry": {"type": "Point", "coordinates": [-77.4866320236, 37.5579986723]}, "type": "Feature", "properties": {"collection_times": [{"days": "Mon-Fri", "time": "5:00pm"}, {"days": "Sat", "time": "12:00pm"}, {"days": "Sun", "time": "Closed"}], "id": "2322100075", "name": "USPS COLLECTION BOX - PO LOBBY", "address": {"city": "RICHMOND", "state": "VA", "street": "3517 FLOYD AVE", "postcode": "23221"}}},
{"geometry": {"type": "Point", "coordinates": [-77.4178831804, 37.5695727428]}, "type": "Feature", "properties": {"collection_times": [{"days": "Mon-Sat", "time": "1:00pm"}, {"days": "Sun", "time": "Closed"}], "id": "2322200002", "name": "USPS COLLECTION BOX - BLUE BOX", "address": {"city": "RICHMOND", "state": "VA", "street": "1307 E BROOKLAND PARK BLVD", "postcode": "23222"}}},
{"geometry": {"type": "Point", "coordinates": [-77.4137877765, 37.5832501143]}, "type": "Feature", "properties": {"collection_times": [{"days": "Mon-Sat", "time": "1:00pm"}, {"days": "Sun", "time": "Closed"}], "id": "2322200005", "name": "USPS COLLECTION BOX - BLUE BOX", "address": {"city": "RICHMOND", "state": "VA", "street": "3900 CAROLINA AVE", "postcode": "23222"}}},
{"geometry": {"type": "Point", "coordinates": [-77.4195606162, 37.5855462377]}, "type": "Feature", "properties": {"collection_times": [{"days": "Mon-Sat", "time": "1:00pm"}, {"days": "Sun", "time": "Closed"}], "id": "2322200024", "name": "USPS COLLECTION BOX - BLUE BOX", "address": {"city": "RICHMOND", "state": "VA", "street": "600 E LABURNUM AVE", "postcode": "23222"}}},
{"geometry": {"type": "Point", "coordinates": [-77.4327447419, 37.571703639]}, "type": "Feature", "properties": {"collection_times": [{"days": "Mon-Fri", "time": "5:00pm"}, {"days": "Sat", "time": "1:00pm"}, {"days": "Sun", "time": "Closed"}], "id": "2322200026", "name": "USPS COLLECTION BOX - BLUE BOX", "address": {"city": "RICHMOND", "state": "VA", "street": "3004 NORTH AVE", "postcode": "23222"}}},
{"geometry": {"type": "Point", "coordinates": [-77.4326985585, 37.5717020689]}, "type": "Feature", "properties": {"collection_times": [{"days": "Mon-Fri", "time": "5:00pm"}, {"days": "Sat", "time": "12:00pm"}, {"days": "Sun", "time": "Closed"}], "id": "2322200042", "name": "USPS COLLECTION BOX - PO LOBBY", "address": {"city": "RICHMOND", "state": "VA", "street": "3004 NORTH AVE", "postcode": "23222"}}},
{"geometry": {"type": "Point", "coordinates": [-77.4175850748, 37.5329294059]}, "type": "Feature", "properties": {"collection_times": [{"days": "Mon-Fri", "time": "5:00pm"}, {"days": "Sat", "time": "1:00pm"}, {"days": "Sun", "time": "Closed"}], "id": "2322300001", "name": "USPS COLLECTION BOX - BLUE BOX", "address": {"city": "RICHMOND", "state": "VA", "street": "414 N 25TH ST", "postcode": "23223"}}},
{"geometry": {"type": "Point", "coordinates": [-77.4186390912, 37.5315595394]}, "type": "Feature", "properties": {"collection_times": [{"days": "Mon-Sat", "time": "1:00pm"}, {"days": "Sun", "time": "Closed"}], "id": "2322300002", "name": "USPS COLLECTION BOX - BLUE BOX", "address": {"city": "RICHMOND", "state": "VA", "street": "2500 E BROAD ST", "postcode": "23223"}}},
{"geometry": {"type": "Point", "coordinates": [-77.3921120375, 37.5708424999]}, "type": "Feature", "properties": {"collection_times": [{"days": "Mon-Sat", "time": "1:00pm"}, {"days": "Sun", "time": "Closed"}], "id": "2322300007", "name": "USPS COLLECTION BOX - BLUE BOX", "address": {"city": "RICHMOND", "state": "VA", "street": "2700 HARVIE RD", "postcode": "23223"}}},
{"geometry": {"type": "Point", "coordinates": [-77.4099050338, 37.5581885997]}, "type": "Feature", "properties": {"collection_times": [{"days": "Mon-Sat", "time": "1:00pm"}, {"days": "Sun", "time": "Closed"}], "id": "2322300009", "name": "USPS COLLECTION BOX - BLUE BOX", "address": {"city": "RICHMOND", "state": "VA", "street": "2301 ANNISTON ST", "postcode": "23223"}}},
{"geometry": {"type": "Point", "coordinates": [-77.4247609038, 37.5311774436]}, "type": "Feature", "properties": {"collection_times": [{"days": "Mon-Sat", "time": "1:00pm"}, {"days": "Sun", "time": "Closed"}], "id": "2322300010", "name": "USPS COLLECTION BOX - BLUE BOX", "address": {"city": "RICHMOND", "state": "VA", "street": "2100 E MAIN ST", "postcode": "23223"}}},
{"geometry": {"type": "Point", "coordinates": [-77.3426062338, 37.5487230623]}, "type": "Feature", "properties": {"collection_times": [{"days": "Mon-Sat", "time": "1:00pm"}, {"days": "Sun", "time": "Closed"}], "id": "2322300016", "name": "USPS COLLECTION BOX - BLUE BOX", "address": {"city": "RICHMOND", "state": "VA", "street": "200 NEWBRIDGE CIR", "postcode": "23223"}}},
{"geometry": {"type": "Point", "coordinates": [-77.4157112678, 37.5366261526]}, "type": "Feature", "properties": {"collection_times": [{"days": "Mon-Sat", "time": "2:00pm"}, {"days": "Sun", "time": "Closed"}], "id": "2322300018", "name": "USPS COLLECTION BOX - BLUE BOX", "address": {"city": "RICHMOND", "state": "VA", "street": "2318 CEDAR ST", "postcode": "23223"}}},
{"geometry": {"type": "Point", "coordinates": [-77.4062979709, 37.5403252346]}, "type": "Feature", "properties": {"collection_times": [{"days": "Mon-Sat", "time": "1:00pm"}, {"days": "Sun", "time": "Closed"}], "id": "2322300022", "name": "USPS COLLECTION BOX - BLUE BOX", "address": {"city": "RICHMOND", "state": "VA", "street": "1500 N 28TH ST", "postcode": "23223"}}},
{"geometry": {"type": "Point", "coordinates": [-77.4175850748, 37.5329294059]}, "type": "Feature", "properties": {"collection_times": [{"days": "Mon-Fri", "time": "5:00pm"}, {"days": "Sat", "time": "1:00pm"}, {"days": "Sun", "time": "Closed"}], "id": "2322300025", "name": "USPS COLLECTION BOX - BLUE BOX", "address": {"city": "RICHMOND", "state": "VA", "street": "414 N 25TH ST", "postcode": "23223"}}},
{"geometry": {"type": "Point", "coordinates": [-77.4175850748, 37.5329294059]}, "type": "Feature", "properties": {"collection_times": [{"days": "Mon-Fri", "time": "5:00pm"}, {"days": "Sat", "time": "12:00pm"}, {"days": "Sun", "time": "Closed"}], "id": "2322300027", "name": "USPS COLLECTION BOX - PO LOBBY", "address": {"city": "RICHMOND", "state": "VA", "street": "414 N 25TH ST", "postcode": "23223"}}},
{"geometry": {"type": "Point", "coordinates": [-77.4409662587, 37.5243139157]}, "type": "Feature", "properties": {"collection_times": [{"days": "Mon-Sat", "time": "1:00pm"}, {"days": "Sun", "time": "Closed"}], "id": "2322400001", "name": "USPS COLLECTION BOX - BLUE BOX", "address": {"city": "RICHMOND", "state": "VA", "street": "700 BAINBRIDGE ST", "postcode": "23224"}}},
{"geometry": {"type": "Point", "coordinates": [-77.4701554369, 37.4986514516]}, "type": "Feature", "properties": {"collection_times": [{"days": "Mon-Sat", "time": "1:00pm"}, {"days": "Sun", "time": "Closed"}], "id": "2322400004", "name": "USPS COLLECTION BOX - BLUE BOX", "address": {"city": "RICHMOND", "state": "VA", "street": "1201 BROAD ROCK BLVD", "postcode": "23224"}}},
{"geometry": {"type": "Point", "coordinates": [-77.44934634, 37.5195879947]}, "type": "Feature", "properties": {"collection_times": [{"days": "Mon-Sat", "time": "1:00pm"}, {"days": "Sun", "time": "Closed"}], "id": "2322400007", "name": "USPS COLLECTION BOX - BLUE BOX", "address": {"city": "RICHMOND", "state": "VA", "street": "101 COWARDIN AVE", "postcode": "23224"}}},
{"geometry": {"type": "Point", "coordinates": [-77.4668883833, 37.4977352262]}, "type": "Feature", "properties": {"collection_times": [{"days": "Mon-Sat", "time": "1:00pm"}, {"days": "Sun", "time": "Closed"}], "id": "2322400021", "name": "USPS COLLECTION BOX - BLUE BOX", "address": {"city": "RICHMOND", "state": "VA", "street": "4700 N SOUTHSIDE PLAZA ST", "postcode": "23224"}}},
{"geometry": {"type": "Point", "coordinates": [-77.4649602364, 37.4885273287]}, "type": "Feature", "properties": {"collection_times": [{"days": "Mon-Fri", "time": "5:00pm"}, {"days": "Sat", "time": "1:00pm"}, {"days": "Sun", "time": "Closed"}], "id": "2322400031", "name": "USPS COLLECTION BOX - BLUE BOX", "address": {"city": "RICHMOND", "state": "VA", "street": "2101 HOPKINS RD", "postcode": "23224"}}},
{"geometry": {"type": "Point", "coordinates": [-77.4649602364, 37.4885273287]}, "type": "Feature", "properties": {"collection_times": [{"days": "Mon-Fri", "time": "5:00pm"}, {"days": "Sat", "time": "1:00pm"}, {"days": "Sun", "time": "Closed"}], "id": "2322400032", "name": "USPS COLLECTION BOX - BLUE BOX", "address": {"city": "RICHMOND", "state": "VA", "street": "2101 HOPKINS RD", "postcode": "23224"}}},
{"geometry": {"type": "Point", "coordinates": [-77.4649791427, 37.4883768053]}, "type": "Feature", "properties": {"collection_times": [{"days": "Mon-Fri", "time": "5:00pm"}, {"days": "Sat", "time": "12:00pm"}, {"days": "Sun", "time": "Closed"}], "id": "2322400036", "name": "USPS COLLECTION BOX - PO LOBBY", "address": {"city": "RICHMOND", "state": "VA", "street": "2101 HOPKINS RD", "postcode": "23224"}}},
{"geometry": {"type": "Point", "coordinates": [-77.531210432, 37.513870646]}, "type": "Feature", "properties": {"collection_times": [{"days": "Mon-Fri", "time": "4:00pm"}, {"days": "Sat-Sun", "time": "Closed"}], "id": "2322500005", "name": "USPS COLLECTION BOX - BLUE BOX", "address": {"city": "N CHESTERFLD", "state": "VA", "street": "1100 BOULDERS PKWY", "postcode": "23225"}}},
{"geometry": {"type": "Point", "coordinates": [-77.533275946, 37.514975312]}, "type": "Feature", "properties": {"collection_times": [{"days": "Mon-Fri", "time": "4:00pm"}, {"days": "Sat-Sun", "time": "Closed"}], "id": "2322500006", "name": "USPS COLLECTION BOX - BLUE BOX", "address": {"city": "N CHESTERFLD", "state": "VA", "street": "7501 BOULDER VIEW DR", "postcode": "23225"}}},
{"geometry": {"type": "Point", "coordinates": [-77.5250107717, 37.5157814253]}, "type": "Feature", "properties": {"collection_times": [{"days": "Mon-Sat", "time": "1:00pm"}, {"days": "Sun", "time": "Closed"}], "id": "2322500007", "name": "USPS COLLECTION BOX - BLUE BOX", "address": {"city": "N CHESTERFLD", "state": "VA", "street": "7109 JAHNKE RD", "postcode": "23225"}}},
{"geometry": {"type": "Point", "coordinates": [-77.5182359553, 37.5376352166]}, "type": "Feature", "properties": {"collection_times": [{"days": "Mon-Fri", "time": "4:00pm"}, {"days": "Sat", "time": "1:00pm"}, {"days": "Sun", "time": "Closed"}], "id": "2322500013", "name": "USPS COLLECTION BOX - BLUE BOX", "address": {"city": "N CHESTERFLD", "state": "VA", "street": "6767 FOREST HILL AVE", "postcode": "23225"}}},
{"geometry": {"type": "Point", "coordinates": [-77.5236870302, 37.5379297734]}, "type": "Feature", "properties": {"collection_times": [{"days": "Mon-Fri", "time": "4:00pm"}, {"days": "Sat", "time": "1:00pm"}, {"days": "Sun", "time": "Closed"}], "id": "2322500015", "name": "USPS COLLECTION BOX - BLUE BOX", "address": {"city": "N CHESTERFLD", "state": "VA", "street": "6980 FOREST HILL AVE", "postcode": "23225"}}},
{"geometry": {"type": "Point", "coordinates": [-77.524372728, 37.5147629325]}, "type": "Feature", "properties": {"collection_times": [{"days": "Mon-Fri", "time": "5:00pm"}, {"days": "Sat", "time": "1:00pm"}, {"days": "Sun", "time": "Closed"}], "id": "2322500017", "name": "USPS COLLECTION BOX - BLUE BOX", "address": {"city": "N CHESTERFLD", "state": "VA", "street": "1021 HIOAKS RD", "postcode": "23225"}}},
{"geometry": {"type": "Point", "coordinates": [-77.5197387104, 37.538725653]}, "type": "Feature", "properties": {"collection_times": [{"days": "Mon-Sat", "time": "1:00pm"}, {"days": "Sun", "time": "Closed"}], "id": "2322500018", "name": "USPS COLLECTION BOX - BLUE BOX", "address": {"city": "N CHESTERFLD", "state": "VA", "street": "2829 HATHAWAY RD", "postcode": "23225"}}},
{"geometry": {"type": "Point", "coordinates": [-77.4871229516, 37.5250225082]}, "type": "Feature", "properties": {"collection_times": [{"days": "Mon-Sat", "time": "1:00pm"}, {"days": "Sun", "time": "Closed"}], "id": "2322500026", "name": "USPS COLLECTION BOX - BLUE BOX", "address": {"city": "N CHESTERFLD", "state": "VA", "street": "1800 WESTOVER HILLS BLVD", "postcode": "23225"}}},
{"geometry": {"type": "Point", "coordinates": [-77.5363811857, 37.4963122136]}, "type": "Feature", "properties": {"collection_times": [{"days": "Mon-Fri", "time": "3:30pm"}, {"days": "Sat-Sun", "time": "Closed"}], "id": "2322500034", "name": "USPS COLLECTION BOX - BLUE BOX", "address": {"city": "N CHESTERFLD", "state": "VA", "street": "302 TURNER RD", "postcode": "23225"}}},
{"geometry": {"type": "Point", "coordinates": [-77.5244181374, 37.5143183696]}, "type": "Feature", "properties": {"collection_times": [{"days": "Mon-Fri", "time": "5:00pm"}, {"days": "Sat", "time": "1:00pm"}, {"days": "Sun", "time": "Closed"}], "id": "2322500040", "name": "USPS COLLECTION BOX - BLUE BOX", "address": {"city": "N CHESTERFLD", "state": "VA", "street": "1021 HIOAKS RD", "postcode": "23225"}}},
{"geometry": {"type": "Point", "coordinates": [-77.524372728, 37.5147629325]}, "type": "Feature", "properties": {"collection_times": [{"days": "Mon-Fri", "time": "5:00pm"}, {"days": "Sat", "time": "1:00pm"}, {"days": "Sun", "time": "Closed"}], "id": "2322500041", "name": "USPS COLLECTION BOX - BLUE BOX", "address": {"city": "N CHESTERFLD", "state": "VA", "street": "1021 HIOAKS RD", "postcode": "23225"}}},
{"geometry": {"type": "Point", "coordinates": [-77.524372728, 37.5147629325]}, "type": "Feature", "properties": {"collection_times": [{"days": "Mon-Fri", "time": "5:00pm"}, {"days": "Sat", "time": "1:00pm"}, {"days": "Sun", "time": "Closed"}], "id": "2322500042", "name": "USPS COLLECTION BOX - BLUE BOX", "address": {"city": "N CHESTERFLD", "state": "VA", "street": "1021 HIOAKS RD", "postcode": "23225"}}},
{"geometry": {"type": "Point", "coordinates": [-77.5250107717, 37.5157814253]}, "type": "Feature", "properties": {"collection_times": [{"days": "Mon-Sat", "time": "1:00pm"}, {"days": "Sun", "time": "Closed"}], "id": "2322500044", "name": "USPS COLLECTION BOX - BLUE BOX", "address": {"city": "N CHESTERFLD", "state": "VA", "street": "7109 JAHNKE RD", "postcode": "23225"}}},
{"geometry": {"type": "Point", "coordinates": [-77.5365293334, 37.5349962209]}, "type": "Feature", "properties": {"collection_times": [{"days": "Mon-Sat", "time": "1:00pm"}, {"days": "Sun", "time": "Closed"}], "id": "2322500045", "name": "USPS COLLECTION BOX - BLUE BOX", "address": {"city": "N CHESTERFLD", "state": "VA", "street": "2553 E TREMONT CT", "postcode": "23225"}}},
{"geometry": {"type": "Point", "coordinates": [-77.5182359553, 37.5376352166]}, "type": "Feature", "properties": {"collection_times": [{"days": "Mon-Fri", "time": "4:00pm"}, {"days": "Sat", "time": "1:00pm"}, {"days": "Sun", "time": "Closed"}], "id": "2322500047", "name": "USPS COLLECTION BOX - BLUE BOX", "address": {"city": "N CHESTERFLD", "state": "VA", "street": "6767 FOREST HILL AVE", "postcode": "23225"}}},
{"geometry": {"type": "Point", "coordinates": [-77.491469553, 37.5228051193]}, "type": "Feature", "properties": {"collection_times": [{"days": "Mon-Sat", "time": "1:00pm"}, {"days": "Sun", "time": "Closed"}], "id": "2322500048", "name": "USPS COLLECTION BOX - BLUE BOX", "address": {"city": "N CHESTERFLD", "state": "VA", "street": "1407 PRINCE ARTHUR RD", "postcode": "23225"}}},
{"geometry": {"type": "Point", "coordinates": [-77.533018987, 37.508607016]}, "type": "Feature", "properties": {"collection_times": [{"days": "Mon-Fri", "time": "4:00pm"}, {"days": "Sat-Sun", "time": "Closed"}], "id": "2322500049", "name": "USPS COLLECTION BOX - BLUE BOX", "address": {"city": "N CHESTERFLD", "state": "VA", "street": "1011 BOULDER SPRINGS DR", "postcode": "23225"}}},
{"geometry": {"type": "Point", "coordinates": [-77.529550598, 37.512055398]}, "type": "Feature", "properties": {"collection_times": [{"days": "Mon-Fri", "time": "4:00pm"}, {"days": "Sat-Sun", "time": "Closed"}], "id": "2322500052", "name": "USPS COLLECTION BOX - BLUE BOX", "address": {"city": "N CHESTERFLD", "state": "VA", "street": "1025 BOULDERS PKWY", "postcode": "23225"}}},
{"geometry": {"type": "Point", "coordinates": [-77.529303309, 37.508831962]}, "type": "Feature", "properties": {"collection_times": [{"days": "Mon-Fri", "time": "4:00pm"}, {"days": "Sat-Sun", "time": "Closed"}], "id": "2322500053", "name": "USPS COLLECTION BOX - BLUE BOX", "address": {"city": "N CHESTERFLD", "state": "VA", "street": "7401 BEAUFONT SPRING DR", "postcode": "23225"}}},
{"geometry": {"type": "Point", "coordinates": [-77.531210432, 37.513870646]}, "type": "Feature", "properties": {"collection_times": [{"days": "Mon-Fri", "time": "4:00pm"}, {"days": "Sat-Sun", "time": "Closed"}], "id": "2322500055", "name": "USPS COLLECTION BOX - BLUE BOX", "address": {"city": "N CHESTERFLD", "state": "VA", "street": "1100 BOULDERS PKWY", "postcode": "23225"}}},
{"geometry": {"type": "Point", "coordinates": [-77.533275946, 37.514975312]}, "type": "Feature", "properties": {"collection_times": [{"days": "Mon-Fri", "time": "4:00pm"}, {"days": "Sat-Sun", "time": "Closed"}], "id": "2322500056", "name": "USPS COLLECTION BOX - BLUE BOX", "address": {"city": "N CHESTERFLD", "state": "VA", "street": "7501 BOULDER VIEW DR", "postcode": "23225"}}},
{"geometry": {"type": "Point", "coordinates": [-77.524372728, 37.5147629325]}, "type": "Feature", "properties": {"collection_times": [{"days": "Mon-Fri", "time": "5:00pm"}, {"days": "Sat", "time": "1:00pm"}, {"days": "Sun", "time": "Closed"}], "id": "2322500059", "name": "USPS COLLECTION BOX - APC", "address": {"city": "N CHESTERFLD", "state": "VA", "street": "1021 HIOAKS RD", "postcode": "23225"}}},
{"geometry": {"type": "Point", "coordinates": [-77.5299769829, 37.5097400338]}, "type": "Feature", "properties": {"collection_times": [{"days": "Mon-Fri", "time": "1:00pm"}, {"days": "Sat-Sun", "time": "Closed"}], "id": "2322500060", "name": "USPS COLLECTION BOX - BLUE BOX", "address": {"city": "N CHESTERFLD", "state": "VA", "street": "1001 BOULDERS PKWY", "postcode": "23225"}}},
{"geometry": {"type": "Point", "coordinates": [-77.524372728, 37.5147629325]}, "type": "Feature", "properties": {"collection_times": [{"days": "Mon-Fri", "time": "5:00pm"}, {"days": "Sat", "time": "12:00pm"}, {"days": "Sun", "time": "Closed"}], "id": "2322500061", "name": "USPS COLLECTION BOX - PO LOBBY", "address": {"city": "N CHESTERFLD", "state": "VA", "street": "1021 HIOAKS RD", "postcode": "23225"}}},
{"geometry": {"type": "Point", "coordinates": [-77.5070640909, 37.5900261033]}, "type": "Feature", "properties": {"collection_times": [{"days": "Mon-Sat", "time": "1:00pm"}, {"days": "Sun", "time": "Closed"}], "id": "2322600001", "name": "USPS COLLECTION BOX - BLUE BOX", "address": {"city": "RICHMOND", "state": "VA", "street": "2000 BREMO RD", "postcode": "23226"}}},
{"geometry": {"type": "Point", "coordinates": [-77.5278640584, 37.6049763387]}, "type": "Feature", "properties": {"collection_times": [{"days": "Mon-Fri", "time": "5:00pm"}, {"days": "Sat", "time": "1:00pm"}, {"days": "Sun", "time": "Closed"}], "id": "2322600003", "name": "USPS COLLECTION BOX - BLUE BOX", "address": {"city": "RICHMOND", "state": "VA", "street": "7110 FOREST AVE", "postcode": "23226"}}},
{"geometry": {"type": "Point", "coordinates": [-77.528624701, 37.606379328]}, "type": "Feature", "properties": {"collection_times": [{"days": "Mon-Fri", "time": "5:00pm"}, {"days": "Sat", "time": "1:00pm"}, {"days": "Sun", "time": "Closed"}], "id": "2322600006", "name": "USPS COLLECTION BOX - BLUE BOX", "address": {"city": "RICHMOND", "state": "VA", "street": "7200 GLEN FOREST DR", "postcode": "23226"}}},
{"geometry": {"type": "Point", "coordinates": [-77.521681478, 37.5728256383]}, "type": "Feature", "properties": {"collection_times": [{"days": "Mon-Sat", "time": "1:00pm"}, {"days": "Sun", "time": "Closed"}], "id": "2322600012", "name": "USPS COLLECTION BOX - BLUE BOX", "address": {"city": "RICHMOND", "state": "VA", "street": "6001 GROVE AVE", "postcode": "23226"}}},
{"geometry": {"type": "Point", "coordinates": [-77.5053570811, 37.5872402349]}, "type": "Feature", "properties": {"collection_times": [{"days": "Mon-Sat", "time": "1:00pm"}, {"days": "Sun", "time": "Closed"}], "id": "2322600014", "name": "USPS COLLECTION BOX - BLUE BOX", "address": {"city": "RICHMOND", "state": "VA", "street": "5700 OLD RICHMOND AVE", "postcode": "23226"}}},
{"geometry": {"type": "Point", "coordinates": [-77.5179508622, 37.5746133309]}, "type": "Feature", "properties": {"collection_times": [{"days": "Mon-Sat", "time": "1:00pm"}, {"days": "Sun", "time": "Closed"}], "id": "2322600017", "name": "USPS COLLECTION BOX - BLUE BOX", "address": {"city": "RICHMOND", "state": "VA", "street": "400 LIBBIE AVE", "postcode": "23226"}}},
{"geometry": {"type": "Point", "coordinates": [-77.5166212163, 37.5808782816]}, "type": "Feature", "properties": {"collection_times": [{"days": "Mon-Sat", "time": "1:00pm"}, {"days": "Sun", "time": "Closed"}], "id": "2322600020", "name": "USPS COLLECTION BOX - BLUE BOX", "address": {"city": "RICHMOND", "state": "VA", "street": "5901 PATTERSON AVE", "postcode": "23226"}}},
{"geometry": {"type": "Point", "coordinates": [-77.5093341891, 37.576252912]}, "type": "Feature", "properties": {"collection_times": [{"days": "Mon-Sat", "time": "1:00pm"}, {"days": "Sun", "time": "Closed"}], "id": "2322600022", "name": "USPS COLLECTION BOX - BLUE BOX", "address": {"city": "RICHMOND", "state": "VA", "street": "5311 PATTERSON AVE", "postcode": "23226"}}},
{"geometry": {"type": "Point", "coordinates": [-77.5287465457, 37.5891956661]}, "type": "Feature", "properties": {"collection_times": [{"days": "Mon-Sat", "time": "1:00pm"}, {"days": "Sun", "time": "Closed"}], "id": "2322600024", "name": "USPS COLLECTION BOX - BLUE BOX", "address": {"city": "RICHMOND", "state": "VA", "street": "6724 PATTERSON AVE", "postcode": "23226"}}},
{"geometry": {"type": "Point", "coordinates": [-77.5131019134, 37.584556101]}, "type": "Feature", "properties": {"collection_times": [{"days": "Mon-Fri", "time": "4:00pm"}, {"days": "Sat", "time": "1:00pm"}, {"days": "Sun", "time": "Closed"}], "id": "2322600030", "name": "USPS COLLECTION BOX - BLUE BOX", "address": {"city": "RICHMOND", "state": "VA", "street": "5801 BREMO RD", "postcode": "23226"}}},
{"geometry": {"type": "Point", "coordinates": [-77.5318141225, 37.590281761]}, "type": "Feature", "properties": {"collection_times": [{"days": "Mon-Sat", "time": "1:00pm"}, {"days": "Sun", "time": "Closed"}], "id": "2322600033", "name": "USPS COLLECTION BOX - BLUE BOX", "address": {"city": "RICHMOND", "state": "VA", "street": "7029 THREE CHOPT RD", "postcode": "23226"}}},
{"geometry": {"type": "Point", "coordinates": [-77.528624701, 37.606379328]}, "type": "Feature", "properties": {"collection_times": [{"days": "Mon-Fri", "time": "5:00pm"}, {"days": "Sat", "time": "1:00pm"}, {"days": "Sun", "time": "Closed"}], "id": "2322600037", "name": "USPS COLLECTION BOX - BLUE BOX", "address": {"city": "RICHMOND", "state": "VA", "street": "7200 GLEN FOREST DR", "postcode": "23226"}}},
{"geometry": {"type": "Point", "coordinates": [-77.528624701, 37.606379328]}, "type": "Feature", "properties": {"collection_times": [{"days": "Mon-Fri", "time": "5:00pm"}, {"days": "Sat", "time": "1:00pm"}, {"days": "Sun", "time": "Closed"}], "id": "2322600038", "name": "USPS COLLECTION BOX - BLUE BOX", "address": {"city": "RICHMOND", "state": "VA", "street": "7200 GLEN FOREST DR", "postcode": "23226"}}},
{"geometry": {"type": "Point", "coordinates": [-77.5119282842, 37.5779080252]}, "type": "Feature", "properties": {"collection_times": [{"days": "Mon-Fri", "time": "5:00pm"}, {"days": "Sat", "time": "1:00pm"}, {"days": "Sun", "time": "Closed"}], "id": "2322600039", "name": "USPS COLLECTION BOX - BLUE BOX", "address": {"city": "RICHMOND", "state": "VA", "street": "805 GLENBURNIE RD", "postcode": "23226"}}},
{"geometry": {"type": "Point", "coordinates": [-77.5119282842, 37.5779080252]}, "type": "Feature", "properties": {"collection_times": [{"days": "Mon-Fri", "time": "5:00pm"}, {"days": "Sat", "time": "1:00pm"}, {"days": "Sun", "time": "Closed"}], "id": "2322600040", "name": "USPS COLLECTION BOX - BLUE BOX", "address": {"city": "RICHMOND", "state": "VA", "street": "805 GLENBURNIE RD", "postcode": "23226"}}},
{"geometry": {"type": "Point", "coordinates": [-77.528624701, 37.606379328]}, "type": "Feature", "properties": {"collection_times": [{"days": "Mon-Fri", "time": "5:00pm"}, {"days": "Sat", "time": "1:00pm"}, {"days": "Sun", "time": "Closed"}], "id": "2322600043", "name": "USPS COLLECTION BOX - BLUE BOX", "address": {"city": "RICHMOND", "state": "VA", "street": "7200 GLEN FOREST DR", "postcode": "23226"}}},
{"geometry": {"type": "Point", "coordinates": [-77.528624701, 37.606379328]}, "type": "Feature", "properties": {"collection_times": [{"days": "Mon-Fri", "time": "5:00pm"}, {"days": "Sat", "time": "1:00pm"}, {"days": "Sun", "time": "Closed"}], "id": "2322600044", "name": "USPS COLLECTION BOX - BLUE BOX", "address": {"city": "RICHMOND", "state": "VA", "street": "7200 GLEN FOREST DR", "postcode": "23226"}}},
{"geometry": {"type": "Point", "coordinates": [-77.5131019134, 37.584556101]}, "type": "Feature", "properties": {"collection_times": [{"days": "Mon-Fri", "time": "4:00pm"}, {"days": "Sat", "time": "1:00pm"}, {"days": "Sun", "time": "Closed"}], "id": "2322600046", "name": "USPS COLLECTION BOX - BLUE BOX", "address": {"city": "RICHMOND", "state": "VA", "street": "5801 BREMO RD", "postcode": "23226"}}},
{"geometry": {"type": "Point", "coordinates": [-77.5323912423, 37.6078012447]}, "type": "Feature", "properties": {"collection_times": [{"days": "Mon-Fri", "time": "5:00pm"}, {"days": "Sat", "time": "1:00pm"}, {"days": "Sun", "time": "Closed"}], "id": "2322600050", "name": "USPS COLLECTION BOX - BLUE BOX", "address": {"city": "RICHMOND", "state": "VA", "street": "1801 BAYBERRY CT", "postcode": "23226"}}},
{"geometry": {"type": "Point", "coordinates": [-77.5323912423, 37.6078012447]}, "type": "Feature", "properties": {"collection_times": [{"days": "Mon-Fri", "time": "5:00pm"}, {"days": "Sat", "time": "1:00pm"}, {"days": "Sun", "time": "Closed"}], "id": "2322600051", "name": "USPS COLLECTION BOX - BLUE BOX", "address": {"city": "RICHMOND", "state": "VA", "street": "1801 BAYBERRY CT", "postcode": "23226"}}},
{"geometry": {"type": "Point", "coordinates": [-77.5188777485, 37.5818840602]}, "type": "Feature", "properties": {"collection_times": [{"days": "Mon-Fri", "time": "5:00pm"}, {"days": "Sat", "time": "1:00pm"}, {"days": "Sun", "time": "Closed"}], "id": "2322600054", "name": "USPS COLLECTION BOX - APC", "address": {"city": "RICHMOND", "state": "VA", "street": "805 GLEN BURBIE RD", "postcode": "23226"}}},
{"geometry": {"type": "Point", "coordinates": [-77.5119282842, 37.5779080252]}, "type": "Feature", "properties": {"collection_times": [{"days": "Mon-Fri", "time": "5:00pm"}, {"days": "Sat", "time": "12:00pm"}, {"days": "Sun", "time": "Closed"}], "id": "2322600055", "name": "USPS COLLECTION BOX - PO LOBBY", "address": {"city": "RICHMOND", "state": "VA", "street": "805 GLENBURNIE RD", "postcode": "23226"}}},
{"geometry": {"type": "Point", "coordinates": [-77.4655283638, 37.5904410046]}, "type": "Feature", "properties": {"collection_times": [{"days": "Mon-Sat", "time": "1:00pm"}, {"days": "Sun", "time": "Closed"}], "id": "2322700004", "name": "USPS COLLECTION BOX - BLUE BOX", "address": {"city": "RICHMOND", "state": "VA", "street": "1711 BELLEVUE AVE STE D", "postcode": "23227"}}},
{"geometry": {"type": "Point", "coordinates": [-77.4528680088, 37.5910280695]}, "type": "Feature", "properties": {"collection_times": [{"days": "Mon-Sat", "time": "1:00pm"}, {"days": "Sun", "time": "Closed"}], "id": "2322700009", "name": "USPS COLLECTION BOX - BLUE BOX", "address": {"city": "RICHMOND", "state": "VA", "street": "1201 BELLEVUE AVE", "postcode": "23227"}}},
{"geometry": {"type": "Point", "coordinates": [-77.4603419436, 37.578242649]}, "type": "Feature", "properties": {"collection_times": [{"days": "Mon-Sat", "time": "1:00pm"}, {"days": "Sun", "time": "Closed"}], "id": "2322700012", "name": "USPS COLLECTION BOX - BLUE BOX", "address": {"city": "RICHMOND", "state": "VA", "street": "1600 WESTWOOD AVE", "postcode": "23227"}}},
{"geometry": {"type": "Point", "coordinates": [-77.4725630201, 37.5840190366]}, "type": "Feature", "properties": {"collection_times": [{"days": "Mon-Fri", "time": "4:30pm"}, {"days": "Sat-Sun", "time": "Closed"}], "id": "2322700014", "name": "USPS COLLECTION BOX - BLUE BOX", "address": {"city": "RICHMOND", "state": "VA", "street": "2112 W LABURNUM AVE", "postcode": "23227"}}},
{"geometry": {"type": "Point", "coordinates": [-77.4725630201, 37.5840190366]}, "type": "Feature", "properties": {"collection_times": [{"days": "Mon-Fri", "time": "4:30pm"}, {"days": "Sat-Sun", "time": "Closed"}], "id": "2322700016", "name": "USPS COLLECTION BOX - BLUE BOX", "address": {"city": "RICHMOND", "state": "VA", "street": "2112 W LABURNUM AVE", "postcode": "23227"}}},
{"geometry": {"type": "Point", "coordinates": [-77.4589229843, 37.6345476918]}, "type": "Feature", "properties": {"collection_times": [{"days": "Mon-Sat", "time": "1:00pm"}, {"days": "Sun", "time": "Closed"}], "id": "2322700022", "name": "USPS COLLECTION BOX - BLUE BOX", "address": {"city": "RICHMOND", "state": "VA", "street": "8161 BROOK RD", "postcode": "23227"}}},
{"geometry": {"type": "Point", "coordinates": [-77.4714545905, 37.581448653]}, "type": "Feature", "properties": {"collection_times": [{"days": "Mon-Fri", "time": "1:00pm"}, {"days": "Sat-Sun", "time": "Closed"}], "id": "2322700023", "name": "USPS COLLECTION BOX - BLUE BOX", "address": {"city": "RICHMOND", "state": "VA", "street": "3701 SAUNDERS AVE", "postcode": "23227"}}},
{"geometry": {"type": "Point", "coordinates": [-77.4714545905, 37.581448653]}, "type": "Feature", "properties": {"collection_times": [{"days": "Mon-Fri", "time": "1:00pm"}, {"days": "Sat-Sun", "time": "Closed"}], "id": "2322700024", "name": "USPS COLLECTION BOX - BLUE BOX", "address": {"city": "RICHMOND", "state": "VA", "street": "3701 SAUNDERS AVE", "postcode": "23227"}}},
{"geometry": {"type": "Point", "coordinates": [-77.462464172, 37.5969215711]}, "type": "Feature", "properties": {"collection_times": [{"days": "Mon-Fri", "time": "4:00pm"}, {"days": "Sat", "time": "1:00pm"}, {"days": "Sun", "time": "Closed"}], "id": "2322700027", "name": "USPS COLLECTION BOX - BLUE BOX", "address": {"city": "RICHMOND", "state": "VA", "street": "1600 WESTBROOK AVE", "postcode": "23227"}}},
{"geometry": {"type": "Point", "coordinates": [-77.4338756027, 37.6461220174]}, "type": "Feature", "properties": {"collection_times": [{"days": "Mon-Sat", "time": "1:00pm"}, {"days": "Sun", "time": "Closed"}], "id": "2322700030", "name": "USPS COLLECTION BOX - BLUE BOX", "address": {"city": "RICHMOND", "state": "VA", "street": "8550 MAGELLAN PKWY", "postcode": "23227"}}},
{"geometry": {"type": "Point", "coordinates": [-77.450055487, 37.6050760544]}, "type": "Feature", "properties": {"collection_times": [{"days": "Mon-Fri", "time": "5:00pm"}, {"days": "Sat", "time": "1:00pm"}, {"days": "Sun", "time": "Closed"}], "id": "2322700032", "name": "USPS COLLECTION BOX - BLUE BOX", "address": {"city": "RICHMOND", "state": "VA", "street": "5327 CHAMBERLAYNE RD", "postcode": "23227"}}},
{"geometry": {"type": "Point", "coordinates": [-77.4662983655, 37.5904142232]}, "type": "Feature", "properties": {"collection_times": [{"days": "Mon-Sat", "time": "1:00pm"}, {"days": "Sun", "time": "Closed"}], "id": "2322700034", "name": "USPS COLLECTION BOX - BLUE BOX", "address": {"city": "RICHMOND", "state": "VA", "street": "1717 BELLEVUE AVE STE A", "postcode": "23227"}}},
{"geometry": {"type": "Point", "coordinates": [-77.4572257745, 37.6099908435]}, "type": "Feature", "properties": {"collection_times": [{"days": "Mon-Sat", "time": "1:00pm"}, {"days": "Sun", "time": "Closed"}], "id": "2322700035", "name": "USPS COLLECTION BOX - BLUE BOX", "address": {"city": "RICHMOND", "state": "VA", "street": "5710 BROOK RD", "postcode": "23227"}}},
{"geometry": {"type": "Point", "coordinates": [-77.4417480817, 37.6295891272]}, "type": "Feature", "properties": {"collection_times": [{"days": "Mon-Sat", "time": "1:00pm"}, {"days": "Sun", "time": "Closed"}], "id": "2322700037", "name": "USPS COLLECTION BOX - BLUE BOX", "address": {"city": "RICHMOND", "state": "VA", "street": "1144 WILKINSON RD", "postcode": "23227"}}},
{"geometry": {"type": "Point", "coordinates": [-77.458975626, 37.5965300117]}, "type": "Feature", "properties": {"collection_times": [{"days": "Mon-Fri", "time": "4:00pm"}, {"days": "Sat", "time": "1:00pm"}, {"days": "Sun", "time": "Closed"}], "id": "2322700038", "name": "USPS COLLECTION BOX - BLUE BOX", "address": {"city": "RICHMOND", "state": "VA", "street": "1500 WESTBROOK CT", "postcode": "23227"}}},
{"geometry": {"type": "Point", "coordinates": [-77.450055487, 37.6050760544]}, "type": "Feature", "properties": {"collection_times": [{"days": "Mon-Fri", "time": "5:00pm"}, {"days": "Sat", "time": "12:00pm"}, {"days": "Sun", "time": "Closed"}], "id": "2322700039", "name": "USPS COLLECTION BOX - PO LOBBY", "address": {"city": "RICHMOND", "state": "VA", "street": "5327 CHAMBERLAYNE RD", "postcode": "23227"}}},
{"geometry": {"type": "Point", "coordinates": [-77.4711541693, 37.6391110822]}, "type": "Feature", "properties": {"collection_times": [{"days": "Mon-Fri", "time": "4:30pm"}, {"days": "Sat", "time": "1:00pm"}, {"days": "Sun", "time": "Closed"}], "id": "2322800006", "name": "USPS COLLECTION BOX - BLUE BOX", "address": {"city": "RICHMOND", "state": "VA", "street": "1538 E PARHAM RD", "postcode": "23228"}}},
{"geometry": {"type": "Point", "coordinates": [-77.4715374672, 37.6010891355]}, "type": "Feature", "properties": {"collection_times": [{"days": "Mon-Sat", "time": "1:00pm"}, {"days": "Sun", "time": "Closed"}], "id": "2322800007", "name": "USPS COLLECTION BOX - BLUE BOX", "address": {"city": "RICHMOND", "state": "VA", "street": "2300 BUCKINGHAM AVE", "postcode": "23228"}}},
{"geometry": {"type": "Point", "coordinates": [-77.4954293576, 37.6255701155]}, "type": "Feature", "properties": {"collection_times": [{"days": "Mon-Sat", "time": "1:00pm"}, {"days": "Sun", "time": "Closed"}], "id": "2322800008", "name": "USPS COLLECTION BOX - BLUE BOX", "address": {"city": "RICHMOND", "state": "VA", "street": "4701 E CARDINAL CT", "postcode": "23228"}}},
{"geometry": {"type": "Point", "coordinates": [-77.5124560178, 37.6119841876]}, "type": "Feature", "properties": {"collection_times": [{"days": "Mon-Sat", "time": "1:00pm"}, {"days": "Sun", "time": "Closed"}], "id": "2322800009", "name": "USPS COLLECTION BOX - BLUE BOX", "address": {"city": "RICHMOND", "state": "VA", "street": "5300 GLENSIDE DR", "postcode": "23228"}}},
{"geometry": {"type": "Point", "coordinates": [-77.5160048947, 37.6297273891]}, "type": "Feature", "properties": {"collection_times": [{"days": "Mon-Sat", "time": "1:00pm"}, {"days": "Sun", "time": "Closed"}], "id": "2322800010", "name": "USPS COLLECTION BOX - BLUE BOX", "address": {"city": "RICHMOND", "state": "VA", "street": "4301 E PARHAM RD", "postcode": "23228"}}},
{"geometry": {"type": "Point", "coordinates": [-77.4711541693, 37.6391110822]}, "type": "Feature", "properties": {"collection_times": [{"days": "Mon-Fri", "time": "4:30pm"}, {"days": "Sat", "time": "1:00pm"}, {"days": "Sun", "time": "Closed"}], "id": "2322800021", "name": "USPS COLLECTION BOX - BLUE BOX", "address": {"city": "RICHMOND", "state": "VA", "street": "1538 E PARHAM RD", "postcode": "23228"}}},
{"geometry": {"type": "Point", "coordinates": [-77.493384607, 37.6043949516]}, "type": "Feature", "properties": {"collection_times": [{"days": "Mon-Sat", "time": "1:00pm"}, {"days": "Sun", "time": "Closed"}], "id": "2322800025", "name": "USPS COLLECTION BOX - BLUE BOX", "address": {"city": "RICHMOND", "state": "VA", "street": "5 MILLSTONE RD", "postcode": "23228"}}},
{"geometry": {"type": "Point", "coordinates": [-77.4924580965, 37.6041175105]}, "type": "Feature", "properties": {"collection_times": [{"days": "Mon-Sat", "time": "1:00pm"}, {"days": "Sun", "time": "Closed"}], "id": "2322800026", "name": "USPS COLLECTION BOX - BLUE BOX", "address": {"city": "RICHMOND", "state": "VA", "street": "5511 STAPLES MILL RD", "postcode": "23228"}}},
{"geometry": {"type": "Point", "coordinates": [-77.4989234779, 37.6137484046]}, "type": "Feature", "properties": {"collection_times": [{"days": "Mon-Sat", "time": "1:00pm"}, {"days": "Sun", "time": "Closed"}], "id": "2322800027", "name": "USPS COLLECTION BOX - BLUE BOX", "address": {"city": "RICHMOND", "state": "VA", "street": "4016 GLENSIDE DR", "postcode": "23228"}}},
{"geometry": {"type": "Point", "coordinates": [-77.4907291558, 37.6254439079]}, "type": "Feature", "properties": {"collection_times": [{"days": "Mon-Sat", "time": "1:00pm"}, {"days": "Sun", "time": "Closed"}], "id": "2322800030", "name": "USPS COLLECTION BOX - BLUE BOX", "address": {"city": "RICHMOND", "state": "VA", "street": "7011 SULKY DR", "postcode": "23228"}}},
{"geometry": {"type": "Point", "coordinates": [-77.4973578735, 37.6151284703]}, "type": "Feature", "properties": {"collection_times": [{"days": "Mon-Sat", "time": "1:00pm"}, {"days": "Sun", "time": "Closed"}], "id": "2322800031", "name": "USPS COLLECTION BOX - BLUE BOX", "address": {"city": "RICHMOND", "state": "VA", "street": "7127 STAPLES MILL RD", "postcode": "23228"}}},
{"geometry": {"type": "Point", "coordinates": [-77.5096145504, 37.6284237683]}, "type": "Feature", "properties": {"collection_times": [{"days": "Mon-Fri", "time": "1:00pm"}, {"days": "Sat-Sun", "time": "Closed"}], "id": "2322800032", "name": "USPS COLLECTION BOX - BLUE BOX", "address": {"city": "RICHMOND", "state": "VA", "street": "8600 DIXON POWERS DR", "postcode": "23228"}}},
{"geometry": {"type": "Point", "coordinates": [-77.5057065758, 37.6307103888]}, "type": "Feature", "properties": {"collection_times": [{"days": "Mon-Sat", "time": "1:00pm"}, {"days": "Sun", "time": "Closed"}], "id": "2322800033", "name": "USPS COLLECTION BOX - BLUE BOX", "address": {"city": "RICHMOND", "state": "VA", "street": "6716 JANWAY RD", "postcode": "23228"}}},
{"geometry": {"type": "Point", "coordinates": [-77.5597708276, 37.6186099407]}, "type": "Feature", "properties": {"collection_times": [{"days": "Mon-Fri", "time": "5:00pm"}, {"days": "Sat", "time": "1:00pm"}, {"days": "Sun", "time": "Closed"}], "id": "2322800037", "name": "USPS COLLECTION BOX - BLUE BOX", "address": {"city": "RICHMOND", "state": "VA", "street": "2100 E PARHAM RD", "postcode": "23228"}}},
{"geometry": {"type": "Point", "coordinates": [-77.4675319682, 37.6043186135]}, "type": "Feature", "properties": {"collection_times": [{"days": "Mon-Fri", "time": "1:00pm"}, {"days": "Sat-Sun", "time": "Closed"}], "id": "2322800044", "name": "USPS COLLECTION BOX - BLUE BOX", "address": {"city": "RICHMOND", "state": "VA", "street": "5500 LAKESIDE AVE", "postcode": "23228"}}},
{"geometry": {"type": "Point", "coordinates": [-77.5597708276, 37.6186099407]}, "type": "Feature", "properties": {"collection_times": [{"days": "Mon-Fri", "time": "5:00pm"}, {"days": "Sat", "time": "1:00pm"}, {"days": "Sun", "time": "Closed"}], "id": "2322800046", "name": "USPS COLLECTION BOX - APC", "address": {"city": "RICHMOND", "state": "VA", "street": "2100 E PARHAM RD", "postcode": "23228"}}},
{"geometry": {"type": "Point", "coordinates": [-77.4706348695, 37.6158382679]}, "type": "Feature", "properties": {"collection_times": [{"days": "Mon-Sat", "time": "1:00pm"}, {"days": "Sun", "time": "Closed"}], "id": "2322800047", "name": "USPS COLLECTION BOX - BLUE BOX", "address": {"city": "RICHMOND", "state": "VA", "street": "6924 LAKESIDE AVE", "postcode": "23228"}}},
{"geometry": {"type": "Point", "coordinates": [-77.5597708276, 37.6186099407]}, "type": "Feature", "properties": {"collection_times": [{"days": "Mon-Fri", "time": "5:00pm"}, {"days": "Sat", "time": "12:00pm"}, {"days": "Sun", "time": "Closed"}], "id": "2322800048", "name": "USPS COLLECTION BOX - PO LOBBY", "address": {"city": "RICHMOND", "state": "VA", "street": "2100 E PARHAM RD", "postcode": "23228"}}},
{"geometry": {"type": "Point", "coordinates": [-77.5857133259, 37.5882657058]}, "type": "Feature", "properties": {"collection_times": [{"days": "Mon-Fri", "time": "1:00pm"}, {"days": "Sat", "time": "12:00pm"}, {"days": "Sun", "time": "Closed"}], "id": "2322900003", "name": "USPS COLLECTION BOX - BLUE BOX", "address": {"city": "RICHMOND", "state": "VA", "street": "9133 DERBYSHIRE RD", "postcode": "23229"}}},
{"geometry": {"type": "Point", "coordinates": [-77.5464495267, 37.6042227938]}, "type": "Feature", "properties": {"collection_times": [{"days": "Mon-Fri", "time": "5:00pm"}, {"days": "Sat-Sun", "time": "Closed"}], "id": "2322900004", "name": "USPS COLLECTION BOX - BLUE BOX", "address": {"city": "RICHMOND", "state": "VA", "street": "8007 DISCOVERY DR", "postcode": "23229"}}},
{"geometry": {"type": "Point", "coordinates": [-77.545804814, 37.5998517604]}, "type": "Feature", "properties": {"collection_times": [{"days": "Mon-Fri", "time": "5:00pm"}, {"days": "Sat-Sun", "time": "Closed"}], "id": "2322900005", "name": "USPS COLLECTION BOX - BLUE BOX", "address": {"city": "RICHMOND", "state": "VA", "street": "1500 FOREST AVE", "postcode": "23229"}}},
{"geometry": {"type": "Point", "coordinates": [-77.545804814, 37.5998517604]}, "type": "Feature", "properties": {"collection_times": [{"days": "Mon-Fri", "time": "5:00pm"}, {"days": "Sat-Sun", "time": "Closed"}], "id": "2322900006", "name": "USPS COLLECTION BOX - BLUE BOX", "address": {"city": "RICHMOND", "state": "VA", "street": "1500 FOREST AVE", "postcode": "23229"}}},
{"geometry": {"type": "Point", "coordinates": [-77.5443710677, 37.6015315622]}, "type": "Feature", "properties": {"collection_times": [{"days": "Mon-Fri", "time": "5:00pm"}, {"days": "Sat-Sun", "time": "Closed"}], "id": "2322900007", "name": "USPS COLLECTION BOX - BLUE BOX", "address": {"city": "RICHMOND", "state": "VA", "street": "1600 FOREST AVE", "postcode": "23229"}}},
{"geometry": {"type": "Point", "coordinates": [-77.5408221909, 37.6051703439]}, "type": "Feature", "properties": {"collection_times": [{"days": "Mon-Fri", "time": "5:00pm"}, {"days": "Sat", "time": "1:00pm"}, {"days": "Sun", "time": "Closed"}], "id": "2322900009", "name": "USPS COLLECTION BOX - BLUE BOX", "address": {"city": "RICHMOND", "state": "VA", "street": "7601 FOREST AVE", "postcode": "23229"}}},
{"geometry": {"type": "Point", "coordinates": [-77.5483398951, 37.6013174466]}, "type": "Feature", "properties": {"collection_times": [{"days": "Mon-Fri", "time": "5:00pm"}, {"days": "Sat-Sun", "time": "Closed"}], "id": "2322900012", "name": "USPS COLLECTION BOX - BLUE BOX", "address": {"city": "RICHMOND", "state": "VA", "street": "1503 SANTA ROSA RD", "postcode": "23229"}}},
{"geometry": {"type": "Point", "coordinates": [-77.574020773, 37.5950142292]}, "type": "Feature", "properties": {"collection_times": [{"days": "Mon-Sat", "time": "1:00pm"}, {"days": "Sun", "time": "Closed"}], "id": "2322900021", "name": "USPS COLLECTION BOX - BLUE BOX", "address": {"city": "RICHMOND", "state": "VA", "street": "8909 PATTERSON AVE", "postcode": "23229"}}},
{"geometry": {"type": "Point", "coordinates": [-77.577830106, 37.5952272552]}, "type": "Feature", "properties": {"collection_times": [{"days": "Mon-Sat", "time": "1:00pm"}, {"days": "Sun", "time": "Closed"}], "id": "2322900022", "name": "USPS COLLECTION BOX - BLUE BOX", "address": {"city": "RICHMOND", "state": "VA", "street": "9101 PATTERSON AVE", "postcode": "23229"}}},
{"geometry": {"type": "Point", "coordinates": [-77.5640188332, 37.6013245444]}, "type": "Feature", "properties": {"collection_times": [{"days": "Mon-Sat", "time": "1:00pm"}, {"days": "Sun", "time": "Closed"}], "id": "2322900023", "name": "USPS COLLECTION BOX - BLUE BOX", "address": {"city": "RICHMOND", "state": "VA", "street": "1402 N PARHAM RD", "postcode": "23229"}}},
{"geometry": {"type": "Point", "coordinates": [-77.5548867951, 37.5822995531]}, "type": "Feature", "properties": {"collection_times": [{"days": "Mon-Fri", "time": "1:00pm"}, {"days": "Sat", "time": "12:00pm"}, {"days": "Sun", "time": "Closed"}], "id": "2322900024", "name": "USPS COLLECTION BOX - BLUE BOX", "address": {"city": "RICHMOND", "state": "VA", "street": "435 N RIDGE RD", "postcode": "23229"}}},
{"geometry": {"type": "Point", "coordinates": [-77.5641545094, 37.6033406926]}, "type": "Feature", "properties": {"collection_times": [{"days": "Mon-Sat", "time": "1:00pm"}, {"days": "Sun", "time": "Closed"}], "id": "2322900025", "name": "USPS COLLECTION BOX - BLUE BOX", "address": {"city": "RICHMOND", "state": "VA", "street": "1517 N PARHAM RD", "postcode": "23229"}}},
{"geometry": {"type": "Point", "coordinates": [-77.535378241, 37.5684482048]}, "type": "Feature", "properties": {"collection_times": [{"days": "Mon-Fri", "time": "1:00pm"}, {"days": "Sat", "time": "12:00pm"}, {"days": "Sun", "time": "Closed"}], "id": "2322900026", "name": "USPS COLLECTION BOX - BLUE BOX", "address": {"city": "RICHMOND", "state": "VA", "street": "6200 RIVER RD", "postcode": "23229"}}},
{"geometry": {"type": "Point", "coordinates": [-77.5443710677, 37.6015315622]}, "type": "Feature", "properties": {"collection_times": [{"days": "Mon-Fri", "time": "5:00pm"}, {"days": "Sat-Sun", "time": "Closed"}], "id": "2322900028", "name": "USPS COLLECTION BOX - BLUE BOX", "address": {"city": "RICHMOND", "state": "VA", "street": "1600 FOREST AVE", "postcode": "23229"}}},
{"geometry": {"type": "Point", "coordinates": [-77.5599911052, 37.6040788079]}, "type": "Feature", "properties": {"collection_times": [{"days": "Mon-Sat", "time": "1:00pm"}, {"days": "Sun", "time": "Closed"}], "id": "2322900030", "name": "USPS COLLECTION BOX - BLUE BOX", "address": {"city": "RICHMOND", "state": "VA", "street": "8905 THREE CHOPT RD", "postcode": "23229"}}},
{"geometry": {"type": "Point", "coordinates": [-77.5660227657, 37.6105445265]}, "type": "Feature", "properties": {"collection_times": [{"days": "Mon-Fri", "time": "5:00pm"}, {"days": "Sat", "time": "1:00pm"}, {"days": "Sun", "time": "Closed"}], "id": "2322900032", "name": "USPS COLLECTION BOX - BLUE BOX", "address": {"city": "RICHMOND", "state": "VA", "street": "2000 STARLING DR", "postcode": "23229"}}},
{"geometry": {"type": "Point", "coordinates": [-77.5475946309, 37.602055613]}, "type": "Feature", "properties": {"collection_times": [{"days": "Mon-Fri", "time": "5:00pm"}, {"days": "Sat-Sun", "time": "Closed"}], "id": "2322900037", "name": "USPS COLLECTION BOX - BLUE BOX", "address": {"city": "RICHMOND", "state": "VA", "street": "8004 FRANKLIN FARMS DR", "postcode": "23229"}}},
{"geometry": {"type": "Point", "coordinates": [-77.5443710677, 37.6015315622]}, "type": "Feature", "properties": {"collection_times": [{"days": "Mon-Fri", "time": "5:00pm"}, {"days": "Sat-Sun", "time": "Closed"}], "id": "2322900038", "name": "USPS COLLECTION BOX - BLUE BOX", "address": {"city": "RICHMOND", "state": "VA", "street": "1600 FOREST AVE", "postcode": "23229"}}},
{"geometry": {"type": "Point", "coordinates": [-77.5485492788, 37.6022318739]}, "type": "Feature", "properties": {"collection_times": [{"days": "Mon-Fri", "time": "5:00pm"}, {"days": "Sat-Sun", "time": "Closed"}], "id": "2322900040", "name": "USPS COLLECTION BOX - BLUE BOX", "address": {"city": "RICHMOND", "state": "VA", "street": "1504 SANTA ROSA RD", "postcode": "23229"}}},
{"geometry": {"type": "Point", "coordinates": [-77.5660227657, 37.6105445265]}, "type": "Feature", "properties": {"collection_times": [{"days": "Mon-Fri", "time": "5:00pm"}, {"days": "Sat", "time": "1:00pm"}, {"days": "Sun", "time": "Closed"}], "id": "2322900044", "name": "USPS COLLECTION BOX - BLUE BOX", "address": {"city": "RICHMOND", "state": "VA", "street": "2000 STARLING DR", "postcode": "23229"}}},
{"geometry": {"type": "Point", "coordinates": [-77.5660227657, 37.6105445265]}, "type": "Feature", "properties": {"collection_times": [{"days": "Mon-Fri", "time": "5:00pm"}, {"days": "Sat", "time": "1:00pm"}, {"days": "Sun", "time": "Closed"}], "id": "2322900051", "name": "USPS COLLECTION BOX - APC", "address": {"city": "RICHMOND", "state": "VA", "street": "2000 STARLING DR", "postcode": "23229"}}},
{"geometry": {"type": "Point", "coordinates": [-77.5660227657, 37.6105445265]}, "type": "Feature", "properties": {"collection_times": [{"days": "Mon-Fri", "time": "5:00pm"}, {"days": "Sat", "time": "12:00pm"}, {"days": "Sun", "time": "Closed"}], "id": "2322900052", "name": "USPS COLLECTION BOX - PO LOBBY", "address": {"city": "RICHMOND", "state": "VA", "street": "2000 STARLING DR", "postcode": "23229"}}},
{"geometry": {"type": "Point", "coordinates": [-77.5660227657, 37.6105445265]}, "type": "Feature", "properties": {"collection_times": [{"days": "Mon-Fri", "time": "5:00pm"}, {"days": "Sat", "time": "12:00pm"}, {"days": "Sun", "time": "Closed"}], "id": "2322900053", "name": "USPS COLLECTION BOX - PO LOBBY", "address": {"city": "RICHMOND", "state": "VA", "street": "2000 STARLING DR", "postcode": "23229"}}},
{"geometry": {"type": "Point", "coordinates": [-77.4099691849, 37.5262681639]}, "type": "Feature", "properties": {"collection_times": [{"days": "Mon-Fri", "time": "11:00am"}, {"days": "Sat-Sun", "time": "Closed"}], "id": "2323000007", "name": "USPS COLLECTION BOX - BLUE BOX", "address": {"city": "RICHMOND", "state": "VA", "street": "3414 W BROAD ST", "postcode": "23230"}}},
{"geometry": {"type": "Point", "coordinates": [-77.4946012557, 37.5804295037]}, "type": "Feature", "properties": {"collection_times": [{"days": "Mon-Fri", "time": "4:30pm"}, {"days": "Sat-Sun", "time": "Closed"}], "id": "2323000014", "name": "USPS COLLECTION BOX - BLUE BOX", "address": {"city": "RICHMOND", "state": "VA", "street": "1800 STAPLES MILL RD", "postcode": "23230"}}},
{"geometry": {"type": "Point", "coordinates": [-77.507290036, 37.5929645733]}, "type": "Feature", "properties": {"collection_times": [{"days": "Mon-Fri", "time": "4:30pm"}, {"days": "Sat-Sun", "time": "Closed"}], "id": "2323000017", "name": "USPS COLLECTION BOX - BLUE BOX", "address": {"city": "RICHMOND", "state": "VA", "street": "6000 W BROAD ST", "postcode": "23230"}}},
{"geometry": {"type": "Point", "coordinates": [-77.5003401521, 37.5849429286]}, "type": "Feature", "properties": {"collection_times": [{"days": "Mon-Fri", "time": "5:00pm"}, {"days": "Sat-Sun", "time": "Closed"}], "id": "2323000021", "name": "USPS COLLECTION BOX - BLUE BOX", "address": {"city": "RICHMOND", "state": "VA", "street": "1904 BYRD AVE", "postcode": "23230"}}},
{"geometry": {"type": "Point", "coordinates": [-77.4757641796, 37.5657553342]}, "type": "Feature", "properties": {"collection_times": [{"days": "Mon-Fri", "time": "5:00pm"}, {"days": "Sat-Sun", "time": "Closed"}], "id": "2323000031", "name": "USPS COLLECTION BOX - BLUE BOX", "address": {"city": "RICHMOND", "state": "VA", "street": "3212 CUTSHAW AVE", "postcode": "23230"}}},
{"geometry": {"type": "Point", "coordinates": [-77.4816564982, 37.580866452]}, "type": "Feature", "properties": {"collection_times": [{"days": "Mon-Fri", "time": "5:00pm"}, {"days": "Sat", "time": "1:00pm"}, {"days": "Sun", "time": "Closed"}], "id": "2323000035", "name": "USPS COLLECTION BOX - BLUE BOX", "address": {"city": "RICHMOND", "state": "VA", "street": "2220 DABNEY RD", "postcode": "23230"}}},
{"geometry": {"type": "Point", "coordinates": [-77.4816564982, 37.580866452]}, "type": "Feature", "properties": {"collection_times": [{"days": "Mon-Fri", "time": "5:00pm"}, {"days": "Sat", "time": "1:00pm"}, {"days": "Sun", "time": "Closed"}], "id": "2323000037", "name": "USPS COLLECTION BOX - BLUE BOX", "address": {"city": "RICHMOND", "state": "VA", "street": "2220 DABNEY RD", "postcode": "23230"}}},
{"geometry": {"type": "Point", "coordinates": [-77.4816564982, 37.580866452]}, "type": "Feature", "properties": {"collection_times": [{"days": "Mon-Fri", "time": "5:00pm"}, {"days": "Sat", "time": "1:00pm"}, {"days": "Sun", "time": "Closed"}], "id": "2323000038", "name": "USPS COLLECTION BOX - BLUE BOX", "address": {"city": "RICHMOND", "state": "VA", "street": "2220 DABNEY RD", "postcode": "23230"}}},
{"geometry": {"type": "Point", "coordinates": [-77.508010458, 37.6019893673]}, "type": "Feature", "properties": {"collection_times": [{"days": "Mon-Fri", "time": "5:00pm"}, {"days": "Sat-Sun", "time": "Closed"}], "id": "2323000040", "name": "USPS COLLECTION BOX - BLUE BOX", "address": {"city": "RICHMOND", "state": "VA", "street": "5516 FALMOUTH ST", "postcode": "23230"}}},
{"geometry": {"type": "Point", "coordinates": [-77.4946012557, 37.5804295037]}, "type": "Feature", "properties": {"collection_times": [{"days": "Mon-Fri", "time": "4:30pm"}, {"days": "Sat-Sun", "time": "Closed"}], "id": "2323000043", "name": "USPS COLLECTION BOX - BLUE BOX", "address": {"city": "RICHMOND", "state": "VA", "street": "1800 STAPLES MILL RD", "postcode": "23230"}}},
{"geometry": {"type": "Point", "coordinates": [-77.4825354367, 37.5720557736]}, "type": "Feature", "properties": {"collection_times": [{"days": "Mon-Fri", "time": "5:00pm"}, {"days": "Sat-Sun", "time": "Closed"}], "id": "2323000046", "name": "USPS COLLECTION BOX - BLUE BOX", "address": {"city": "RICHMOND", "state": "VA", "street": "4001 FITZHUGH AVE", "postcode": "23230"}}},
{"geometry": {"type": "Point", "coordinates": [-77.4814920669, 37.5682490117]}, "type": "Feature", "properties": {"collection_times": [{"days": "Mon-Fri", "time": "5:00pm"}, {"days": "Sat-Sun", "time": "Closed"}], "id": "2323000047", "name": "USPS COLLECTION BOX - BLUE BOX", "address": {"city": "RICHMOND", "state": "VA", "street": "1301 N HAMILTON ST", "postcode": "23230"}}},
{"geometry": {"type": "Point", "coordinates": [-77.4814920669, 37.5682490117]}, "type": "Feature", "properties": {"collection_times": [{"days": "Mon-Fri", "time": "5:00pm"}, {"days": "Sat-Sun", "time": "Closed"}], "id": "2323000048", "name": "USPS COLLECTION BOX - BLUE BOX", "address": {"city": "RICHMOND", "state": "VA", "street": "1301 N HAMILTON ST", "postcode": "23230"}}},
{"geometry": {"type": "Point", "coordinates": [-77.474570574, 37.5761204206]}, "type": "Feature", "properties": {"collection_times": [{"days": "Mon-Fri", "time": "1:00pm"}, {"days": "Sat-Sun", "time": "Closed"}], "id": "2323000051", "name": "USPS COLLECTION BOX - BLUE BOX", "address": {"city": "RICHMOND", "state": "VA", "street": "2106 N HAMILTON ST", "postcode": "23230"}}},
{"geometry": {"type": "Point", "coordinates": [-77.5019454274, 37.590408199]}, "type": "Feature", "properties": {"collection_times": [{"days": "Mon-Fri", "time": "4:30pm"}, {"days": "Sat-Sun", "time": "Closed"}], "id": "2323000056", "name": "USPS COLLECTION BOX - BLUE BOX", "address": {"city": "RICHMOND", "state": "VA", "street": "2111 SPENCER RD", "postcode": "23230"}}},
{"geometry": {"type": "Point", "coordinates": [-77.4729945717, 37.5659480943]}, "type": "Feature", "properties": {"collection_times": [{"days": "Mon-Fri", "time": "4:30pm"}, {"days": "Sat-Sun", "time": "Closed"}], "id": "2323000058", "name": "USPS COLLECTION BOX - BLUE BOX", "address": {"city": "RICHMOND", "state": "VA", "street": "3105 W MARSHALL ST", "postcode": "23230"}}},
{"geometry": {"type": "Point", "coordinates": [-77.4747778102, 37.5692503102]}, "type": "Feature", "properties": {"collection_times": [{"days": "Mon-Fri", "time": "4:30pm"}, {"days": "Sat-Sun", "time": "Closed"}], "id": "2323000059", "name": "USPS COLLECTION BOX - BLUE BOX", "address": {"city": "RICHMOND", "state": "VA", "street": "1408 ROSENEATH RD", "postcode": "23230"}}},
{"geometry": {"type": "Point", "coordinates": [-77.5006707877, 37.5782538794]}, "type": "Feature", "properties": {"collection_times": [{"days": "Mon-Fri", "time": "5:00pm"}, {"days": "Sat-Sun", "time": "Closed"}], "id": "2323000064", "name": "USPS COLLECTION BOX - BLUE BOX", "address": {"city": "RICHMOND", "state": "VA", "street": "5000 MONUMENT AVE", "postcode": "23230"}}},
{"geometry": {"type": "Point", "coordinates": [-77.5140447317, 37.6085204837]}, "type": "Feature", "properties": {"collection_times": [{"days": "Mon-Fri", "time": "5:00pm"}, {"days": "Sat-Sun", "time": "Closed"}], "id": "2323000067", "name": "USPS COLLECTION BOX - BLUE BOX", "address": {"city": "RICHMOND", "state": "VA", "street": "6800 PARAGON PL", "postcode": "23230"}}},
{"geometry": {"type": "Point", "coordinates": [-77.5137963103, 37.6082413054]}, "type": "Feature", "properties": {"collection_times": [{"days": "Mon-Fri", "time": "5:00pm"}, {"days": "Sat-Sun", "time": "Closed"}], "id": "2323000070", "name": "USPS COLLECTION BOX - BLUE BOX", "address": {"city": "RICHMOND", "state": "VA", "street": "6802 PARAGON PL", "postcode": "23230"}}},
{"geometry": {"type": "Point", "coordinates": [-77.4963583122, 37.5803270227]}, "type": "Feature", "properties": {"collection_times": [{"days": "Mon-Fri", "time": "5:00pm"}, {"days": "Sat-Sun", "time": "Closed"}], "id": "2323000073", "name": "USPS COLLECTION BOX - BLUE BOX", "address": {"city": "RICHMOND", "state": "VA", "street": "4914 FITZHUGH AVE", "postcode": "23230"}}},
{"geometry": {"type": "Point", "coordinates": [-77.4961390766, 37.5790343863]}, "type": "Feature", "properties": {"collection_times": [{"days": "Mon-Fri", "time": "5:00pm"}, {"days": "Sat-Sun", "time": "Closed"}], "id": "2323000074", "name": "USPS COLLECTION BOX - BLUE BOX", "address": {"city": "RICHMOND", "state": "VA", "street": "4901 AUGUSTA AVE", "postcode": "23230"}}},
{"geometry": {"type": "Point", "coordinates": [-77.4798016186, 37.5667206287]}, "type": "Feature", "properties": {"collection_times": [{"days": "Mon-Fri", "time": "4:30pm"}, {"days": "Sat-Sun", "time": "Closed"}], "id": "2323000082", "name": "USPS COLLECTION BOX - BLUE BOX", "address": {"city": "RICHMOND", "state": "VA", "street": "908 N THOMPSON ST", "postcode": "23230"}}},
{"geometry": {"type": "Point", "coordinates": [-77.5006063179, 37.5801767869]}, "type": "Feature", "properties": {"collection_times": [{"days": "Mon-Fri", "time": "5:00pm"}, {"days": "Sat-Sun", "time": "Closed"}], "id": "2323000089", "name": "USPS COLLECTION BOX - BLUE BOX", "address": {"city": "RICHMOND", "state": "VA", "street": "1506 WILLOW LAWN DR", "postcode": "23230"}}},
{"geometry": {"type": "Point", "coordinates": [-77.4993559303, 37.5823557973]}, "type": "Feature", "properties": {"collection_times": [{"days": "Mon-Fri", "time": "5:00pm"}, {"days": "Sat", "time": "1:00pm"}, {"days": "Sun", "time": "Closed"}], "id": "2323000098", "name": "USPS COLLECTION BOX - BLUE BOX", "address": {"city": "RICHMOND", "state": "VA", "street": "1601 WILLOW LAWN DR", "postcode": "23230"}}},
{"geometry": {"type": "Point", "coordinates": [-77.4816564982, 37.580866452]}, "type": "Feature", "properties": {"collection_times": [{"days": "Mon-Fri", "time": "5:00pm"}, {"days": "Sat", "time": "1:00pm"}, {"days": "Sun", "time": "Closed"}], "id": "2323000101", "name": "USPS COLLECTION BOX - BLUE BOX", "address": {"city": "RICHMOND", "state": "VA", "street": "2220 DABNEY RD", "postcode": "23230"}}},
{"geometry": {"type": "Point", "coordinates": [-77.4816564982, 37.580866452]}, "type": "Feature", "properties": {"collection_times": [{"days": "Mon-Fri", "time": "5:00pm"}, {"days": "Sat", "time": "1:00pm"}, {"days": "Sun", "time": "Closed"}], "id": "2323000103", "name": "USPS COLLECTION BOX - BLUE BOX", "address": {"city": "RICHMOND", "state": "VA", "street": "2220 DABNEY RD", "postcode": "23230"}}},
{"geometry": {"type": "Point", "coordinates": [-77.481462493, 37.569190647]}, "type": "Feature", "properties": {"collection_times": [{"days": "Mon-Fri", "time": "2:00pm"}, {"days": "Sat-Sun", "time": "Closed"}], "id": "2323000104", "name": "USPS COLLECTION BOX - BLUE BOX", "address": {"city": "RICHMOND", "state": "VA", "street": "3805 CUTSHAW AVE", "postcode": "23230"}}},
{"geometry": {"type": "Point", "coordinates": [-77.4726364361, 37.567288449]}, "type": "Feature", "properties": {"collection_times": [{"days": "Mon-Fri", "time": "4:30pm"}, {"days": "Sat-Sun", "time": "Closed"}], "id": "2323000105", "name": "USPS COLLECTION BOX - BLUE BOX", "address": {"city": "RICHMOND", "state": "VA", "street": "3122 W CLAY ST", "postcode": "23230"}}},
{"geometry": {"type": "Point", "coordinates": [-77.4816564982, 37.580866452]}, "type": "Feature", "properties": {"collection_times": [{"days": "Mon-Fri", "time": "5:00pm"}, {"days": "Sat", "time": "12:00pm"}, {"days": "Sun", "time": "Closed"}], "id": "2323000107", "name": "USPS COLLECTION BOX - PO LOBBY", "address": {"city": "RICHMOND", "state": "VA", "street": "2220 DABNEY RD", "postcode": "23230"}}},
{"geometry": {"type": "Point", "coordinates": [-77.3493161115, 37.5052841389]}, "type": "Feature", "properties": {"collection_times": [{"days": "Mon-Sat", "time": "1:00pm"}, {"days": "Sun", "time": "Closed"}], "id": "2323100007", "name": "USPS COLLECTION BOX - BLUE BOX", "address": {"city": "RICHMOND", "state": "VA", "street": "5719 S LABURNUM AVE", "postcode": "23231"}}},
{"geometry": {"type": "Point", "coordinates": [-77.3540906454, 37.5254390536]}, "type": "Feature", "properties": {"collection_times": [{"days": "Mon-Sat", "time": "1:00pm"}, {"days": "Sun", "time": "Closed"}], "id": "2323100008", "name": "USPS COLLECTION BOX - BLUE BOX", "address": {"city": "RICHMOND", "state": "VA", "street": "4591 S LABURNUM AVE", "postcode": "23231"}}},
{"geometry": {"type": "Point", "coordinates": [-77.3674903483, 37.5272544424]}, "type": "Feature", "properties": {"collection_times": [{"days": "Mon-Sat", "time": "1:00pm"}, {"days": "Sun", "time": "Closed"}], "id": "2323100009", "name": "USPS COLLECTION BOX - BLUE BOX", "address": {"city": "RICHMOND", "state": "VA", "street": "4381 LAKEFIELD MEWS DR", "postcode": "23231"}}},
{"geometry": {"type": "Point", "coordinates": [-77.3752750874, 37.5182620464]}, "type": "Feature", "properties": {"collection_times": [{"days": "Mon-Sat", "time": "1:00pm"}, {"days": "Sun", "time": "Closed"}], "id": "2323100018", "name": "USPS COLLECTION BOX - BLUE BOX", "address": {"city": "RICHMOND", "state": "VA", "street": "2939 WILLIAMSBURG RD", "postcode": "23231"}}},
{"geometry": {"type": "Point", "coordinates": [-77.3513145306, 37.4442406063]}, "type": "Feature", "properties": {"collection_times": [{"days": "Mon-Sat", "time": "1:00pm"}, {"days": "Sun", "time": "Closed"}], "id": "2323100024", "name": "USPS COLLECTION BOX - BLUE BOX", "address": {"city": "RICHMOND", "state": "VA", "street": "2660 NEW MARKET RD", "postcode": "23231"}}},
{"geometry": {"type": "Point", "coordinates": [-77.3622332418, 37.513696859]}, "type": "Feature", "properties": {"collection_times": [{"days": "Mon-Fri", "time": "5:00pm"}, {"days": "Sat", "time": "1:00pm"}, {"days": "Sun", "time": "Closed"}], "id": "2323100025", "name": "USPS COLLECTION BOX - BLUE BOX", "address": {"city": "RICHMOND", "state": "VA", "street": "5300 KLOCKNER DR", "postcode": "23231"}}},
{"geometry": {"type": "Point", "coordinates": [-77.3622332418, 37.513696859]}, "type": "Feature", "properties": {"collection_times": [{"days": "Mon-Fri", "time": "5:00pm"}, {"days": "Sat", "time": "1:00pm"}, {"days": "Sun", "time": "Closed"}], "id": "2323100026", "name": "USPS COLLECTION BOX - BLUE BOX", "address": {"city": "RICHMOND", "state": "VA", "street": "5300 KLOCKNER DR", "postcode": "23231"}}},
{"geometry": {"type": "Point", "coordinates": [-77.3969353431, 37.514532028]}, "type": "Feature", "properties": {"collection_times": [{"days": "Mon-Sat", "time": "1:00pm"}, {"days": "Sun", "time": "Closed"}], "id": "2323100028", "name": "USPS COLLECTION BOX - BLUE BOX", "address": {"city": "RICHMOND", "state": "VA", "street": "1519 WILLIAMSBURG RD", "postcode": "23231"}}},
{"geometry": {"type": "Point", "coordinates": [-77.3622332418, 37.513696859]}, "type": "Feature", "properties": {"collection_times": [{"days": "Mon-Fri", "time": "5:00pm"}, {"days": "Sat", "time": "12:00pm"}, {"days": "Sun", "time": "Closed"}], "id": "2323100029", "name": "USPS COLLECTION BOX - PO LOBBY", "address": {"city": "RICHMOND", "state": "VA", "street": "5300 KLOCKNER DR", "postcode": "23231"}}},
{"geometry": {"type": "Point", "coordinates": [-77.4476334154, 37.5605302044]}, "type": "Feature", "properties": {"collection_times": [{"days": "Mon-Fri", "time": "5:30pm"}, {"days": "Sat", "time": "1:00pm"}, {"days": "Sun", "time": "Closed"}], "id": "2323200004", "name": "USPS COLLECTION BOX - BLUE BOX", "address": {"city": "RICHMOND", "state": "VA", "street": "1801 BROOK RD", "postcode": "23232"}}},
{"geometry": {"type": "Point", "coordinates": [-77.4476334154, 37.5605302044]}, "type": "Feature", "properties": {"collection_times": [{"days": "Mon-Fri", "time": "5:30pm"}, {"days": "Sat", "time": "1:00pm"}, {"days": "Sun", "time": "Closed"}], "id": "2323200005", "name": "USPS COLLECTION BOX - BLUE BOX", "address": {"city": "RICHMOND", "state": "VA", "street": "1801 BROOK RD", "postcode": "23232"}}},
{"geometry": {"type": "Point", "coordinates": [-77.4476334154, 37.5605302044]}, "type": "Feature", "properties": {"collection_times": [{"days": "Mon-Fri", "time": "5:00pm"}, {"days": "Sat", "time": "2:00pm"}, {"days": "Sun", "time": "Closed"}], "id": "2323200017", "name": "USPS COLLECTION BOX - PO LOBBY", "address": {"city": "RICHMOND", "state": "VA", "street": "1801 BROOK RD", "postcode": "23232"}}},
{"geometry": {"type": "Point", "coordinates": [-77.4476334154, 37.5605302044]}, "type": "Feature", "properties": {"collection_times": [{"days": "Mon-Fri", "time": "5:00pm"}, {"days": "Sat", "time": "2:00pm"}, {"days": "Sun", "time": "Closed"}], "id": "2323200018", "name": "USPS COLLECTION BOX - APC", "address": {"city": "RICHMOND", "state": "VA", "street": "1801 BROOK RD", "postcode": "23232"}}},
{"geometry": {"type": "Point", "coordinates": [-77.4588738915, 37.6333850982]}, "type": "Feature", "properties": {"collection_times": [{"days": "Mon-Fri", "time": "5:00pm"}, {"days": "Sat", "time": "2:00pm"}, {"days": "Sun", "time": "Closed"}], "id": "2323200019", "name": "USPS COLLECTION BOX - PO LOBBY", "address": {"city": "RICHMOND", "state": "VA", "street": "1801 BROOK RD", "postcode": "23232"}}},
{"geometry": {"type": "Point", "coordinates": [-77.4476368324, 37.5603859274]}, "type": "Feature", "properties": {"collection_times": [{"days": "Mon-Fri", "time": "5:00pm"}, {"days": "Sat", "time": "2:00pm"}, {"days": "Sun", "time": "Closed"}], "id": "2323200020", "name": "USPS COLLECTION BOX - EXPRESS", "address": {"city": "RICHMOND", "state": "VA", "street": "1801 BROOK RD", "postcode": "23232"}}},
{"geometry": {"type": "Point", "coordinates": [-77.6048285516, 37.5967358465]}, "type": "Feature", "properties": {"collection_times": [{"days": "Mon-Fri", "time": "5:00pm"}, {"days": "Sat", "time": "1:00pm"}, {"days": "Sun", "time": "Closed"}], "id": "2323300001", "name": "USPS COLLECTION BOX - BLUE BOX", "address": {"city": "RICHMOND", "state": "VA", "street": "10509 PATTERSON AVE", "postcode": "23233"}}},
{"geometry": {"type": "Point", "coordinates": [-77.6048285516, 37.5967358465]}, "type": "Feature", "properties": {"collection_times": [{"days": "Mon-Fri", "time": "5:00pm"}, {"days": "Sat", "time": "1:00pm"}, {"days": "Sun", "time": "Closed"}], "id": "2323300003", "name": "USPS COLLECTION BOX - BLUE BOX", "address": {"city": "RICHMOND", "state": "VA", "street": "10509 PATTERSON AVE", "postcode": "23233"}}},
{"geometry": {"type": "Point", "coordinates": [-77.5878806018, 37.6399552852]}, "type": "Feature", "properties": {"collection_times": [{"days": "Mon-Sat", "time": "1:00pm"}, {"days": "Sun", "time": "Closed"}], "id": "2323300006", "name": "USPS COLLECTION BOX - BLUE BOX", "address": {"city": "RICHMOND", "state": "VA", "street": "3405 COX RD", "postcode": "23233"}}},
{"geometry": {"type": "Point", "coordinates": [-77.627840651, 37.6440522407]}, "type": "Feature", "properties": {"collection_times": [{"days": "Mon-Sat", "time": "1:00pm"}, {"days": "Sun", "time": "Closed"}], "id": "2323300008", "name": "USPS COLLECTION BOX - BLUE BOX", "address": {"city": "RICHMOND", "state": "VA", "street": "3450 LAUDERDALE DR", "postcode": "23233"}}},
{"geometry": {"type": "Point", "coordinates": [-77.5908878067, 37.6053521983]}, "type": "Feature", "properties": {"collection_times": [{"days": "Mon-Sat", "time": "1:00pm"}, {"days": "Sun", "time": "Closed"}], "id": "2323300010", "name": "USPS COLLECTION BOX - BLUE BOX", "address": {"city": "RICHMOND", "state": "VA", "street": "1352 GASKINS RD", "postcode": "23233"}}},
{"geometry": {"type": "Point", "coordinates": [-77.5682171546, 37.6402474432]}, "type": "Feature", "properties": {"collection_times": [{"days": "Mon-Sat", "time": "1:00pm"}, {"days": "Sun", "time": "Closed"}], "id": "2323300011", "name": "USPS COLLECTION BOX - BLUE BOX", "address": {"city": "RICHMOND", "state": "VA", "street": "9878 MAYLAND DR", "postcode": "23233"}}},
{"geometry": {"type": "Point", "coordinates": [-77.6205542265, 37.5977354132]}, "type": "Feature", "properties": {"collection_times": [{"days": "Mon-Sat", "time": "1:00pm"}, {"days": "Sun", "time": "Closed"}], "id": "2323300013", "name": "USPS COLLECTION BOX - BLUE BOX", "address": {"city": "RICHMOND", "state": "VA", "street": "11250 PATTERSON AVE", "postcode": "23233"}}},
{"geometry": {"type": "Point", "coordinates": [-77.5673192887, 37.6400285958]}, "type": "Feature", "properties": {"collection_times": [{"days": "Mon-Sat", "time": "1:00pm"}, {"days": "Sun", "time": "Closed"}], "id": "2323300016", "name": "USPS COLLECTION BOX - BLUE BOX", "address": {"city": "RICHMOND", "state": "VA", "street": "9881 MAYLAND DR", "postcode": "23233"}}},
{"geometry": {"type": "Point", "coordinates": [-77.6048285516, 37.5967358465]}, "type": "Feature", "properties": {"collection_times": [{"days": "Mon-Fri", "time": "5:00pm"}, {"days": "Sat", "time": "1:00pm"}, {"days": "Sun", "time": "Closed"}], "id": "2323300020", "name": "USPS COLLECTION BOX - BLUE BOX", "address": {"city": "RICHMOND", "state": "VA", "street": "10509 PATTERSON AVE", "postcode": "23233"}}},
{"geometry": {"type": "Point", "coordinates": [-77.6048285516, 37.5967358465]}, "type": "Feature", "properties": {"collection_times": [{"days": "Mon-Fri", "time": "5:00pm"}, {"days": "Sat", "time": "1:00pm"}, {"days": "Sun", "time": "Closed"}], "id": "2323300021", "name": "USPS COLLECTION BOX - BLUE BOX", "address": {"city": "RICHMOND", "state": "VA", "street": "10509 PATTERSON AVE", "postcode": "23233"}}},
{"geometry": {"type": "Point", "coordinates": [-77.5727286068, 37.6452713241]}, "type": "Feature", "properties": {"collection_times": [{"days": "Mon-Sat", "time": "1:00pm"}, {"days": "Sun", "time": "Closed"}], "id": "2323300027", "name": "USPS COLLECTION BOX - BLUE BOX", "address": {"city": "RICHMOND", "state": "VA", "street": "3997 DEEP ROCK RD", "postcode": "23233"}}},
{"geometry": {"type": "Point", "coordinates": [-77.5968992334, 37.6139539125]}, "type": "Feature", "properties": {"collection_times": [{"days": "Mon-Sat", "time": "1:00pm"}, {"days": "Sun", "time": "Closed"}], "id": "2323300028", "name": "USPS COLLECTION BOX - BLUE BOX", "address": {"city": "RICHMOND", "state": "VA", "street": "1800 BILLINGSGATE CIR", "postcode": "23233"}}},
{"geometry": {"type": "Point", "coordinates": [-77.6065048163, 37.6223281831]}, "type": "Feature", "properties": {"collection_times": [{"days": "Mon-Sat", "time": "1:00pm"}, {"days": "Sun", "time": "Closed"}], "id": "2323300029", "name": "USPS COLLECTION BOX - BLUE BOX", "address": {"city": "RICHMOND", "state": "VA", "street": "10400 RIDGEFIELD PKWY", "postcode": "23233"}}},
{"geometry": {"type": "Point", "coordinates": [-77.5934775696, 37.6431827915]}, "type": "Feature", "properties": {"collection_times": [{"days": "Mon-Sat", "time": "1:00pm"}, {"days": "Sun", "time": "Closed"}], "id": "2323300030", "name": "USPS COLLECTION BOX - BLUE BOX", "address": {"city": "RICHMOND", "state": "VA", "street": "3900 ACADIA LN", "postcode": "23233"}}},
{"geometry": {"type": "Point", "coordinates": [-77.5756295754, 37.6453400815]}, "type": "Feature", "properties": {"collection_times": [{"days": "Mon-Fri", "time": "4:00pm"}, {"days": "Sat", "time": "1:00pm"}, {"days": "Sun", "time": "Closed"}], "id": "2323300033", "name": "USPS COLLECTION BOX - BLUE BOX", "address": {"city": "RICHMOND", "state": "VA", "street": "3957 WESTERRE PKWY", "postcode": "23233"}}},
{"geometry": {"type": "Point", "coordinates": [-77.5756295754, 37.6453400815]}, "type": "Feature", "properties": {"collection_times": [{"days": "Mon-Fri", "time": "4:00pm"}, {"days": "Sat", "time": "1:00pm"}, {"days": "Sun", "time": "Closed"}], "id": "2323300034", "name": "USPS COLLECTION BOX - BLUE BOX", "address": {"city": "RICHMOND", "state": "VA", "street": "3957 WESTERRE PKWY", "postcode": "23233"}}},
{"geometry": {"type": "Point", "coordinates": [-77.6048285516, 37.5967358465]}, "type": "Feature", "properties": {"collection_times": [{"days": "Mon-Fri", "time": "5:00pm"}, {"days": "Sat", "time": "1:00pm"}, {"days": "Sun", "time": "Closed"}], "id": "2323300039", "name": "USPS COLLECTION BOX - APC", "address": {"city": "RICHMOND", "state": "VA", "street": "10509 PATTERSON AVE", "postcode": "23233"}}},
{"geometry": {"type": "Point", "coordinates": [-77.6048285516, 37.5967358465]}, "type": "Feature", "properties": {"collection_times": [{"days": "Mon-Fri", "time": "5:00pm"}, {"days": "Sat", "time": "12:00pm"}, {"days": "Sun", "time": "Closed"}], "id": "2323300040", "name": "USPS COLLECTION BOX - PO LOBBY", "address": {"city": "RICHMOND", "state": "VA", "street": "10509 PATTERSON AVE", "postcode": "23233"}}},
{"geometry": {"type": "Point", "coordinates": [-77.4671576381, 37.4376679141]}, "type": "Feature", "properties": {"collection_times": [{"days": "Mon-Fri", "time": "5:00pm"}, {"days": "Sat", "time": "1:00pm"}, {"days": "Sun", "time": "Closed"}], "id": "2323400001", "name": "USPS COLLECTION BOX - BLUE BOX", "address": {"city": "N CHESTERFLD", "state": "VA", "street": "3930 MEADOWDALE BLVD", "postcode": "23234"}}},
{"geometry": {"type": "Point", "coordinates": [-77.4671576381, 37.4376679141]}, "type": "Feature", "properties": {"collection_times": [{"days": "Mon-Fri", "time": "5:00pm"}, {"days": "Sat", "time": "1:00pm"}, {"days": "Sun", "time": "Closed"}], "id": "2323400015", "name": "USPS COLLECTION BOX - BLUE BOX", "address": {"city": "N CHESTERFLD", "state": "VA", "street": "3930 MEADOWDALE BLVD", "postcode": "23234"}}},
{"geometry": {"type": "Point", "coordinates": [-77.4671439576, 37.4376586227]}, "type": "Feature", "properties": {"collection_times": [{"days": "Mon-Fri", "time": "5:00pm"}, {"days": "Sat", "time": "1:00pm"}, {"days": "Sun", "time": "Closed"}], "id": "2323400025", "name": "USPS COLLECTION BOX - PO LOBBY", "address": {"city": "N CHESTERFLD", "state": "VA", "street": "3930 MEADOWDALE BLVD", "postcode": "23234"}}},
{"geometry": {"type": "Point", "coordinates": [-77.4671439576, 37.4376586227]}, "type": "Feature", "properties": {"collection_times": [{"days": "Mon-Fri", "time": "5:00pm"}, {"days": "Sat", "time": "1:00pm"}, {"days": "Sun", "time": "Closed"}], "id": "2323400026", "name": "USPS COLLECTION BOX - PO LOBBY", "address": {"city": "N CHESTERFLD", "state": "VA", "street": "3930 MEADOWDALE BLVD", "postcode": "23234"}}},
{"geometry": {"type": "Point", "coordinates": [-77.5694164922, 37.5280419913]}, "type": "Feature", "properties": {"collection_times": [{"days": "Mon-Fri", "time": "4:30pm"}, {"days": "Sat", "time": "1:00pm"}, {"days": "Sun", "time": "Closed"}], "id": "2323500002", "name": "USPS COLLECTION BOX - BLUE BOX", "address": {"city": "N CHESTERFLD", "state": "VA", "street": "1915 ALLECINGIE PKWY", "postcode": "23235"}}},
{"geometry": {"type": "Point", "coordinates": [-77.5610138372, 37.53356762]}, "type": "Feature", "properties": {"collection_times": [{"days": "Mon-Fri", "time": "4:00pm"}, {"days": "Sat", "time": "1:00pm"}, {"days": "Sun", "time": "Closed"}], "id": "2323500004", "name": "USPS COLLECTION BOX - BLUE BOX", "address": {"city": "N CHESTERFLD", "state": "VA", "street": "2604 BUFORD RD", "postcode": "23235"}}},
{"geometry": {"type": "Point", "coordinates": [-77.6138536327, 37.5212233031]}, "type": "Feature", "properties": {"collection_times": [{"days": "Mon-Fri", "time": "4:30pm"}, {"days": "Sat", "time": "1:00pm"}, {"days": "Sun", "time": "Closed"}], "id": "2323500007", "name": "USPS COLLECTION BOX - BLUE BOX", "address": {"city": "N CHESTERFLD", "state": "VA", "street": "2011 HUGUENOT RD", "postcode": "23235"}}},
{"geometry": {"type": "Point", "coordinates": [-77.5664067252, 37.4967050643]}, "type": "Feature", "properties": {"collection_times": [{"days": "Mon-Fri", "time": "4:00pm"}, {"days": "Sat-Sun", "time": "Closed"}], "id": "2323500013", "name": "USPS COLLECTION BOX - BLUE BOX", "address": {"city": "N CHESTERFLD", "state": "VA", "street": "9111 MIDLOTHIAN TNPK", "postcode": "23235"}}},
{"geometry": {"type": "Point", "coordinates": [-77.5695875249, 37.4984444328]}, "type": "Feature", "properties": {"collection_times": [{"days": "Mon-Fri", "time": "5:00pm"}, {"days": "Sat-Sun", "time": "Closed"}], "id": "2323500015", "name": "USPS COLLECTION BOX - BLUE BOX", "address": {"city": "N CHESTERFLD", "state": "VA", "street": "9325 MIDLOTHIAN TNPK", "postcode": "23235"}}},
{"geometry": {"type": "Point", "coordinates": [-77.5694164922, 37.5280419913]}, "type": "Feature", "properties": {"collection_times": [{"days": "Mon-Fri", "time": "4:00pm"}, {"days": "Sat", "time": "1:00pm"}, {"days": "Sun", "time": "Closed"}], "id": "2323500023", "name": "USPS COLLECTION BOX - BLUE BOX", "address": {"city": "N CHESTERFLD", "state": "VA", "street": "8154 PROFESSIONAL", "postcode": "23235"}}},
{"geometry": {"type": "Point", "coordinates": [-77.5680231493, 37.5537412029]}, "type": "Feature", "properties": {"collection_times": [{"days": "Mon-Fri", "time": "5:00pm"}, {"days": "Sat", "time": "1:00pm"}, {"days": "Sun", "time": "Closed"}], "id": "2323500025", "name": "USPS COLLECTION BOX - BLUE BOX", "address": {"city": "N CHESTERFLD", "state": "VA", "street": "9030 STONY POINT PKWY", "postcode": "23235"}}},
{"geometry": {"type": "Point", "coordinates": [-77.5648812721, 37.540668688]}, "type": "Feature", "properties": {"collection_times": [{"days": "Mon-Fri", "time": "4:00pm"}, {"days": "Sat", "time": "1:00pm"}, {"days": "Sun", "time": "Closed"}], "id": "2323500026", "name": "USPS COLLECTION BOX - BLUE BOX", "address": {"city": "N CHESTERFLD", "state": "VA", "street": "3088 STONY POINT RD", "postcode": "23235"}}},
{"geometry": {"type": "Point", "coordinates": [-77.5491615184, 37.500610216]}, "type": "Feature", "properties": {"collection_times": [{"days": "Mon-Fri", "time": "4:00pm"}, {"days": "Sat-Sun", "time": "Closed"}], "id": "2323500028", "name": "USPS COLLECTION BOX - BLUE BOX", "address": {"city": "N CHESTERFLD", "state": "VA", "street": "601 TWINRIDGE LN", "postcode": "23235"}}},
{"geometry": {"type": "Point", "coordinates": [-77.59531372, 37.506988109]}, "type": "Feature", "properties": {"collection_times": [{"days": "Mon-Fri", "time": "1:00pm"}, {"days": "Sat-Sun", "time": "Closed"}], "id": "2323500031", "name": "USPS COLLECTION BOX - BLUE BOX", "address": {"city": "N CHESTERFLD", "state": "VA", "street": "10710 MIDLOTHIAN TPKE", "postcode": "23235"}}},
{"geometry": {"type": "Point", "coordinates": [-77.5669703158, 37.4979895299]}, "type": "Feature", "properties": {"collection_times": [{"days": "Mon-Fri", "time": "5:00pm"}, {"days": "Sat", "time": "1:00pm"}, {"days": "Sun", "time": "Closed"}], "id": "2323500033", "name": "USPS COLLECTION BOX - BLUE BOX", "address": {"city": "N CHESTERFLD", "state": "VA", "street": "101 N PINETTA DR", "postcode": "23235"}}},
{"geometry": {"type": "Point", "coordinates": [-77.5669703158, 37.4979895299]}, "type": "Feature", "properties": {"collection_times": [{"days": "Mon-Fri", "time": "5:00pm"}, {"days": "Sat", "time": "1:00pm"}, {"days": "Sun", "time": "Closed"}], "id": "2323500034", "name": "USPS COLLECTION BOX - BLUE BOX", "address": {"city": "N CHESTERFLD", "state": "VA", "street": "101 N PINETTA DR", "postcode": "23235"}}},
{"geometry": {"type": "Point", "coordinates": [-77.5669703158, 37.4979895299]}, "type": "Feature", "properties": {"collection_times": [{"days": "Mon-Fri", "time": "5:00pm"}, {"days": "Sat", "time": "1:00pm"}, {"days": "Sun", "time": "Closed"}], "id": "2323500035", "name": "USPS COLLECTION BOX - BLUE BOX", "address": {"city": "N CHESTERFLD", "state": "VA", "street": "101 N PINETTA DR", "postcode": "23235"}}},
{"geometry": {"type": "Point", "coordinates": [-77.5648812721, 37.540668688]}, "type": "Feature", "properties": {"collection_times": [{"days": "Mon-Fri", "time": "4:00pm"}, {"days": "Sat", "time": "1:00pm"}, {"days": "Sun", "time": "Closed"}], "id": "2323500036", "name": "USPS COLLECTION BOX - BLUE BOX", "address": {"city": "N CHESTERFLD", "state": "VA", "street": "3088 STONY POINT RD", "postcode": "23235"}}},
{"geometry": {"type": "Point", "coordinates": [-77.5648812721, 37.540668688]}, "type": "Feature", "properties": {"collection_times": [{"days": "Mon-Fri", "time": "4:00pm"}, {"days": "Sat", "time": "1:00pm"}, {"days": "Sun", "time": "Closed"}], "id": "2323500037", "name": "USPS COLLECTION BOX - BLUE BOX", "address": {"city": "N CHESTERFLD", "state": "VA", "street": "3088 STONY POINT RD", "postcode": "23235"}}},
{"geometry": {"type": "Point", "coordinates": [-77.5610138372, 37.53356762]}, "type": "Feature", "properties": {"collection_times": [{"days": "Mon-Fri", "time": "4:00pm"}, {"days": "Sat", "time": "1:00pm"}, {"days": "Sun", "time": "Closed"}], "id": "2323500038", "name": "USPS COLLECTION BOX - BLUE BOX", "address": {"city": "N CHESTERFLD", "state": "VA", "street": "2604 BUFORD RD", "postcode": "23235"}}},
{"geometry": {"type": "Point", "coordinates": [-77.567628041, 37.5390784266]}, "type": "Feature", "properties": {"collection_times": [{"days": "Mon-Fri", "time": "4:30pm"}, {"days": "Sat", "time": "1:00pm"}, {"days": "Sun", "time": "Closed"}], "id": "2323500055", "name": "USPS COLLECTION BOX - BLUE BOX", "address": {"city": "N CHESTERFLD", "state": "VA", "street": "9211 FOREST HILL AVE", "postcode": "23235"}}},
{"geometry": {"type": "Point", "coordinates": [-77.5680231493, 37.5537412029]}, "type": "Feature", "properties": {"collection_times": [{"days": "Mon-Fri", "time": "5:00pm"}, {"days": "Sat", "time": "1:00pm"}, {"days": "Sun", "time": "Closed"}], "id": "2323500057", "name": "USPS COLLECTION BOX - BLUE BOX", "address": {"city": "N CHESTERFLD", "state": "VA", "street": "9030 STONY POINT PKWY", "postcode": "23235"}}},
{"geometry": {"type": "Point", "coordinates": [-77.6066503084, 37.5079571421]}, "type": "Feature", "properties": {"collection_times": [{"days": "Mon-Fri", "time": "4:30pm"}, {"days": "Sat", "time": "1:00pm"}, {"days": "Sun", "time": "Closed"}], "id": "2323500061", "name": "USPS COLLECTION BOX - BLUE BOX", "address": {"city": "N CHESTERFLD", "state": "VA", "street": "1121 MALL DR", "postcode": "23235"}}},
{"geometry": {"type": "Point", "coordinates": [-77.6066503084, 37.5079571421]}, "type": "Feature", "properties": {"collection_times": [{"days": "Mon-Fri", "time": "4:30pm"}, {"days": "Sat", "time": "1:00pm"}, {"days": "Sun", "time": "Closed"}], "id": "2323500062", "name": "USPS COLLECTION BOX - BLUE BOX", "address": {"city": "N CHESTERFLD", "state": "VA", "street": "1121 MALL DR", "postcode": "23235"}}},
{"geometry": {"type": "Point", "coordinates": [-77.6066503084, 37.5079571421]}, "type": "Feature", "properties": {"collection_times": [{"days": "Mon-Fri", "time": "4:30pm"}, {"days": "Sat", "time": "1:00pm"}, {"days": "Sun", "time": "Closed"}], "id": "2323500063", "name": "USPS COLLECTION BOX - BLUE BOX", "address": {"city": "N CHESTERFLD", "state": "VA", "street": "1121 MALL DR", "postcode": "23235"}}},
{"geometry": {"type": "Point", "coordinates": [-77.5669703158, 37.4979895299]}, "type": "Feature", "properties": {"collection_times": [{"days": "Mon-Fri", "time": "5:00pm"}, {"days": "Sat", "time": "1:00pm"}, {"days": "Sun", "time": "Closed"}], "id": "2323500065", "name": "USPS COLLECTION BOX - APC", "address": {"city": "N CHESTERFLD", "state": "VA", "street": "101 N PINETTA DR", "postcode": "23235"}}},
{"geometry": {"type": "Point", "coordinates": [-77.5669703158, 37.4979895299]}, "type": "Feature", "properties": {"collection_times": [{"days": "Mon-Fri", "time": "5:00pm"}, {"days": "Sat", "time": "12:00pm"}, {"days": "Sun", "time": "Closed"}], "id": "2323500066", "name": "USPS COLLECTION BOX - PO LOBBY", "address": {"city": "N CHESTERFLD", "state": "VA", "street": "101 N PINETTA DR", "postcode": "23235"}}},
{"geometry": {"type": "Point", "coordinates": [-77.5688346591, 37.4936788274]}, "type": "Feature", "properties": {"collection_times": [{"days": "Mon-Fri", "time": "5:00pm"}, {"days": "Sat-Sun", "time": "Closed"}], "id": "2323600000", "name": "USPS COLLECTION BOX - BLUE BOX", "address": {"city": "N CHESTERFLD", "state": "VA", "street": "9200 ARBORETUM PKWY", "postcode": "23236"}}},
{"geometry": {"type": "Point", "coordinates": [-77.5688346591, 37.4936788274]}, "type": "Feature", "properties": {"collection_times": [{"days": "Mon-Fri", "time": "5:00pm"}, {"days": "Sat-Sun", "time": "Closed"}], "id": "2323600001", "name": "USPS COLLECTION BOX - BLUE BOX", "address": {"city": "N CHESTERFLD", "state": "VA", "street": "9200 ARBORETUM PKWY", "postcode": "23236"}}},
{"geometry": {"type": "Point", "coordinates": [-77.6123781957, 37.5022860368]}, "type": "Feature", "properties": {"collection_times": [{"days": "Mon-Fri", "time": "4:30pm"}, {"days": "Sat-Sun", "time": "Closed"}], "id": "2323600002", "name": "USPS COLLECTION BOX - BLUE BOX", "address": {"city": "N CHESTERFLD", "state": "VA", "street": "11605 BUSY ST", "postcode": "23236"}}},
{"geometry": {"type": "Point", "coordinates": [-77.5786053044, 37.4442733127]}, "type": "Feature", "properties": {"collection_times": [{"days": "Mon-Sat", "time": "1:00pm"}, {"days": "Sun", "time": "Closed"}], "id": "2323600003", "name": "USPS COLLECTION BOX - BLUE BOX", "address": {"city": "N CHESTERFLD", "state": "VA", "street": "9923 HULL STREET RD", "postcode": "23236"}}},
{"geometry": {"type": "Point", "coordinates": [-77.5804442184, 37.5046850776]}, "type": "Feature", "properties": {"collection_times": [{"days": "Mon-Fri", "time": "5:00pm"}, {"days": "Sat-Sun", "time": "Closed"}], "id": "2323600004", "name": "USPS COLLECTION BOX - BLUE BOX", "address": {"city": "N CHESTERFLD", "state": "VA", "street": "901 MOOREFIELD PARK DR", "postcode": "23236"}}},
{"geometry": {"type": "Point", "coordinates": [-77.5804442184, 37.5046850776]}, "type": "Feature", "properties": {"collection_times": [{"days": "Mon-Fri", "time": "5:00pm"}, {"days": "Sat-Sun", "time": "Closed"}], "id": "2323600006", "name": "USPS COLLECTION BOX - BLUE BOX", "address": {"city": "N CHESTERFLD", "state": "VA", "street": "901 MOOREFIELD PARK DR", "postcode": "23236"}}},
{"geometry": {"type": "Point", "coordinates": [-77.5804442184, 37.5046850776]}, "type": "Feature", "properties": {"collection_times": [{"days": "Mon-Fri", "time": "5:00pm"}, {"days": "Sat-Sun", "time": "Closed"}], "id": "2323600007", "name": "USPS COLLECTION BOX - BLUE BOX", "address": {"city": "N CHESTERFLD", "state": "VA", "street": "901 MOOREFIELD PARK DR", "postcode": "23236"}}},
{"geometry": {"type": "Point", "coordinates": [-77.5839979497, 37.4767319521]}, "type": "Feature", "properties": {"collection_times": [{"days": "Mon-Fri", "time": "5:00pm"}, {"days": "Sat-Sun", "time": "Closed"}], "id": "2323600008", "name": "USPS COLLECTION BOX - EXPRESS", "address": {"city": "N CHESTERFLD", "state": "VA", "street": "10501 TRADE CT", "postcode": "23236"}}},
{"geometry": {"type": "Point", "coordinates": [-77.5895352581, 37.5002430667]}, "type": "Feature", "properties": {"collection_times": [{"days": "Mon-Fri", "time": "5:00pm"}, {"days": "Sat-Sun", "time": "Closed"}], "id": "2323600009", "name": "USPS COLLECTION BOX - BLUE BOX", "address": {"city": "N CHESTERFLD", "state": "VA", "street": "10501 TRADE CT", "postcode": "23236"}}},
{"geometry": {"type": "Point", "coordinates": [-77.5895352581, 37.5002430667]}, "type": "Feature", "properties": {"collection_times": [{"days": "Mon-Fri", "time": "5:00pm"}, {"days": "Sat-Sun", "time": "Closed"}], "id": "2323600010", "name": "USPS COLLECTION BOX - BLUE BOX", "address": {"city": "N CHESTERFLD", "state": "VA", "street": "10501 TRADE CT", "postcode": "23236"}}},
{"geometry": {"type": "Point", "coordinates": [-77.5895352581, 37.5002430667]}, "type": "Feature", "properties": {"collection_times": [{"days": "Mon-Fri", "time": "5:00pm"}, {"days": "Sat-Sun", "time": "Closed"}], "id": "2323600011", "name": "USPS COLLECTION BOX - BLUE BOX", "address": {"city": "N CHESTERFLD", "state": "VA", "street": "10501 TRADE CT", "postcode": "23236"}}},
{"geometry": {"type": "Point", "coordinates": [-77.5895352581, 37.5002430667]}, "type": "Feature", "properties": {"collection_times": [{"days": "Mon-Fri", "time": "5:00pm"}, {"days": "Sat-Sun", "time": "Closed"}], "id": "2323600012", "name": "USPS COLLECTION BOX - BLUE BOX", "address": {"city": "N CHESTERFLD", "state": "VA", "street": "10501 TRADE CT", "postcode": "23236"}}},
{"geometry": {"type": "Point", "coordinates": [-77.5564504528, 37.4941806126]}, "type": "Feature", "properties": {"collection_times": [{"days": "Mon-Fri", "time": "4:00pm"}, {"days": "Sat-Sun", "time": "Closed"}], "id": "2323600013", "name": "USPS COLLECTION BOX - BLUE BOX", "address": {"city": "N CHESTERFLD", "state": "VA", "street": "155 WADSWORTH DR", "postcode": "23236"}}},
{"geometry": {"type": "Point", "coordinates": [-77.5839979495, 37.4767258465]}, "type": "Feature", "properties": {"collection_times": [{"days": "Mon-Fri", "time": "5:00pm"}, {"days": "Sat", "time": "1:00pm"}, {"days": "Sun", "time": "Closed"}], "id": "2323600014", "name": "USPS COLLECTION BOX - BLUE BOX", "address": {"city": "N CHESTERFLD", "state": "VA", "street": "7501 LADY BLAIR LN", "postcode": "23236"}}},
{"geometry": {"type": "Point", "coordinates": [-77.5839979495, 37.4767258465]}, "type": "Feature", "properties": {"collection_times": [{"days": "Mon-Fri", "time": "5:00pm"}, {"days": "Sat", "time": "1:00pm"}, {"days": "Sun", "time": "Closed"}], "id": "2323600015", "name": "USPS COLLECTION BOX - BLUE BOX", "address": {"city": "N CHESTERFLD", "state": "VA", "street": "7501 LADY BLAIR LN", "postcode": "23236"}}},
{"geometry": {"type": "Point", "coordinates": [-77.5564504528, 37.4941806126]}, "type": "Feature", "properties": {"collection_times": [{"days": "Mon-Fri", "time": "4:00pm"}, {"days": "Sat-Sun", "time": "Closed"}], "id": "2323600016", "name": "USPS COLLECTION BOX - BLUE BOX", "address": {"city": "N CHESTERFLD", "state": "VA", "street": "155 WADSWORTH DR", "postcode": "23236"}}},
{"geometry": {"type": "Point", "coordinates": [-77.5362476214, 37.4684189785]}, "type": "Feature", "properties": {"collection_times": [{"days": "Mon-Fri", "time": "5:00pm"}, {"days": "Sat", "time": "1:00pm"}, {"days": "Sun", "time": "Closed"}], "id": "2323600017", "name": "USPS COLLECTION BOX - PO LOBBY", "address": {"city": "N CHESTERFLD", "state": "VA", "street": "7501 LADY BLAIR LN", "postcode": "23236"}}},
{"geometry": {"type": "Point", "coordinates": [-77.5362476214, 37.4684189785]}, "type": "Feature", "properties": {"collection_times": [{"days": "Mon-Fri", "time": "5:00pm"}, {"days": "Sat", "time": "1:00pm"}, {"days": "Sun", "time": "Closed"}], "id": "2323600019", "name": "USPS COLLECTION BOX - PO LOBBY", "address": {"city": "N CHESTERFLD", "state": "VA", "street": "7501 LADY BLAIR LN", "postcode": "23236"}}},
{"geometry": {"type": "Point", "coordinates": [-77.5166550546, 37.3979279206]}, "type": "Feature", "properties": {"collection_times": [{"days": "Mon-Fri", "time": "5:00pm"}, {"days": "Sat-Sun", "time": "Closed"}], "id": "2323700001", "name": "USPS COLLECTION BOX - BLUE BOX", "address": {"city": "RICHMOND", "state": "VA", "street": "7321 WHITEPINE RD", "postcode": "23237"}}},
{"geometry": {"type": "Point", "coordinates": [-77.4408481276, 37.5436920253]}, "type": "Feature", "properties": {"collection_times": [{"days": "Mon-Fri", "time": "5:00pm"}, {"days": "Sat-Sun", "time": "Closed"}], "id": "2324100002", "name": "USPS COLLECTION BOX - BLUE BOX", "address": {"city": "RICHMOND", "state": "VA", "street": "205 N 2ND ST", "postcode": "23241"}}},
{"geometry": {"type": "Point", "coordinates": [-77.3353911702, 37.5156366368]}, "type": "Feature", "properties": {"collection_times": [{"days": "Mon-Sat", "time": "1:00pm"}, {"days": "Sun", "time": "Closed"}], "id": "2325000004", "name": "USPS COLLECTION BOX - BLUE BOX", "address": {"city": "RICHMOND", "state": "VA", "street": "5301 HUNTSMAN RD", "postcode": "23250"}}},
{"geometry": {"type": "Point", "coordinates": [-77.3333962511, 37.5083735437]}, "type": "Feature", "properties": {"collection_times": [{"days": "Mon-Sat", "time": "1:00pm"}, {"days": "Sun", "time": "Closed"}], "id": "2325000007", "name": "USPS COLLECTION BOX - BLUE BOX", "address": {"city": "RICHMOND", "state": "VA", "street": "1 RICHARD E BYRD TERMINAL DR", "postcode": "23250"}}},
{"geometry": {"type": "Point", "coordinates": [-77.5484807288, 37.6357561024]}, "type": "Feature", "properties": {"collection_times": [{"days": "Mon-Sat", "time": "1:00pm"}, {"days": "Sun", "time": "Closed"}], "id": "2329400004", "name": "USPS COLLECTION BOX - BLUE BOX", "address": {"city": "RICHMOND", "state": "VA", "street": "9051 W BROAD ST", "postcode": "23294"}}},
{"geometry": {"type": "Point", "coordinates": [-77.5314425092, 37.6234304985]}, "type": "Feature", "properties": {"collection_times": [{"days": "Mon-Fri", "time": "4:00pm"}, {"days": "Sat", "time": "1:00pm"}, {"days": "Sun", "time": "Closed"}], "id": "2329400010", "name": "USPS COLLECTION BOX - BLUE BOX", "address": {"city": "RICHMOND", "state": "VA", "street": "2720 ENTERPRISE PKWY", "postcode": "23294"}}},
{"geometry": {"type": "Point", "coordinates": [-77.5511122658, 37.6264844029]}, "type": "Feature", "properties": {"collection_times": [{"days": "Mon-Fri", "time": "4:30pm"}, {"days": "Sat-Sun", "time": "Closed"}], "id": "2329400018", "name": "USPS COLLECTION BOX - BLUE BOX", "address": {"city": "RICHMOND", "state": "VA", "street": "8503 MAYLAND DR", "postcode": "23294"}}},
{"geometry": {"type": "Point", "coordinates": [-77.5511122658, 37.6264844029]}, "type": "Feature", "properties": {"collection_times": [{"days": "Mon-Fri", "time": "4:30pm"}, {"days": "Sat-Sun", "time": "Closed"}], "id": "2329400020", "name": "USPS COLLECTION BOX - BLUE BOX", "address": {"city": "RICHMOND", "state": "VA", "street": "8503 MAYLAND DR", "postcode": "23294"}}},
{"geometry": {"type": "Point", "coordinates": [-77.5327728806, 37.6273338911]}, "type": "Feature", "properties": {"collection_times": [{"days": "Mon-Sat", "time": "1:00pm"}, {"days": "Sun", "time": "Closed"}], "id": "2329400022", "name": "USPS COLLECTION BOX - BLUE BOX", "address": {"city": "RICHMOND", "state": "VA", "street": "8059 W BROAD ST", "postcode": "23294"}}},
{"geometry": {"type": "Point", "coordinates": [-77.5263297606, 37.6302928435]}, "type": "Feature", "properties": {"collection_times": [{"days": "Mon-Sat", "time": "1:00pm"}, {"days": "Sun", "time": "Closed"}], "id": "2329400023", "name": "USPS COLLECTION BOX - BLUE BOX", "address": {"city": "RICHMOND", "state": "VA", "street": "7702 E PARHAM RD", "postcode": "23294"}}},
{"geometry": {"type": "Point", "coordinates": [-77.5314425092, 37.6234304985]}, "type": "Feature", "properties": {"collection_times": [{"days": "Mon-Fri", "time": "4:00pm"}, {"days": "Sat", "time": "1:00pm"}, {"days": "Sun", "time": "Closed"}], "id": "2329400025", "name": "USPS COLLECTION BOX - BLUE BOX", "address": {"city": "RICHMOND", "state": "VA", "street": "2720 ENTERPRISE PKWY", "postcode": "23294"}}},
{"geometry": {"type": "Point", "coordinates": [-77.527125892, 37.6107385318]}, "type": "Feature", "properties": {"collection_times": [{"days": "Mon-Fri", "time": "4:30pm"}, {"days": "Sat-Sun", "time": "Closed"}], "id": "2329400028", "name": "USPS COLLECTION BOX - BLUE BOX", "address": {"city": "RICHMOND", "state": "VA", "street": "2700 EMERYWOOD PKWY", "postcode": "23294"}}},
{"geometry": {"type": "Point", "coordinates": [-77.527125892, 37.6107385318]}, "type": "Feature", "properties": {"collection_times": [{"days": "Mon-Fri", "time": "4:30pm"}, {"days": "Sat-Sun", "time": "Closed"}], "id": "2329400029", "name": "USPS COLLECTION BOX - BLUE BOX", "address": {"city": "RICHMOND", "state": "VA", "street": "2700 EMERYWOOD PKWY", "postcode": "23294"}}},
{"geometry": {"type": "Point", "coordinates": [-77.5314732662, 37.6293926117]}, "type": "Feature", "properties": {"collection_times": [{"days": "Mon-Sat", "time": "1:00pm"}, {"days": "Sun", "time": "Closed"}], "id": "2329400030", "name": "USPS COLLECTION BOX - BLUE BOX", "address": {"city": "RICHMOND", "state": "VA", "street": "7814 CAROUSEL LN", "postcode": "23294"}}},
{"geometry": {"type": "Point", "coordinates": [-77.5477520867, 37.6357501377]}, "type": "Feature", "properties": {"collection_times": [{"days": "Mon-Sat", "time": "1:00pm"}, {"days": "Sun", "time": "Closed"}], "id": "2329400033", "name": "USPS COLLECTION BOX - BLUE BOX", "address": {"city": "RICHMOND", "state": "VA", "street": "9030 W BROAD ST", "postcode": "23294"}}},
{"geometry": {"type": "Point", "coordinates": [-77.5486640258, 37.6268942024]}, "type": "Feature", "properties": {"collection_times": [{"days": "Mon-Sat", "time": "1:00pm"}, {"days": "Sun", "time": "Closed"}], "id": "2329400036", "name": "USPS COLLECTION BOX - BLUE BOX", "address": {"city": "RICHMOND", "state": "VA", "street": "2807 N PARHAM RD", "postcode": "23294"}}},
{"geometry": {"type": "Point", "coordinates": [-77.553818178, 37.6328480349]}, "type": "Feature", "properties": {"collection_times": [{"days": "Mon-Sat", "time": "1:00pm"}, {"days": "Sun", "time": "Closed"}], "id": "2329400038", "name": "USPS COLLECTION BOX - BLUE BOX", "address": {"city": "RICHMOND", "state": "VA", "street": "2344 HICKORY CREEK DR", "postcode": "23294"}}}
]}
