{"type": "FeatureCollection", "features": [
{"geometry": {"type": "Point", "coordinates": [-75.667505231, 37.720025032]}, "type": "Feature", "properties": {"collection_times": [{"days": "Mon-Fri", "time": "5:00pm"}, {"days": "Sat", "time": "12:00pm"}, {"days": "Sun", "time": "Closed"}], "id": "2330100001", "name": "USPS COLLECTION BOX - BLUE BOX", "address": {"city": "ACCOMAC", "state": "VA", "street": "23380 FRONT ST", "postcode": "23301"}}},
{"geometry": {"type": "Point", "coordinates": [-75.667505231, 37.720025032]}, "type": "Feature", "properties": {"collection_times": [{"days": "Mon-Fri", "time": "5:00pm"}, {"days": "Sat", "time": "12:00pm"}, {"days": "Sun", "time": "Closed"}], "id": "2330100002", "name": "USPS COLLECTION BOX - PO LOBBY", "address": {"city": "ACCOMAC", "state": "VA", "street": "23380 FRONT ST", "postcode": "23301"}}},
{"geometry": {"type": "Point", "coordinates": [-75.5282045012, 37.8562106512]}, "type": "Feature", "properties": {"collection_times": [{"days": "Mon-Sat", "time": "11:45am"}, {"days": "Sun", "time": "Closed"}], "id": "2330200001", "name": "USPS COLLECTION BOX - BLUE BOX", "address": {"city": "ASSAWOMAN", "state": "VA", "street": "11360 ATLANTIC RD", "postcode": "23302"}}},
{"geometry": {"type": "Point", "coordinates": [-75.5282045012, 37.8562106512]}, "type": "Feature", "properties": {"collection_times": [{"days": "Mon-Sat", "time": "11:45am"}, {"days": "Sun", "time": "Closed"}], "id": "2330200002", "name": "USPS COLLECTION BOX - PO LOBBY", "address": {"city": "ASSAWOMAN", "state": "VA", "street": "11360 ATLANTIC RD", "postcode": "23302"}}},
{"geometry": {"type": "Point", "coordinates": [-75.5218791663, 37.9033139367]}, "type": "Feature", "properties": {"collection_times": [{"days": "Mon-Fri", "time": "4:15pm"}, {"days": "Sat", "time": "11:30am"}, {"days": "Sun", "time": "Closed"}], "id": "2330300001", "name": "USPS COLLECTION BOX - BLUE BOX", "address": {"city": "ATLANTIC", "state": "VA", "street": "9561 ATLANTIC RD", "postcode": "23303"}}},
{"geometry": {"type": "Point", "coordinates": [-75.5218791663, 37.9033139367]}, "type": "Feature", "properties": {"collection_times": [{"days": "Mon-Fri", "time": "4:30pm"}, {"days": "Sat", "time": "11:45am"}, {"days": "Sun", "time": "Closed"}], "id": "2330300002", "name": "USPS COLLECTION BOX - PO LOBBY", "address": {"city": "ATLANTIC", "state": "VA", "street": "9561 ATLANTIC RD", "postcode": "23303"}}},
{"geometry": {"type": "Point", "coordinates": [-75.5218791663, 37.9033139367]}, "type": "Feature", "properties": {"collection_times": [{"days": "Mon-Fri", "time": "4:30pm"}, {"days": "Sat", "time": "11:45am"}, {"days": "Sun", "time": "Closed"}], "id": "2330300003", "name": "USPS COLLECTION BOX - PO LOBBY", "address": {"city": "ATLANTIC", "state": "VA", "street": "9561 ATLANTIC RD", "postcode": "23303"}}},
{"geometry": {"type": "Point", "coordinates": [-76.5757720235, 36.9953200717]}, "type": "Feature", "properties": {"collection_times": [{"days": "Mon-Fri", "time": "3:45pm"}, {"days": "Sat", "time": "11:45am"}, {"days": "Sun", "time": "Closed"}], "id": "2330400001", "name": "USPS COLLECTION BOX - BLUE BOX", "address": {"city": "BATTERY PARK", "state": "VA", "street": "20512 TODD AVE", "postcode": "23304"}}},
{"geometry": {"type": "Point", "coordinates": [-76.5757720235, 36.9953200717]}, "type": "Feature", "properties": {"collection_times": [{"days": "Mon-Fri", "time": "3:45pm"}, {"days": "Sat", "time": "11:45am"}, {"days": "Sun", "time": "Closed"}], "id": "2330400002", "name": "USPS COLLECTION BOX - PO LOBBY", "address": {"city": "BATTERY PARK", "state": "VA", "street": "20512 TODD AVE", "postcode": "23304"}}},
{"geometry": {"type": "Point", "coordinates": [-75.8212712639, 37.5527020514]}, "type": "Feature", "properties": {"collection_times": [{"days": "Mon-Fri", "time": "4:30pm"}, {"days": "Sat", "time": "12:00pm"}, {"days": "Sun", "time": "Closed"}], "id": "2330600001", "name": "USPS COLLECTION BOX - BLUE BOX", "address": {"city": "BELLE HAVEN", "state": "VA", "street": "35561 BELLE HAVEN RD", "postcode": "23306"}}},
{"geometry": {"type": "Point", "coordinates": [-75.8212712639, 37.5527020514]}, "type": "Feature", "properties": {"collection_times": [{"days": "Mon-Fri", "time": "4:30pm"}, {"days": "Sat", "time": "12:00pm"}, {"days": "Sun", "time": "Closed"}], "id": "2330600002", "name": "USPS COLLECTION BOX - PO LOBBY", "address": {"city": "BELLE HAVEN", "state": "VA", "street": "35561 BELLE HAVEN RD", "postcode": "23306"}}},
{"geometry": {"type": "Point", "coordinates": [-75.6192416853, 37.8287037389]}, "type": "Feature", "properties": {"collection_times": [{"days": "Mon-Fri", "time": "4:30pm"}, {"days": "Sat", "time": "11:30am"}, {"days": "Sun", "time": "Closed"}], "id": "2330800001", "name": "USPS COLLECTION BOX - BLUE BOX", "address": {"city": "BLOXOM", "state": "VA", "street": "26099 SHOREMAIN DR", "postcode": "23308"}}},
{"geometry": {"type": "Point", "coordinates": [-75.6192416853, 37.8287037389]}, "type": "Feature", "properties": {"collection_times": [{"days": "Mon-Fri", "time": "4:30pm"}, {"days": "Sat", "time": "11:30am"}, {"days": "Sun", "time": "Closed"}], "id": "2330800002", "name": "USPS COLLECTION BOX - PO LOBBY", "address": {"city": "BLOXOM", "state": "VA", "street": "26099 SHOREMAIN DR", "postcode": "23308"}}},
{"geometry": {"type": "Point", "coordinates": [-76.0183459256, 37.2680188214]}, "type": "Feature", "properties": {"collection_times": [{"days": "Mon-Fri", "time": "5:00pm"}, {"days": "Sat", "time": "2:00pm"}, {"days": "Sun", "time": "Closed"}], "id": "2331000001", "name": "USPS COLLECTION BOX - BLUE BOX", "address": {"city": "CAPE CHARLES", "state": "VA", "street": "299 RANDOLPH AVE", "postcode": "23310"}}},
{"geometry": {"type": "Point", "coordinates": [-76.0151367071, 37.2691232749]}, "type": "Feature", "properties": {"collection_times": [{"days": "Mon-Sat", "time": "9:30am"}, {"days": "Sun", "time": "Closed"}], "id": "2331000002", "name": "USPS COLLECTION BOX - BLUE BOX", "address": {"city": "CAPE CHARLES", "state": "VA", "street": "500 TAZEWELL AVE", "postcode": "23310"}}},
{"geometry": {"type": "Point", "coordinates": [-76.0118530882, 37.2702565674]}, "type": "Feature", "properties": {"collection_times": [{"days": "Mon-Sat", "time": "10:00am"}, {"days": "Sun", "time": "Closed"}], "id": "2331000003", "name": "USPS COLLECTION BOX - BLUE BOX", "address": {"city": "CAPE CHARLES", "state": "VA", "street": "654 MONROE AVE", "postcode": "23310"}}},
{"geometry": {"type": "Point", "coordinates": [-76.0129583172, 37.269962507]}, "type": "Feature", "properties": {"collection_times": [{"days": "Mon-Sat", "time": "10:30am"}, {"days": "Sun", "time": "Closed"}], "id": "2331000004", "name": "USPS COLLECTION BOX - BLUE BOX", "address": {"city": "CAPE CHARLES", "state": "VA", "street": "603 MONROE AVE", "postcode": "23310"}}},
{"geometry": {"type": "Point", "coordinates": [-76.0207735015, 37.2701388002]}, "type": "Feature", "properties": {"collection_times": [{"days": "Mon-Sat", "time": "9:30am"}, {"days": "Sun", "time": "Closed"}], "id": "2331000005", "name": "USPS COLLECTION BOX - BLUE BOX", "address": {"city": "CAPE CHARLES", "state": "VA", "street": "100 MONROE AVE", "postcode": "23310"}}},
{"geometry": {"type": "Point", "coordinates": [-76.0198330738, 37.2670186683]}, "type": "Feature", "properties": {"collection_times": [{"days": "Mon-Sat", "time": "9:00am"}, {"days": "Sun", "time": "Closed"}], "id": "2331000007", "name": "USPS COLLECTION BOX - BLUE BOX", "address": {"city": "CAPE CHARLES", "state": "VA", "street": "201 MASON AVE", "postcode": "23310"}}},
{"geometry": {"type": "Point", "coordinates": [-76.0183459256, 37.2680188214]}, "type": "Feature", "properties": {"collection_times": [{"days": "Mon-Fri", "time": "5:00pm"}, {"days": "Sat", "time": "2:00pm"}, {"days": "Sun", "time": "Closed"}], "id": "2331000008", "name": "USPS COLLECTION BOX - PO LOBBY", "address": {"city": "CAPE CHARLES", "state": "VA", "street": "299 RANDOLPH AVE", "postcode": "23310"}}},
{"geometry": {"type": "Point", "coordinates": [-75.9698383387, 37.2167076207]}, "type": "Feature", "properties": {"collection_times": [{"days": "Mon-Sat", "time": "9:30am"}, {"days": "Sun", "time": "Closed"}], "id": "2331000009", "name": "USPS COLLECTION BOX - BLUE BOX", "address": {"city": "CAPE CHARLES", "state": "VA", "street": "26507 LANKFORD HWY", "postcode": "23310"}}},
{"geometry": {"type": "Point", "coordinates": [-75.9598392389, 37.2050196177]}, "type": "Feature", "properties": {"collection_times": [{"days": "Mon-Fri", "time": "4:15pm"}, {"days": "Sat", "time": "11:45am"}, {"days": "Sun", "time": "Closed"}], "id": "2331300001", "name": "USPS COLLECTION BOX - BLUE BOX", "address": {"city": "CAPEVILLE", "state": "VA", "street": "4511 CAPEVILLE RD", "postcode": "23313"}}},
{"geometry": {"type": "Point", "coordinates": [-75.9598392389, 37.2050196177]}, "type": "Feature", "properties": {"collection_times": [{"days": "Mon-Fri", "time": "4:15pm"}, {"days": "Sat", "time": "11:45am"}, {"days": "Sun", "time": "Closed"}], "id": "2331300002", "name": "USPS COLLECTION BOX - PO LOBBY", "address": {"city": "CAPEVILLE", "state": "VA", "street": "4511 CAPEVILLE RD", "postcode": "23313"}}},
{"geometry": {"type": "Point", "coordinates": [-76.5281989082, 36.9338534317]}, "type": "Feature", "properties": {"collection_times": [{"days": "Mon-Fri", "time": "5:00pm"}, {"days": "Sat", "time": "2:00pm"}, {"days": "Sun", "time": "Closed"}], "id": "2331400003", "name": "USPS COLLECTION BOX - BLUE BOX", "address": {"city": "CARROLLTON", "state": "VA", "street": "15108 CARROLLTON BLVD", "postcode": "23314"}}},
{"geometry": {"type": "Point", "coordinates": [-76.5279561636, 36.9337902641]}, "type": "Feature", "properties": {"collection_times": [{"days": "Mon-Fri", "time": "5:00pm"}, {"days": "Sat", "time": "2:00pm"}, {"days": "Sun", "time": "Closed"}], "id": "2331400004", "name": "USPS COLLECTION BOX - PO LOBBY", "address": {"city": "CARROLLTON", "state": "VA", "street": "15108 CARROLLTON BLVD", "postcode": "23314"}}},
{"geometry": {"type": "Point", "coordinates": [-76.8331311856, 36.713286713]}, "type": "Feature", "properties": {"collection_times": [{"days": "Mon-Fri", "time": "4:30pm"}, {"days": "Sat", "time": "11:30am"}, {"days": "Sun", "time": "Closed"}], "id": "2331500001", "name": "USPS COLLECTION BOX - BLUE BOX", "address": {"city": "CARRSVILLE", "state": "VA", "street": "5354 CARRSVILLE HWY", "postcode": "23315"}}},
{"geometry": {"type": "Point", "coordinates": [-76.8331311856, 36.713286713]}, "type": "Feature", "properties": {"collection_times": [{"days": "Mon-Fri", "time": "4:30pm"}, {"days": "Sat", "time": "11:30am"}, {"days": "Sun", "time": "Closed"}], "id": "2331500002", "name": "USPS COLLECTION BOX - PO LOBBY", "address": {"city": "CARRSVILLE", "state": "VA", "street": "5354 CARRSVILLE HWY", "postcode": "23315"}}},
{"geometry": {"type": "Point", "coordinates": [-76.8331311856, 36.713286713]}, "type": "Feature", "properties": {"collection_times": [{"days": "Mon-Fri", "time": "4:30pm"}, {"days": "Sat", "time": "11:30am"}, {"days": "Sun", "time": "Closed"}], "id": "2331500003", "name": "USPS COLLECTION BOX - PO LOBBY", "address": {"city": "CARRSVILLE", "state": "VA", "street": "5354 CARRSVILLE HWY", "postcode": "23315"}}},
{"geometry": {"type": "Point", "coordinates": [-75.9717070241, 37.2899005101]}, "type": "Feature", "properties": {"collection_times": [{"days": "Mon-Fri", "time": "4:30pm"}, {"days": "Sat", "time": "12:00pm"}, {"days": "Sun", "time": "Closed"}], "id": "2331600001", "name": "USPS COLLECTION BOX - PO LOBBY", "address": {"city": "CHERITON", "state": "VA", "street": "21197 N BAYSIDE RD", "postcode": "23316"}}},
{"geometry": {"type": "Point", "coordinates": [-75.9717070241, 37.2899005101]}, "type": "Feature", "properties": {"collection_times": [{"days": "Mon-Fri", "time": "4:30pm"}, {"days": "Sat", "time": "12:00pm"}, {"days": "Sun", "time": "Closed"}], "id": "2331600002", "name": "USPS COLLECTION BOX - BLUE BOX", "address": {"city": "CHERITON", "state": "VA", "street": "21197 N BAYSIDE RD", "postcode": "23316"}}},
{"geometry": {"type": "Point", "coordinates": [-76.224069384, 36.7772646827]}, "type": "Feature", "properties": {"collection_times": [{"days": "Mon-Fri", "time": "5:00pm"}, {"days": "Sat", "time": "1:00pm"}, {"days": "Sun", "time": "Closed"}], "id": "2332000009", "name": "USPS COLLECTION BOX - BLUE BOX", "address": {"city": "CHESAPEAKE", "state": "VA", "street": "1025 EDEN WAY N", "postcode": "23320"}}},
{"geometry": {"type": "Point", "coordinates": [-76.2686799495, 36.777572252]}, "type": "Feature", "properties": {"collection_times": [{"days": "Mon-Fri", "time": "12:00pm"}, {"days": "Sat", "time": "1:00pm"}, {"days": "Sun", "time": "Closed"}], "id": "2332000014", "name": "USPS COLLECTION BOX - BLUE BOX", "address": {"city": "CHESAPEAKE", "state": "VA", "street": "2211 S MILITARY HWY", "postcode": "23320"}}},
{"geometry": {"type": "Point", "coordinates": [-76.2537372813, 36.7678623641]}, "type": "Feature", "properties": {"collection_times": [{"days": "Mon-Sat", "time": "1:00pm"}, {"days": "Sun", "time": "Closed"}], "id": "2332000019", "name": "USPS COLLECTION BOX - BLUE BOX", "address": {"city": "CHESAPEAKE", "state": "VA", "street": "240 RED CEDAR CT", "postcode": "23320"}}},
{"geometry": {"type": "Point", "coordinates": [-76.2544383065, 36.7602880386]}, "type": "Feature", "properties": {"collection_times": [{"days": "Mon-Sat", "time": "1:00pm"}, {"days": "Sun", "time": "Closed"}], "id": "2332000020", "name": "USPS COLLECTION BOX - BLUE BOX", "address": {"city": "CHESAPEAKE", "state": "VA", "street": "1247 BASSWOOD CT", "postcode": "23320"}}},
{"geometry": {"type": "Point", "coordinates": [-76.2393863366, 36.7732083164]}, "type": "Feature", "properties": {"collection_times": [{"days": "Mon-Fri", "time": "5:00pm"}, {"days": "Sat", "time": "1:00pm"}, {"days": "Sun", "time": "Closed"}], "id": "2332000022", "name": "USPS COLLECTION BOX - BLUE BOX", "address": {"city": "CHESAPEAKE", "state": "VA", "street": "1400 KRISTINA WAY", "postcode": "23320"}}},
{"geometry": {"type": "Point", "coordinates": [-76.23067483, 36.7768632895]}, "type": "Feature", "properties": {"collection_times": [{"days": "Mon-Fri", "time": "2:30pm"}, {"days": "Sat", "time": "1:00pm"}, {"days": "Sun", "time": "Closed"}], "id": "2332000023", "name": "USPS COLLECTION BOX - BLUE BOX", "address": {"city": "CHESAPEAKE", "state": "VA", "street": "1412 GREENBRIER PKWY", "postcode": "23320"}}},
{"geometry": {"type": "Point", "coordinates": [-76.2387901253, 36.7880840254]}, "type": "Feature", "properties": {"collection_times": [{"days": "Mon-Fri", "time": "5:00pm"}, {"days": "Sat", "time": "1:00pm"}, {"days": "Sun", "time": "Closed"}], "id": "2332000027", "name": "USPS COLLECTION BOX - BLUE BOX", "address": {"city": "CHESAPEAKE", "state": "VA", "street": "663 WOODLAKE DR", "postcode": "23320"}}},
{"geometry": {"type": "Point", "coordinates": [-76.2355748428, 36.7904416626]}, "type": "Feature", "properties": {"collection_times": [{"days": "Mon-Fri", "time": "5:00pm"}, {"days": "Sat", "time": "1:00pm"}, {"days": "Sun", "time": "Closed"}], "id": "2332000028", "name": "USPS COLLECTION BOX - BLUE BOX", "address": {"city": "CHESAPEAKE", "state": "VA", "street": "723 WOODLAKE DR", "postcode": "23320"}}},
{"geometry": {"type": "Point", "coordinates": [-76.2343487355, 36.7956018368]}, "type": "Feature", "properties": {"collection_times": [{"days": "Mon-Fri", "time": "5:00pm"}, {"days": "Sat", "time": "1:00pm"}, {"days": "Sun", "time": "Closed"}], "id": "2332000029", "name": "USPS COLLECTION BOX - BLUE BOX", "address": {"city": "CHESAPEAKE", "state": "VA", "street": "800 LIVE OAK DR", "postcode": "23320"}}},
{"geometry": {"type": "Point", "coordinates": [-76.2330342598, 36.762938515]}, "type": "Feature", "properties": {"collection_times": [{"days": "Mon-Fri", "time": "5:00pm"}, {"days": "Sat", "time": "1:00pm"}, {"days": "Sun", "time": "Closed"}], "id": "2332000031", "name": "USPS COLLECTION BOX - BLUE BOX", "address": {"city": "CHESAPEAKE", "state": "VA", "street": "1200 EXECUTIVE BLVD", "postcode": "23320"}}},
{"geometry": {"type": "Point", "coordinates": [-76.2457151671, 36.7462309372]}, "type": "Feature", "properties": {"collection_times": [{"days": "Mon-Fri", "time": "5:00pm"}, {"days": "Sat", "time": "1:00pm"}, {"days": "Sun", "time": "Closed"}], "id": "2332000034", "name": "USPS COLLECTION BOX - BLUE BOX", "address": {"city": "CHESAPEAKE", "state": "VA", "street": "736 BATTLEFIELD BLVD N", "postcode": "23320"}}},
{"geometry": {"type": "Point", "coordinates": [-76.2438934103, 36.7440649393]}, "type": "Feature", "properties": {"collection_times": [{"days": "Mon-Fri", "time": "5:00pm"}, {"days": "Sat", "time": "1:00pm"}, {"days": "Sun", "time": "Closed"}], "id": "2332000036", "name": "USPS COLLECTION BOX - BLUE BOX", "address": {"city": "CHESAPEAKE", "state": "VA", "street": "701 BATTLEFIELD BLVD N", "postcode": "23320"}}},
{"geometry": {"type": "Point", "coordinates": [-76.2710659777, 36.7527679685]}, "type": "Feature", "properties": {"collection_times": [{"days": "Mon-Fri", "time": "12:30pm"}, {"days": "Sat", "time": "1:00pm"}, {"days": "Sun", "time": "Closed"}], "id": "2332000045", "name": "USPS COLLECTION BOX - BLUE BOX", "address": {"city": "CHESAPEAKE", "state": "VA", "street": "910 GREAT BRIDGE BLVD", "postcode": "23320"}}},
{"geometry": {"type": "Point", "coordinates": [-76.245026685, 36.7433480662]}, "type": "Feature", "properties": {"collection_times": [{"days": "Mon-Fri", "time": "5:00pm"}, {"days": "Sat", "time": "1:00pm"}, {"days": "Sun", "time": "Closed"}], "id": "2332000046", "name": "USPS COLLECTION BOX - BLUE BOX", "address": {"city": "CHESAPEAKE", "state": "VA", "street": "109 WIMBLEDON SQ", "postcode": "23320"}}},
{"geometry": {"type": "Point", "coordinates": [-76.2471950488, 36.7444955364]}, "type": "Feature", "properties": {"collection_times": [{"days": "Mon-Fri", "time": "5:00pm"}, {"days": "Sat", "time": "1:00pm"}, {"days": "Sun", "time": "Closed"}], "id": "2332000047", "name": "USPS COLLECTION BOX - BLUE BOX", "address": {"city": "CHESAPEAKE", "state": "VA", "street": "200 MEDICAL PKWY", "postcode": "23320"}}},
{"geometry": {"type": "Point", "coordinates": [-76.2562020983, 36.7845954794]}, "type": "Feature", "properties": {"collection_times": [{"days": "Mon-Fri", "time": "5:00pm"}, {"days": "Sat", "time": "1:00pm"}, {"days": "Sun", "time": "Closed"}], "id": "2332000048", "name": "USPS COLLECTION BOX - BLUE BOX", "address": {"city": "CHESAPEAKE", "state": "VA", "street": "2001 S MILITARY HWY", "postcode": "23320"}}},
{"geometry": {"type": "Point", "coordinates": [-76.247836379, 36.7142944591]}, "type": "Feature", "properties": {"collection_times": [{"days": "Mon-Fri", "time": "5:00pm"}, {"days": "Sat-Sun", "time": "Closed"}], "id": "2332000049", "name": "USPS COLLECTION BOX - EXPRESS", "address": {"city": "CHESAPEAKE", "state": "VA", "street": "2112 SMITH AVE", "postcode": "23320"}}},
{"geometry": {"type": "Point", "coordinates": [-76.247836379, 36.7142944591]}, "type": "Feature", "properties": {"collection_times": [{"days": "Mon-Fri", "time": "5:00pm"}, {"days": "Sat", "time": "1:00pm"}, {"days": "Sun", "time": "Closed"}], "id": "2332000050", "name": "USPS COLLECTION BOX - BLUE BOX", "address": {"city": "CHESAPEAKE", "state": "VA", "street": "1733 PARKVIEW DR", "postcode": "23320"}}},
{"geometry": {"type": "Point", "coordinates": [-76.2319120772, 36.7884189611]}, "type": "Feature", "properties": {"collection_times": [{"days": "Mon-Fri", "time": "5:00pm"}, {"days": "Sat", "time": "1:00pm"}, {"days": "Sun", "time": "Closed"}], "id": "2332000055", "name": "USPS COLLECTION BOX - BLUE BOX", "address": {"city": "CHESAPEAKE", "state": "VA", "street": "870 GREENBRIER CIR", "postcode": "23320"}}},
{"geometry": {"type": "Point", "coordinates": [-76.247836379, 36.7142944591]}, "type": "Feature", "properties": {"collection_times": [{"days": "Mon-Fri", "time": "5:00pm"}, {"days": "Sat", "time": "1:00pm"}, {"days": "Sun", "time": "Closed"}], "id": "2332000059", "name": "USPS COLLECTION BOX - BLUE BOX", "address": {"city": "CHESAPEAKE", "state": "VA", "street": "1403 GREENBRIER PKWY", "postcode": "23320"}}},
{"geometry": {"type": "Point", "coordinates": [-76.2036361338, 36.7643964551]}, "type": "Feature", "properties": {"collection_times": [{"days": "Mon-Fri", "time": "5:00pm"}, {"days": "Sat", "time": "1:00pm"}, {"days": "Sun", "time": "Closed"}], "id": "2332000062", "name": "USPS COLLECTION BOX - BLUE BOX", "address": {"city": "CHESAPEAKE", "state": "VA", "street": "1400 KEMPSVILLE RD", "postcode": "23320"}}},
{"geometry": {"type": "Point", "coordinates": [-76.247836379, 36.7142944591]}, "type": "Feature", "properties": {"collection_times": [{"days": "Mon-Fri", "time": "5:00pm"}, {"days": "Sat", "time": "1:00pm"}, {"days": "Sun", "time": "Closed"}], "id": "2332000064", "name": "USPS COLLECTION BOX - BLUE BOX", "address": {"city": "CHESAPEAKE", "state": "VA", "street": "1226 PROGRESSIVE DR", "postcode": "23320"}}},
{"geometry": {"type": "Point", "coordinates": [-76.251887847, 36.7674130004]}, "type": "Feature", "properties": {"collection_times": [{"days": "Mon-Fri", "time": "5:00pm"}, {"days": "Sat", "time": "1:00pm"}, {"days": "Sun", "time": "Closed"}], "id": "2332000068", "name": "USPS COLLECTION BOX - BLUE BOX", "address": {"city": "CHESAPEAKE", "state": "VA", "street": "1425 BATTLEFIELD BLVD N", "postcode": "23320"}}},
{"geometry": {"type": "Point", "coordinates": [-76.2518367901, 36.7674051708]}, "type": "Feature", "properties": {"collection_times": [{"days": "Mon-Fri", "time": "5:00pm"}, {"days": "Sat-Sun", "time": "Closed"}], "id": "2332000069", "name": "USPS COLLECTION BOX - BLUE BOX", "address": {"city": "CHESAPEAKE", "state": "VA", "street": "1425 BATTLEFIELD BLVD N", "postcode": "23320"}}},
{"geometry": {"type": "Point", "coordinates": [-76.247836379, 36.7142944591]}, "type": "Feature", "properties": {"collection_times": [{"days": "Mon-Fri", "time": "5:00pm"}, {"days": "Sat", "time": "1:00pm"}, {"days": "Sun", "time": "Closed"}], "id": "2332000071", "name": "USPS COLLECTION BOX - BLUE BOX", "address": {"city": "CHESAPEAKE", "state": "VA", "street": "1132 IVYSTONE SQ", "postcode": "23320"}}},
{"geometry": {"type": "Point", "coordinates": [-76.2413373198, 36.7251533303]}, "type": "Feature", "properties": {"collection_times": [{"days": "Mon-Fri", "time": "5:00pm"}, {"days": "Sat", "time": "1:00pm"}, {"days": "Sun", "time": "Closed"}], "id": "2332000072", "name": "USPS COLLECTION BOX - BLUE BOX", "address": {"city": "CHESAPEAKE", "state": "VA", "street": "232 BATTLEFIELD BLVD N", "postcode": "23320"}}},
{"geometry": {"type": "Point", "coordinates": [-76.247836379, 36.7142944591]}, "type": "Feature", "properties": {"collection_times": [{"days": "Mon-Fri", "time": "5:00pm"}, {"days": "Sat", "time": "1:00pm"}, {"days": "Sun", "time": "Closed"}], "id": "2332000075", "name": "USPS COLLECTION BOX - BLUE BOX", "address": {"city": "CHESAPEAKE", "state": "VA", "street": "1360 MILL LAKE QUARTER", "postcode": "23320"}}},
{"geometry": {"type": "Point", "coordinates": [-76.247836379, 36.7142944591]}, "type": "Feature", "properties": {"collection_times": [{"days": "Mon-Fri", "time": "5:00pm"}, {"days": "Sat", "time": "1:00pm"}, {"days": "Sun", "time": "Closed"}], "id": "2332000076", "name": "USPS COLLECTION BOX - BLUE BOX", "address": {"city": "CHESAPEAKE", "state": "VA", "street": "2112 SMITH AVE", "postcode": "23320"}}},
{"geometry": {"type": "Point", "coordinates": [-76.2239567408, 36.7461143655]}, "type": "Feature", "properties": {"collection_times": [{"days": "Mon-Fri", "time": "2:30pm"}, {"days": "Sat", "time": "1:00pm"}, {"days": "Sun", "time": "Closed"}], "id": "2332000080", "name": "USPS COLLECTION BOX - BLUE BOX", "address": {"city": "CHESAPEAKE", "state": "VA", "street": "717 HUNTERS BRIDGE DR", "postcode": "23320"}}},
{"geometry": {"type": "Point", "coordinates": [-76.2313008121, 36.7916601103]}, "type": "Feature", "properties": {"collection_times": [{"days": "Mon-Fri", "time": "5:00pm"}, {"days": "Sat", "time": "1:00pm"}, {"days": "Sun", "time": "Closed"}], "id": "2332000081", "name": "USPS COLLECTION BOX - BLUE BOX", "address": {"city": "CHESAPEAKE", "state": "VA", "street": "804 GREENBRIER CIR", "postcode": "23320"}}},
{"geometry": {"type": "Point", "coordinates": [-76.2314767776, 36.7889396406]}, "type": "Feature", "properties": {"collection_times": [{"days": "Mon-Fri", "time": "5:00pm"}, {"days": "Sat", "time": "1:00pm"}, {"days": "Sun", "time": "Closed"}], "id": "2332000082", "name": "USPS COLLECTION BOX - BLUE BOX", "address": {"city": "CHESAPEAKE", "state": "VA", "street": "1801 SARA DR", "postcode": "23320"}}},
{"geometry": {"type": "Point", "coordinates": [-76.2532784259, 36.7643116122]}, "type": "Feature", "properties": {"collection_times": [{"days": "Mon-Fri", "time": "5:00pm"}, {"days": "Sat", "time": "1:00pm"}, {"days": "Sun", "time": "Closed"}], "id": "2332000084", "name": "USPS COLLECTION BOX - BLUE BOX", "address": {"city": "CHESAPEAKE", "state": "VA", "street": "1300 TINTERN ST", "postcode": "23320"}}},
{"geometry": {"type": "Point", "coordinates": [-76.247836379, 36.7142944591]}, "type": "Feature", "properties": {"collection_times": [{"days": "Mon-Fri", "time": "12:30pm"}, {"days": "Sat", "time": "1:00pm"}, {"days": "Sun", "time": "Closed"}], "id": "2332000085", "name": "USPS COLLECTION BOX - BLUE BOX", "address": {"city": "CHESAPEAKE", "state": "VA", "street": "1001 RIVER WALK PKWY", "postcode": "23320"}}},
{"geometry": {"type": "Point", "coordinates": [-76.2637280833, 36.7386114985]}, "type": "Feature", "properties": {"collection_times": [{"days": "Mon-Fri", "time": "12:30pm"}, {"days": "Sat", "time": "1:00pm"}, {"days": "Sun", "time": "Closed"}], "id": "2332000086", "name": "USPS COLLECTION BOX - BLUE BOX", "address": {"city": "CHESAPEAKE", "state": "VA", "street": "651 RIVER WALK PKWY", "postcode": "23320"}}},
{"geometry": {"type": "Point", "coordinates": [-76.227124967, 36.7759409516]}, "type": "Feature", "properties": {"collection_times": [{"days": "Mon-Fri", "time": "5:00pm"}, {"days": "Sat", "time": "1:00pm"}, {"days": "Sun", "time": "Closed"}], "id": "2332000087", "name": "USPS COLLECTION BOX - BLUE BOX", "address": {"city": "CHESAPEAKE", "state": "VA", "street": "1401 GREENBRIER PKWY", "postcode": "23320"}}},
{"geometry": {"type": "Point", "coordinates": [-76.2486441735, 36.7422076938]}, "type": "Feature", "properties": {"collection_times": [{"days": "Mon-Sat", "time": "1:00pm"}, {"days": "Sun", "time": "Closed"}], "id": "2332000088", "name": "USPS COLLECTION BOX - BLUE BOX", "address": {"city": "CHESAPEAKE", "state": "VA", "street": "301 WIMBLEDON CHASE", "postcode": "23320"}}},
{"geometry": {"type": "Point", "coordinates": [-76.2449143039, 36.7769145268]}, "type": "Feature", "properties": {"collection_times": [{"days": "Mon-Fri", "time": "5:00pm"}, {"days": "Sat", "time": "1:00pm"}, {"days": "Sun", "time": "Closed"}], "id": "2332000089", "name": "USPS COLLECTION BOX - BLUE BOX", "address": {"city": "CHESAPEAKE", "state": "VA", "street": "1435 CROSSWAYS BLVD", "postcode": "23320"}}},
{"geometry": {"type": "Point", "coordinates": [-76.2188761941, 36.794207021]}, "type": "Feature", "properties": {"collection_times": [{"days": "Mon-Fri", "time": "5:00pm"}, {"days": "Sat", "time": "1:00pm"}, {"days": "Sun", "time": "Closed"}], "id": "2332000090", "name": "USPS COLLECTION BOX - BLUE BOX", "address": {"city": "CHESAPEAKE", "state": "VA", "street": "2018 PARAMONT AVE", "postcode": "23320"}}},
{"geometry": {"type": "Point", "coordinates": [-76.2398357385, 36.757051357]}, "type": "Feature", "properties": {"collection_times": [{"days": "Mon-Fri", "time": "5:00pm"}, {"days": "Sat", "time": "1:00pm"}, {"days": "Sun", "time": "Closed"}], "id": "2332000091", "name": "USPS COLLECTION BOX - BLUE BOX", "address": {"city": "CHESAPEAKE", "state": "VA", "street": "870A GREENBRIER CIR", "postcode": "23320"}}},
{"geometry": {"type": "Point", "coordinates": [-76.251887847, 36.7674130004]}, "type": "Feature", "properties": {"collection_times": [{"days": "Mon-Fri", "time": "5:00pm"}, {"days": "Sat", "time": "1:00pm"}, {"days": "Sun", "time": "Closed"}], "id": "2332000092", "name": "USPS COLLECTION BOX - PO LOBBY", "address": {"city": "CHESAPEAKE", "state": "VA", "street": "1425 BATTLEFIELD BLVD N", "postcode": "23320"}}},
{"geometry": {"type": "Point", "coordinates": [-76.2439511674, 36.7339141942]}, "type": "Feature", "properties": {"collection_times": [{"days": "Mon-Fri", "time": "12:30pm"}, {"days": "Sat", "time": "1:00pm"}, {"days": "Sun", "time": "Closed"}], "id": "2332000093", "name": "USPS COLLECTION BOX - BLUE BOX", "address": {"city": "CHESAPEAKE", "state": "VA", "street": "408 TROTMAN WAY", "postcode": "23320"}}},
{"geometry": {"type": "Point", "coordinates": [-76.251887847, 36.7674130004]}, "type": "Feature", "properties": {"collection_times": [{"days": "Mon-Fri", "time": "5:00pm"}, {"days": "Sat", "time": "1:00pm"}, {"days": "Sun", "time": "Closed"}], "id": "2332000097", "name": "USPS COLLECTION BOX - APC", "address": {"city": "CHESAPEAKE", "state": "VA", "street": "1425 BATTLEFIELD BLVD N", "postcode": "23320"}}},
{"geometry": {"type": "Point", "coordinates": [-76.4263447203, 36.8456858463]}, "type": "Feature", "properties": {"collection_times": [{"days": "Mon-Fri", "time": "3:30pm"}, {"days": "Sat", "time": "1:30pm"}, {"days": "Sun", "time": "Closed"}], "id": "2332100002", "name": "USPS COLLECTION BOX - BLUE BOX", "address": {"city": "CHESAPEAKE", "state": "VA", "street": "3325 TAYLOR RD", "postcode": "23321"}}},
{"geometry": {"type": "Point", "coordinates": [-76.4200845015, 36.8219000904]}, "type": "Feature", "properties": {"collection_times": [{"days": "Mon-Fri", "time": "3:30pm"}, {"days": "Sat", "time": "1:30pm"}, {"days": "Sun", "time": "Closed"}], "id": "2332100003", "name": "USPS COLLECTION BOX - BLUE BOX", "address": {"city": "CHESAPEAKE", "state": "VA", "street": "4107 PORTSMOUTH BLVD", "postcode": "23321"}}},
{"geometry": {"type": "Point", "coordinates": [-76.404041433, 36.8255391431]}, "type": "Feature", "properties": {"collection_times": [{"days": "Mon-Sat", "time": "1:30pm"}, {"days": "Sun", "time": "Closed"}], "id": "2332100006", "name": "USPS COLLECTION BOX - BLUE BOX", "address": {"city": "CHESAPEAKE", "state": "VA", "street": "4175 PRINDLE CT", "postcode": "23321"}}},
{"geometry": {"type": "Point", "coordinates": [-76.4086836352, 36.827503086]}, "type": "Feature", "properties": {"collection_times": [{"days": "Mon-Fri", "time": "3:30pm"}, {"days": "Sat", "time": "1:30pm"}, {"days": "Sun", "time": "Closed"}], "id": "2332100007", "name": "USPS COLLECTION BOX - BLUE BOX", "address": {"city": "CHESAPEAKE", "state": "VA", "street": "4016 RAINTREE RD", "postcode": "23321"}}},
{"geometry": {"type": "Point", "coordinates": [-76.40709968, 36.8174969142]}, "type": "Feature", "properties": {"collection_times": [{"days": "Mon-Sat", "time": "1:30pm"}, {"days": "Sun", "time": "Closed"}], "id": "2332100008", "name": "USPS COLLECTION BOX - BLUE BOX", "address": {"city": "CHESAPEAKE", "state": "VA", "street": "2200 DOCK LANDING RD", "postcode": "23321"}}},
{"geometry": {"type": "Point", "coordinates": [-76.4033316298, 36.8631165468]}, "type": "Feature", "properties": {"collection_times": [{"days": "Mon-Fri", "time": "3:30pm"}, {"days": "Sat", "time": "2:00pm"}, {"days": "Sun", "time": "Closed"}], "id": "2332100010", "name": "USPS COLLECTION BOX - BLUE BOX", "address": {"city": "CHESAPEAKE", "state": "VA", "street": "3142 WESTERN BRANCH BLVD", "postcode": "23321"}}},
{"geometry": {"type": "Point", "coordinates": [-76.4142584286, 36.8654045893]}, "type": "Feature", "properties": {"collection_times": [{"days": "Mon-Fri", "time": "3:30pm"}, {"days": "Sat", "time": "2:00pm"}, {"days": "Sun", "time": "Closed"}], "id": "2332100011", "name": "USPS COLLECTION BOX - BLUE BOX", "address": {"city": "CHESAPEAKE", "state": "VA", "street": "3343 WESTERN BRANCH BLVD", "postcode": "23321"}}},
{"geometry": {"type": "Point", "coordinates": [-76.418869945, 36.8638094051]}, "type": "Feature", "properties": {"collection_times": [{"days": "Mon-Sat", "time": "2:00pm"}, {"days": "Sun", "time": "Closed"}], "id": "2332100014", "name": "USPS COLLECTION BOX - BLUE BOX", "address": {"city": "CHESAPEAKE", "state": "VA", "street": "4723 HELENSBURGH DR", "postcode": "23321"}}},
{"geometry": {"type": "Point", "coordinates": [-76.4048725319, 36.8622089516]}, "type": "Feature", "properties": {"collection_times": [{"days": "Mon-Fri", "time": "3:30pm"}, {"days": "Sat", "time": "1:30pm"}, {"days": "Sun", "time": "Closed"}], "id": "2332100019", "name": "USPS COLLECTION BOX - BLUE BOX", "address": {"city": "CHESAPEAKE", "state": "VA", "street": "4053 TAYLOR RD", "postcode": "23321"}}},
{"geometry": {"type": "Point", "coordinates": [-76.4157563209, 36.8286700367]}, "type": "Feature", "properties": {"collection_times": [{"days": "Mon-Fri", "time": "4:00pm"}, {"days": "Sat-Sun", "time": "Closed"}], "id": "2332100020", "name": "USPS COLLECTION BOX - EXPRESS", "address": {"city": "CHESAPEAKE", "state": "VA", "street": "4300 PORTSMOUTH BLVD STE 174", "postcode": "23321"}}},
{"geometry": {"type": "Point", "coordinates": [-76.4201176243, 36.8220775342]}, "type": "Feature", "properties": {"collection_times": [{"days": "Mon-Fri", "time": "5:00pm"}, {"days": "Sat", "time": "2:00pm"}, {"days": "Sun", "time": "Closed"}], "id": "2332100021", "name": "USPS COLLECTION BOX - BLUE BOX", "address": {"city": "CHESAPEAKE", "state": "VA", "street": "4300 PORTSMOUTH BLVD STE 174", "postcode": "23321"}}},
{"geometry": {"type": "Point", "coordinates": [-76.4201176243, 36.8220775342]}, "type": "Feature", "properties": {"collection_times": [{"days": "Mon-Fri", "time": "5:00pm"}, {"days": "Sat", "time": "2:00pm"}, {"days": "Sun", "time": "Closed"}], "id": "2332100022", "name": "USPS COLLECTION BOX - BLUE BOX", "address": {"city": "CHESAPEAKE", "state": "VA", "street": "4300 PORTSMOUTH BLVD STE 174", "postcode": "23321"}}},
{"geometry": {"type": "Point", "coordinates": [-76.4091868592, 36.8639349556]}, "type": "Feature", "properties": {"collection_times": [{"days": "Mon-Sat", "time": "2:00pm"}, {"days": "Sun", "time": "Closed"}], "id": "2332100025", "name": "USPS COLLECTION BOX - BLUE BOX", "address": {"city": "CHESAPEAKE", "state": "VA", "street": "3504 EXECUTIVE CENTER DR", "postcode": "23321"}}},
{"geometry": {"type": "Point", "coordinates": [-76.4201176243, 36.8220775342]}, "type": "Feature", "properties": {"collection_times": [{"days": "Mon-Fri", "time": "5:00pm"}, {"days": "Sat", "time": "12:00pm"}, {"days": "Sun", "time": "Closed"}], "id": "2332100029", "name": "USPS COLLECTION BOX - PO LOBBY", "address": {"city": "CHESAPEAKE", "state": "VA", "street": "4300 PORTSMOUTH BLVD STE 174", "postcode": "23321"}}},
{"geometry": {"type": "Point", "coordinates": [-76.4128394226, 36.8451677288]}, "type": "Feature", "properties": {"collection_times": [{"days": "Mon-Sat", "time": "1:30pm"}, {"days": "Sun", "time": "Closed"}], "id": "2332100034", "name": "USPS COLLECTION BOX - BLUE BOX", "address": {"city": "CHESAPEAKE", "state": "VA", "street": "3000 PEPPERCORN DR", "postcode": "23321"}}},
{"geometry": {"type": "Point", "coordinates": [-76.1861224263, 36.6995099729]}, "type": "Feature", "properties": {"collection_times": [{"days": "Mon-Sat", "time": "2:00pm"}, {"days": "Sun", "time": "Closed"}], "id": "2332200005", "name": "USPS COLLECTION BOX - BLUE BOX", "address": {"city": "CHESAPEAKE", "state": "VA", "street": "1429 FENTRESS RD", "postcode": "23322"}}},
{"geometry": {"type": "Point", "coordinates": [-76.1852630607, 36.7133173979]}, "type": "Feature", "properties": {"collection_times": [{"days": "Mon-Sat", "time": "2:00pm"}, {"days": "Sun", "time": "Closed"}], "id": "2332200010", "name": "USPS COLLECTION BOX - BLUE BOX", "address": {"city": "CHESAPEAKE", "state": "VA", "street": "415 CENTERVILLE TPKE S", "postcode": "23322"}}},
{"geometry": {"type": "Point", "coordinates": [-76.2510785363, 36.7168798056]}, "type": "Feature", "properties": {"collection_times": [{"days": "Mon-Fri", "time": "5:00pm"}, {"days": "Sat", "time": "2:00pm"}, {"days": "Sun", "time": "Closed"}], "id": "2332200011", "name": "USPS COLLECTION BOX - BLUE BOX", "address": {"city": "CHESAPEAKE", "state": "VA", "street": "200 HOLT DR", "postcode": "23322"}}},
{"geometry": {"type": "Point", "coordinates": [-76.2509339167, 36.717576043]}, "type": "Feature", "properties": {"collection_times": [{"days": "Mon-Fri", "time": "5:00pm"}, {"days": "Sat", "time": "2:00pm"}, {"days": "Sun", "time": "Closed"}], "id": "2332200012", "name": "USPS COLLECTION BOX - BLUE BOX", "address": {"city": "CHESAPEAKE", "state": "VA", "street": "212 HOLT DR", "postcode": "23322"}}},
{"geometry": {"type": "Point", "coordinates": [-76.2304527438, 36.6878308935]}, "type": "Feature", "properties": {"collection_times": [{"days": "Mon-Fri", "time": "5:00pm"}, {"days": "Sat", "time": "2:00pm"}, {"days": "Sun", "time": "Closed"}], "id": "2332200018", "name": "USPS COLLECTION BOX - BLUE BOX", "address": {"city": "CHESAPEAKE", "state": "VA", "street": "1100 BATTLEFIELD BLVD S", "postcode": "23322"}}},
{"geometry": {"type": "Point", "coordinates": [-76.2304527438, 36.6878308935]}, "type": "Feature", "properties": {"collection_times": [{"days": "Mon-Fri", "time": "5:00pm"}, {"days": "Sat", "time": "2:00pm"}, {"days": "Sun", "time": "Closed"}], "id": "2332200019", "name": "USPS COLLECTION BOX - BLUE BOX", "address": {"city": "CHESAPEAKE", "state": "VA", "street": "1100 BATTLEFIELD BLVD S", "postcode": "23322"}}},
{"geometry": {"type": "Point", "coordinates": [-76.2512055509, 36.7158294464]}, "type": "Feature", "properties": {"collection_times": [{"days": "Mon-Fri", "time": "5:00pm"}, {"days": "Sat", "time": "2:00pm"}, {"days": "Sun", "time": "Closed"}], "id": "2332200025", "name": "USPS COLLECTION BOX - BLUE BOX", "address": {"city": "CHESAPEAKE", "state": "VA", "street": "300 SHEA DR", "postcode": "23322"}}},
{"geometry": {"type": "Point", "coordinates": [-76.2303970315, 36.6878933159]}, "type": "Feature", "properties": {"collection_times": [{"days": "Mon-Fri", "time": "5:30pm"}, {"days": "Sat", "time": "4:00pm"}, {"days": "Sun", "time": "Closed"}], "id": "2332200027", "name": "USPS COLLECTION BOX - PO LOBBY", "address": {"city": "CHESAPEAKE", "state": "VA", "street": "1100 BATTLEFIELD BLVD S", "postcode": "23322"}}},
{"geometry": {"type": "Point", "coordinates": [-76.2303970315, 36.6878933159]}, "type": "Feature", "properties": {"collection_times": [{"days": "Mon-Fri", "time": "5:30pm"}, {"days": "Sat", "time": "4:00pm"}, {"days": "Sun", "time": "Closed"}], "id": "2332200028", "name": "USPS COLLECTION BOX - PO LOBBY", "address": {"city": "CHESAPEAKE", "state": "VA", "street": "1100 BATTLEFIELD BLVD S", "postcode": "23322"}}},
{"geometry": {"type": "Point", "coordinates": [-76.2303970315, 36.6878933159]}, "type": "Feature", "properties": {"collection_times": [{"days": "Mon-Fri", "time": "5:00pm"}, {"days": "Sat", "time": "4:00pm"}, {"days": "Sun", "time": "Closed"}], "id": "2332200032", "name": "USPS COLLECTION BOX - BLUE BOX", "address": {"city": "CHESAPEAKE", "state": "VA", "street": "1100 BATTLEFIELD BLVD S", "postcode": "23322"}}},
{"geometry": {"type": "Point", "coordinates": [-76.2303970315, 36.6878933159]}, "type": "Feature", "properties": {"collection_times": [{"days": "Mon-Fri", "time": "5:00pm"}, {"days": "Sat", "time": "4:00pm"}, {"days": "Sun", "time": "Closed"}], "id": "2332200033", "name": "USPS COLLECTION BOX - BLUE BOX", "address": {"city": "CHESAPEAKE", "state": "VA", "street": "1100 BATTLEFIELD BLVD S", "postcode": "23322"}}},
{"geometry": {"type": "Point", "coordinates": [-76.2316193328, 36.6820521711]}, "type": "Feature", "properties": {"collection_times": [{"days": "Mon-Fri", "time": "5:00pm"}, {"days": "Sat-Sun", "time": "Closed"}], "id": "2332200034", "name": "USPS COLLECTION BOX - EXPRESS", "address": {"city": "CHESAPEAKE", "state": "VA", "street": "1100 BATTLEFIELD BLVD S", "postcode": "23322"}}},
{"geometry": {"type": "Point", "coordinates": [-76.238740441, 36.7156254229]}, "type": "Feature", "properties": {"collection_times": [{"days": "Mon-Sat", "time": "2:00pm"}, {"days": "Sun", "time": "Closed"}], "id": "2332200038", "name": "USPS COLLECTION BOX - BLUE BOX", "address": {"city": "CHESAPEAKE", "state": "VA", "street": "237 BATTLEFIELD BLVD S", "postcode": "23322"}}},
{"geometry": {"type": "Point", "coordinates": [-76.2165769664, 36.6445408181]}, "type": "Feature", "properties": {"collection_times": [{"days": "Mon-Sat", "time": "2:00pm"}, {"days": "Sun", "time": "Closed"}], "id": "2332200039", "name": "USPS COLLECTION BOX - BLUE BOX", "address": {"city": "CHESAPEAKE", "state": "VA", "street": "2201 BATTLEFIELD BLVD S", "postcode": "23322"}}},
{"geometry": {"type": "Point", "coordinates": [-76.2303970315, 36.6878933159]}, "type": "Feature", "properties": {"collection_times": [{"days": "Mon-Fri", "time": "5:30pm"}, {"days": "Sat", "time": "4:00pm"}, {"days": "Sun", "time": "Closed"}], "id": "2332200041", "name": "USPS COLLECTION BOX - APC", "address": {"city": "CHESAPEAKE", "state": "VA", "street": "1100 BATTLEFIELD BLVD S", "postcode": "23322"}}},
{"geometry": {"type": "Point", "coordinates": [-76.3458171547, 36.7542099954]}, "type": "Feature", "properties": {"collection_times": [{"days": "Mon-Fri", "time": "1:00pm"}, {"days": "Sat", "time": "3:00pm"}, {"days": "Sun", "time": "Closed"}], "id": "2332300002", "name": "USPS COLLECTION BOX - BLUE BOX", "address": {"city": "CHESAPEAKE", "state": "VA", "street": "2800 WESLEY RD", "postcode": "23323"}}},
{"geometry": {"type": "Point", "coordinates": [-76.3271694607, 36.7390744138]}, "type": "Feature", "properties": {"collection_times": [{"days": "Mon-Fri", "time": "1:00pm"}, {"days": "Sat", "time": "3:00pm"}, {"days": "Sun", "time": "Closed"}], "id": "2332300003", "name": "USPS COLLECTION BOX - BLUE BOX", "address": {"city": "CHESAPEAKE", "state": "VA", "street": "2617 MOSES GRANDY TRL", "postcode": "23323"}}},
{"geometry": {"type": "Point", "coordinates": [-76.342858724, 36.7812367058]}, "type": "Feature", "properties": {"collection_times": [{"days": "Mon-Fri", "time": "1:00pm"}, {"days": "Sat", "time": "3:00pm"}, {"days": "Sun", "time": "Closed"}], "id": "2332300004", "name": "USPS COLLECTION BOX - BLUE BOX", "address": {"city": "CHESAPEAKE", "state": "VA", "street": "2900 CAMELOT BLVD", "postcode": "23323"}}},
{"geometry": {"type": "Point", "coordinates": [-76.362673137, 36.7859949199]}, "type": "Feature", "properties": {"collection_times": [{"days": "Mon-Fri", "time": "5:00pm"}, {"days": "Sat", "time": "3:00pm"}, {"days": "Sun", "time": "Closed"}], "id": "2332300006", "name": "USPS COLLECTION BOX - BLUE BOX", "address": {"city": "CHESAPEAKE", "state": "VA", "street": "3534 BUSINESS CENTER DR", "postcode": "23323"}}},
{"geometry": {"type": "Point", "coordinates": [-76.3341188735, 36.7834870469]}, "type": "Feature", "properties": {"collection_times": [{"days": "Mon-Fri", "time": "5:00pm"}, {"days": "Sat", "time": "3:00pm"}, {"days": "Sun", "time": "Closed"}], "id": "2332300007", "name": "USPS COLLECTION BOX - BLUE BOX", "address": {"city": "CHESAPEAKE", "state": "VA", "street": "1156 GEORGE WASHINGTON HWY N", "postcode": "23323"}}},
{"geometry": {"type": "Point", "coordinates": [-76.3380893476, 36.7539315971]}, "type": "Feature", "properties": {"collection_times": [{"days": "Mon-Fri", "time": "5:00pm"}, {"days": "Sat-Sun", "time": "Closed"}], "id": "2332300012", "name": "USPS COLLECTION BOX - EXPRESS", "address": {"city": "CHESAPEAKE", "state": "VA", "street": "857 GEORGE WASHINGTON HWY N", "postcode": "23323"}}},
{"geometry": {"type": "Point", "coordinates": [-76.3434583345, 36.7705005233]}, "type": "Feature", "properties": {"collection_times": [{"days": "Mon-Fri", "time": "5:00pm"}, {"days": "Sat", "time": "4:00pm"}, {"days": "Sun", "time": "Closed"}], "id": "2332300013", "name": "USPS COLLECTION BOX - BLUE BOX", "address": {"city": "CHESAPEAKE", "state": "VA", "street": "857 GEORGE WASHINGTON HWY N", "postcode": "23323"}}},
{"geometry": {"type": "Point", "coordinates": [-76.3434583345, 36.7705005233]}, "type": "Feature", "properties": {"collection_times": [{"days": "Mon-Fri", "time": "5:00pm"}, {"days": "Sat", "time": "4:00pm"}, {"days": "Sun", "time": "Closed"}], "id": "2332300014", "name": "USPS COLLECTION BOX - BLUE BOX", "address": {"city": "CHESAPEAKE", "state": "VA", "street": "857 GEORGE WASHINGTON HWY N", "postcode": "23323"}}},
{"geometry": {"type": "Point", "coordinates": [-76.3434583345, 36.7705005233]}, "type": "Feature", "properties": {"collection_times": [{"days": "Mon-Fri", "time": "5:00pm"}, {"days": "Sat", "time": "3:00pm"}, {"days": "Sun", "time": "Closed"}], "id": "2332300016", "name": "USPS COLLECTION BOX - PO LOBBY", "address": {"city": "CHESAPEAKE", "state": "VA", "street": "857 GEORGE WASHINGTON HWY N", "postcode": "23323"}}},
{"geometry": {"type": "Point", "coordinates": [-76.2805675041, 36.7877587117]}, "type": "Feature", "properties": {"collection_times": [{"days": "Mon-Fri", "time": "5:00pm"}, {"days": "Sat", "time": "1:30pm"}, {"days": "Sun", "time": "Closed"}], "id": "2332400001", "name": "USPS COLLECTION BOX - BLUE BOX", "address": {"city": "CHESAPEAKE", "state": "VA", "street": "1103 GODWIN AVE", "postcode": "23324"}}},
{"geometry": {"type": "Point", "coordinates": [-76.2685779496, 36.8037036351]}, "type": "Feature", "properties": {"collection_times": [{"days": "Mon-Fri", "time": "5:00pm"}, {"days": "Sat-Sun", "time": "Closed"}], "id": "2332400037", "name": "USPS COLLECTION BOX - EXPRESS", "address": {"city": "CHESAPEAKE", "state": "VA", "street": "1210 POINDEXTER ST", "postcode": "23324"}}},
{"geometry": {"type": "Point", "coordinates": [-76.2748528082, 36.8178305585]}, "type": "Feature", "properties": {"collection_times": [{"days": "Mon-Fri", "time": "5:00pm"}, {"days": "Sat", "time": "1:30pm"}, {"days": "Sun", "time": "Closed"}], "id": "2332400038", "name": "USPS COLLECTION BOX - BLUE BOX", "address": {"city": "CHESAPEAKE", "state": "VA", "street": "1013 RODGERS ST", "postcode": "23324"}}},
{"geometry": {"type": "Point", "coordinates": [-76.2747735685, 36.8177169574]}, "type": "Feature", "properties": {"collection_times": [{"days": "Mon-Fri", "time": "5:00pm"}, {"days": "Sat", "time": "2:00pm"}, {"days": "Sun", "time": "Closed"}], "id": "2332400039", "name": "USPS COLLECTION BOX - BLUE BOX", "address": {"city": "CHESAPEAKE", "state": "VA", "street": "1210 POINDEXTER ST", "postcode": "23324"}}},
{"geometry": {"type": "Point", "coordinates": [-76.2747735685, 36.8177169574]}, "type": "Feature", "properties": {"collection_times": [{"days": "Mon-Fri", "time": "5:00pm"}, {"days": "Sat", "time": "12:00pm"}, {"days": "Sun", "time": "Closed"}], "id": "2332400040", "name": "USPS COLLECTION BOX - PO LOBBY", "address": {"city": "CHESAPEAKE", "state": "VA", "street": "1210 POINDEXTER ST", "postcode": "23324"}}},
{"geometry": {"type": "Point", "coordinates": [-76.2512999164, 36.8193555456]}, "type": "Feature", "properties": {"collection_times": [{"days": "Mon-Sat", "time": "12:30pm"}, {"days": "Sun", "time": "Closed"}], "id": "2332500004", "name": "USPS COLLECTION BOX - BLUE BOX", "address": {"city": "CHESAPEAKE", "state": "VA", "street": "1501 WINGFIELD AVE", "postcode": "23325"}}},
{"geometry": {"type": "Point", "coordinates": [-76.2447735318, 36.8010610852]}, "type": "Feature", "properties": {"collection_times": [{"days": "Mon-Sat", "time": "2:00pm"}, {"days": "Sun", "time": "Closed"}], "id": "2332500007", "name": "USPS COLLECTION BOX - BLUE BOX", "address": {"city": "CHESAPEAKE", "state": "VA", "street": "436 PROVIDENCE RD", "postcode": "23325"}}},
{"geometry": {"type": "Point", "coordinates": [-76.2537202504, 36.7986076283]}, "type": "Feature", "properties": {"collection_times": [{"days": "Mon-Sat", "time": "2:00pm"}, {"days": "Sun", "time": "Closed"}], "id": "2332500009", "name": "USPS COLLECTION BOX - BLUE BOX", "address": {"city": "CHESAPEAKE", "state": "VA", "street": "211 PROVIDENCE RD", "postcode": "23325"}}},
{"geometry": {"type": "Point", "coordinates": [-76.2400877486, 36.8147703641]}, "type": "Feature", "properties": {"collection_times": [{"days": "Mon-Fri", "time": "5:00pm"}, {"days": "Sat-Sun", "time": "Closed"}], "id": "2332500010", "name": "USPS COLLECTION BOX - EXPRESS", "address": {"city": "CHESAPEAKE", "state": "VA", "street": "3810 INDIAN RIVER RD", "postcode": "23325"}}},
{"geometry": {"type": "Point", "coordinates": [-76.2324825881, 36.822486838]}, "type": "Feature", "properties": {"collection_times": [{"days": "Mon-Fri", "time": "5:00pm"}, {"days": "Sat", "time": "3:00pm"}, {"days": "Sun", "time": "Closed"}], "id": "2332500011", "name": "USPS COLLECTION BOX - BLUE BOX", "address": {"city": "CHESAPEAKE", "state": "VA", "street": "3810 INDIAN RIVER RD", "postcode": "23325"}}},
{"geometry": {"type": "Point", "coordinates": [-76.2324825881, 36.822486838]}, "type": "Feature", "properties": {"collection_times": [{"days": "Mon-Fri", "time": "5:00pm"}, {"days": "Sat", "time": "3:00pm"}, {"days": "Sun", "time": "Closed"}], "id": "2332500012", "name": "USPS COLLECTION BOX - BLUE BOX", "address": {"city": "CHESAPEAKE", "state": "VA", "street": "3810 INDIAN RIVER RD", "postcode": "23325"}}},
{"geometry": {"type": "Point", "coordinates": [-76.2324825881, 36.822486838]}, "type": "Feature", "properties": {"collection_times": [{"days": "Mon-Fri", "time": "5:00pm"}, {"days": "Sat", "time": "3:00pm"}, {"days": "Sun", "time": "Closed"}], "id": "2332500015", "name": "USPS COLLECTION BOX - PO LOBBY", "address": {"city": "CHESAPEAKE", "state": "VA", "street": "3810 INDIAN RIVER RD", "postcode": "23325"}}},
{"geometry": {"type": "Point", "coordinates": [-75.3735230813, 37.9352544572]}, "type": "Feature", "properties": {"collection_times": [{"days": "Mon-Sat", "time": "4:15pm"}, {"days": "Sun", "time": "Closed"}], "id": "2333600001", "name": "USPS COLLECTION BOX - BLUE BOX", "address": {"city": "CHINCOTEAGUE", "state": "VA", "street": "4144 MAIN ST", "postcode": "23336"}}},
{"geometry": {"type": "Point", "coordinates": [-75.3735230813, 37.9352544572]}, "type": "Feature", "properties": {"collection_times": [{"days": "Mon-Sat", "time": "4:30pm"}, {"days": "Sun", "time": "Closed"}], "id": "2333600020", "name": "USPS COLLECTION BOX - PO LOBBY", "address": {"city": "CHINCOTEAGUE", "state": "VA", "street": "4144 MAIN ST", "postcode": "23336"}}},
{"geometry": {"type": "Point", "coordinates": [-75.4705874066, 37.9309354181]}, "type": "Feature", "properties": {"collection_times": [{"days": "Mon-Fri", "time": "10:15am"}, {"days": "Sat-Sun", "time": "Closed"}], "id": "2333700001", "name": "USPS COLLECTION BOX - BLUE BOX", "address": {"city": "WALLOPS ISLAND", "state": "VA", "street": "100 OREILEY ST", "postcode": "23337"}}},
{"geometry": {"type": "Point", "coordinates": [-75.4705874066, 37.9309354181]}, "type": "Feature", "properties": {"collection_times": [{"days": "Mon-Fri", "time": "10:15am"}, {"days": "Sat-Sun", "time": "Closed"}], "id": "2333700003", "name": "USPS COLLECTION BOX - PO LOBBY", "address": {"city": "WALLOPS ISLAND", "state": "VA", "street": "100 OREILEY ST", "postcode": "23337"}}},
{"geometry": {"type": "Point", "coordinates": [-75.8692000081, 37.5813754191]}, "type": "Feature", "properties": {"collection_times": [{"days": "Mon-Fri", "time": "4:00pm"}, {"days": "Sat", "time": "11:30am"}, {"days": "Sun", "time": "Closed"}], "id": "2334100000", "name": "USPS COLLECTION BOX - BLUE BOX", "address": {"city": "CRADDOCKVILLE", "state": "VA", "street": "34032 CRADDOCKVILLE RD", "postcode": "23341"}}},
{"geometry": {"type": "Point", "coordinates": [-75.8692000081, 37.5813754191]}, "type": "Feature", "properties": {"collection_times": [{"days": "Mon-Fri", "time": "4:15pm"}, {"days": "Sat", "time": "11:30am"}, {"days": "Sun", "time": "Closed"}], "id": "2334100001", "name": "USPS COLLECTION BOX - PO LOBBY", "address": {"city": "CRADDOCKVILLE", "state": "VA", "street": "34032 CRADDOCKVILLE RD", "postcode": "23341"}}},
{"geometry": {"type": "Point", "coordinates": [-75.9452462735, 37.3527620906]}, "type": "Feature", "properties": {"collection_times": [{"days": "Mon-Fri", "time": "4:30pm"}, {"days": "Sat", "time": "12:00pm"}, {"days": "Sun", "time": "Closed"}], "id": "2334700001", "name": "USPS COLLECTION BOX - BLUE BOX", "address": {"city": "EASTVILLE", "state": "VA", "street": "5253 WILLOW OAK RD", "postcode": "23347"}}},
{"geometry": {"type": "Point", "coordinates": [-75.9452462735, 37.3527620906]}, "type": "Feature", "properties": {"collection_times": [{"days": "Mon-Fri", "time": "4:30pm"}, {"days": "Sat", "time": "12:00pm"}, {"days": "Sun", "time": "Closed"}], "id": "2334700002", "name": "USPS COLLECTION BOX - PO LOBBY", "address": {"city": "EASTVILLE", "state": "VA", "street": "5253 WILLOW OAK RD", "postcode": "23347"}}},
{"geometry": {"type": "Point", "coordinates": [-75.8220629369, 37.5314181565]}, "type": "Feature", "properties": {"collection_times": [{"days": "Mon-Fri", "time": "4:15pm"}, {"days": "Sat", "time": "11:45am"}, {"days": "Sun", "time": "Closed"}], "id": "2335000001", "name": "USPS COLLECTION BOX - BLUE BOX", "address": {"city": "EXMORE", "state": "VA", "street": "12144 BANK AVE", "postcode": "23350"}}},
{"geometry": {"type": "Point", "coordinates": [-75.8783790757, 37.520142902]}, "type": "Feature", "properties": {"collection_times": [{"days": "Mon-Sat", "time": "10:00am"}, {"days": "Sun", "time": "Closed"}], "id": "2335000002", "name": "USPS COLLECTION BOX - BLUE BOX", "address": {"city": "EXMORE", "state": "VA", "street": "4072 LANKFORD HWY", "postcode": "23350"}}},
{"geometry": {"type": "Point", "coordinates": [-75.8783790757, 37.520142902]}, "type": "Feature", "properties": {"collection_times": [{"days": "Mon-Fri", "time": "10:00am"}, {"days": "Sat-Sun", "time": "Closed"}], "id": "2335000003", "name": "USPS COLLECTION BOX - EXPRESS", "address": {"city": "EXMORE", "state": "VA", "street": "4072 LANKFORD HWY", "postcode": "23350"}}},
{"geometry": {"type": "Point", "coordinates": [-75.8220629369, 37.5314181565]}, "type": "Feature", "properties": {"collection_times": [{"days": "Mon-Fri", "time": "4:15pm"}, {"days": "Sat", "time": "11:45am"}, {"days": "Sun", "time": "Closed"}], "id": "2335000004", "name": "USPS COLLECTION BOX - PO LOBBY", "address": {"city": "EXMORE", "state": "VA", "street": "12144 BANK AVE", "postcode": "23350"}}},
{"geometry": {"type": "Point", "coordinates": [-75.8780120168, 37.4769856461]}, "type": "Feature", "properties": {"collection_times": [{"days": "Mon-Fri", "time": "4:30pm"}, {"days": "Sat", "time": "11:45am"}, {"days": "Sun", "time": "Closed"}], "id": "2335400001", "name": "USPS COLLECTION BOX - BLUE BOX", "address": {"city": "FRANKTOWN", "state": "VA", "street": "9135 FRANKTOWN RD", "postcode": "23354"}}},
{"geometry": {"type": "Point", "coordinates": [-75.8780120168, 37.4769856461]}, "type": "Feature", "properties": {"collection_times": [{"days": "Mon-Fri", "time": "4:30pm"}, {"days": "Sat", "time": "11:45am"}, {"days": "Sun", "time": "Closed"}], "id": "2335400002", "name": "USPS COLLECTION BOX - PO LOBBY", "address": {"city": "FRANKTOWN", "state": "VA", "street": "9135 FRANKTOWN RD", "postcode": "23354"}}},
{"geometry": {"type": "Point", "coordinates": [-75.3898701287, 38.0114976201]}, "type": "Feature", "properties": {"collection_times": [{"days": "Mon-Fri", "time": "4:30pm"}, {"days": "Sat", "time": "11:45am"}, {"days": "Sun", "time": "Closed"}], "id": "2335600001", "name": "USPS COLLECTION BOX - BLUE BOX", "address": {"city": "GREENBACKVILLE", "state": "VA", "street": "1529 STOCKTON AVE", "postcode": "23356"}}},
{"geometry": {"type": "Point", "coordinates": [-75.4156098354, 37.9939392119]}, "type": "Feature", "properties": {"collection_times": [{"days": "Mon-Sat", "time": "11:00am"}, {"days": "Sun", "time": "Closed"}], "id": "2335600002", "name": "USPS COLLECTION BOX - BLUE BOX", "address": {"city": "GREENBACKVILLE", "state": "VA", "street": "3334 CAPTAINS CORRIDOR", "postcode": "23356"}}},
{"geometry": {"type": "Point", "coordinates": [-75.3898701287, 38.0114976201]}, "type": "Feature", "properties": {"collection_times": [{"days": "Mon-Fri", "time": "4:30pm"}, {"days": "Sat", "time": "11:45am"}, {"days": "Sun", "time": "Closed"}], "id": "2335600003", "name": "USPS COLLECTION BOX - PO LOBBY", "address": {"city": "GREENBACKVILLE", "state": "VA", "street": "1529 STOCKTON AVE", "postcode": "23356"}}},
{"geometry": {"type": "Point", "coordinates": [-75.4151884543, 38.0010916067]}, "type": "Feature", "properties": {"collection_times": [{"days": "Mon-Sat", "time": "10:30am"}, {"days": "Sun", "time": "Closed"}], "id": "2335600004", "name": "USPS COLLECTION BOX - BLUE BOX", "address": {"city": "GREENBACKVILLE", "state": "VA", "street": "4231 CAPTAINS CORRIDOR", "postcode": "23356"}}},
{"geometry": {"type": "Point", "coordinates": [-75.681706184, 37.7415695674]}, "type": "Feature", "properties": {"collection_times": [{"days": "Mon-Fri", "time": "4:45pm"}, {"days": "Sat", "time": "11:45am"}, {"days": "Sun", "time": "Closed"}], "id": "2335700001", "name": "USPS COLLECTION BOX - BLUE BOX", "address": {"city": "GREENBUSH", "state": "VA", "street": "21988 GREENBUSH RD", "postcode": "23357"}}},
{"geometry": {"type": "Point", "coordinates": [-75.5923224033, 37.8781982398]}, "type": "Feature", "properties": {"collection_times": [{"days": "Mon-Fri", "time": "4:30pm"}, {"days": "Sat", "time": "11:45am"}, {"days": "Sun", "time": "Closed"}], "id": "2335900001", "name": "USPS COLLECTION BOX - BLUE BOX", "address": {"city": "HALLWOOD", "state": "VA", "street": "27497 MAIN ST", "postcode": "23359"}}},
{"geometry": {"type": "Point", "coordinates": [-75.5923224033, 37.8781982398]}, "type": "Feature", "properties": {"collection_times": [{"days": "Mon-Fri", "time": "4:30pm"}, {"days": "Sat", "time": "11:45am"}, {"days": "Sun", "time": "Closed"}], "id": "2335900002", "name": "USPS COLLECTION BOX - PO LOBBY", "address": {"city": "HALLWOOD", "state": "VA", "street": "27497 MAIN ST", "postcode": "23359"}}},
{"geometry": {"type": "Point", "coordinates": [-75.8307867285, 37.661602387]}, "type": "Feature", "properties": {"collection_times": [{"days": "Mon-Fri", "time": "4:15pm"}, {"days": "Sat", "time": "11:30am"}, {"days": "Sun", "time": "Closed"}], "id": "2338900001", "name": "USPS COLLECTION BOX - BLUE BOX", "address": {"city": "HARBORTON", "state": "VA", "street": "28059 DOCKVIEW ST", "postcode": "23389"}}},
{"geometry": {"type": "Point", "coordinates": [-75.8307867285, 37.661602387]}, "type": "Feature", "properties": {"collection_times": [{"days": "Mon-Fri", "time": "4:15pm"}, {"days": "Sat", "time": "11:30am"}, {"days": "Sun", "time": "Closed"}], "id": "2338900002", "name": "USPS COLLECTION BOX - PO LOBBY", "address": {"city": "HARBORTON", "state": "VA", "street": "28059 DOCKVIEW ST", "postcode": "23389"}}},
{"geometry": {"type": "Point", "coordinates": [-75.4759420855, 37.9641194716]}, "type": "Feature", "properties": {"collection_times": [{"days": "Mon-Fri", "time": "4:30pm"}, {"days": "Sat", "time": "11:45am"}, {"days": "Sun", "time": "Closed"}], "id": "2339500000", "name": "USPS COLLECTION BOX - BLUE BOX", "address": {"city": "HORNTOWN", "state": "VA", "street": "4581 FLEMING RD", "postcode": "23395"}}},
{"geometry": {"type": "Point", "coordinates": [-75.4759420855, 37.9641194716]}, "type": "Feature", "properties": {"collection_times": [{"days": "Mon-Fri", "time": "4:30pm"}, {"days": "Sat", "time": "11:45am"}, {"days": "Sun", "time": "Closed"}], "id": "2339500001", "name": "USPS COLLECTION BOX - PO LOBBY", "address": {"city": "HORNTOWN", "state": "VA", "street": "4581 FLEMING RD", "postcode": "23395"}}},
{"geometry": {"type": "Point", "coordinates": [-76.7088399769, 36.9070409009]}, "type": "Feature", "properties": {"collection_times": [{"days": "Mon-Fri", "time": "3:45pm"}, {"days": "Sat", "time": "11:30am"}, {"days": "Sun", "time": "Closed"}], "id": "2339700001", "name": "USPS COLLECTION BOX - BLUE BOX", "address": {"city": "ISLE OF WIGHT", "state": "VA", "street": "17161 COURTHOUSE HWY", "postcode": "23397"}}},
{"geometry": {"type": "Point", "coordinates": [-76.711259503, 36.9055008848]}, "type": "Feature", "properties": {"collection_times": [{"days": "Mon-Fri", "time": "4:00pm"}, {"days": "Sat", "time": "11:30am"}, {"days": "Sun", "time": "Closed"}], "id": "2339700002", "name": "USPS COLLECTION BOX - PO LOBBY", "address": {"city": "ISLE OF WIGHT", "state": "VA", "street": "17161 COURTHOUSE HWY", "postcode": "23397"}}},
{"geometry": {"type": "Point", "coordinates": [-75.9259049587, 37.5182144214]}, "type": "Feature", "properties": {"collection_times": [{"days": "Mon-Fri", "time": "4:30pm"}, {"days": "Sat", "time": "11:30am"}, {"days": "Sun", "time": "Closed"}], "id": "2339800001", "name": "USPS COLLECTION BOX - BLUE BOX", "address": {"city": "JAMESVILLE", "state": "VA", "street": "6010 OCCOHANNOCK NECK RD", "postcode": "23398"}}},
{"geometry": {"type": "Point", "coordinates": [-75.9259049587, 37.5182144214]}, "type": "Feature", "properties": {"collection_times": [{"days": "Mon-Fri", "time": "4:30pm"}, {"days": "Sat", "time": "11:30am"}, {"days": "Sun", "time": "Closed"}], "id": "2339800002", "name": "USPS COLLECTION BOX - PO LOBBY", "address": {"city": "JAMESVILLE", "state": "VA", "street": "6010 OCCOHANNOCK NECK RD", "postcode": "23398"}}}
]}
