{"type": "FeatureCollection", "features": [
{"geometry": {"type": "Point", "coordinates": [-75.7639794259, 37.6194002077]}, "type": "Feature", "properties": {"collection_times": [{"days": "Mon-Fri", "time": "4:00pm"}, {"days": "Sat", "time": "11:30am"}, {"days": "Sun", "time": "Closed"}], "id": "2340100001", "name": "USPS COLLECTION BOX - BLUE BOX", "address": {"city": "KELLER", "state": "VA", "street": "18243 1ST ST", "postcode": "23401"}}},
{"geometry": {"type": "Point", "coordinates": [-75.7639794259, 37.6194002077]}, "type": "Feature", "properties": {"collection_times": [{"days": "Mon-Fri", "time": "4:15pm"}, {"days": "Sat", "time": "11:30am"}, {"days": "Sun", "time": "Closed"}], "id": "2340100002", "name": "USPS COLLECTION BOX - PO LOBBY", "address": {"city": "KELLER", "state": "VA", "street": "18243 1ST ST", "postcode": "23401"}}},
{"geometry": {"type": "Point", "coordinates": [-75.6919219116, 37.651166874]}, "type": "Feature", "properties": {"collection_times": [{"days": "Mon-Fri", "time": "2:15pm"}, {"days": "Sat", "time": "11:45am"}, {"days": "Sun", "time": "Closed"}], "id": "2340400001", "name": "USPS COLLECTION BOX - BLUE BOX", "address": {"city": "LOCUSTVILLE", "state": "VA", "street": "28033 DRUMMONDTOWN RD", "postcode": "23404"}}},
{"geometry": {"type": "Point", "coordinates": [-75.6919219116, 37.651166874]}, "type": "Feature", "properties": {"collection_times": [{"days": "Mon-Fri", "time": "2:15pm"}, {"days": "Sat", "time": "11:45am"}, {"days": "Sun", "time": "Closed"}], "id": "2340400002", "name": "USPS COLLECTION BOX - PO LOBBY", "address": {"city": "LOCUSTVILLE", "state": "VA", "street": "28033 DRUMMONDTOWN RD", "postcode": "23404"}}},
{"geometry": {"type": "Point", "coordinates": [-75.9032479461, 37.4030120046]}, "type": "Feature", "properties": {"collection_times": [{"days": "Mon-Fri", "time": "4:15pm"}, {"days": "Sat", "time": "11:45am"}, {"days": "Sun", "time": "Closed"}], "id": "2340500001", "name": "USPS COLLECTION BOX - BLUE BOX", "address": {"city": "MACHIPONGO", "state": "VA", "street": "7414 MACHIPONGO DR", "postcode": "23405"}}},
{"geometry": {"type": "Point", "coordinates": [-75.9032479461, 37.4030120046]}, "type": "Feature", "properties": {"collection_times": [{"days": "Mon-Fri", "time": "4:15pm"}, {"days": "Sat", "time": "11:45am"}, {"days": "Sun", "time": "Closed"}], "id": "2340500002", "name": "USPS COLLECTION BOX - PO LOBBY", "address": {"city": "MACHIPONGO", "state": "VA", "street": "7414 MACHIPONGO DR", "postcode": "23405"}}},
{"geometry": {"type": "Point", "coordinates": [-75.5716563692, 37.8390021031]}, "type": "Feature", "properties": {"collection_times": [{"days": "Mon-Fri", "time": "4:15pm"}, {"days": "Sat", "time": "11:15am"}, {"days": "Sun", "time": "Closed"}], "id": "2340700001", "name": "USPS COLLECTION BOX - BLUE BOX", "address": {"city": "MAPPSVILLE", "state": "VA", "street": "14148 LANKFORD HWY", "postcode": "23407"}}},
{"geometry": {"type": "Point", "coordinates": [-75.5716563692, 37.8390021031]}, "type": "Feature", "properties": {"collection_times": [{"days": "Mon-Fri", "time": "4:15pm"}, {"days": "Sat", "time": "11:15am"}, {"days": "Sun", "time": "Closed"}], "id": "2340700002", "name": "USPS COLLECTION BOX - PO LOBBY", "address": {"city": "MAPPSVILLE", "state": "VA", "street": "14148 LANKFORD HWY", "postcode": "23407"}}},
{"geometry": {"type": "Point", "coordinates": [-75.864436116, 37.4544325406]}, "type": "Feature", "properties": {"collection_times": [{"days": "Mon-Sat", "time": "11:45am"}, {"days": "Sun", "time": "Closed"}], "id": "2340800000", "name": "USPS COLLECTION BOX - BLUE BOX", "address": {"city": "MARIONVILLE", "state": "VA", "street": "9095 SEASIDE RD", "postcode": "23408"}}},
{"geometry": {"type": "Point", "coordinates": [-75.864436116, 37.4544325406]}, "type": "Feature", "properties": {"collection_times": [{"days": "Mon-Sat", "time": "11:45am"}, {"days": "Sun", "time": "Closed"}], "id": "2340800001", "name": "USPS COLLECTION BOX - PO LOBBY", "address": {"city": "MARIONVILLE", "state": "VA", "street": "9095 SEASIDE RD", "postcode": "23408"}}},
{"geometry": {"type": "Point", "coordinates": [-75.7476986021, 37.6571142819]}, "type": "Feature", "properties": {"collection_times": [{"days": "Mon-Fri", "time": "4:30pm"}, {"days": "Sat", "time": "12:00pm"}, {"days": "Sun", "time": "Closed"}], "id": "2341000001", "name": "USPS COLLECTION BOX - BLUE BOX", "address": {"city": "MELFA", "state": "VA", "street": "19268 AIRPORT DR", "postcode": "23410"}}},
{"geometry": {"type": "Point", "coordinates": [-75.7476986021, 37.6571142819]}, "type": "Feature", "properties": {"collection_times": [{"days": "Mon-Fri", "time": "4:30pm"}, {"days": "Sat", "time": "12:00pm"}, {"days": "Sun", "time": "Closed"}], "id": "2341000002", "name": "USPS COLLECTION BOX - PO LOBBY", "address": {"city": "MELFA", "state": "VA", "street": "19268 AIRPORT DR", "postcode": "23410"}}},
{"geometry": {"type": "Point", "coordinates": [-75.7476986021, 37.6571142819]}, "type": "Feature", "properties": {"collection_times": [{"days": "Mon-Fri", "time": "4:30pm"}, {"days": "Sat", "time": "12:00pm"}, {"days": "Sun", "time": "Closed"}], "id": "2341000003", "name": "USPS COLLECTION BOX - PO LOBBY", "address": {"city": "MELFA", "state": "VA", "street": "19268 AIRPORT DR", "postcode": "23410"}}},
{"geometry": {"type": "Point", "coordinates": [-75.8578304205, 37.4749582286]}, "type": "Feature", "properties": {"collection_times": [{"days": "Mon-Fri", "time": "4:25pm"}, {"days": "Sat", "time": "11:55am"}, {"days": "Sun", "time": "Closed"}], "id": "2341300001", "name": "USPS COLLECTION BOX - BLUE BOX", "address": {"city": "NASSAWADOX", "state": "VA", "street": "10238 ROGERS RD", "postcode": "23413"}}},
{"geometry": {"type": "Point", "coordinates": [-75.8578304205, 37.4749582286]}, "type": "Feature", "properties": {"collection_times": [{"days": "Mon-Fri", "time": "4:45pm"}, {"days": "Sat", "time": "11:45am"}, {"days": "Sun", "time": "Closed"}], "id": "2341300003", "name": "USPS COLLECTION BOX - PO LOBBY", "address": {"city": "NASSAWADOX", "state": "VA", "street": "10238 ROGERS RD", "postcode": "23413"}}},
{"geometry": {"type": "Point", "coordinates": [-75.8578304205, 37.4749582286]}, "type": "Feature", "properties": {"collection_times": [{"days": "Mon-Fri", "time": "4:45pm"}, {"days": "Sat", "time": "11:45am"}, {"days": "Sun", "time": "Closed"}], "id": "2341300004", "name": "USPS COLLECTION BOX - PO LOBBY", "address": {"city": "NASSAWADOX", "state": "VA", "street": "10238 ROGERS RD", "postcode": "23413"}}},
{"geometry": {"type": "Point", "coordinates": [-75.8578304205, 37.4749582286]}, "type": "Feature", "properties": {"collection_times": [{"days": "Mon-Fri", "time": "4:45pm"}, {"days": "Sat", "time": "11:45am"}, {"days": "Sun", "time": "Closed"}], "id": "2341300005", "name": "USPS COLLECTION BOX - PO LOBBY", "address": {"city": "NASSAWADOX", "state": "VA", "street": "10238 ROGERS RD", "postcode": "23413"}}},
{"geometry": {"type": "Point", "coordinates": [-75.5881488416, 37.8193625919]}, "type": "Feature", "properties": {"collection_times": [{"days": "Mon-Fri", "time": "4:30pm"}, {"days": "Sat", "time": "11:30am"}, {"days": "Sun", "time": "Closed"}], "id": "2341400001", "name": "USPS COLLECTION BOX - BLUE BOX", "address": {"city": "NELSONIA", "state": "VA", "street": "16150 LANKFORD HWY", "postcode": "23414"}}},
{"geometry": {"type": "Point", "coordinates": [-75.5881488416, 37.8193625919]}, "type": "Feature", "properties": {"collection_times": [{"days": "Mon-Fri", "time": "4:45pm"}, {"days": "Sat", "time": "11:45am"}, {"days": "Sun", "time": "Closed"}], "id": "2341400002", "name": "USPS COLLECTION BOX - PO LOBBY", "address": {"city": "NELSONIA", "state": "VA", "street": "16150 LANKFORD HWY", "postcode": "23414"}}},
{"geometry": {"type": "Point", "coordinates": [-75.5310720233, 37.9755031477]}, "type": "Feature", "properties": {"collection_times": [{"days": "Mon-Fri", "time": "4:00pm"}, {"days": "Sat", "time": "11:00am"}, {"days": "Sun", "time": "Closed"}], "id": "2341500001", "name": "USPS COLLECTION BOX - BLUE BOX", "address": {"city": "NEW CHURCH", "state": "VA", "street": "4136 LANKFORD HWY", "postcode": "23415"}}},
{"geometry": {"type": "Point", "coordinates": [-75.5310720233, 37.9755031477]}, "type": "Feature", "properties": {"collection_times": [{"days": "Mon-Fri", "time": "4:15pm"}, {"days": "Sat", "time": "11:15am"}, {"days": "Sun", "time": "Closed"}], "id": "2341500005", "name": "USPS COLLECTION BOX - PO LOBBY", "address": {"city": "NEW CHURCH", "state": "VA", "street": "4136 LANKFORD HWY", "postcode": "23415"}}},
{"geometry": {"type": "Point", "coordinates": [-75.5492472316, 37.9245765914]}, "type": "Feature", "properties": {"collection_times": [{"days": "Mon-Fri", "time": "4:15pm"}, {"days": "Sat", "time": "11:45am"}, {"days": "Sun", "time": "Closed"}], "id": "2341600001", "name": "USPS COLLECTION BOX - BLUE BOX", "address": {"city": "OAK HALL", "state": "VA", "street": "8133 LANKFORD HWY", "postcode": "23416"}}},
{"geometry": {"type": "Point", "coordinates": [-75.5492472316, 37.9245765914]}, "type": "Feature", "properties": {"collection_times": [{"days": "Mon-Fri", "time": "4:30pm"}, {"days": "Sat", "time": "11:45am"}, {"days": "Sun", "time": "Closed"}], "id": "2341600002", "name": "USPS COLLECTION BOX - PO LOBBY", "address": {"city": "OAK HALL", "state": "VA", "street": "8133 LANKFORD HWY", "postcode": "23416"}}},
{"geometry": {"type": "Point", "coordinates": [-75.5492472316, 37.9245765914]}, "type": "Feature", "properties": {"collection_times": [{"days": "Mon-Fri", "time": "4:30pm"}, {"days": "Sat", "time": "11:45am"}, {"days": "Sun", "time": "Closed"}], "id": "2341600003", "name": "USPS COLLECTION BOX - PO LOBBY", "address": {"city": "OAK HALL", "state": "VA", "street": "8133 LANKFORD HWY", "postcode": "23416"}}},
{"geometry": {"type": "Point", "coordinates": [-75.7508548881, 37.7119996767]}, "type": "Feature", "properties": {"collection_times": [{"days": "Mon-Fri", "time": "4:30pm"}, {"days": "Sat", "time": "12:30pm"}, {"days": "Sun", "time": "Closed"}], "id": "2341700006", "name": "USPS COLLECTION BOX - BLUE BOX", "address": {"city": "ONANCOCK", "state": "VA", "street": "22 MARKET ST", "postcode": "23417"}}},
{"geometry": {"type": "Point", "coordinates": [-75.7499085762, 37.7121810202]}, "type": "Feature", "properties": {"collection_times": [{"days": "Mon-Fri", "time": "4:30pm"}, {"days": "Sat", "time": "12:30pm"}, {"days": "Sun", "time": "Closed"}], "id": "2341700007", "name": "USPS COLLECTION BOX - BLUE BOX", "address": {"city": "ONANCOCK", "state": "VA", "street": "35 MARKET ST", "postcode": "23417"}}},
{"geometry": {"type": "Point", "coordinates": [-75.7499085762, 37.7121810202]}, "type": "Feature", "properties": {"collection_times": [{"days": "Mon-Fri", "time": "4:30pm"}, {"days": "Sat", "time": "12:30pm"}, {"days": "Sun", "time": "Closed"}], "id": "2341700009", "name": "USPS COLLECTION BOX - PO LOBBY", "address": {"city": "ONANCOCK", "state": "VA", "street": "35 MARKET ST", "postcode": "23417"}}},
{"geometry": {"type": "Point", "coordinates": [-75.717059298, 37.6904701638]}, "type": "Feature", "properties": {"collection_times": [{"days": "Mon-Fri", "time": "4:30pm"}, {"days": "Sat", "time": "12:00pm"}, {"days": "Sun", "time": "Closed"}], "id": "2341800001", "name": "USPS COLLECTION BOX - BLUE BOX", "address": {"city": "ONLEY", "state": "VA", "street": "25468 COASTAL BLVD", "postcode": "23418"}}},
{"geometry": {"type": "Point", "coordinates": [-75.6853461651, 37.6700309831]}, "type": "Feature", "properties": {"collection_times": [{"days": "Mon-Fri", "time": "3:00pm"}, {"days": "Sat", "time": "12:00pm"}, {"days": "Sun", "time": "Closed"}], "id": "2341800002", "name": "USPS COLLECTION BOX - BLUE BOX", "address": {"city": "ONLEY", "state": "VA", "street": "25274 LANKFORD HWY", "postcode": "23418"}}},
{"geometry": {"type": "Point", "coordinates": [-75.717059298, 37.6904701638]}, "type": "Feature", "properties": {"collection_times": [{"days": "Mon-Fri", "time": "4:45pm"}, {"days": "Sat", "time": "12:00pm"}, {"days": "Sun", "time": "Closed"}], "id": "2341800003", "name": "USPS COLLECTION BOX - PO LOBBY", "address": {"city": "ONLEY", "state": "VA", "street": "25468 COASTAL BLVD", "postcode": "23418"}}},
{"geometry": {"type": "Point", "coordinates": [-75.7852689944, 37.5863328432]}, "type": "Feature", "properties": {"collection_times": [{"days": "Mon-Fri", "time": "4:30pm"}, {"days": "Sat", "time": "12:00pm"}, {"days": "Sun", "time": "Closed"}], "id": "2342000001", "name": "USPS COLLECTION BOX - BLUE BOX", "address": {"city": "PAINTER", "state": "VA", "street": "33280 HICKMAN ST", "postcode": "23420"}}},
{"geometry": {"type": "Point", "coordinates": [-75.7852689944, 37.5863328432]}, "type": "Feature", "properties": {"collection_times": [{"days": "Mon-Fri", "time": "4:30pm"}, {"days": "Sat", "time": "12:00pm"}, {"days": "Sun", "time": "Closed"}], "id": "2342000003", "name": "USPS COLLECTION BOX - PO LOBBY", "address": {"city": "PAINTER", "state": "VA", "street": "33280 HICKMAN ST", "postcode": "23420"}}},
{"geometry": {"type": "Point", "coordinates": [-75.6504567534, 37.7824894606]}, "type": "Feature", "properties": {"collection_times": [{"days": "Mon-Fri", "time": "4:30pm"}, {"days": "Sat", "time": "12:00pm"}, {"days": "Sun", "time": "Closed"}], "id": "2342100001", "name": "USPS COLLECTION BOX - BLUE BOX", "address": {"city": "PARKSLEY", "state": "VA", "street": "24290 COOKE ST", "postcode": "23421"}}},
{"geometry": {"type": "Point", "coordinates": [-75.6504567534, 37.7824894606]}, "type": "Feature", "properties": {"collection_times": [{"days": "Mon-Fri", "time": "4:30pm"}, {"days": "Sat", "time": "12:00pm"}, {"days": "Sun", "time": "Closed"}], "id": "2342100002", "name": "USPS COLLECTION BOX - PO LOBBY", "address": {"city": "PARKSLEY", "state": "VA", "street": "24290 COOKE ST", "postcode": "23421"}}},
{"geometry": {"type": "Point", "coordinates": [-75.8141077544, 37.6305103867]}, "type": "Feature", "properties": {"collection_times": [{"days": "Mon-Fri", "time": "4:15pm"}, {"days": "Sat", "time": "11:00am"}, {"days": "Sun", "time": "Closed"}], "id": "2342200001", "name": "USPS COLLECTION BOX - BLUE BOX", "address": {"city": "PUNGOTEAGUE", "state": "VA", "street": "30296 BOBTOWN RD", "postcode": "23422"}}},
{"geometry": {"type": "Point", "coordinates": [-75.8141077544, 37.6305103867]}, "type": "Feature", "properties": {"collection_times": [{"days": "Mon-Fri", "time": "4:30pm"}, {"days": "Sat", "time": "11:30am"}, {"days": "Sun", "time": "Closed"}], "id": "2342200002", "name": "USPS COLLECTION BOX - PO LOBBY", "address": {"city": "PUNGOTEAGUE", "state": "VA", "street": "30296 BOBTOWN RD", "postcode": "23422"}}},
{"geometry": {"type": "Point", "coordinates": [-75.7315671432, 37.5561053369]}, "type": "Feature", "properties": {"collection_times": [{"days": "Mon-Fri", "time": "4:30pm"}, {"days": "Sat", "time": "11:30am"}, {"days": "Sun", "time": "Closed"}], "id": "2342300001", "name": "USPS COLLECTION BOX - BLUE BOX", "address": {"city": "QUINBY", "state": "VA", "street": "35369 UPSHURS NECK RD", "postcode": "23423"}}},
{"geometry": {"type": "Point", "coordinates": [-75.7315671432, 37.5561053369]}, "type": "Feature", "properties": {"collection_times": [{"days": "Mon-Fri", "time": "4:30pm"}, {"days": "Sat", "time": "11:45am"}, {"days": "Sun", "time": "Closed"}], "id": "2342300002", "name": "USPS COLLECTION BOX - PO LOBBY", "address": {"city": "QUINBY", "state": "VA", "street": "35369 UPSHURS NECK RD", "postcode": "23423"}}},
{"geometry": {"type": "Point", "coordinates": [-76.5545227628, 36.9964524373]}, "type": "Feature", "properties": {"collection_times": [{"days": "Mon-Fri", "time": "4:15pm"}, {"days": "Sat", "time": "11:45am"}, {"days": "Sun", "time": "Closed"}], "id": "2342400001", "name": "USPS COLLECTION BOX - BLUE BOX", "address": {"city": "RESCUE", "state": "VA", "street": "21148 RESCUE RD", "postcode": "23424"}}},
{"geometry": {"type": "Point", "coordinates": [-76.5545227628, 36.9964524373]}, "type": "Feature", "properties": {"collection_times": [{"days": "Mon-Fri", "time": "4:15pm"}, {"days": "Sat", "time": "11:45am"}, {"days": "Sun", "time": "Closed"}], "id": "2342400002", "name": "USPS COLLECTION BOX - PO LOBBY", "address": {"city": "RESCUE", "state": "VA", "street": "21148 RESCUE RD", "postcode": "23424"}}},
{"geometry": {"type": "Point", "coordinates": [-75.7202250164, 37.9241781646]}, "type": "Feature", "properties": {"collection_times": [{"days": "Mon-Fri", "time": "3:30pm"}, {"days": "Sat", "time": "8:00am"}, {"days": "Sun", "time": "Closed"}], "id": "2342700001", "name": "USPS COLLECTION BOX - BLUE BOX", "address": {"city": "SAXIS", "state": "VA", "street": "20264 SAXIS RD", "postcode": "23427"}}},
{"geometry": {"type": "Point", "coordinates": [-75.7202250164, 37.9241781646]}, "type": "Feature", "properties": {"collection_times": [{"days": "Mon-Fri", "time": "4:00pm"}, {"days": "Sat", "time": "9:45am"}, {"days": "Sun", "time": "Closed"}], "id": "2342700002", "name": "USPS COLLECTION BOX - PO LOBBY", "address": {"city": "SAXIS", "state": "VA", "street": "20264 SAXIS RD", "postcode": "23427"}}},
{"geometry": {"type": "Point", "coordinates": [-76.6339374573, 36.9813629589]}, "type": "Feature", "properties": {"collection_times": [{"days": "Mon-Fri", "time": "5:00pm"}, {"days": "Sat", "time": "4:00pm"}, {"days": "Sun", "time": "Closed"}], "id": "2343000001", "name": "USPS COLLECTION BOX - BLUE BOX", "address": {"city": "SMITHFIELD", "state": "VA", "street": "107 INSTITUTE ST", "postcode": "23430"}}},
{"geometry": {"type": "Point", "coordinates": [-76.6334169553, 36.9810542066]}, "type": "Feature", "properties": {"collection_times": [{"days": "Mon-Fri", "time": "5:00pm"}, {"days": "Sat", "time": "4:00pm"}, {"days": "Sun", "time": "Closed"}], "id": "2343000002", "name": "USPS COLLECTION BOX - BLUE BOX", "address": {"city": "SMITHFIELD", "state": "VA", "street": "234 MAIN ST", "postcode": "23430"}}},
{"geometry": {"type": "Point", "coordinates": [-76.6535273248, 37.0003070271]}, "type": "Feature", "properties": {"collection_times": [{"days": "Mon-Sat", "time": "10:30am"}, {"days": "Sun", "time": "Closed"}], "id": "2343000004", "name": "USPS COLLECTION BOX - BLUE BOX", "address": {"city": "SMITHFIELD", "state": "VA", "street": "1282 SMITHFIELD PLZ", "postcode": "23430"}}},
{"geometry": {"type": "Point", "coordinates": [-76.6056540914, 36.9629880572]}, "type": "Feature", "properties": {"collection_times": [{"days": "Mon-Sat", "time": "11:30am"}, {"days": "Sun", "time": "Closed"}], "id": "2343000005", "name": "USPS COLLECTION BOX - BLUE BOX", "address": {"city": "SMITHFIELD", "state": "VA", "street": "1915 S CHURCH ST", "postcode": "23430"}}},
{"geometry": {"type": "Point", "coordinates": [-76.611373698, 36.975968666]}, "type": "Feature", "properties": {"collection_times": [{"days": "Mon-Sat", "time": "11:30am"}, {"days": "Sun", "time": "Closed"}], "id": "2343000006", "name": "USPS COLLECTION BOX - BLUE BOX", "address": {"city": "SMITHFIELD", "state": "VA", "street": "1001 S CHURCH ST", "postcode": "23430"}}},
{"geometry": {"type": "Point", "coordinates": [-76.5928148357, 36.9439536369]}, "type": "Feature", "properties": {"collection_times": [{"days": "Mon-Sat", "time": "11:30am"}, {"days": "Sun", "time": "Closed"}], "id": "2343000010", "name": "USPS COLLECTION BOX - BLUE BOX", "address": {"city": "SMITHFIELD", "state": "VA", "street": "19097 WHITE OAK DR", "postcode": "23430"}}},
{"geometry": {"type": "Point", "coordinates": [-76.6334169553, 36.9810542066]}, "type": "Feature", "properties": {"collection_times": [{"days": "Mon-Fri", "time": "5:00pm"}, {"days": "Sat", "time": "4:00pm"}, {"days": "Sun", "time": "Closed"}], "id": "2343000013", "name": "USPS COLLECTION BOX - PO LOBBY", "address": {"city": "SMITHFIELD", "state": "VA", "street": "234 MAIN ST", "postcode": "23430"}}},
{"geometry": {"type": "Point", "coordinates": [-76.5799721479, 36.8614611547]}, "type": "Feature", "properties": {"collection_times": [{"days": "Mon-Fri", "time": "12:45pm"}, {"days": "Sat", "time": "12:00pm"}, {"days": "Sun", "time": "Closed"}], "id": "2343200001", "name": "USPS COLLECTION BOX - PO LOBBY", "address": {"city": "SUFFOLK", "state": "VA", "street": "109 KINGS HWY", "postcode": "23432"}}},
{"geometry": {"type": "Point", "coordinates": [-76.5799721479, 36.8614611547]}, "type": "Feature", "properties": {"collection_times": [{"days": "Mon-Fri", "time": "12:45pm"}, {"days": "Sat", "time": "12:00pm"}, {"days": "Sun", "time": "Closed"}], "id": "2343200002", "name": "USPS COLLECTION BOX - BLUE BOX", "address": {"city": "SUFFOLK", "state": "VA", "street": "109 KINGS HWY", "postcode": "23432"}}},
{"geometry": {"type": "Point", "coordinates": [-76.4979161036, 36.9064154107]}, "type": "Feature", "properties": {"collection_times": [{"days": "Mon-Fri", "time": "12:45pm"}, {"days": "Sat", "time": "12:00pm"}, {"days": "Sun", "time": "Closed"}], "id": "2343300001", "name": "USPS COLLECTION BOX - BLUE BOX", "address": {"city": "SUFFOLK", "state": "VA", "street": "1605 BRIDGE RD", "postcode": "23433"}}},
{"geometry": {"type": "Point", "coordinates": [-76.4979161036, 36.9064154107]}, "type": "Feature", "properties": {"collection_times": [{"days": "Mon-Fri", "time": "12:45pm"}, {"days": "Sat", "time": "12:00pm"}, {"days": "Sun", "time": "Closed"}], "id": "2343300002", "name": "USPS COLLECTION BOX - PO LOBBY", "address": {"city": "SUFFOLK", "state": "VA", "street": "1605 BRIDGE RD", "postcode": "23433"}}},
{"geometry": {"type": "Point", "coordinates": [-76.5826147826, 36.7297357574]}, "type": "Feature", "properties": {"collection_times": [{"days": "Mon-Fri", "time": "4:45pm"}, {"days": "Sat", "time": "1:30pm"}, {"days": "Sun", "time": "Closed"}], "id": "2343400010", "name": "USPS COLLECTION BOX - BLUE BOX", "address": {"city": "SUFFOLK", "state": "VA", "street": "200 N MAIN ST", "postcode": "23434"}}},
{"geometry": {"type": "Point", "coordinates": [-76.5830465626, 36.7285681769]}, "type": "Feature", "properties": {"collection_times": [{"days": "Mon-Fri", "time": "4:45pm"}, {"days": "Sat", "time": "1:30pm"}, {"days": "Sun", "time": "Closed"}], "id": "2343400011", "name": "USPS COLLECTION BOX - BLUE BOX", "address": {"city": "SUFFOLK", "state": "VA", "street": "118 N MAIN ST", "postcode": "23434"}}},
{"geometry": {"type": "Point", "coordinates": [-76.5821186346, 36.7351483472]}, "type": "Feature", "properties": {"collection_times": [{"days": "Mon-Fri", "time": "5:30pm"}, {"days": "Sat", "time": "2:30pm"}, {"days": "Sun", "time": "Closed"}], "id": "2343400034", "name": "USPS COLLECTION BOX - BLUE BOX", "address": {"city": "SUFFOLK", "state": "VA", "street": "445 N MAIN ST", "postcode": "23434"}}},
{"geometry": {"type": "Point", "coordinates": [-76.5888111216, 36.7311742355]}, "type": "Feature", "properties": {"collection_times": [{"days": "Mon-Fri", "time": "4:45pm"}, {"days": "Sat", "time": "1:00pm"}, {"days": "Sun", "time": "Closed"}], "id": "2343400040", "name": "USPS COLLECTION BOX - BLUE BOX", "address": {"city": "SUFFOLK", "state": "VA", "street": "441 MARKET ST", "postcode": "23434"}}},
{"geometry": {"type": "Point", "coordinates": [-76.5837743497, 36.7525371195]}, "type": "Feature", "properties": {"collection_times": [{"days": "Mon-Sat", "time": "2:00pm"}, {"days": "Sun", "time": "Closed"}], "id": "2343400044", "name": "USPS COLLECTION BOX - BLUE BOX", "address": {"city": "SUFFOLK", "state": "VA", "street": "1413 N MAIN ST", "postcode": "23434"}}},
{"geometry": {"type": "Point", "coordinates": [-76.5924546352, 36.7626042722]}, "type": "Feature", "properties": {"collection_times": [{"days": "Mon-Fri", "time": "5:00pm"}, {"days": "Sat", "time": "2:00pm"}, {"days": "Sun", "time": "Closed"}], "id": "2343400046", "name": "USPS COLLECTION BOX - BLUE BOX", "address": {"city": "SUFFOLK", "state": "VA", "street": "2470 PRUDEN BLVD", "postcode": "23434"}}},
{"geometry": {"type": "Point", "coordinates": [-76.5840670765, 36.7719475145]}, "type": "Feature", "properties": {"collection_times": [{"days": "Mon-Fri", "time": "5:00pm"}, {"days": "Sat", "time": "2:00pm"}, {"days": "Sun", "time": "Closed"}], "id": "2343400047", "name": "USPS COLLECTION BOX - BLUE BOX", "address": {"city": "SUFFOLK", "state": "VA", "street": "2815 GODWIN BLVD", "postcode": "23434"}}},
{"geometry": {"type": "Point", "coordinates": [-76.5821186346, 36.7351483472]}, "type": "Feature", "properties": {"collection_times": [{"days": "Mon-Fri", "time": "5:30pm"}, {"days": "Sat", "time": "2:30pm"}, {"days": "Sun", "time": "Closed"}], "id": "2343400049", "name": "USPS COLLECTION BOX - PO LOBBY", "address": {"city": "SUFFOLK", "state": "VA", "street": "445 N MAIN ST", "postcode": "23434"}}},
{"geometry": {"type": "Point", "coordinates": [-76.5826147826, 36.7297357574]}, "type": "Feature", "properties": {"collection_times": [{"days": "Mon-Fri", "time": "4:45pm"}, {"days": "Sat", "time": "1:30pm"}, {"days": "Sun", "time": "Closed"}], "id": "2343400051", "name": "USPS COLLECTION BOX - BLUE BOX", "address": {"city": "SUFFOLK", "state": "VA", "street": "200 N MAIN ST", "postcode": "23434"}}},
{"geometry": {"type": "Point", "coordinates": [-76.583810192, 36.7714977336]}, "type": "Feature", "properties": {"collection_times": [{"days": "Mon-Fri", "time": "5:00pm"}, {"days": "Sat", "time": "2:00pm"}, {"days": "Sun", "time": "Closed"}], "id": "2343400055", "name": "USPS COLLECTION BOX - BLUE BOX", "address": {"city": "SUFFOLK", "state": "VA", "street": "2790 GODWIN BLVD", "postcode": "23434"}}},
{"geometry": {"type": "Point", "coordinates": [-76.5821186346, 36.7351483472]}, "type": "Feature", "properties": {"collection_times": [{"days": "Mon-Fri", "time": "5:30pm"}, {"days": "Sat", "time": "2:30pm"}, {"days": "Sun", "time": "Closed"}], "id": "2343400057", "name": "USPS COLLECTION BOX - BLUE BOX", "address": {"city": "SUFFOLK", "state": "VA", "street": "445 N MAIN ST", "postcode": "23434"}}},
{"geometry": {"type": "Point", "coordinates": [-76.5821186346, 36.7351483472]}, "type": "Feature", "properties": {"collection_times": [{"days": "Mon-Fri", "time": "5:30pm"}, {"days": "Sat", "time": "2:30pm"}, {"days": "Sun", "time": "Closed"}], "id": "2343400059", "name": "USPS COLLECTION BOX - APC", "address": {"city": "SUFFOLK", "state": "VA", "street": "445 N MAIN ST", "postcode": "23434"}}},
{"geometry": {"type": "Point", "coordinates": [-76.504634624, 36.8390848523]}, "type": "Feature", "properties": {"collection_times": [{"days": "Mon-Fri", "time": "5:00pm"}, {"days": "Sat", "time": "3:30pm"}, {"days": "Sun", "time": "Closed"}], "id": "2343500001", "name": "USPS COLLECTION BOX - BLUE BOX", "address": {"city": "SUFFOLK", "state": "VA", "street": "4897 BENNETTS PASTURE RD", "postcode": "23435"}}},
{"geometry": {"type": "Point", "coordinates": [-76.504634624, 36.8390848523]}, "type": "Feature", "properties": {"collection_times": [{"days": "Mon-Fri", "time": "5:00pm"}, {"days": "Sat", "time": "3:30pm"}, {"days": "Sun", "time": "Closed"}], "id": "2343500002", "name": "USPS COLLECTION BOX - PO LOBBY", "address": {"city": "SUFFOLK", "state": "VA", "street": "4897 BENNETTS PASTURE RD", "postcode": "23435"}}},
{"geometry": {"type": "Point", "coordinates": [-76.4865289406, 36.8646853502]}, "type": "Feature", "properties": {"collection_times": [{"days": "Mon-Fri", "time": "1:30pm"}, {"days": "Sat", "time": "1:00pm"}, {"days": "Sun", "time": "Closed"}], "id": "2343500003", "name": "USPS COLLECTION BOX - BLUE BOX", "address": {"city": "SUFFOLK", "state": "VA", "street": "3131 BRIDGE RD", "postcode": "23435"}}},
{"geometry": {"type": "Point", "coordinates": [-76.4255764871, 36.8852773931]}, "type": "Feature", "properties": {"collection_times": [{"days": "Mon-Fri", "time": "9:30am"}, {"days": "Sat-Sun", "time": "Closed"}], "id": "2343500004", "name": "USPS COLLECTION BOX - BLUE BOX", "address": {"city": "SUFFOLK", "state": "VA", "street": "116 LAKE VIEW PKWY", "postcode": "23435"}}},
{"geometry": {"type": "Point", "coordinates": [-76.781138481, 36.6799057626]}, "type": "Feature", "properties": {"collection_times": [{"days": "Mon-Sat", "time": "12:00pm"}, {"days": "Sun", "time": "Closed"}], "id": "2343700001", "name": "USPS COLLECTION BOX - BLUE BOX", "address": {"city": "SUFFOLK", "state": "VA", "street": "6723 S QUAY RD", "postcode": "23437"}}},
{"geometry": {"type": "Point", "coordinates": [-76.781138481, 36.6799057626]}, "type": "Feature", "properties": {"collection_times": [{"days": "Mon-Sat", "time": "12:00pm"}, {"days": "Sun", "time": "Closed"}], "id": "2343700002", "name": "USPS COLLECTION BOX - PO LOBBY", "address": {"city": "SUFFOLK", "state": "VA", "street": "6723 S QUAY RD", "postcode": "23437"}}},
{"geometry": {"type": "Point", "coordinates": [-76.6881553636, 36.5858375558]}, "type": "Feature", "properties": {"collection_times": [{"days": "Mon-Sat", "time": "12:00pm"}, {"days": "Sun", "time": "Closed"}], "id": "2343800001", "name": "USPS COLLECTION BOX - BLUE BOX", "address": {"city": "SUFFOLK", "state": "VA", "street": "6425 WHALEYVILLE BLVD", "postcode": "23438"}}},
{"geometry": {"type": "Point", "coordinates": [-76.6881553636, 36.5858375558]}, "type": "Feature", "properties": {"collection_times": [{"days": "Mon-Sat", "time": "12:00pm"}, {"days": "Sun", "time": "Closed"}], "id": "2343800002", "name": "USPS COLLECTION BOX - PO LOBBY", "address": {"city": "SUFFOLK", "state": "VA", "street": "6425 WHALEYVILLE BLVD", "postcode": "23438"}}},
{"geometry": {"type": "Point", "coordinates": [-75.9924360585, 37.8208501538]}, "type": "Feature", "properties": {"collection_times": [{"days": "Mon-Sat", "time": "7:00am"}, {"days": "Sun", "time": "Closed"}], "id": "2344000001", "name": "USPS COLLECTION BOX - BLUE BOX", "address": {"city": "TANGIER", "state": "VA", "street": "4432 MAIN ST", "postcode": "23440"}}},
{"geometry": {"type": "Point", "coordinates": [-75.9924360585, 37.8208501538]}, "type": "Feature", "properties": {"collection_times": [{"days": "Mon-Sat", "time": "7:00am"}, {"days": "Sun", "time": "Closed"}], "id": "2344000002", "name": "USPS COLLECTION BOX - PO LOBBY", "address": {"city": "TANGIER", "state": "VA", "street": "4432 MAIN ST", "postcode": "23440"}}},
{"geometry": {"type": "Point", "coordinates": [-75.7035549459, 37.7093611538]}, "type": "Feature", "properties": {"collection_times": [{"days": "Mon-Fri", "time": "4:30pm"}, {"days": "Sat", "time": "11:30am"}, {"days": "Sun", "time": "Closed"}], "id": "2344100001", "name": "USPS COLLECTION BOX - BLUE BOX", "address": {"city": "TASLEY", "state": "VA", "street": "24148 MERRY BRANCH RD", "postcode": "23441"}}},
{"geometry": {"type": "Point", "coordinates": [-75.7035549459, 37.7093611538]}, "type": "Feature", "properties": {"collection_times": [{"days": "Mon-Fri", "time": "4:30pm"}, {"days": "Sat", "time": "11:30am"}, {"days": "Sun", "time": "Closed"}], "id": "2344100002", "name": "USPS COLLECTION BOX - PO LOBBY", "address": {"city": "TASLEY", "state": "VA", "street": "24148 MERRY BRANCH RD", "postcode": "23441"}}},
{"geometry": {"type": "Point", "coordinates": [-75.5558001235, 37.8825494102]}, "type": "Feature", "properties": {"collection_times": [{"days": "Mon-Fri", "time": "4:15pm"}, {"days": "Sat", "time": "11:30am"}, {"days": "Sun", "time": "Closed"}], "id": "2344200001", "name": "USPS COLLECTION BOX - BLUE BOX", "address": {"city": "TEMPERANCEVILLE", "state": "VA", "street": "10469 LANKFORD HWY", "postcode": "23442"}}},
{"geometry": {"type": "Point", "coordinates": [-75.5558001235, 37.8825494102]}, "type": "Feature", "properties": {"collection_times": [{"days": "Mon-Fri", "time": "4:30pm"}, {"days": "Sat", "time": "11:45am"}, {"days": "Sun", "time": "Closed"}], "id": "2344200002", "name": "USPS COLLECTION BOX - PO LOBBY", "address": {"city": "TEMPERANCEVILLE", "state": "VA", "street": "10469 LANKFORD HWY", "postcode": "23442"}}},
{"geometry": {"type": "Point", "coordinates": [-75.9585965674, 37.1843982216]}, "type": "Feature", "properties": {"collection_times": [{"days": "Mon-Fri", "time": "4:15pm"}, {"days": "Sat", "time": "11:45am"}, {"days": "Sun", "time": "Closed"}], "id": "2344300001", "name": "USPS COLLECTION BOX - BLUE BOX", "address": {"city": "TOWNSEND", "state": "VA", "street": "28463 SEASIDE RD", "postcode": "23443"}}},
{"geometry": {"type": "Point", "coordinates": [-75.9585965674, 37.1843982216]}, "type": "Feature", "properties": {"collection_times": [{"days": "Mon-Fri", "time": "4:20pm"}, {"days": "Sat", "time": "11:50am"}, {"days": "Sun", "time": "Closed"}], "id": "2344300002", "name": "USPS COLLECTION BOX - PO LOBBY", "address": {"city": "TOWNSEND", "state": "VA", "street": "28463 SEASIDE RD", "postcode": "23443"}}},
{"geometry": {"type": "Point", "coordinates": [-75.9741209309, 36.8445558226]}, "type": "Feature", "properties": {"collection_times": [{"days": "Mon-Fri", "time": "4:15pm"}, {"days": "Sat", "time": "10:00am"}, {"days": "Sun", "time": "Closed"}], "id": "2345100011", "name": "USPS COLLECTION BOX - BLUE BOX", "address": {"city": "VIRGINIA BEACH", "state": "VA", "street": "1618 ATLANTIC AVE", "postcode": "23451"}}},
{"geometry": {"type": "Point", "coordinates": [-75.9952178305, 36.8550759496]}, "type": "Feature", "properties": {"collection_times": [{"days": "Mon-Fri", "time": "2:45pm"}, {"days": "Sat", "time": "12:15pm"}, {"days": "Sun", "time": "Closed"}], "id": "2345100015", "name": "USPS COLLECTION BOX - BLUE BOX", "address": {"city": "VIRGINIA BEACH", "state": "VA", "street": "1112 LASKIN RD", "postcode": "23451"}}},
{"geometry": {"type": "Point", "coordinates": [-75.9981845525, 36.853824604]}, "type": "Feature", "properties": {"collection_times": [{"days": "Mon-Fri", "time": "2:45pm"}, {"days": "Sat", "time": "12:15pm"}, {"days": "Sun", "time": "Closed"}], "id": "2345100018", "name": "USPS COLLECTION BOX - BLUE BOX", "address": {"city": "VIRGINIA BEACH", "state": "VA", "street": "1206 LASKIN RD", "postcode": "23451"}}},
{"geometry": {"type": "Point", "coordinates": [-75.9858853282, 36.8472035826]}, "type": "Feature", "properties": {"collection_times": [{"days": "Mon-Fri", "time": "3:45pm"}, {"days": "Sat", "time": "10:00am"}, {"days": "Sun", "time": "Closed"}], "id": "2345100022", "name": "USPS COLLECTION BOX - BLUE BOX", "address": {"city": "VIRGINIA BEACH", "state": "VA", "street": "2101 PARKS AVE", "postcode": "23451"}}},
{"geometry": {"type": "Point", "coordinates": [-75.9822654738, 36.8483297596]}, "type": "Feature", "properties": {"collection_times": [{"days": "Mon-Fri", "time": "4:00pm"}, {"days": "Sat", "time": "10:00am"}, {"days": "Sun", "time": "Closed"}], "id": "2345100025", "name": "USPS COLLECTION BOX - BLUE BOX", "address": {"city": "VIRGINIA BEACH", "state": "VA", "street": "2100 MEDITERRANEAN AVE", "postcode": "23451"}}},
{"geometry": {"type": "Point", "coordinates": [-75.994401895, 36.8503222138]}, "type": "Feature", "properties": {"collection_times": [{"days": "Mon-Fri", "time": "11:30am"}, {"days": "Sat", "time": "11:45am"}, {"days": "Sun", "time": "Closed"}], "id": "2345100029", "name": "USPS COLLECTION BOX - BLUE BOX", "address": {"city": "VIRGINIA BEACH", "state": "VA", "street": "1101 WATERFRONT DR", "postcode": "23451"}}},
{"geometry": {"type": "Point", "coordinates": [-76.0696514092, 36.9120779083]}, "type": "Feature", "properties": {"collection_times": [{"days": "Mon-Fri", "time": "12:00pm"}, {"days": "Sat", "time": "10:00am"}, {"days": "Sun", "time": "Closed"}], "id": "2345100039", "name": "USPS COLLECTION BOX - BLUE BOX", "address": {"city": "VIRGINIA BEACH", "state": "VA", "street": "2830 SHORE DR", "postcode": "23451"}}},
{"geometry": {"type": "Point", "coordinates": [-76.0672514787, 36.9124664165]}, "type": "Feature", "properties": {"collection_times": [{"days": "Mon-Fri", "time": "12:00pm"}, {"days": "Sat", "time": "10:00am"}, {"days": "Sun", "time": "Closed"}], "id": "2345100040", "name": "USPS COLLECTION BOX - BLUE BOX", "address": {"city": "VIRGINIA BEACH", "state": "VA", "street": "2817 SHORE DR", "postcode": "23451"}}},
{"geometry": {"type": "Point", "coordinates": [-76.0036661816, 36.923495785]}, "type": "Feature", "properties": {"collection_times": [{"days": "Mon-Fri", "time": "12:30pm"}, {"days": "Sat", "time": "10:00am"}, {"days": "Sun", "time": "Closed"}], "id": "2345100045", "name": "USPS COLLECTION BOX - BLUE BOX", "address": {"city": "VIRGINIA BEACH", "state": "VA", "street": "529 CAM RANH BAY", "postcode": "23451"}}},
{"geometry": {"type": "Point", "coordinates": [-75.981278886, 36.8607863175]}, "type": "Feature", "properties": {"collection_times": [{"days": "Mon-Fri", "time": "5:00pm"}, {"days": "Sat", "time": "4:30pm"}, {"days": "Sun", "time": "Closed"}], "id": "2345100048", "name": "USPS COLLECTION BOX - BLUE BOX", "address": {"city": "VIRGINIA BEACH", "state": "VA", "street": "320 33RD ST", "postcode": "23451"}}},
{"geometry": {"type": "Point", "coordinates": [-75.981278886, 36.8607863175]}, "type": "Feature", "properties": {"collection_times": [{"days": "Mon-Fri", "time": "5:00pm"}, {"days": "Sat", "time": "4:30pm"}, {"days": "Sun", "time": "Closed"}], "id": "2345100049", "name": "USPS COLLECTION BOX - BLUE BOX", "address": {"city": "VIRGINIA BEACH", "state": "VA", "street": "320 33RD ST", "postcode": "23451"}}},
{"geometry": {"type": "Point", "coordinates": [-75.981278886, 36.8607863175]}, "type": "Feature", "properties": {"collection_times": [{"days": "Mon-Fri", "time": "5:00pm"}, {"days": "Sat", "time": "1:30pm"}, {"days": "Sun", "time": "Closed"}], "id": "2345100054", "name": "USPS COLLECTION BOX - PO LOBBY", "address": {"city": "VIRGINIA BEACH", "state": "VA", "street": "320 33RD ST", "postcode": "23451"}}},
{"geometry": {"type": "Point", "coordinates": [-76.0921169142, 36.8457526126]}, "type": "Feature", "properties": {"collection_times": [{"days": "Mon-Fri", "time": "5:00pm"}, {"days": "Sat", "time": "11:00am"}, {"days": "Sun", "time": "Closed"}], "id": "2345200008", "name": "USPS COLLECTION BOX - BLUE BOX", "address": {"city": "VIRGINIA BEACH", "state": "VA", "street": "2697 INTERNATIONAL PKWY", "postcode": "23452"}}},
{"geometry": {"type": "Point", "coordinates": [-76.0667760456, 36.8405077015]}, "type": "Feature", "properties": {"collection_times": [{"days": "Mon-Fri", "time": "5:00pm"}, {"days": "Sat", "time": "1:15pm"}, {"days": "Sun", "time": "Closed"}], "id": "2345200014", "name": "USPS COLLECTION BOX - BLUE BOX", "address": {"city": "VIRGINIA BEACH", "state": "VA", "street": "244 MUSTANG TRL", "postcode": "23452"}}},
{"geometry": {"type": "Point", "coordinates": [-76.0691561756, 36.8331654086]}, "type": "Feature", "properties": {"collection_times": [{"days": "Mon-Fri", "time": "5:00pm"}, {"days": "Sat", "time": "11:45am"}, {"days": "Sun", "time": "Closed"}], "id": "2345200020", "name": "USPS COLLECTION BOX - BLUE BOX", "address": {"city": "VIRGINIA BEACH", "state": "VA", "street": "2809 S LYNNHAVEN RD", "postcode": "23452"}}},
{"geometry": {"type": "Point", "coordinates": [-76.0660099531, 36.8294641189]}, "type": "Feature", "properties": {"collection_times": [{"days": "Mon-Sat", "time": "5:00pm"}, {"days": "Sun", "time": "Closed"}], "id": "2345200024", "name": "USPS COLLECTION BOX - BLUE BOX", "address": {"city": "VIRGINIA BEACH", "state": "VA", "street": "501 VIKING DR", "postcode": "23452"}}},
{"geometry": {"type": "Point", "coordinates": [-76.0656628978, 36.8293326215]}, "type": "Feature", "properties": {"collection_times": [{"days": "Mon-Sat", "time": "5:00pm"}, {"days": "Sun", "time": "Closed"}], "id": "2345200025", "name": "USPS COLLECTION BOX - BLUE BOX", "address": {"city": "VIRGINIA BEACH", "state": "VA", "street": "501 VIKING DR", "postcode": "23452"}}},
{"geometry": {"type": "Point", "coordinates": [-76.1137870937, 36.841855145]}, "type": "Feature", "properties": {"collection_times": [{"days": "Mon-Fri", "time": "2:15pm"}, {"days": "Sat", "time": "10:00am"}, {"days": "Sun", "time": "Closed"}], "id": "2345200034", "name": "USPS COLLECTION BOX - BLUE BOX", "address": {"city": "VIRGINIA BEACH", "state": "VA", "street": "4000 VIRGINIA BEACH BLVD", "postcode": "23452"}}},
{"geometry": {"type": "Point", "coordinates": [-76.0919505636, 36.8411053445]}, "type": "Feature", "properties": {"collection_times": [{"days": "Mon-Fri", "time": "2:00pm"}, {"days": "Sat", "time": "1:00pm"}, {"days": "Sun", "time": "Closed"}], "id": "2345200036", "name": "USPS COLLECTION BOX - BLUE BOX", "address": {"city": "VIRGINIA BEACH", "state": "VA", "street": "3419 VIRGINIA BEACH BLVD", "postcode": "23452"}}},
{"geometry": {"type": "Point", "coordinates": [-76.1223217995, 36.8209064851]}, "type": "Feature", "properties": {"collection_times": [{"days": "Mon-Fri", "time": "2:15pm"}, {"days": "Sat", "time": "12:00pm"}, {"days": "Sun", "time": "Closed"}], "id": "2345200042", "name": "USPS COLLECTION BOX - BLUE BOX", "address": {"city": "VIRGINIA BEACH", "state": "VA", "street": "4324 HOLLAND RD", "postcode": "23452"}}},
{"geometry": {"type": "Point", "coordinates": [-76.1307942525, 36.8308822978]}, "type": "Feature", "properties": {"collection_times": [{"days": "Mon-Fri", "time": "2:30pm"}, {"days": "Sat", "time": "12:30pm"}, {"days": "Sun", "time": "Closed"}], "id": "2345200044", "name": "USPS COLLECTION BOX - BLUE BOX", "address": {"city": "VIRGINIA BEACH", "state": "VA", "street": "348 SOUTHPORT CIR", "postcode": "23452"}}},
{"geometry": {"type": "Point", "coordinates": [-76.0784838071, 36.8277817623]}, "type": "Feature", "properties": {"collection_times": [{"days": "Mon-Fri", "time": "2:00pm"}, {"days": "Sat", "time": "11:30am"}, {"days": "Sun", "time": "Closed"}], "id": "2345200061", "name": "USPS COLLECTION BOX - BLUE BOX", "address": {"city": "VIRGINIA BEACH", "state": "VA", "street": "3011 SILINA DR", "postcode": "23452"}}},
{"geometry": {"type": "Point", "coordinates": [-76.091452321, 36.8442559052]}, "type": "Feature", "properties": {"collection_times": [{"days": "Mon-Fri", "time": "2:00pm"}, {"days": "Sat", "time": "1:15pm"}, {"days": "Sun", "time": "Closed"}], "id": "2345200071", "name": "USPS COLLECTION BOX - BLUE BOX", "address": {"city": "VIRGINIA BEACH", "state": "VA", "street": "397 LITTLE NECK RD", "postcode": "23452"}}},
{"geometry": {"type": "Point", "coordinates": [-76.0710914965, 36.8269146534]}, "type": "Feature", "properties": {"collection_times": [{"days": "Mon-Fri", "time": "5:00pm"}, {"days": "Sat", "time": "11:45am"}, {"days": "Sun", "time": "Closed"}], "id": "2345200079", "name": "USPS COLLECTION BOX - BLUE BOX", "address": {"city": "VIRGINIA BEACH", "state": "VA", "street": "448 VIKING DR", "postcode": "23452"}}},
{"geometry": {"type": "Point", "coordinates": [-76.0677283442, 36.8386578871]}, "type": "Feature", "properties": {"collection_times": [{"days": "Mon-Fri", "time": "5:00pm"}, {"days": "Sat", "time": "1:00pm"}, {"days": "Sun", "time": "Closed"}], "id": "2345200085", "name": "USPS COLLECTION BOX - BLUE BOX", "address": {"city": "VIRGINIA BEACH", "state": "VA", "street": "120 S LYNNHAVEN RD", "postcode": "23452"}}},
{"geometry": {"type": "Point", "coordinates": [-76.0684866209, 36.8250148213]}, "type": "Feature", "properties": {"collection_times": [{"days": "Mon-Fri", "time": "5:00pm"}, {"days": "Sat", "time": "11:45am"}, {"days": "Sun", "time": "Closed"}], "id": "2345200086", "name": "USPS COLLECTION BOX - BLUE BOX", "address": {"city": "VIRGINIA BEACH", "state": "VA", "street": "641 PHOENIX DR", "postcode": "23452"}}},
{"geometry": {"type": "Point", "coordinates": [-76.0656628978, 36.8293326215]}, "type": "Feature", "properties": {"collection_times": [{"days": "Mon-Sat", "time": "5:00pm"}, {"days": "Sun", "time": "Closed"}], "id": "2345200090", "name": "USPS COLLECTION BOX - PO LOBBY", "address": {"city": "VIRGINIA BEACH", "state": "VA", "street": "501 VIKING DR", "postcode": "23452"}}},
{"geometry": {"type": "Point", "coordinates": [-76.0656628978, 36.8293326215]}, "type": "Feature", "properties": {"collection_times": [{"days": "Mon-Sat", "time": "5:00pm"}, {"days": "Sun", "time": "Closed"}], "id": "2345200091", "name": "USPS COLLECTION BOX - PO LOBBY", "address": {"city": "VIRGINIA BEACH", "state": "VA", "street": "501 VIKING DR", "postcode": "23452"}}},
{"geometry": {"type": "Point", "coordinates": [-76.1146859003, 36.8384248442]}, "type": "Feature", "properties": {"collection_times": [{"days": "Mon-Fri", "time": "2:15pm"}, {"days": "Sat", "time": "12:45pm"}, {"days": "Sun", "time": "Closed"}], "id": "2345200093", "name": "USPS COLLECTION BOX - BLUE BOX", "address": {"city": "VIRGINIA BEACH", "state": "VA", "street": "4020 BONNEY RD", "postcode": "23452"}}},
{"geometry": {"type": "Point", "coordinates": [-76.0656628978, 36.8293326215]}, "type": "Feature", "properties": {"collection_times": [{"days": "Mon-Sat", "time": "5:00pm"}, {"days": "Sun", "time": "Closed"}], "id": "2345200101", "name": "USPS COLLECTION BOX - APC", "address": {"city": "VIRGINIA BEACH", "state": "VA", "street": "501 VIKING DR", "postcode": "23452"}}},
{"geometry": {"type": "Point", "coordinates": [-76.0656628978, 36.8293326215]}, "type": "Feature", "properties": {"collection_times": [{"days": "Mon-Sat", "time": "5:00pm"}, {"days": "Sun", "time": "Closed"}], "id": "2345200102", "name": "USPS COLLECTION BOX - APC", "address": {"city": "VIRGINIA BEACH", "state": "VA", "street": "501 VIKING DR", "postcode": "23452"}}},
{"geometry": {"type": "Point", "coordinates": [-76.0809561913, 36.7929081321]}, "type": "Feature", "properties": {"collection_times": [{"days": "Mon-Fri", "time": "3:45pm"}, {"days": "Sat", "time": "12:15pm"}, {"days": "Sun", "time": "Closed"}], "id": "2345300001", "name": "USPS COLLECTION BOX - BLUE BOX", "address": {"city": "VIRGINIA BEACH", "state": "VA", "street": "3208 HOLLAND RD", "postcode": "23453"}}},
{"geometry": {"type": "Point", "coordinates": [-76.0986414279, 36.784924342]}, "type": "Feature", "properties": {"collection_times": [{"days": "Mon-Fri", "time": "4:30pm"}, {"days": "Sat", "time": "10:00am"}, {"days": "Sun", "time": "Closed"}], "id": "2345300002", "name": "USPS COLLECTION BOX - BLUE BOX", "address": {"city": "VIRGINIA BEACH", "state": "VA", "street": "1700 COLLEGE CRES", "postcode": "23453"}}},
{"geometry": {"type": "Point", "coordinates": [-76.099047083, 36.795584392]}, "type": "Feature", "properties": {"collection_times": [{"days": "Mon-Fri", "time": "4:00pm"}, {"days": "Sat", "time": "10:00am"}, {"days": "Sun", "time": "Closed"}], "id": "2345300003", "name": "USPS COLLECTION BOX - BLUE BOX", "address": {"city": "VIRGINIA BEACH", "state": "VA", "street": "1505 LYNNHAVEN PKWY STE 1345", "postcode": "23453"}}},
{"geometry": {"type": "Point", "coordinates": [-76.0772799175, 36.8045085157]}, "type": "Feature", "properties": {"collection_times": [{"days": "Mon-Fri", "time": "4:00pm"}, {"days": "Sat", "time": "10:45am"}, {"days": "Sun", "time": "Closed"}], "id": "2345300004", "name": "USPS COLLECTION BOX - BLUE BOX", "address": {"city": "VIRGINIA BEACH", "state": "VA", "street": "3100 MAGIC HOLLOW BLVD", "postcode": "23453"}}},
{"geometry": {"type": "Point", "coordinates": [-76.1201109501, 36.7922575046]}, "type": "Feature", "properties": {"collection_times": [{"days": "Mon-Fri", "time": "11:45am"}, {"days": "Sat", "time": "10:00am"}, {"days": "Sun", "time": "Closed"}], "id": "2345300005", "name": "USPS COLLECTION BOX - BLUE BOX", "address": {"city": "VIRGINIA BEACH", "state": "VA", "street": "2021 LYNNHAVEN PKWY", "postcode": "23453"}}},
{"geometry": {"type": "Point", "coordinates": [-76.028439911, 36.8643671343]}, "type": "Feature", "properties": {"collection_times": [{"days": "Mon-Fri", "time": "3:00pm"}, {"days": "Sat", "time": "12:45pm"}, {"days": "Sun", "time": "Closed"}], "id": "2345400008", "name": "USPS COLLECTION BOX - BLUE BOX", "address": {"city": "VIRGINIA BEACH", "state": "VA", "street": "1060 FIRST COLONIAL RD", "postcode": "23454"}}},
{"geometry": {"type": "Point", "coordinates": [-76.0272238292, 36.8617445142]}, "type": "Feature", "properties": {"collection_times": [{"days": "Mon-Fri", "time": "3:00pm"}, {"days": "Sat", "time": "12:45pm"}, {"days": "Sun", "time": "Closed"}], "id": "2345400009", "name": "USPS COLLECTION BOX - BLUE BOX", "address": {"city": "VIRGINIA BEACH", "state": "VA", "street": "1020 FIRST COLONIAL RD", "postcode": "23454"}}},
{"geometry": {"type": "Point", "coordinates": [-76.0173616836, 36.8515090336]}, "type": "Feature", "properties": {"collection_times": [{"days": "Mon-Fri", "time": "3:00pm"}, {"days": "Sat", "time": "12:30pm"}, {"days": "Sun", "time": "Closed"}], "id": "2345400011", "name": "USPS COLLECTION BOX - BLUE BOX", "address": {"city": "VIRGINIA BEACH", "state": "VA", "street": "1604 LASKIN RD", "postcode": "23454"}}},
{"geometry": {"type": "Point", "coordinates": [-76.0153111761, 36.8514333802]}, "type": "Feature", "properties": {"collection_times": [{"days": "Mon-Fri", "time": "2:45pm"}, {"days": "Sat", "time": "12:30pm"}, {"days": "Sun", "time": "Closed"}], "id": "2345400013", "name": "USPS COLLECTION BOX - BLUE BOX", "address": {"city": "VIRGINIA BEACH", "state": "VA", "street": "1556 LASKIN RD", "postcode": "23454"}}},
{"geometry": {"type": "Point", "coordinates": [-76.0210899037, 36.8473067709]}, "type": "Feature", "properties": {"collection_times": [{"days": "Mon-Fri", "time": "3:30pm"}, {"days": "Sat", "time": "3:45pm"}, {"days": "Sun", "time": "Closed"}], "id": "2345400016", "name": "USPS COLLECTION BOX - BLUE BOX", "address": {"city": "VIRGINIA BEACH", "state": "VA", "street": "550 FIRST COLONIAL RD", "postcode": "23454"}}},
{"geometry": {"type": "Point", "coordinates": [-76.0394884753, 36.8751543166]}, "type": "Feature", "properties": {"collection_times": [{"days": "Mon-Fri", "time": "12:15pm"}, {"days": "Sat", "time": "12:30pm"}, {"days": "Sun", "time": "Closed"}], "id": "2345400030", "name": "USPS COLLECTION BOX - BLUE BOX", "address": {"city": "VIRGINIA BEACH", "state": "VA", "street": "2114 GREAT NECK SQ", "postcode": "23454"}}},
{"geometry": {"type": "Point", "coordinates": [-78.6979451561, 37.5128225857]}, "type": "Feature", "properties": {"collection_times": [{"days": "Mon-Fri", "time": "11:15am"}, {"days": "Sat", "time": "11:45am"}, {"days": "Sun", "time": "Closed"}], "id": "2345400034", "name": "USPS COLLECTION BOX - BLUE BOX", "address": {"city": "VIRGINIA BEACH", "state": "VA", "street": "1801 TOMCAT BLVD", "postcode": "23454"}}},
{"geometry": {"type": "Point", "coordinates": [-76.0008485761, 36.7830564498]}, "type": "Feature", "properties": {"collection_times": [{"days": "Mon-Fri", "time": "3:30pm"}, {"days": "Sat", "time": "10:45am"}, {"days": "Sun", "time": "Closed"}], "id": "2345400036", "name": "USPS COLLECTION BOX - BLUE BOX", "address": {"city": "VIRGINIA BEACH", "state": "VA", "street": "1650 GENERAL BOOTH BLVD", "postcode": "23454"}}},
{"geometry": {"type": "Point", "coordinates": [-76.0002866706, 36.7845043916]}, "type": "Feature", "properties": {"collection_times": [{"days": "Mon-Fri", "time": "3:30pm"}, {"days": "Sat", "time": "10:30am"}, {"days": "Sun", "time": "Closed"}], "id": "2345400037", "name": "USPS COLLECTION BOX - BLUE BOX", "address": {"city": "VIRGINIA BEACH", "state": "VA", "street": "1615 GENERAL BOOTH BLVD", "postcode": "23454"}}},
{"geometry": {"type": "Point", "coordinates": [-76.0136351796, 36.7673195467]}, "type": "Feature", "properties": {"collection_times": [{"days": "Mon-Fri", "time": "2:30pm"}, {"days": "Sat", "time": "10:00am"}, {"days": "Sun", "time": "Closed"}], "id": "2345400039", "name": "USPS COLLECTION BOX - BLUE BOX", "address": {"city": "VIRGINIA BEACH", "state": "VA", "street": "2129 GENERAL BOOTH BLVD", "postcode": "23454"}}},
{"geometry": {"type": "Point", "coordinates": [-78.6979451561, 37.5128225857]}, "type": "Feature", "properties": {"collection_times": [{"days": "Mon-Fri", "time": "11:15am"}, {"days": "Sat", "time": "11:30am"}, {"days": "Sun", "time": "Closed"}], "id": "2345400049", "name": "USPS COLLECTION BOX - BLUE BOX", "address": {"city": "VIRGINIA BEACH", "state": "VA", "street": "1161 D AVE", "postcode": "23454"}}},
{"geometry": {"type": "Point", "coordinates": [-75.9991177245, 36.7867404198]}, "type": "Feature", "properties": {"collection_times": [{"days": "Mon-Fri", "time": "3:30pm"}, {"days": "Sat", "time": "10:30am"}, {"days": "Sun", "time": "Closed"}], "id": "2345400055", "name": "USPS COLLECTION BOX - BLUE BOX", "address": {"city": "VIRGINIA BEACH", "state": "VA", "street": "1581 GENERAL BOOTH BLVD", "postcode": "23454"}}},
{"geometry": {"type": "Point", "coordinates": [-76.0450397935, 36.8424997473]}, "type": "Feature", "properties": {"collection_times": [{"days": "Mon-Fri", "time": "2:30pm"}, {"days": "Sat", "time": "10:00am"}, {"days": "Sun", "time": "Closed"}], "id": "2345400056", "name": "USPS COLLECTION BOX - BLUE BOX", "address": {"city": "VIRGINIA BEACH", "state": "VA", "street": "2248 VIRGINIA BEACH BLVD", "postcode": "23454"}}},
{"geometry": {"type": "Point", "coordinates": [-76.0210899037, 36.8473067709]}, "type": "Feature", "properties": {"collection_times": [{"days": "Mon-Fri", "time": "5:00pm"}, {"days": "Sat", "time": "2:00pm"}, {"days": "Sun", "time": "Closed"}], "id": "2345400057", "name": "USPS COLLECTION BOX - APC", "address": {"city": "VIRGINIA BEACH", "state": "VA", "street": "550 FIRST COLONIAL RD", "postcode": "23454"}}},
{"geometry": {"type": "Point", "coordinates": [-76.0210899037, 36.8473067709]}, "type": "Feature", "properties": {"collection_times": [{"days": "Mon-Fri", "time": "5:00pm"}, {"days": "Sat", "time": "2:00pm"}, {"days": "Sun", "time": "Closed"}], "id": "2345400058", "name": "USPS COLLECTION BOX - PO LOBBY", "address": {"city": "VIRGINIA BEACH", "state": "VA", "street": "550 FIRST COLONIAL RD", "postcode": "23454"}}},
{"geometry": {"type": "Point", "coordinates": [-76.0210899037, 36.8473067709]}, "type": "Feature", "properties": {"collection_times": [{"days": "Mon-Fri", "time": "5:00pm"}, {"days": "Sat", "time": "2:00pm"}, {"days": "Sun", "time": "Closed"}], "id": "2345400059", "name": "USPS COLLECTION BOX - PO LOBBY", "address": {"city": "VIRGINIA BEACH", "state": "VA", "street": "550 FIRST COLONIAL RD", "postcode": "23454"}}},
{"geometry": {"type": "Point", "coordinates": [-76.1833227742, 36.8839159255]}, "type": "Feature", "properties": {"collection_times": [{"days": "Mon-Fri", "time": "4:15pm"}, {"days": "Sat-Sun", "time": "Closed"}], "id": "2345500001", "name": "USPS COLLECTION BOX - BLUE BOX", "address": {"city": "VIRGINIA BEACH", "state": "VA", "street": "1209 BAKER RD", "postcode": "23455"}}},
{"geometry": {"type": "Point", "coordinates": [-76.1800266387, 36.888186013]}, "type": "Feature", "properties": {"collection_times": [{"days": "Mon-Fri", "time": "4:00pm"}, {"days": "Sat-Sun", "time": "Closed"}], "id": "2345500004", "name": "USPS COLLECTION BOX - BLUE BOX", "address": {"city": "VIRGINIA BEACH", "state": "VA", "street": "1300 DIAMOND SPRINGS RD", "postcode": "23455"}}},
{"geometry": {"type": "Point", "coordinates": [-76.133927486, 36.8723066626]}, "type": "Feature", "properties": {"collection_times": [{"days": "Mon-Fri", "time": "4:00pm"}, {"days": "Sat", "time": "11:15am"}, {"days": "Sun", "time": "Closed"}], "id": "2345500009", "name": "USPS COLLECTION BOX - BLUE BOX", "address": {"city": "VIRGINIA BEACH", "state": "VA", "street": "1020 INDEPENDENCE BLVD", "postcode": "23455"}}},
{"geometry": {"type": "Point", "coordinates": [-76.1361409039, 36.9029905658]}, "type": "Feature", "properties": {"collection_times": [{"days": "Mon-Fri", "time": "4:30pm"}, {"days": "Sat", "time": "11:30am"}, {"days": "Sun", "time": "Closed"}], "id": "2345500012", "name": "USPS COLLECTION BOX - BLUE BOX", "address": {"city": "VIRGINIA BEACH", "state": "VA", "street": "2105 PLEASURE HOUSE RD", "postcode": "23455"}}},
{"geometry": {"type": "Point", "coordinates": [-76.1311940927, 36.8619905697]}, "type": "Feature", "properties": {"collection_times": [{"days": "Mon-Fri", "time": "3:45pm"}, {"days": "Sat", "time": "11:00am"}, {"days": "Sun", "time": "Closed"}], "id": "2345500017", "name": "USPS COLLECTION BOX - BLUE BOX", "address": {"city": "VIRGINIA BEACH", "state": "VA", "street": "4521 PROFESSIONAL CIR", "postcode": "23455"}}},
{"geometry": {"type": "Point", "coordinates": [-76.1323912471, 36.866623037]}, "type": "Feature", "properties": {"collection_times": [{"days": "Mon-Fri", "time": "3:45pm"}, {"days": "Sat", "time": "11:00am"}, {"days": "Sun", "time": "Closed"}], "id": "2345500019", "name": "USPS COLLECTION BOX - BLUE BOX", "address": {"city": "VIRGINIA BEACH", "state": "VA", "street": "816 INDEPENDENCE BLVD", "postcode": "23455"}}},
{"geometry": {"type": "Point", "coordinates": [-76.1353581082, 36.8618805545]}, "type": "Feature", "properties": {"collection_times": [{"days": "Mon-Fri", "time": "3:30pm"}, {"days": "Sat", "time": "11:00am"}, {"days": "Sun", "time": "Closed"}], "id": "2345500031", "name": "USPS COLLECTION BOX - BLUE BOX", "address": {"city": "VIRGINIA BEACH", "state": "VA", "street": "4668 PEMBROKE BLVD STE 117", "postcode": "23455"}}},
{"geometry": {"type": "Point", "coordinates": [-76.1383094094, 36.8962331942]}, "type": "Feature", "properties": {"collection_times": [{"days": "Mon-Fri", "time": "11:45am"}, {"days": "Sat", "time": "11:00am"}, {"days": "Sun", "time": "Closed"}], "id": "2345500039", "name": "USPS COLLECTION BOX - BLUE BOX", "address": {"city": "VIRGINIA BEACH", "state": "VA", "street": "4700 THOROUGHGOOD SQ", "postcode": "23455"}}},
{"geometry": {"type": "Point", "coordinates": [-76.1358318797, 36.8748744313]}, "type": "Feature", "properties": {"collection_times": [{"days": "Mon-Fri", "time": "3:30pm"}, {"days": "Sat", "time": "10:30am"}, {"days": "Sun", "time": "Closed"}], "id": "2345500048", "name": "USPS COLLECTION BOX - BLUE BOX", "address": {"city": "VIRGINIA BEACH", "state": "VA", "street": "4601 HAYGOOD RD", "postcode": "23455"}}},
{"geometry": {"type": "Point", "coordinates": [-76.1420004228, 36.8959935422]}, "type": "Feature", "properties": {"collection_times": [{"days": "Mon-Sat", "time": "5:00pm"}, {"days": "Sun", "time": "Closed"}], "id": "2345500055", "name": "USPS COLLECTION BOX - BLUE BOX", "address": {"city": "VIRGINIA BEACH", "state": "VA", "street": "2109 THOROUGHGOOD RD", "postcode": "23455"}}},
{"geometry": {"type": "Point", "coordinates": [-76.1420004228, 36.8959935422]}, "type": "Feature", "properties": {"collection_times": [{"days": "Mon-Fri", "time": "5:00pm"}, {"days": "Sat", "time": "3:45pm"}, {"days": "Sun", "time": "Closed"}], "id": "2345500063", "name": "USPS COLLECTION BOX - PO LOBBY", "address": {"city": "VIRGINIA BEACH", "state": "VA", "street": "2109 THOROUGHGOOD RD", "postcode": "23455"}}},
{"geometry": {"type": "Point", "coordinates": [-76.1420004228, 36.8959935422]}, "type": "Feature", "properties": {"collection_times": [{"days": "Mon-Fri", "time": "5:00pm"}, {"days": "Sat", "time": "3:45pm"}, {"days": "Sun", "time": "Closed"}], "id": "2345500064", "name": "USPS COLLECTION BOX - PO LOBBY", "address": {"city": "VIRGINIA BEACH", "state": "VA", "street": "2109 THOROUGHGOOD RD", "postcode": "23455"}}},
{"geometry": {"type": "Point", "coordinates": [-76.1420004228, 36.8959935422]}, "type": "Feature", "properties": {"collection_times": [{"days": "Mon-Fri", "time": "5:00pm"}, {"days": "Sat", "time": "3:45pm"}, {"days": "Sun", "time": "Closed"}], "id": "2345500071", "name": "USPS COLLECTION BOX - APC", "address": {"city": "VIRGINIA BEACH", "state": "VA", "street": "2109 THOROUGHGOOD RD", "postcode": "23455"}}},
{"geometry": {"type": "Point", "coordinates": [-76.0606223097, 36.7508149032]}, "type": "Feature", "properties": {"collection_times": [{"days": "Mon-Sat", "time": "5:00pm"}, {"days": "Sun", "time": "Closed"}], "id": "2345600002", "name": "USPS COLLECTION BOX - BLUE BOX", "address": {"city": "VIRGINIA BEACH", "state": "VA", "street": "2509 GEORGE MASON DR", "postcode": "23456"}}},
{"geometry": {"type": "Point", "coordinates": [-76.108323947, 36.7863131358]}, "type": "Feature", "properties": {"collection_times": [{"days": "Mon-Fri", "time": "4:00pm"}, {"days": "Sat", "time": "10:00am"}, {"days": "Sun", "time": "Closed"}], "id": "2345600009", "name": "USPS COLLECTION BOX - BLUE BOX", "address": {"city": "VIRGINIA BEACH", "state": "VA", "street": "3809 PRINCESS ANNE RD", "postcode": "23456"}}},
{"geometry": {"type": "Point", "coordinates": [-76.0606223097, 36.7508149032]}, "type": "Feature", "properties": {"collection_times": [{"days": "Mon-Fri", "time": "5:00pm"}, {"days": "Sat", "time": "4:00pm"}, {"days": "Sun", "time": "Closed"}], "id": "2345600018", "name": "USPS COLLECTION BOX - PO LOBBY", "address": {"city": "VIRGINIA BEACH", "state": "VA", "street": "2509 GEORGE MASON DR", "postcode": "23456"}}},
{"geometry": {"type": "Point", "coordinates": [-76.0187198084, 36.7208587474]}, "type": "Feature", "properties": {"collection_times": [{"days": "Mon-Fri", "time": "3:15pm"}, {"days": "Sat", "time": "10:00am"}, {"days": "Sun", "time": "Closed"}], "id": "2345600020", "name": "USPS COLLECTION BOX - BLUE BOX", "address": {"city": "VIRGINIA BEACH", "state": "VA", "street": "1776 PRINCESS ANNE RD", "postcode": "23456"}}},
{"geometry": {"type": "Point", "coordinates": [-76.0085046866, 36.750820818]}, "type": "Feature", "properties": {"collection_times": [{"days": "Mon-Fri", "time": "3:00pm"}, {"days": "Sat", "time": "10:00am"}, {"days": "Sun", "time": "Closed"}], "id": "2345600022", "name": "USPS COLLECTION BOX - BLUE BOX", "address": {"city": "VIRGINIA BEACH", "state": "VA", "street": "2005 SANDBRIDGE RD", "postcode": "23456"}}},
{"geometry": {"type": "Point", "coordinates": [-76.0606223097, 36.7508149032]}, "type": "Feature", "properties": {"collection_times": [{"days": "Mon-Fri", "time": "5:00pm"}, {"days": "Sat", "time": "4:00pm"}, {"days": "Sun", "time": "Closed"}], "id": "2345600027", "name": "USPS COLLECTION BOX - PO LOBBY", "address": {"city": "VIRGINIA BEACH", "state": "VA", "street": "2509 GEORGE MASON DR", "postcode": "23456"}}},
{"geometry": {"type": "Point", "coordinates": [-76.009354054, 36.7623918235]}, "type": "Feature", "properties": {"collection_times": [{"days": "Mon-Sat", "time": "3:00pm"}, {"days": "Sun", "time": "Closed"}], "id": "2345600028", "name": "USPS COLLECTION BOX - BLUE BOX", "address": {"city": "VIRGINIA BEACH", "state": "VA", "street": "1169 NIMMO PKWY", "postcode": "23456"}}},
{"geometry": {"type": "Point", "coordinates": [-76.0606223097, 36.7508149032]}, "type": "Feature", "properties": {"collection_times": [{"days": "Mon-Fri", "time": "5:00pm"}, {"days": "Sat", "time": "4:00pm"}, {"days": "Sun", "time": "Closed"}], "id": "2345600030", "name": "USPS COLLECTION BOX - APC", "address": {"city": "VIRGINIA BEACH", "state": "VA", "street": "2509 GEORGE MASON DR", "postcode": "23456"}}},
{"geometry": {"type": "Point", "coordinates": [-76.0327009292, 36.6550922297]}, "type": "Feature", "properties": {"collection_times": [{"days": "Mon-Fri", "time": "4:00pm"}, {"days": "Sat", "time": "3:30pm"}, {"days": "Sun", "time": "Closed"}], "id": "2345700000", "name": "USPS COLLECTION BOX - PO LOBBY", "address": {"city": "VIRGINIA BEACH", "state": "VA", "street": "1107 PRINCESS ANNE RD", "postcode": "23457"}}},
{"geometry": {"type": "Point", "coordinates": [-76.1400896335, 36.9104041327]}, "type": "Feature", "properties": {"collection_times": [{"days": "Mon-Sat", "time": "12:00pm"}, {"days": "Sun", "time": "Closed"}], "id": "2345900002", "name": "USPS COLLECTION BOX - BLUE BOX", "address": {"city": "VIRGINIA BEACH", "state": "VA", "street": "1240 GATOR BLVD", "postcode": "23459"}}},
{"geometry": {"type": "Point", "coordinates": [-76.0107496684, 36.9249119546]}, "type": "Feature", "properties": {"collection_times": [{"days": "Mon-Sat", "time": "12:00pm"}, {"days": "Sun", "time": "Closed"}], "id": "2345900003", "name": "USPS COLLECTION BOX - BLUE BOX", "address": {"city": "VIRGINIA BEACH", "state": "VA", "street": "1224 D ST", "postcode": "23459"}}},
{"geometry": {"type": "Point", "coordinates": [-76.0107496684, 36.9249119546]}, "type": "Feature", "properties": {"collection_times": [{"days": "Mon-Sat", "time": "12:00pm"}, {"days": "Sun", "time": "Closed"}], "id": "2345900004", "name": "USPS COLLECTION BOX - BLUE BOX", "address": {"city": "VIRGINIA BEACH", "state": "VA", "street": "1170 AMPHIBIOUS DR", "postcode": "23459"}}},
{"geometry": {"type": "Point", "coordinates": [-76.0148099995, 36.8040042776]}, "type": "Feature", "properties": {"collection_times": [{"days": "Mon-Fri", "time": "3:00pm"}, {"days": "Sat", "time": "12:15pm"}, {"days": "Sun", "time": "Closed"}], "id": "2346000001", "name": "USPS COLLECTION BOX - BLUE BOX", "address": {"city": "VA BEACH", "state": "VA", "street": "1449 TOMCAT BLVD", "postcode": "23460"}}},
{"geometry": {"type": "Point", "coordinates": [-75.9613520506, 36.7747394398]}, "type": "Feature", "properties": {"collection_times": [{"days": "Mon-Fri", "time": "3:15pm"}, {"days": "Sat-Sun", "time": "Closed"}], "id": "2346100002", "name": "USPS COLLECTION BOX - PO LOBBY", "address": {"city": "VIRGINIA BEACH", "state": "VA", "street": "1977 TERRIER AVE", "postcode": "23461"}}},
{"geometry": {"type": "Point", "coordinates": [-76.1426006907, 36.8452658292]}, "type": "Feature", "properties": {"collection_times": [{"days": "Mon-Fri", "time": "3:00pm"}, {"days": "Sat", "time": "10:00am"}, {"days": "Sun", "time": "Closed"}], "id": "2346200004", "name": "USPS COLLECTION BOX - BLUE BOX", "address": {"city": "VIRGINIA BEACH", "state": "VA", "street": "4700 BROAD ST", "postcode": "23462"}}},
{"geometry": {"type": "Point", "coordinates": [-76.1369054185, 36.8451428681]}, "type": "Feature", "properties": {"collection_times": [{"days": "Mon-Fri", "time": "2:45pm"}, {"days": "Sat", "time": "10:00am"}, {"days": "Sun", "time": "Closed"}], "id": "2346200007", "name": "USPS COLLECTION BOX - BLUE BOX", "address": {"city": "VIRGINIA BEACH", "state": "VA", "street": "281 INDEPENDENCE BLVD", "postcode": "23462"}}},
{"geometry": {"type": "Point", "coordinates": [-76.1270867903, 36.8473645651]}, "type": "Feature", "properties": {"collection_times": [{"days": "Mon-Fri", "time": "2:30pm"}, {"days": "Sat", "time": "10:00am"}, {"days": "Sun", "time": "Closed"}], "id": "2346200017", "name": "USPS COLLECTION BOX - BLUE BOX", "address": {"city": "VIRGINIA BEACH", "state": "VA", "street": "4452 CORPORATION LN", "postcode": "23462"}}},
{"geometry": {"type": "Point", "coordinates": [-76.1273731378, 36.846868308]}, "type": "Feature", "properties": {"collection_times": [{"days": "Mon-Fri", "time": "2:30pm"}, {"days": "Sat", "time": "10:00am"}, {"days": "Sun", "time": "Closed"}], "id": "2346200020", "name": "USPS COLLECTION BOX - BLUE BOX", "address": {"city": "VIRGINIA BEACH", "state": "VA", "street": "4460 CORPORATION LN", "postcode": "23462"}}},
{"geometry": {"type": "Point", "coordinates": [-76.1603481163, 36.8421902025]}, "type": "Feature", "properties": {"collection_times": [{"days": "Mon-Fri", "time": "3:00pm"}, {"days": "Sat", "time": "12:30pm"}, {"days": "Sun", "time": "Closed"}], "id": "2346200025", "name": "USPS COLLECTION BOX - BLUE BOX", "address": {"city": "VIRGINIA BEACH", "state": "VA", "street": "5199 CLEVELAND ST", "postcode": "23462"}}},
{"geometry": {"type": "Point", "coordinates": [-76.1763937717, 36.842637361]}, "type": "Feature", "properties": {"collection_times": [{"days": "Mon-Fri", "time": "5:00pm"}, {"days": "Sat", "time": "11:45am"}, {"days": "Sun", "time": "Closed"}], "id": "2346200030", "name": "USPS COLLECTION BOX - BLUE BOX", "address": {"city": "VIRGINIA BEACH", "state": "VA", "street": "5500 GREENWICH RD", "postcode": "23462"}}},
{"geometry": {"type": "Point", "coordinates": [-76.1672852298, 36.8281270367]}, "type": "Feature", "properties": {"collection_times": [{"days": "Mon-Fri", "time": "4:30pm"}, {"days": "Sat", "time": "11:45am"}, {"days": "Sun", "time": "Closed"}], "id": "2346200037", "name": "USPS COLLECTION BOX - BLUE BOX", "address": {"city": "VIRGINIA BEACH", "state": "VA", "street": "5277 PRINCESS ANNE RD", "postcode": "23462"}}},
{"geometry": {"type": "Point", "coordinates": [-76.1614753967, 36.8272776026]}, "type": "Feature", "properties": {"collection_times": [{"days": "Mon-Fri", "time": "4:15pm"}, {"days": "Sat", "time": "3:30pm"}, {"days": "Sun", "time": "Closed"}], "id": "2346200039", "name": "USPS COLLECTION BOX - BLUE BOX", "address": {"city": "VIRGINIA BEACH", "state": "VA", "street": "5168 SINGLETON WAY", "postcode": "23462"}}},
{"geometry": {"type": "Point", "coordinates": [-76.1431881136, 36.8412391035]}, "type": "Feature", "properties": {"collection_times": [{"days": "Mon-Sat", "time": "5:00pm"}, {"days": "Sun", "time": "Closed"}], "id": "2346200041", "name": "USPS COLLECTION BOX - BLUE BOX", "address": {"city": "VIRGINIA BEACH", "state": "VA", "street": "4831 COLUMBUS ST", "postcode": "23462"}}},
{"geometry": {"type": "Point", "coordinates": [-76.1431881136, 36.8412391035]}, "type": "Feature", "properties": {"collection_times": [{"days": "Mon-Sat", "time": "5:00pm"}, {"days": "Sun", "time": "Closed"}], "id": "2346200046", "name": "USPS COLLECTION BOX - PO LOBBY", "address": {"city": "VIRGINIA BEACH", "state": "VA", "street": "4831 COLUMBUS ST", "postcode": "23462"}}},
{"geometry": {"type": "Point", "coordinates": [-76.1698518833, 36.8649615947]}, "type": "Feature", "properties": {"collection_times": [{"days": "Mon-Fri", "time": "3:15pm"}, {"days": "Sat", "time": "10:00am"}, {"days": "Sun", "time": "Closed"}], "id": "2346200051", "name": "USPS COLLECTION BOX - BLUE BOX", "address": {"city": "VIRGINIA BEACH", "state": "VA", "street": "800 NEWTOWN RD", "postcode": "23462"}}},
{"geometry": {"type": "Point", "coordinates": [-76.1447886571, 36.8437753676]}, "type": "Feature", "properties": {"collection_times": [{"days": "Mon-Fri", "time": "3:00pm"}, {"days": "Sat", "time": "10:00am"}, {"days": "Sun", "time": "Closed"}], "id": "2346200054", "name": "USPS COLLECTION BOX - BLUE BOX", "address": {"city": "VIRGINIA BEACH", "state": "VA", "street": "4848 VIRGINIA BEACH BLVD", "postcode": "23462"}}},
{"geometry": {"type": "Point", "coordinates": [-76.1802149375, 36.8380440907]}, "type": "Feature", "properties": {"collection_times": [{"days": "Mon-Fri", "time": "4:45pm"}, {"days": "Sat", "time": "11:45am"}, {"days": "Sun", "time": "Closed"}], "id": "2346200067", "name": "USPS COLLECTION BOX - BLUE BOX", "address": {"city": "VIRGINIA BEACH", "state": "VA", "street": "5606 PRINCESS ANNE RD", "postcode": "23462"}}},
{"geometry": {"type": "Point", "coordinates": [-76.1550579239, 36.8337900109]}, "type": "Feature", "properties": {"collection_times": [{"days": "Mon-Fri", "time": "5:00pm"}, {"days": "Sat", "time": "12:30pm"}, {"days": "Sun", "time": "Closed"}], "id": "2346200074", "name": "USPS COLLECTION BOX - BLUE BOX", "address": {"city": "VIRGINIA BEACH", "state": "VA", "street": "5029 CORPORATE WOODS DR", "postcode": "23462"}}},
{"geometry": {"type": "Point", "coordinates": [-76.1636036194, 36.8486810984]}, "type": "Feature", "properties": {"collection_times": [{"days": "Mon-Fri", "time": "3:15pm"}, {"days": "Sat", "time": "10:00am"}, {"days": "Sun", "time": "Closed"}], "id": "2346200080", "name": "USPS COLLECTION BOX - BLUE BOX", "address": {"city": "VIRGINIA BEACH", "state": "VA", "street": "5312 VIRGINIA BEACH BLVD", "postcode": "23462"}}},
{"geometry": {"type": "Point", "coordinates": [-76.1431881136, 36.8412391035]}, "type": "Feature", "properties": {"collection_times": [{"days": "Mon-Sat", "time": "5:00pm"}, {"days": "Sun", "time": "Closed"}], "id": "2346200093", "name": "USPS COLLECTION BOX - PO LOBBY", "address": {"city": "VIRGINIA BEACH", "state": "VA", "street": "4831 COLUMBUS ST", "postcode": "23462"}}},
{"geometry": {"type": "Point", "coordinates": [-76.1314543436, 36.8255353233]}, "type": "Feature", "properties": {"collection_times": [{"days": "Mon-Fri", "time": "2:15pm"}, {"days": "Sat", "time": "12:45pm"}, {"days": "Sun", "time": "Closed"}], "id": "2346200103", "name": "USPS COLLECTION BOX - BLUE BOX", "address": {"city": "VIRGINIA BEACH", "state": "VA", "street": "424 EDWIN DR", "postcode": "23462"}}},
{"geometry": {"type": "Point", "coordinates": [-76.1431881136, 36.8412391035]}, "type": "Feature", "properties": {"collection_times": [{"days": "Mon-Sat", "time": "5:00pm"}, {"days": "Sun", "time": "Closed"}], "id": "2346200107", "name": "USPS COLLECTION BOX - APC", "address": {"city": "VIRGINIA BEACH", "state": "VA", "street": "4831 COLUMBUS ST", "postcode": "23462"}}},
{"geometry": {"type": "Point", "coordinates": [-76.1683502471, 36.8143868334]}, "type": "Feature", "properties": {"collection_times": [{"days": "Mon-Fri", "time": "3:00pm"}, {"days": "Sat", "time": "10:00am"}, {"days": "Sun", "time": "Closed"}], "id": "2346400002", "name": "USPS COLLECTION BOX - BLUE BOX", "address": {"city": "VIRGINIA BEACH", "state": "VA", "street": "5218 FAIRFIELD SHOPPING CTR", "postcode": "23464"}}},
{"geometry": {"type": "Point", "coordinates": [-76.1780388878, 36.7929960235]}, "type": "Feature", "properties": {"collection_times": [{"days": "Mon-Fri", "time": "3:15pm"}, {"days": "Sat", "time": "10:00am"}, {"days": "Sun", "time": "Closed"}], "id": "2346400003", "name": "USPS COLLECTION BOX - BLUE BOX", "address": {"city": "VIRGINIA BEACH", "state": "VA", "street": "985 PROVIDENCE RD", "postcode": "23464"}}},
{"geometry": {"type": "Point", "coordinates": [-76.1502302683, 36.7880059501]}, "type": "Feature", "properties": {"collection_times": [{"days": "Mon-Fri", "time": "2:30pm"}, {"days": "Sat", "time": "10:00am"}, {"days": "Sun", "time": "Closed"}], "id": "2346400007", "name": "USPS COLLECTION BOX - BLUE BOX", "address": {"city": "VIRGINIA BEACH", "state": "VA", "street": "4221 PLEASANT VALLEY RD", "postcode": "23464"}}},
{"geometry": {"type": "Point", "coordinates": [-76.1903231136, 36.7819042478]}, "type": "Feature", "properties": {"collection_times": [{"days": "Mon-Fri", "time": "2:30pm"}, {"days": "Sat", "time": "10:00am"}, {"days": "Sun", "time": "Closed"}], "id": "2346400012", "name": "USPS COLLECTION BOX - BLUE BOX", "address": {"city": "VIRGINIA BEACH", "state": "VA", "street": "1832 KEMPSVILLE RD", "postcode": "23464"}}},
{"geometry": {"type": "Point", "coordinates": [-76.2038241821, 36.8116933553]}, "type": "Feature", "properties": {"collection_times": [{"days": "Mon-Fri", "time": "2:30pm"}, {"days": "Sat", "time": "10:00am"}, {"days": "Sun", "time": "Closed"}], "id": "2346400015", "name": "USPS COLLECTION BOX - BLUE BOX", "address": {"city": "VIRGINIA BEACH", "state": "VA", "street": "6064 INDIAN RIVER RD", "postcode": "23464"}}},
{"geometry": {"type": "Point", "coordinates": [-76.2180694161, 36.8089455067]}, "type": "Feature", "properties": {"collection_times": [{"days": "Mon-Fri", "time": "2:45pm"}, {"days": "Sat", "time": "10:30am"}, {"days": "Sun", "time": "Closed"}], "id": "2346400027", "name": "USPS COLLECTION BOX - BLUE BOX", "address": {"city": "VIRGINIA BEACH", "state": "VA", "street": "6541 AUBURN DR", "postcode": "23464"}}},
{"geometry": {"type": "Point", "coordinates": [-76.1737900791, 36.8023824504]}, "type": "Feature", "properties": {"collection_times": [{"days": "Mon-Fri", "time": "5:15pm"}, {"days": "Sat", "time": "1:30pm"}, {"days": "Sun", "time": "Closed"}], "id": "2346400028", "name": "USPS COLLECTION BOX - PO LOBBY", "address": {"city": "VIRGINIA BEACH", "state": "VA", "street": "1225 KEMPSVILLE RD", "postcode": "23464"}}},
{"geometry": {"type": "Point", "coordinates": [-76.1737900791, 36.8023824504]}, "type": "Feature", "properties": {"collection_times": [{"days": "Mon-Fri", "time": "5:00pm"}, {"days": "Sat", "time": "4:45pm"}, {"days": "Sun", "time": "Closed"}], "id": "2346400034", "name": "USPS COLLECTION BOX - BLUE BOX", "address": {"city": "VIRGINIA BEACH", "state": "VA", "street": "1225 KEMPSVILLE RD", "postcode": "23464"}}},
{"geometry": {"type": "Point", "coordinates": [-76.1737900791, 36.8023824504]}, "type": "Feature", "properties": {"collection_times": [{"days": "Mon-Fri", "time": "5:15pm"}, {"days": "Sat", "time": "1:15pm"}, {"days": "Sun", "time": "Closed"}], "id": "2346400036", "name": "USPS COLLECTION BOX - APC", "address": {"city": "VIRGINIA BEACH", "state": "VA", "street": "1225 KEMPSVILLE RD", "postcode": "23464"}}},
{"geometry": {"type": "Point", "coordinates": [-76.173854436, 36.8026181831]}, "type": "Feature", "properties": {"collection_times": [{"days": "Mon-Fri", "time": "5:00pm"}, {"days": "Sat", "time": "4:45pm"}, {"days": "Sun", "time": "Closed"}], "id": "2346400038", "name": "USPS COLLECTION BOX - BLUE BOX", "address": {"city": "VIRGINIA BEACH", "state": "VA", "street": "1225 KEMPSVILLE RD", "postcode": "23464"}}},
{"geometry": {"type": "Point", "coordinates": [-75.6926608991, 37.6050729226]}, "type": "Feature", "properties": {"collection_times": [{"days": "Mon-Fri", "time": "4:30pm"}, {"days": "Sat", "time": "11:30am"}, {"days": "Sun", "time": "Closed"}], "id": "2348000001", "name": "USPS COLLECTION BOX - BLUE BOX", "address": {"city": "WACHAPREAGUE", "state": "VA", "street": "19 MAIN ST", "postcode": "23480"}}},
{"geometry": {"type": "Point", "coordinates": [-75.6926608991, 37.6050729226]}, "type": "Feature", "properties": {"collection_times": [{"days": "Mon-Fri", "time": "4:30pm"}, {"days": "Sat", "time": "11:30am"}, {"days": "Sun", "time": "Closed"}], "id": "2348000002", "name": "USPS COLLECTION BOX - PO LOBBY", "address": {"city": "WACHAPREAGUE", "state": "VA", "street": "19 MAIN ST", "postcode": "23480"}}},
{"geometry": {"type": "Point", "coordinates": [-75.8038652093, 37.5042381592]}, "type": "Feature", "properties": {"collection_times": [{"days": "Mon-Fri", "time": "4:15pm"}, {"days": "Sat", "time": "11:45am"}, {"days": "Sun", "time": "Closed"}], "id": "2348600000", "name": "USPS COLLECTION BOX - BLUE BOX", "address": {"city": "WILLIS WHARF", "state": "VA", "street": "4457 WILLIS WHARF RD", "postcode": "23486"}}},
{"geometry": {"type": "Point", "coordinates": [-75.8038652093, 37.5042381592]}, "type": "Feature", "properties": {"collection_times": [{"days": "Mon-Fri", "time": "4:15pm"}, {"days": "Sat", "time": "11:45am"}, {"days": "Sun", "time": "Closed"}], "id": "2348600001", "name": "USPS COLLECTION BOX - PO LOBBY", "address": {"city": "WILLIS WHARF", "state": "VA", "street": "4457 WILLIS WHARF RD", "postcode": "23486"}}},
{"geometry": {"type": "Point", "coordinates": [-76.7431745937, 36.8080724499]}, "type": "Feature", "properties": {"collection_times": [{"days": "Mon-Fri", "time": "4:45pm"}, {"days": "Sat", "time": "12:00pm"}, {"days": "Sun", "time": "Closed"}], "id": "2348700002", "name": "USPS COLLECTION BOX - BLUE BOX", "address": {"city": "WINDSOR", "state": "VA", "street": "4 E WINDSOR BLVD", "postcode": "23487"}}},
{"geometry": {"type": "Point", "coordinates": [-76.7431745937, 36.8080724499]}, "type": "Feature", "properties": {"collection_times": [{"days": "Mon-Fri", "time": "5:00pm"}, {"days": "Sat", "time": "12:00pm"}, {"days": "Sun", "time": "Closed"}], "id": "2348700006", "name": "USPS COLLECTION BOX - PO LOBBY", "address": {"city": "WINDSOR", "state": "VA", "street": "4 E WINDSOR BLVD", "postcode": "23487"}}},
{"geometry": {"type": "Point", "coordinates": [-76.7431745937, 36.8080724499]}, "type": "Feature", "properties": {"collection_times": [{"days": "Mon-Fri", "time": "5:00pm"}, {"days": "Sat", "time": "12:00pm"}, {"days": "Sun", "time": "Closed"}], "id": "2348700007", "name": "USPS COLLECTION BOX - PO LOBBY", "address": {"city": "WINDSOR", "state": "VA", "street": "4 E WINDSOR BLVD", "postcode": "23487"}}},
{"geometry": {"type": "Point", "coordinates": [-75.5765452904, 37.9450978031]}, "type": "Feature", "properties": {"collection_times": [{"days": "Mon-Fri", "time": "4:30pm"}, {"days": "Sat", "time": "11:30am"}, {"days": "Sun", "time": "Closed"}], "id": "2348800001", "name": "USPS COLLECTION BOX - BLUE BOX", "address": {"city": "WITHAMS", "state": "VA", "street": "28309 WITHAMS RD", "postcode": "23488"}}}
]}
