{"type": "FeatureCollection", "features": [
{"geometry": {"type": "Point", "coordinates": [-76.2069835852, 36.8598890204]}, "type": "Feature", "properties": {"collection_times": [{"days": "Mon-Fri", "time": "5:00pm"}, {"days": "Sat", "time": "2:00pm"}, {"days": "Sun", "time": "Closed"}], "id": "2350200001", "name": "USPS COLLECTION BOX - PO LOBBY", "address": {"city": "NORFOLK", "state": "VA", "street": "190 JANAF SHOPPING CTR", "postcode": "23502"}}},
{"geometry": {"type": "Point", "coordinates": [-76.2124491686, 36.8539927288]}, "type": "Feature", "properties": {"collection_times": [{"days": "Mon-Fri", "time": "5:00pm"}, {"days": "Sat-Sun", "time": "Closed"}], "id": "2350200004", "name": "USPS COLLECTION BOX - EXPRESS", "address": {"city": "NORFOLK", "state": "VA", "street": "190 JANAF SHOPPING CTR", "postcode": "23502"}}},
{"geometry": {"type": "Point", "coordinates": [-76.2069835852, 36.8598890204]}, "type": "Feature", "properties": {"collection_times": [{"days": "Mon-Fri", "time": "5:00pm"}, {"days": "Sat", "time": "11:30am"}, {"days": "Sun", "time": "Closed"}], "id": "2350200007", "name": "USPS COLLECTION BOX - BLUE BOX", "address": {"city": "NORFOLK", "state": "VA", "street": "190 JANAF SHOPPING CTR", "postcode": "23502"}}},
{"geometry": {"type": "Point", "coordinates": [-76.2069835852, 36.8598890204]}, "type": "Feature", "properties": {"collection_times": [{"days": "Mon-Fri", "time": "5:00pm"}, {"days": "Sat", "time": "11:30am"}, {"days": "Sun", "time": "Closed"}], "id": "2350200008", "name": "USPS COLLECTION BOX - BLUE BOX", "address": {"city": "NORFOLK", "state": "VA", "street": "190 JANAF SHOPPING CTR", "postcode": "23502"}}},
{"geometry": {"type": "Point", "coordinates": [-76.1931611239, 36.8774533077]}, "type": "Feature", "properties": {"collection_times": [{"days": "Mon-Fri", "time": "3:00pm"}, {"days": "Sat", "time": "9:30am"}, {"days": "Sun", "time": "Closed"}], "id": "2350200012", "name": "USPS COLLECTION BOX - BLUE BOX", "address": {"city": "NORFOLK", "state": "VA", "street": "6280 NORTHAMPTON BLVD", "postcode": "23502"}}},
{"geometry": {"type": "Point", "coordinates": [-76.1919981642, 36.8765426585]}, "type": "Feature", "properties": {"collection_times": [{"days": "Mon-Fri", "time": "3:15pm"}, {"days": "Sat", "time": "9:30am"}, {"days": "Sun", "time": "Closed"}], "id": "2350200014", "name": "USPS COLLECTION BOX - BLUE BOX", "address": {"city": "NORFOLK", "state": "VA", "street": "1584 WESLEYAN DR", "postcode": "23502"}}},
{"geometry": {"type": "Point", "coordinates": [-76.2105003958, 36.8758569543]}, "type": "Feature", "properties": {"collection_times": [{"days": "Mon-Fri", "time": "3:30pm"}, {"days": "Sat", "time": "10:00am"}, {"days": "Sun", "time": "Closed"}], "id": "2350200017", "name": "USPS COLLECTION BOX - BLUE BOX", "address": {"city": "NORFOLK", "state": "VA", "street": "1500 N MILITARY HWY", "postcode": "23502"}}},
{"geometry": {"type": "Point", "coordinates": [-76.2422730159, 36.858631319]}, "type": "Feature", "properties": {"collection_times": [{"days": "Mon-Fri", "time": "5:00pm"}, {"days": "Sat", "time": "11:00am"}, {"days": "Sun", "time": "Closed"}], "id": "2350200021", "name": "USPS COLLECTION BOX - BLUE BOX", "address": {"city": "NORFOLK", "state": "VA", "street": "1301 INGLESIDE RD", "postcode": "23502"}}},
{"geometry": {"type": "Point", "coordinates": [-76.2299905219, 36.8635330726]}, "type": "Feature", "properties": {"collection_times": [{"days": "Mon-Fri", "time": "5:00pm"}, {"days": "Sat", "time": "11:00am"}, {"days": "Sun", "time": "Closed"}], "id": "2350200023", "name": "USPS COLLECTION BOX - BLUE BOX", "address": {"city": "NORFOLK", "state": "VA", "street": "4600 VILLAGE AVE", "postcode": "23502"}}},
{"geometry": {"type": "Point", "coordinates": [-76.2124491686, 36.8539927288]}, "type": "Feature", "properties": {"collection_times": [{"days": "Mon-Fri", "time": "5:00pm"}, {"days": "Sat", "time": "9:30am"}, {"days": "Sun", "time": "Closed"}], "id": "2350200025", "name": "USPS COLLECTION BOX - BLUE BOX", "address": {"city": "NORFOLK", "state": "VA", "street": "5900 E VA BEACH BLVD STE 124", "postcode": "23502"}}},
{"geometry": {"type": "Point", "coordinates": [-76.2329849616, 36.8585125918]}, "type": "Feature", "properties": {"collection_times": [{"days": "Mon-Fri", "time": "5:00pm"}, {"days": "Sat", "time": "11:00am"}, {"days": "Sun", "time": "Closed"}], "id": "2350200027", "name": "USPS COLLECTION BOX - BLUE BOX", "address": {"city": "NORFOLK", "state": "VA", "street": "1151 AZALEA GARDEN RD", "postcode": "23502"}}},
{"geometry": {"type": "Point", "coordinates": [-76.2093343345, 36.8387005066]}, "type": "Feature", "properties": {"collection_times": [{"days": "Mon-Fri", "time": "3:30pm"}, {"days": "Sat", "time": "10:30am"}, {"days": "Sun", "time": "Closed"}], "id": "2350200029", "name": "USPS COLLECTION BOX - BLUE BOX", "address": {"city": "NORFOLK", "state": "VA", "street": "5714 SELLGER DR", "postcode": "23502"}}},
{"geometry": {"type": "Point", "coordinates": [-76.2315926725, 36.8671775617]}, "type": "Feature", "properties": {"collection_times": [{"days": "Mon-Fri", "time": "5:00pm"}, {"days": "Sat", "time": "11:00am"}, {"days": "Sun", "time": "Closed"}], "id": "2350200038", "name": "USPS COLLECTION BOX - BLUE BOX", "address": {"city": "NORFOLK", "state": "VA", "street": "4630 E PRINCESS ANNE RD", "postcode": "23502"}}},
{"geometry": {"type": "Point", "coordinates": [-76.192528505, 36.8526657935]}, "type": "Feature", "properties": {"collection_times": [{"days": "Mon-Fri", "time": "4:45pm"}, {"days": "Sat", "time": "10:00am"}, {"days": "Sun", "time": "Closed"}], "id": "2350200041", "name": "USPS COLLECTION BOX - BLUE BOX", "address": {"city": "NORFOLK", "state": "VA", "street": "814 KEMPSVILLE RD", "postcode": "23502"}}},
{"geometry": {"type": "Point", "coordinates": [-76.2125363385, 36.8371445838]}, "type": "Feature", "properties": {"collection_times": [{"days": "Mon-Fri", "time": "5:15pm"}, {"days": "Sat", "time": "12:00pm"}, {"days": "Sun", "time": "Closed"}], "id": "2350200047", "name": "USPS COLLECTION BOX - BLUE BOX", "address": {"city": "NORFOLK", "state": "VA", "street": "240 CORPORATE BLVD", "postcode": "23502"}}},
{"geometry": {"type": "Point", "coordinates": [-76.2394432112, 36.8538605021]}, "type": "Feature", "properties": {"collection_times": [{"days": "Mon-Sat", "time": "12:00pm"}, {"days": "Sun", "time": "Closed"}], "id": "2350200050", "name": "USPS COLLECTION BOX - BLUE BOX", "address": {"city": "NORFOLK", "state": "VA", "street": "985 INGLESIDE RD", "postcode": "23502"}}},
{"geometry": {"type": "Point", "coordinates": [-76.2388288165, 36.854489306]}, "type": "Feature", "properties": {"collection_times": [{"days": "Mon-Fri", "time": "5:00pm"}, {"days": "Sat", "time": "10:30am"}, {"days": "Sun", "time": "Closed"}], "id": "2350200051", "name": "USPS COLLECTION BOX - BLUE BOX", "address": {"city": "NORFOLK", "state": "VA", "street": "3701 E VA BEACH BLVD", "postcode": "23502"}}},
{"geometry": {"type": "Point", "coordinates": [-76.2331777907, 36.8534749573]}, "type": "Feature", "properties": {"collection_times": [{"days": "Mon-Fri", "time": "5:00pm"}, {"days": "Sat", "time": "11:00am"}, {"days": "Sun", "time": "Closed"}], "id": "2350200053", "name": "USPS COLLECTION BOX - BLUE BOX", "address": {"city": "NORFOLK", "state": "VA", "street": "952 NORFOLK SQ", "postcode": "23502"}}},
{"geometry": {"type": "Point", "coordinates": [-76.2242098119, 36.8561502981]}, "type": "Feature", "properties": {"collection_times": [{"days": "Mon-Fri", "time": "5:00pm"}, {"days": "Sat", "time": "10:00am"}, {"days": "Sun", "time": "Closed"}], "id": "2350200058", "name": "USPS COLLECTION BOX - BLUE BOX", "address": {"city": "NORFOLK", "state": "VA", "street": "5145 E VIRGINIA BEACH BLVD", "postcode": "23502"}}},
{"geometry": {"type": "Point", "coordinates": [-76.1826687682, 36.8470596601]}, "type": "Feature", "properties": {"collection_times": [{"days": "Mon-Fri", "time": "5:15pm"}, {"days": "Sat", "time": "10:30am"}, {"days": "Sun", "time": "Closed"}], "id": "2350200059", "name": "USPS COLLECTION BOX - BLUE BOX", "address": {"city": "NORFOLK", "state": "VA", "street": "6379 CENTER DR", "postcode": "23502"}}},
{"geometry": {"type": "Point", "coordinates": [-76.1858303594, 36.8471573669]}, "type": "Feature", "properties": {"collection_times": [{"days": "Mon-Fri", "time": "5:00pm"}, {"days": "Sat", "time": "10:00am"}, {"days": "Sun", "time": "Closed"}], "id": "2350200061", "name": "USPS COLLECTION BOX - BLUE BOX", "address": {"city": "NORFOLK", "state": "VA", "street": "410 N CENTER DR", "postcode": "23502"}}},
{"geometry": {"type": "Point", "coordinates": [-76.2121220995, 36.8558075082]}, "type": "Feature", "properties": {"collection_times": [{"days": "Mon-Fri", "time": "4:45pm"}, {"days": "Sat", "time": "9:45am"}, {"days": "Sun", "time": "Closed"}], "id": "2350200063", "name": "USPS COLLECTION BOX - BLUE BOX", "address": {"city": "NORFOLK", "state": "VA", "street": "700 NEWTOWN RD", "postcode": "23502"}}},
{"geometry": {"type": "Point", "coordinates": [-76.2098293123, 36.8513176235]}, "type": "Feature", "properties": {"collection_times": [{"days": "Mon-Fri", "time": "5:00pm"}, {"days": "Sat", "time": "10:30am"}, {"days": "Sun", "time": "Closed"}], "id": "2350200066", "name": "USPS COLLECTION BOX - BLUE BOX", "address": {"city": "NORFOLK", "state": "VA", "street": "880 N MILITARY HWY", "postcode": "23502"}}},
{"geometry": {"type": "Point", "coordinates": [-76.2098293123, 36.8513176235]}, "type": "Feature", "properties": {"collection_times": [{"days": "Mon-Fri", "time": "5:00pm"}, {"days": "Sat", "time": "10:30am"}, {"days": "Sun", "time": "Closed"}], "id": "2350200067", "name": "USPS COLLECTION BOX - BLUE BOX", "address": {"city": "NORFOLK", "state": "VA", "street": "880 N MILITARY HWY", "postcode": "23502"}}},
{"geometry": {"type": "Point", "coordinates": [-76.2019778358, 36.8532191908]}, "type": "Feature", "properties": {"collection_times": [{"days": "Mon-Fri", "time": "5:00pm"}, {"days": "Sat", "time": "10:30am"}, {"days": "Sun", "time": "Closed"}], "id": "2350200069", "name": "USPS COLLECTION BOX - BLUE BOX", "address": {"city": "NORFOLK", "state": "VA", "street": "863 GLENROCK RD BLDG EAST", "postcode": "23502"}}},
{"geometry": {"type": "Point", "coordinates": [-76.209832189, 36.8512572136]}, "type": "Feature", "properties": {"collection_times": [{"days": "Mon-Fri", "time": "5:00pm"}, {"days": "Sat", "time": "10:00am"}, {"days": "Sun", "time": "Closed"}], "id": "2350200073", "name": "USPS COLLECTION BOX - BLUE BOX", "address": {"city": "NORFOLK", "state": "VA", "street": "870 N MILITARY HWY", "postcode": "23502"}}},
{"geometry": {"type": "Point", "coordinates": [-76.1876325563, 36.8421829296]}, "type": "Feature", "properties": {"collection_times": [{"days": "Mon-Fri", "time": "4:45pm"}, {"days": "Sat", "time": "10:00am"}, {"days": "Sun", "time": "Closed"}], "id": "2350200082", "name": "USPS COLLECTION BOX - BLUE BOX", "address": {"city": "NORFOLK", "state": "VA", "street": "6330 NEWTOWN RD", "postcode": "23502"}}},
{"geometry": {"type": "Point", "coordinates": [-76.2124491686, 36.8539927288]}, "type": "Feature", "properties": {"collection_times": [{"days": "Mon-Fri", "time": "5:15pm"}, {"days": "Sat-Sun", "time": "Closed"}], "id": "2350200086", "name": "USPS COLLECTION BOX - EXPRESS", "address": {"city": "NORFOLK", "state": "VA", "street": "6353 CENTER DR", "postcode": "23502"}}},
{"geometry": {"type": "Point", "coordinates": [-76.1926597236, 36.8528742854]}, "type": "Feature", "properties": {"collection_times": [{"days": "Mon-Fri", "time": "5:00pm"}, {"days": "Sat", "time": "9:00am"}, {"days": "Sun", "time": "Closed"}], "id": "2350200087", "name": "USPS COLLECTION BOX - BLUE BOX", "address": {"city": "NORFOLK", "state": "VA", "street": "830 KEMPSVILLE RD", "postcode": "23502"}}},
{"geometry": {"type": "Point", "coordinates": [-76.19277454, 36.8530567158]}, "type": "Feature", "properties": {"collection_times": [{"days": "Mon-Fri", "time": "5:00pm"}, {"days": "Sat", "time": "9:00am"}, {"days": "Sun", "time": "Closed"}], "id": "2350200088", "name": "USPS COLLECTION BOX - BLUE BOX", "address": {"city": "NORFOLK", "state": "VA", "street": "844 KEMPSVILLE RD", "postcode": "23502"}}},
{"geometry": {"type": "Point", "coordinates": [-76.1930614647, 36.8535163135]}, "type": "Feature", "properties": {"collection_times": [{"days": "Mon-Fri", "time": "5:00pm"}, {"days": "Sat", "time": "9:00am"}, {"days": "Sun", "time": "Closed"}], "id": "2350200090", "name": "USPS COLLECTION BOX - BLUE BOX", "address": {"city": "NORFOLK", "state": "VA", "street": "880 KEMPSVILLE RD", "postcode": "23502"}}},
{"geometry": {"type": "Point", "coordinates": [-76.2043151196, 36.8669691967]}, "type": "Feature", "properties": {"collection_times": [{"days": "Mon-Sat", "time": "9:30am"}, {"days": "Sun", "time": "Closed"}], "id": "2350200093", "name": "USPS COLLECTION BOX - BLUE BOX", "address": {"city": "NORFOLK", "state": "VA", "street": "1309 KEMPSVILLE RD", "postcode": "23502"}}},
{"geometry": {"type": "Point", "coordinates": [-76.204919471, 36.8744768826]}, "type": "Feature", "properties": {"collection_times": [{"days": "Mon-Fri", "time": "5:00pm"}, {"days": "Sat", "time": "10:00am"}, {"days": "Sun", "time": "Closed"}], "id": "2350200094", "name": "USPS COLLECTION BOX - BLUE BOX", "address": {"city": "NORFOLK", "state": "VA", "street": "5800 NORTHAMPTON BLVD", "postcode": "23502"}}},
{"geometry": {"type": "Point", "coordinates": [-76.1981738971, 36.8513783202]}, "type": "Feature", "properties": {"collection_times": [{"days": "Mon-Fri", "time": "3:00pm"}, {"days": "Sat-Sun", "time": "Closed"}], "id": "2350200098", "name": "USPS COLLECTION BOX - BLUE BOX", "address": {"city": "NORFOLK", "state": "VA", "street": "6015 POPLAR HALL DR", "postcode": "23502"}}},
{"geometry": {"type": "Point", "coordinates": [-76.2112820092, 36.8780448665]}, "type": "Feature", "properties": {"collection_times": [{"days": "Mon-Fri", "time": "5:00pm"}, {"days": "Sat", "time": "10:00am"}, {"days": "Sun", "time": "Closed"}], "id": "2350200115", "name": "USPS COLLECTION BOX - BLUE BOX", "address": {"city": "NORFOLK", "state": "VA", "street": "5700 LAKE WRIGHT DR", "postcode": "23502"}}},
{"geometry": {"type": "Point", "coordinates": [-76.2847951135, 36.9672575401]}, "type": "Feature", "properties": {"collection_times": [{"days": "Mon-Sat", "time": "1:00pm"}, {"days": "Sun", "time": "Closed"}], "id": "2350300003", "name": "USPS COLLECTION BOX - BLUE BOX", "address": {"city": "NORFOLK", "state": "VA", "street": "1208 W OCEAN VIEW AVE", "postcode": "23503"}}},
{"geometry": {"type": "Point", "coordinates": [-76.2715842504, 36.9441427722]}, "type": "Feature", "properties": {"collection_times": [{"days": "Mon-Sat", "time": "1:00pm"}, {"days": "Sun", "time": "Closed"}], "id": "2350300008", "name": "USPS COLLECTION BOX - BLUE BOX", "address": {"city": "NORFOLK", "state": "VA", "street": "8931 MONITOR WAY", "postcode": "23503"}}},
{"geometry": {"type": "Point", "coordinates": [-76.2614477146, 36.9393783121]}, "type": "Feature", "properties": {"collection_times": [{"days": "Mon-Sat", "time": "10:00am"}, {"days": "Sun", "time": "Closed"}], "id": "2350300013", "name": "USPS COLLECTION BOX - BLUE BOX", "address": {"city": "NORFOLK", "state": "VA", "street": "8900 GRANBY ST", "postcode": "23503"}}},
{"geometry": {"type": "Point", "coordinates": [-76.2554638144, 36.932771093]}, "type": "Feature", "properties": {"collection_times": [{"days": "Mon-Sat", "time": "12:00pm"}, {"days": "Sun", "time": "Closed"}], "id": "2350300015", "name": "USPS COLLECTION BOX - BLUE BOX", "address": {"city": "NORFOLK", "state": "VA", "street": "337 E BAYVIEW BLVD", "postcode": "23503"}}},
{"geometry": {"type": "Point", "coordinates": [-76.2462748459, 36.9337079631]}, "type": "Feature", "properties": {"collection_times": [{"days": "Mon-Sat", "time": "1:00pm"}, {"days": "Sun", "time": "Closed"}], "id": "2350300016", "name": "USPS COLLECTION BOX - BLUE BOX", "address": {"city": "NORFOLK", "state": "VA", "street": "738 E BAYVIEW BLVD", "postcode": "23503"}}},
{"geometry": {"type": "Point", "coordinates": [-76.2227107065, 36.9374034479]}, "type": "Feature", "properties": {"collection_times": [{"days": "Mon-Sat", "time": "1:00pm"}, {"days": "Sun", "time": "Closed"}], "id": "2350300019", "name": "USPS COLLECTION BOX - BLUE BOX", "address": {"city": "NORFOLK", "state": "VA", "street": "9636 CAPE VIEW AVE", "postcode": "23503"}}},
{"geometry": {"type": "Point", "coordinates": [-76.2421651956, 36.936536744]}, "type": "Feature", "properties": {"collection_times": [{"days": "Mon-Sat", "time": "1:00pm"}, {"days": "Sun", "time": "Closed"}], "id": "2350300024", "name": "USPS COLLECTION BOX - BLUE BOX", "address": {"city": "NORFOLK", "state": "VA", "street": "1075 LINDALE LN", "postcode": "23503"}}},
{"geometry": {"type": "Point", "coordinates": [-76.2546154924, 36.9552071419]}, "type": "Feature", "properties": {"collection_times": [{"days": "Mon-Fri", "time": "5:00pm"}, {"days": "Sat", "time": "3:00pm"}, {"days": "Sun", "time": "Closed"}], "id": "2350300034", "name": "USPS COLLECTION BOX - PO LOBBY", "address": {"city": "NORFOLK", "state": "VA", "street": "9631 1ST VIEW ST", "postcode": "23503"}}},
{"geometry": {"type": "Point", "coordinates": [-76.253096695, 36.9475711122]}, "type": "Feature", "properties": {"collection_times": [{"days": "Mon-Fri", "time": "4:45pm"}, {"days": "Sat-Sun", "time": "Closed"}], "id": "2350300037", "name": "USPS COLLECTION BOX - EXPRESS", "address": {"city": "NORFOLK", "state": "VA", "street": "9631 1ST VIEW ST", "postcode": "23503"}}},
{"geometry": {"type": "Point", "coordinates": [-76.2532269741, 36.9557177602]}, "type": "Feature", "properties": {"collection_times": [{"days": "Mon-Sat", "time": "9:00am"}, {"days": "Sun", "time": "Closed"}], "id": "2350300038", "name": "USPS COLLECTION BOX - BLUE BOX", "address": {"city": "NORFOLK", "state": "VA", "street": "179 W OCEAN VIEW AVE", "postcode": "23503"}}},
{"geometry": {"type": "Point", "coordinates": [-76.2423359852, 36.9302776963]}, "type": "Feature", "properties": {"collection_times": [{"days": "Mon-Sat", "time": "11:00am"}, {"days": "Sun", "time": "Closed"}], "id": "2350300043", "name": "USPS COLLECTION BOX - BLUE BOX", "address": {"city": "NORFOLK", "state": "VA", "street": "1020 FISHERMANS RD", "postcode": "23503"}}},
{"geometry": {"type": "Point", "coordinates": [-76.2546154924, 36.9552071419]}, "type": "Feature", "properties": {"collection_times": [{"days": "Mon-Fri", "time": "5:00pm"}, {"days": "Sat", "time": "3:00pm"}, {"days": "Sun", "time": "Closed"}], "id": "2350300044", "name": "USPS COLLECTION BOX - BLUE BOX", "address": {"city": "NORFOLK", "state": "VA", "street": "9631 1ST VIEW ST", "postcode": "23503"}}},
{"geometry": {"type": "Point", "coordinates": [-76.2261436416, 36.9329568634]}, "type": "Feature", "properties": {"collection_times": [{"days": "Mon-Fri", "time": "3:00pm"}, {"days": "Sat", "time": "2:00pm"}, {"days": "Sun", "time": "Closed"}], "id": "2350300046", "name": "USPS COLLECTION BOX - BLUE BOX", "address": {"city": "NORFOLK", "state": "VA", "street": "1875 E BAYVIEW BLVD", "postcode": "23503"}}},
{"geometry": {"type": "Point", "coordinates": [-76.2546154924, 36.9552071419]}, "type": "Feature", "properties": {"collection_times": [{"days": "Mon-Fri", "time": "5:00pm"}, {"days": "Sat", "time": "3:00pm"}, {"days": "Sun", "time": "Closed"}], "id": "2350300047", "name": "USPS COLLECTION BOX - PO LOBBY", "address": {"city": "NORFOLK", "state": "VA", "street": "9631 1ST VIEW ST", "postcode": "23503"}}},
{"geometry": {"type": "Point", "coordinates": [-76.2487552433, 36.8555596584]}, "type": "Feature", "properties": {"collection_times": [{"days": "Mon-Fri", "time": "5:00pm"}, {"days": "Sat", "time": "12:00pm"}, {"days": "Sun", "time": "Closed"}], "id": "2350400001", "name": "USPS COLLECTION BOX - BLUE BOX", "address": {"city": "NORFOLK", "state": "VA", "street": "1200 BALLENTINE BLVD", "postcode": "23504"}}},
{"geometry": {"type": "Point", "coordinates": [-76.2651069086, 36.8521036736]}, "type": "Feature", "properties": {"collection_times": [{"days": "Mon-Sat", "time": "12:00pm"}, {"days": "Sun", "time": "Closed"}], "id": "2350400002", "name": "USPS COLLECTION BOX - BLUE BOX", "address": {"city": "NORFOLK", "state": "VA", "street": "1000 PARK AVE", "postcode": "23504"}}},
{"geometry": {"type": "Point", "coordinates": [-76.2816507741, 36.8840082602]}, "type": "Feature", "properties": {"collection_times": [{"days": "Mon-Sat", "time": "12:00pm"}, {"days": "Sun", "time": "Closed"}], "id": "2350400004", "name": "USPS COLLECTION BOX - BLUE BOX", "address": {"city": "NORFOLK", "state": "VA", "street": "4101 GRANBY ST", "postcode": "23504"}}},
{"geometry": {"type": "Point", "coordinates": [-76.2597892482, 36.8504381093]}, "type": "Feature", "properties": {"collection_times": [{"days": "Mon-Fri", "time": "5:00pm"}, {"days": "Sat", "time": "12:00pm"}, {"days": "Sun", "time": "Closed"}], "id": "2350400006", "name": "USPS COLLECTION BOX - BLUE BOX", "address": {"city": "NORFOLK", "state": "VA", "street": "2539 CORPREW AVE", "postcode": "23504"}}},
{"geometry": {"type": "Point", "coordinates": [-76.2721105681, 36.916867423]}, "type": "Feature", "properties": {"collection_times": [{"days": "Mon-Fri", "time": "5:00pm"}, {"days": "Sat", "time": "1:00pm"}, {"days": "Sun", "time": "Closed"}], "id": "2350500001", "name": "USPS COLLECTION BOX - BLUE BOX", "address": {"city": "NORFOLK", "state": "VA", "street": "7712 GRANBY ST", "postcode": "23505"}}},
{"geometry": {"type": "Point", "coordinates": [-76.2721105681, 36.916867423]}, "type": "Feature", "properties": {"collection_times": [{"days": "Mon-Fri", "time": "5:00pm"}, {"days": "Sat", "time": "1:00pm"}, {"days": "Sun", "time": "Closed"}], "id": "2350500004", "name": "USPS COLLECTION BOX - PO LOBBY", "address": {"city": "NORFOLK", "state": "VA", "street": "7712 GRANBY ST", "postcode": "23505"}}},
{"geometry": {"type": "Point", "coordinates": [-76.3127757961, 36.9309087872]}, "type": "Feature", "properties": {"collection_times": [{"days": "Mon-Sat", "time": "1:00pm"}, {"days": "Sun", "time": "Closed"}], "id": "2350500005", "name": "USPS COLLECTION BOX - BLUE BOX", "address": {"city": "NORFOLK", "state": "VA", "street": "8600 GLEN MYRTLE AVE", "postcode": "23505"}}},
{"geometry": {"type": "Point", "coordinates": [-76.2557283331, 36.9107890286]}, "type": "Feature", "properties": {"collection_times": [{"days": "Mon-Fri", "time": "6:00pm"}, {"days": "Sat", "time": "1:00pm"}, {"days": "Sun", "time": "Closed"}], "id": "2350500008", "name": "USPS COLLECTION BOX - BLUE BOX", "address": {"city": "NORFOLK", "state": "VA", "street": "7460 TIDEWATER DR", "postcode": "23505"}}},
{"geometry": {"type": "Point", "coordinates": [-76.2553434834, 36.9124074996]}, "type": "Feature", "properties": {"collection_times": [{"days": "Mon-Fri", "time": "6:00pm"}, {"days": "Sat", "time": "1:00pm"}, {"days": "Sun", "time": "Closed"}], "id": "2350500009", "name": "USPS COLLECTION BOX - BLUE BOX", "address": {"city": "NORFOLK", "state": "VA", "street": "7525 TIDEWATER DR", "postcode": "23505"}}},
{"geometry": {"type": "Point", "coordinates": [-76.2850572879, 36.8468230461]}, "type": "Feature", "properties": {"collection_times": [{"days": "Mon-Fri", "time": "12:30pm"}, {"days": "Sat-Sun", "time": "Closed"}], "id": "2350500014", "name": "USPS COLLECTION BOX - BLUE BOX", "address": {"city": "NORFOLK", "state": "VA", "street": "7937 KING ST", "postcode": "23505"}}},
{"geometry": {"type": "Point", "coordinates": [-76.2629620476, 36.9065716722]}, "type": "Feature", "properties": {"collection_times": [{"days": "Mon-Sat", "time": "12:30pm"}, {"days": "Sun", "time": "Closed"}], "id": "2350500016", "name": "USPS COLLECTION BOX - BLUE BOX", "address": {"city": "NORFOLK", "state": "VA", "street": "549 CARL ST", "postcode": "23505"}}},
{"geometry": {"type": "Point", "coordinates": [-76.2598020344, 36.9061007516]}, "type": "Feature", "properties": {"collection_times": [{"days": "Mon-Sat", "time": "1:00pm"}, {"days": "Sun", "time": "Closed"}], "id": "2350500017", "name": "USPS COLLECTION BOX - BLUE BOX", "address": {"city": "NORFOLK", "state": "VA", "street": "581 VIRGINIAN DR", "postcode": "23505"}}},
{"geometry": {"type": "Point", "coordinates": [-76.3075960878, 36.9133126401]}, "type": "Feature", "properties": {"collection_times": [{"days": "Mon-Sat", "time": "1:00pm"}, {"days": "Sun", "time": "Closed"}], "id": "2350500018", "name": "USPS COLLECTION BOX - BLUE BOX", "address": {"city": "NORFOLK", "state": "VA", "street": "7440 MUIRFIELD RD", "postcode": "23505"}}},
{"geometry": {"type": "Point", "coordinates": [-76.3056972957, 36.9115031147]}, "type": "Feature", "properties": {"collection_times": [{"days": "Mon-Sat", "time": "1:30pm"}, {"days": "Sun", "time": "Closed"}], "id": "2350500020", "name": "USPS COLLECTION BOX - BLUE BOX", "address": {"city": "NORFOLK", "state": "VA", "street": "7340 HAMPTON BLVD", "postcode": "23505"}}},
{"geometry": {"type": "Point", "coordinates": [-76.3003032369, 36.9144125855]}, "type": "Feature", "properties": {"collection_times": [{"days": "Mon-Sat", "time": "1:00pm"}, {"days": "Sun", "time": "Closed"}], "id": "2350500021", "name": "USPS COLLECTION BOX - BLUE BOX", "address": {"city": "NORFOLK", "state": "VA", "street": "1425 RUNNYMEDE RD", "postcode": "23505"}}},
{"geometry": {"type": "Point", "coordinates": [-76.2792573221, 36.9116741598]}, "type": "Feature", "properties": {"collection_times": [{"days": "Mon-Fri", "time": "5:00pm"}, {"days": "Sat", "time": "1:00pm"}, {"days": "Sun", "time": "Closed"}], "id": "2350500038", "name": "USPS COLLECTION BOX - BLUE BOX", "address": {"city": "NORFOLK", "state": "VA", "street": "7300 NEWPORT AVE", "postcode": "23505"}}},
{"geometry": {"type": "Point", "coordinates": [-76.2841945099, 36.9165103338]}, "type": "Feature", "properties": {"collection_times": [{"days": "Mon-Sat", "time": "1:00pm"}, {"days": "Sun", "time": "Closed"}], "id": "2350500040", "name": "USPS COLLECTION BOX - BLUE BOX", "address": {"city": "NORFOLK", "state": "VA", "street": "534 GRANTHAM RD", "postcode": "23505"}}},
{"geometry": {"type": "Point", "coordinates": [-76.273283459, 36.9119165411]}, "type": "Feature", "properties": {"collection_times": [{"days": "Mon-Sat", "time": "1:00pm"}, {"days": "Sun", "time": "Closed"}], "id": "2350500049", "name": "USPS COLLECTION BOX - BLUE BOX", "address": {"city": "NORFOLK", "state": "VA", "street": "110 SUBURBAN PKWY", "postcode": "23505"}}},
{"geometry": {"type": "Point", "coordinates": [-76.3176196837, 36.9260845958]}, "type": "Feature", "properties": {"collection_times": [{"days": "Mon-Fri", "time": "5:00pm"}, {"days": "Sat", "time": "1:00pm"}, {"days": "Sun", "time": "Closed"}], "id": "2350500052", "name": "USPS COLLECTION BOX - BLUE BOX", "address": {"city": "NORFOLK", "state": "VA", "street": "8031 HAMPTON BLVD", "postcode": "23505"}}},
{"geometry": {"type": "Point", "coordinates": [-76.2811231045, 36.8982944514]}, "type": "Feature", "properties": {"collection_times": [{"days": "Mon-Fri", "time": "5:00pm"}, {"days": "Sat", "time": "1:45pm"}, {"days": "Sun", "time": "Closed"}], "id": "2350500055", "name": "USPS COLLECTION BOX - BLUE BOX", "address": {"city": "NORFOLK", "state": "VA", "street": "110 KINGSLEY LN", "postcode": "23505"}}},
{"geometry": {"type": "Point", "coordinates": [-76.2905757687, 36.9148496527]}, "type": "Feature", "properties": {"collection_times": [{"days": "Mon-Sat", "time": "1:00pm"}, {"days": "Sun", "time": "Closed"}], "id": "2350500058", "name": "USPS COLLECTION BOX - BLUE BOX", "address": {"city": "NORFOLK", "state": "VA", "street": "900 ARMFIELD CIR", "postcode": "23505"}}},
{"geometry": {"type": "Point", "coordinates": [-76.2947742082, 36.9193239445]}, "type": "Feature", "properties": {"collection_times": [{"days": "Mon-Fri", "time": "5:00pm"}, {"days": "Sat", "time": "1:00pm"}, {"days": "Sun", "time": "Closed"}], "id": "2350500065", "name": "USPS COLLECTION BOX - BLUE BOX", "address": {"city": "NORFOLK", "state": "VA", "street": "1355 INTERNATIONAL TERMINAL BLVD", "postcode": "23505"}}},
{"geometry": {"type": "Point", "coordinates": [-76.3113522139, 36.9185092947]}, "type": "Feature", "properties": {"collection_times": [{"days": "Mon-Sat", "time": "1:00pm"}, {"days": "Sun", "time": "Closed"}], "id": "2350500066", "name": "USPS COLLECTION BOX - BLUE BOX", "address": {"city": "NORFOLK", "state": "VA", "street": "7811 HAMPTON BLVD", "postcode": "23505"}}},
{"geometry": {"type": "Point", "coordinates": [-76.3142374297, 36.9137791741]}, "type": "Feature", "properties": {"collection_times": [{"days": "Mon-Sat", "time": "1:00pm"}, {"days": "Sun", "time": "Closed"}], "id": "2350500067", "name": "USPS COLLECTION BOX - BLUE BOX", "address": {"city": "NORFOLK", "state": "VA", "street": "1500 CLONCURRY RD", "postcode": "23505"}}},
{"geometry": {"type": "Point", "coordinates": [-76.2836464287, 36.9144404453]}, "type": "Feature", "properties": {"collection_times": [{"days": "Mon-Fri", "time": "4:45pm"}, {"days": "Sat-Sun", "time": "Closed"}], "id": "2350500073", "name": "USPS COLLECTION BOX - EXPRESS", "address": {"city": "NORFOLK", "state": "VA", "street": "7712 GRANBY ST", "postcode": "23505"}}},
{"geometry": {"type": "Point", "coordinates": [-76.2978522672, 36.9142415542]}, "type": "Feature", "properties": {"collection_times": [{"days": "Mon-Sat", "time": "1:00pm"}, {"days": "Sun", "time": "Closed"}], "id": "2350500079", "name": "USPS COLLECTION BOX - BLUE BOX", "address": {"city": "NORFOLK", "state": "VA", "street": "100 SURBURBAN PKWY", "postcode": "23505"}}},
{"geometry": {"type": "Point", "coordinates": [-76.2836290484, 36.9145404269]}, "type": "Feature", "properties": {"collection_times": [{"days": "Mon-Sat", "time": "1:00pm"}, {"days": "Sun", "time": "Closed"}], "id": "2350500083", "name": "USPS COLLECTION BOX - BLUE BOX", "address": {"city": "NORFOLK", "state": "VA", "street": "500 C ST", "postcode": "23505"}}},
{"geometry": {"type": "Point", "coordinates": [-76.2697291131, 36.9152767866]}, "type": "Feature", "properties": {"collection_times": [{"days": "Mon-Sat", "time": "1:00pm"}, {"days": "Sun", "time": "Closed"}], "id": "2350500087", "name": "USPS COLLECTION BOX - BLUE BOX", "address": {"city": "NORFOLK", "state": "VA", "street": "207 E LITTLE CREEK RD", "postcode": "23505"}}},
{"geometry": {"type": "Point", "coordinates": [-76.2951112315, 36.9201759458]}, "type": "Feature", "properties": {"collection_times": [{"days": "Mon-Sat", "time": "1:00pm"}, {"days": "Sun", "time": "Closed"}], "id": "2350500090", "name": "USPS COLLECTION BOX - BLUE BOX", "address": {"city": "NORFOLK", "state": "VA", "street": "400 WALSINGHAM WAY", "postcode": "23505"}}},
{"geometry": {"type": "Point", "coordinates": [-76.3174485035, 36.9275642937]}, "type": "Feature", "properties": {"collection_times": [{"days": "Mon-Sat", "time": "1:00pm"}, {"days": "Sun", "time": "Closed"}], "id": "2350500091", "name": "USPS COLLECTION BOX - BLUE BOX", "address": {"city": "NORFOLK", "state": "VA", "street": "8200 HAMPTON BLVD", "postcode": "23505"}}},
{"geometry": {"type": "Point", "coordinates": [-76.3106254091, 36.918241649]}, "type": "Feature", "properties": {"collection_times": [{"days": "Mon-Fri", "time": "1:00pm"}, {"days": "Sat-Sun", "time": "Closed"}], "id": "2350500092", "name": "USPS COLLECTION BOX - BLUE BOX", "address": {"city": "NORFOLK", "state": "VA", "street": "7800 HAMPTON BLVD", "postcode": "23505"}}},
{"geometry": {"type": "Point", "coordinates": [-76.3086565635, 36.8704211376]}, "type": "Feature", "properties": {"collection_times": [{"days": "Mon-Sat", "time": "12:30pm"}, {"days": "Sun", "time": "Closed"}], "id": "2350700003", "name": "USPS COLLECTION BOX - BLUE BOX", "address": {"city": "NORFOLK", "state": "VA", "street": "1400 WESTOVER AVE", "postcode": "23507"}}},
{"geometry": {"type": "Point", "coordinates": [-76.2921365665, 36.8609870346]}, "type": "Feature", "properties": {"collection_times": [{"days": "Mon-Sat", "time": "12:30pm"}, {"days": "Sun", "time": "Closed"}], "id": "2350700004", "name": "USPS COLLECTION BOX - BLUE BOX", "address": {"city": "NORFOLK", "state": "VA", "street": "1100 BOTETOURT GDNS", "postcode": "23507"}}},
{"geometry": {"type": "Point", "coordinates": [-76.3096044518, 36.8687691947]}, "type": "Feature", "properties": {"collection_times": [{"days": "Mon-Fri", "time": "2:00pm"}, {"days": "Sat", "time": "12:30pm"}, {"days": "Sun", "time": "Closed"}], "id": "2350700005", "name": "USPS COLLECTION BOX - BLUE BOX", "address": {"city": "NORFOLK", "state": "VA", "street": "1323 REDGATE AVE", "postcode": "23507"}}},
{"geometry": {"type": "Point", "coordinates": [-76.3063499823, 36.8696132761]}, "type": "Feature", "properties": {"collection_times": [{"days": "Mon-Sat", "time": "1:30pm"}, {"days": "Sun", "time": "Closed"}], "id": "2350700008", "name": "USPS COLLECTION BOX - BLUE BOX", "address": {"city": "NORFOLK", "state": "VA", "street": "703 MANTEO AVE", "postcode": "23507"}}},
{"geometry": {"type": "Point", "coordinates": [-76.3023679815, 36.8724067261]}, "type": "Feature", "properties": {"collection_times": [{"days": "Mon-Sat", "time": "12:15pm"}, {"days": "Sun", "time": "Closed"}], "id": "2350700010", "name": "USPS COLLECTION BOX - BLUE BOX", "address": {"city": "NORFOLK", "state": "VA", "street": "2204 CLAREMONT AVE", "postcode": "23507"}}},
{"geometry": {"type": "Point", "coordinates": [-76.3050273295, 36.8603992671]}, "type": "Feature", "properties": {"collection_times": [{"days": "Mon-Fri", "time": "4:30pm"}, {"days": "Sat-Sun", "time": "Closed"}], "id": "2350700011", "name": "USPS COLLECTION BOX - BLUE BOX", "address": {"city": "NORFOLK", "state": "VA", "street": "400 GRESHAM DR", "postcode": "23507"}}},
{"geometry": {"type": "Point", "coordinates": [-76.3015699088, 36.8593183942]}, "type": "Feature", "properties": {"collection_times": [{"days": "Mon-Fri", "time": "3:00pm"}, {"days": "Sat", "time": "1:00pm"}, {"days": "Sun", "time": "Closed"}], "id": "2350700012", "name": "USPS COLLECTION BOX - BLUE BOX", "address": {"city": "NORFOLK", "state": "VA", "street": "401 COLLEY AVE", "postcode": "23507"}}},
{"geometry": {"type": "Point", "coordinates": [-76.3022120663, 36.8644396058]}, "type": "Feature", "properties": {"collection_times": [{"days": "Mon-Fri", "time": "5:00pm"}, {"days": "Sat", "time": "1:00pm"}, {"days": "Sun", "time": "Closed"}], "id": "2350700015", "name": "USPS COLLECTION BOX - BLUE BOX", "address": {"city": "NORFOLK", "state": "VA", "street": "901 HAMPTON BLVD", "postcode": "23507"}}},
{"geometry": {"type": "Point", "coordinates": [-76.3033168804, 36.9004996996]}, "type": "Feature", "properties": {"collection_times": [{"days": "Mon-Sat", "time": "12:00pm"}, {"days": "Sun", "time": "Closed"}], "id": "2350800001", "name": "USPS COLLECTION BOX - BLUE BOX", "address": {"city": "NORFOLK", "state": "VA", "street": "6500 HAMPTON BLVD", "postcode": "23508"}}},
{"geometry": {"type": "Point", "coordinates": [-76.3023553951, 36.8863465141]}, "type": "Feature", "properties": {"collection_times": [{"days": "Mon-Fri", "time": "4:00pm"}, {"days": "Sat", "time": "12:00pm"}, {"days": "Sun", "time": "Closed"}], "id": "2350800002", "name": "USPS COLLECTION BOX - BLUE BOX", "address": {"city": "NORFOLK", "state": "VA", "street": "4712 HAMPTON BLVD", "postcode": "23508"}}},
{"geometry": {"type": "Point", "coordinates": [-76.2946823462, 36.88002792]}, "type": "Feature", "properties": {"collection_times": [{"days": "Mon-Fri", "time": "5:00pm"}, {"days": "Sat", "time": "12:30pm"}, {"days": "Sun", "time": "Closed"}], "id": "2350800007", "name": "USPS COLLECTION BOX - BLUE BOX", "address": {"city": "NORFOLK", "state": "VA", "street": "3800 COLLEY AVE", "postcode": "23508"}}},
{"geometry": {"type": "Point", "coordinates": [-76.2946823462, 36.88002792]}, "type": "Feature", "properties": {"collection_times": [{"days": "Mon-Fri", "time": "5:00pm"}, {"days": "Sat", "time": "2:00pm"}, {"days": "Sun", "time": "Closed"}], "id": "2350800009", "name": "USPS COLLECTION BOX - PO LOBBY", "address": {"city": "NORFOLK", "state": "VA", "street": "3800 COLLEY AVE", "postcode": "23508"}}},
{"geometry": {"type": "Point", "coordinates": [-76.3002494822, 36.8961090606]}, "type": "Feature", "properties": {"collection_times": [{"days": "Mon-Sat", "time": "12:00pm"}, {"days": "Sun", "time": "Closed"}], "id": "2350800010", "name": "USPS COLLECTION BOX - BLUE BOX", "address": {"city": "NORFOLK", "state": "VA", "street": "1106 LARCHMONT CRES", "postcode": "23508"}}},
{"geometry": {"type": "Point", "coordinates": [-76.2873171971, 36.8826180262]}, "type": "Feature", "properties": {"collection_times": [{"days": "Mon-Sat", "time": "12:00pm"}, {"days": "Sun", "time": "Closed"}], "id": "2350800025", "name": "USPS COLLECTION BOX - BLUE BOX", "address": {"city": "NORFOLK", "state": "VA", "street": "4313 COLONIAL AVE", "postcode": "23508"}}},
{"geometry": {"type": "Point", "coordinates": [-76.3127072296, 36.8855769703]}, "type": "Feature", "properties": {"collection_times": [{"days": "Mon-Sat", "time": "12:00pm"}, {"days": "Sun", "time": "Closed"}], "id": "2350800029", "name": "USPS COLLECTION BOX - BLUE BOX", "address": {"city": "NORFOLK", "state": "VA", "street": "4601 POWHATAN AVE", "postcode": "23508"}}},
{"geometry": {"type": "Point", "coordinates": [-76.2984585525, 36.8854418786]}, "type": "Feature", "properties": {"collection_times": [{"days": "Mon-Fri", "time": "5:00pm"}, {"days": "Sat-Sun", "time": "Closed"}], "id": "2350800037", "name": "USPS COLLECTION BOX - EXPRESS", "address": {"city": "NORFOLK", "state": "VA", "street": "3800 COLLEY AVE", "postcode": "23508"}}},
{"geometry": {"type": "Point", "coordinates": [-76.2984585525, 36.8854418786]}, "type": "Feature", "properties": {"collection_times": [{"days": "Mon-Sat", "time": "11:15am"}, {"days": "Sun", "time": "Closed"}], "id": "2350800042", "name": "USPS COLLECTION BOX - BLUE BOX", "address": {"city": "NORFOLK", "state": "VA", "street": "1300 49TH ST", "postcode": "23508"}}},
{"geometry": {"type": "Point", "coordinates": [-76.2587752483, 36.8851142931]}, "type": "Feature", "properties": {"collection_times": [{"days": "Mon-Sat", "time": "12:00pm"}, {"days": "Sun", "time": "Closed"}], "id": "2350900010", "name": "USPS COLLECTION BOX - BLUE BOX", "address": {"city": "NORFOLK", "state": "VA", "street": "2008 CROMWELL DR", "postcode": "23509"}}},
{"geometry": {"type": "Point", "coordinates": [-76.2563819518, 36.9007915632]}, "type": "Feature", "properties": {"collection_times": [{"days": "Mon-Fri", "time": "6:00pm"}, {"days": "Sat", "time": "12:00pm"}, {"days": "Sun", "time": "Closed"}], "id": "2350900013", "name": "USPS COLLECTION BOX - BLUE BOX", "address": {"city": "NORFOLK", "state": "VA", "street": "6401 TIDEWATER DR", "postcode": "23509"}}},
{"geometry": {"type": "Point", "coordinates": [-76.2686920447, 36.8817905251]}, "type": "Feature", "properties": {"collection_times": [{"days": "Mon-Sat", "time": "12:00pm"}, {"days": "Sun", "time": "Closed"}], "id": "2350900022", "name": "USPS COLLECTION BOX - BLUE BOX", "address": {"city": "NORFOLK", "state": "VA", "street": "1540 ASHLAND AVE", "postcode": "23509"}}},
{"geometry": {"type": "Point", "coordinates": [-76.2684913685, 36.8674233887]}, "type": "Feature", "properties": {"collection_times": [{"days": "Mon-Fri", "time": "6:00pm"}, {"days": "Sat", "time": "12:00pm"}, {"days": "Sun", "time": "Closed"}], "id": "2350900054", "name": "USPS COLLECTION BOX - BLUE BOX", "address": {"city": "NORFOLK", "state": "VA", "street": "2655 TIDEWATER DR", "postcode": "23509"}}},
{"geometry": {"type": "Point", "coordinates": [-76.2607178347, 36.8781031643]}, "type": "Feature", "properties": {"collection_times": [{"days": "Mon-Fri", "time": "6:00pm"}, {"days": "Sat", "time": "12:00pm"}, {"days": "Sun", "time": "Closed"}], "id": "2350900056", "name": "USPS COLLECTION BOX - EXPRESS", "address": {"city": "NORFOLK", "state": "VA", "street": "2655 TIDEWATER DR", "postcode": "23509"}}},
{"geometry": {"type": "Point", "coordinates": [-76.2658359469, 36.8713534988]}, "type": "Feature", "properties": {"collection_times": [{"days": "Mon-Sat", "time": "12:00pm"}, {"days": "Sun", "time": "Closed"}], "id": "2350900059", "name": "USPS COLLECTION BOX - BLUE BOX", "address": {"city": "NORFOLK", "state": "VA", "street": "3242 TIDEWATER DR", "postcode": "23509"}}},
{"geometry": {"type": "Point", "coordinates": [-76.2503498485, 36.8698807315]}, "type": "Feature", "properties": {"collection_times": [{"days": "Mon-Fri", "time": "6:00pm"}, {"days": "Sat", "time": "12:00pm"}, {"days": "Sun", "time": "Closed"}], "id": "2350900061", "name": "USPS COLLECTION BOX - BLUE BOX", "address": {"city": "NORFOLK", "state": "VA", "street": "2700 CROMWELL RD", "postcode": "23509"}}},
{"geometry": {"type": "Point", "coordinates": [-76.2684913685, 36.8674233887]}, "type": "Feature", "properties": {"collection_times": [{"days": "Mon-Fri", "time": "5:00pm"}, {"days": "Sat", "time": "2:45pm"}, {"days": "Sun", "time": "Closed"}], "id": "2350900063", "name": "USPS COLLECTION BOX - PO LOBBY", "address": {"city": "NORFOLK", "state": "VA", "street": "2655 TIDEWATER DR", "postcode": "23509"}}},
{"geometry": {"type": "Point", "coordinates": [-76.2676277959, 36.890332669]}, "type": "Feature", "properties": {"collection_times": [{"days": "Mon-Sat", "time": "12:00pm"}, {"days": "Sun", "time": "Closed"}], "id": "2350900068", "name": "USPS COLLECTION BOX - BLUE BOX", "address": {"city": "NORFOLK", "state": "VA", "street": "1475 HARMOTT AVE", "postcode": "23509"}}},
{"geometry": {"type": "Point", "coordinates": [-76.2621830157, 36.8677254572]}, "type": "Feature", "properties": {"collection_times": [{"days": "Mon-Sat", "time": "12:00pm"}, {"days": "Sun", "time": "Closed"}], "id": "2350900069", "name": "USPS COLLECTION BOX - BLUE BOX", "address": {"city": "NORFOLK", "state": "VA", "street": "2604 ARGONNE AVE", "postcode": "23509"}}},
{"geometry": {"type": "Point", "coordinates": [-76.293481632, 36.8520827092]}, "type": "Feature", "properties": {"collection_times": [{"days": "Mon-Fri", "time": "5:30pm"}, {"days": "Sat", "time": "10:30am"}, {"days": "Sun", "time": "Closed"}], "id": "2351000001", "name": "USPS COLLECTION BOX - BLUE BOX", "address": {"city": "NORFOLK", "state": "VA", "street": "301 W FREEMASON ST", "postcode": "23510"}}},
{"geometry": {"type": "Point", "coordinates": [-76.2902323877, 36.8543224408]}, "type": "Feature", "properties": {"collection_times": [{"days": "Mon-Fri", "time": "5:30pm"}, {"days": "Sat", "time": "10:30am"}, {"days": "Sun", "time": "Closed"}], "id": "2351000006", "name": "USPS COLLECTION BOX - BLUE BOX", "address": {"city": "NORFOLK", "state": "VA", "street": "150 W BRAMBLETON AVE", "postcode": "23510"}}},
{"geometry": {"type": "Point", "coordinates": [-76.2888353047, 36.8454119334]}, "type": "Feature", "properties": {"collection_times": [{"days": "Mon-Fri", "time": "4:45pm"}, {"days": "Sat", "time": "10:30am"}, {"days": "Sun", "time": "Closed"}], "id": "2351000018", "name": "USPS COLLECTION BOX - BLUE BOX", "address": {"city": "NORFOLK", "state": "VA", "street": "1 COMMERCIAL PL", "postcode": "23510"}}},
{"geometry": {"type": "Point", "coordinates": [-76.2875460144, 36.8438984229]}, "type": "Feature", "properties": {"collection_times": [{"days": "Mon-Fri", "time": "4:15pm"}, {"days": "Sat", "time": "10:30am"}, {"days": "Sun", "time": "Closed"}], "id": "2351000031", "name": "USPS COLLECTION BOX - BLUE BOX", "address": {"city": "NORFOLK", "state": "VA", "street": "777 WATERSIDE DR", "postcode": "23510"}}},
{"geometry": {"type": "Point", "coordinates": [-76.2920666361, 36.8450219981]}, "type": "Feature", "properties": {"collection_times": [{"days": "Mon-Fri", "time": "4:15pm"}, {"days": "Sat", "time": "10:30am"}, {"days": "Sun", "time": "Closed"}], "id": "2351000034", "name": "USPS COLLECTION BOX - BLUE BOX", "address": {"city": "NORFOLK", "state": "VA", "street": "333 WATERSIDE DR", "postcode": "23510"}}},
{"geometry": {"type": "Point", "coordinates": [-76.2858556062, 36.8461809176]}, "type": "Feature", "properties": {"collection_times": [{"days": "Mon-Fri", "time": "5:00pm"}, {"days": "Sat", "time": "10:30am"}, {"days": "Sun", "time": "Closed"}], "id": "2351000035", "name": "USPS COLLECTION BOX - BLUE BOX", "address": {"city": "NORFOLK", "state": "VA", "street": "150 SAINT PAULS BLVD", "postcode": "23510"}}},
{"geometry": {"type": "Point", "coordinates": [-76.2841545367, 36.8465640771]}, "type": "Feature", "properties": {"collection_times": [{"days": "Mon-Fri", "time": "5:00pm"}, {"days": "Sat", "time": "10:30am"}, {"days": "Sun", "time": "Closed"}], "id": "2351000036", "name": "USPS COLLECTION BOX - BLUE BOX", "address": {"city": "NORFOLK", "state": "VA", "street": "800 E CITY HALL AVE", "postcode": "23510"}}},
{"geometry": {"type": "Point", "coordinates": [-76.2871121507, 36.8449431479]}, "type": "Feature", "properties": {"collection_times": [{"days": "Mon-Fri", "time": "5:30pm"}, {"days": "Sat", "time": "10:30am"}, {"days": "Sun", "time": "Closed"}], "id": "2351000041", "name": "USPS COLLECTION BOX - BLUE BOX", "address": {"city": "NORFOLK", "state": "VA", "street": "5 E MAIN PLZ", "postcode": "23510"}}},
{"geometry": {"type": "Point", "coordinates": [-76.2909274837, 36.8491558668]}, "type": "Feature", "properties": {"collection_times": [{"days": "Mon-Fri", "time": "3:15pm"}, {"days": "Sat", "time": "10:30am"}, {"days": "Sun", "time": "Closed"}], "id": "2351000053", "name": "USPS COLLECTION BOX - BLUE BOX", "address": {"city": "NORFOLK", "state": "VA", "street": "243 GRANBY ST", "postcode": "23510"}}},
{"geometry": {"type": "Point", "coordinates": [-76.2885893826, 36.8514497314]}, "type": "Feature", "properties": {"collection_times": [{"days": "Mon-Fri", "time": "5:45pm"}, {"days": "Sat", "time": "10:30am"}, {"days": "Sun", "time": "Closed"}], "id": "2351000056", "name": "USPS COLLECTION BOX - BLUE BOX", "address": {"city": "NORFOLK", "state": "VA", "street": "440 MONTICELLO AVE", "postcode": "23510"}}},
{"geometry": {"type": "Point", "coordinates": [-76.2895612455, 36.8537044627]}, "type": "Feature", "properties": {"collection_times": [{"days": "Mon-Fri", "time": "3:30pm"}, {"days": "Sat", "time": "10:30am"}, {"days": "Sun", "time": "Closed"}], "id": "2351000059", "name": "USPS COLLECTION BOX - BLUE BOX", "address": {"city": "NORFOLK", "state": "VA", "street": "142 W YORK ST", "postcode": "23510"}}},
{"geometry": {"type": "Point", "coordinates": [-76.2870472465, 36.8444317205]}, "type": "Feature", "properties": {"collection_times": [{"days": "Mon-Fri", "time": "5:00pm"}, {"days": "Sat", "time": "10:30am"}, {"days": "Sun", "time": "Closed"}], "id": "2351000066", "name": "USPS COLLECTION BOX - BLUE BOX", "address": {"city": "NORFOLK", "state": "VA", "street": "810 UNION ST", "postcode": "23510"}}},
{"geometry": {"type": "Point", "coordinates": [-76.2816436594, 36.8511491201]}, "type": "Feature", "properties": {"collection_times": [{"days": "Mon-Fri", "time": "8:00pm"}, {"days": "Sat", "time": "7:00pm"}, {"days": "Sun", "time": "Closed"}], "id": "2351000067", "name": "USPS COLLECTION BOX - BLUE BOX", "address": {"city": "NORFOLK", "state": "VA", "street": "600 CHURCH ST", "postcode": "23510"}}},
{"geometry": {"type": "Point", "coordinates": [-76.2816436594, 36.8511491201]}, "type": "Feature", "properties": {"collection_times": [{"days": "Mon-Fri", "time": "8:00pm"}, {"days": "Sat", "time": "7:00pm"}, {"days": "Sun", "time": "Closed"}], "id": "2351000068", "name": "USPS COLLECTION BOX - BLUE BOX", "address": {"city": "NORFOLK", "state": "VA", "street": "600 CHURCH ST", "postcode": "23510"}}},
{"geometry": {"type": "Point", "coordinates": [-76.2900857269, 36.8505818995]}, "type": "Feature", "properties": {"collection_times": [{"days": "Mon-Fri", "time": "7:00pm"}, {"days": "Sat", "time": "1:30pm"}, {"days": "Sun", "time": "Closed"}], "id": "2351000071", "name": "USPS COLLECTION BOX - EXPRESS", "address": {"city": "NORFOLK", "state": "VA", "street": "600 CHURCH ST", "postcode": "23510"}}},
{"geometry": {"type": "Point", "coordinates": [-76.2816436594, 36.8511491201]}, "type": "Feature", "properties": {"collection_times": [{"days": "Mon-Fri", "time": "8:00pm"}, {"days": "Sat", "time": "7:00pm"}, {"days": "Sun", "time": "Closed"}], "id": "2351000072", "name": "USPS COLLECTION BOX - PO LOBBY", "address": {"city": "NORFOLK", "state": "VA", "street": "600 CHURCH ST", "postcode": "23510"}}},
{"geometry": {"type": "Point", "coordinates": [-76.2923821338, 36.8462575236]}, "type": "Feature", "properties": {"collection_times": [{"days": "Mon-Fri", "time": "5:15pm"}, {"days": "Sat", "time": "10:30am"}, {"days": "Sun", "time": "Closed"}], "id": "2351000075", "name": "USPS COLLECTION BOX - BLUE BOX", "address": {"city": "NORFOLK", "state": "VA", "street": "101 E MAIN ST", "postcode": "23510"}}},
{"geometry": {"type": "Point", "coordinates": [-76.2933007908, 36.8474686069]}, "type": "Feature", "properties": {"collection_times": [{"days": "Mon-Fri", "time": "4:45pm"}, {"days": "Sat", "time": "10:30am"}, {"days": "Sun", "time": "Closed"}], "id": "2351000077", "name": "USPS COLLECTION BOX - BLUE BOX", "address": {"city": "NORFOLK", "state": "VA", "street": "150 BOUSH ST", "postcode": "23510"}}},
{"geometry": {"type": "Point", "coordinates": [-76.2900129817, 36.8467885926]}, "type": "Feature", "properties": {"collection_times": [{"days": "Mon-Fri", "time": "2:00pm"}, {"days": "Sat", "time": "9:30am"}, {"days": "Sun", "time": "Closed"}], "id": "2351000096", "name": "USPS COLLECTION BOX - PO LOBBY", "address": {"city": "NORFOLK", "state": "VA", "street": "126 ATLANTIC ST", "postcode": "23510"}}},
{"geometry": {"type": "Point", "coordinates": [-76.290439585, 36.8501331954]}, "type": "Feature", "properties": {"collection_times": [{"days": "Mon-Fri", "time": "5:45pm"}, {"days": "Sat", "time": "10:30am"}, {"days": "Sun", "time": "Closed"}], "id": "2351000102", "name": "USPS COLLECTION BOX - BLUE BOX", "address": {"city": "NORFOLK", "state": "VA", "street": "315 GRANBY ST", "postcode": "23510"}}},
{"geometry": {"type": "Point", "coordinates": [-76.2896200698, 36.8494021102]}, "type": "Feature", "properties": {"collection_times": [{"days": "Mon-Fri", "time": "5:45pm"}, {"days": "Sat", "time": "10:30am"}, {"days": "Sun", "time": "Closed"}], "id": "2351000105", "name": "USPS COLLECTION BOX - BLUE BOX", "address": {"city": "NORFOLK", "state": "VA", "street": "300 MONTICELLO AVE", "postcode": "23510"}}},
{"geometry": {"type": "Point", "coordinates": [-76.2869748373, 36.845760351]}, "type": "Feature", "properties": {"collection_times": [{"days": "Mon-Fri", "time": "4:45pm"}, {"days": "Sat", "time": "10:30am"}, {"days": "Sun", "time": "Closed"}], "id": "2351000106", "name": "USPS COLLECTION BOX - BLUE BOX", "address": {"city": "NORFOLK", "state": "VA", "street": "580 E MAIN ST", "postcode": "23510"}}},
{"geometry": {"type": "Point", "coordinates": [-76.2869748373, 36.845760351]}, "type": "Feature", "properties": {"collection_times": [{"days": "Mon-Fri", "time": "4:45pm"}, {"days": "Sat", "time": "10:30am"}, {"days": "Sun", "time": "Closed"}], "id": "2351000107", "name": "USPS COLLECTION BOX - BLUE BOX", "address": {"city": "NORFOLK", "state": "VA", "street": "580 E MAIN ST", "postcode": "23510"}}},
{"geometry": {"type": "Point", "coordinates": [-76.2939993311, 36.8469432477]}, "type": "Feature", "properties": {"collection_times": [{"days": "Mon-Fri", "time": "5:15pm"}, {"days": "Sat", "time": "12:00pm"}, {"days": "Sun", "time": "Closed"}], "id": "2351000108", "name": "USPS COLLECTION BOX - BLUE BOX", "address": {"city": "NORFOLK", "state": "VA", "street": "150 W MAIN ST", "postcode": "23510"}}},
{"geometry": {"type": "Point", "coordinates": [-76.293940729, 36.8468290331]}, "type": "Feature", "properties": {"collection_times": [{"days": "Mon-Fri", "time": "5:00pm"}, {"days": "Sat", "time": "10:30am"}, {"days": "Sun", "time": "Closed"}], "id": "2351000110", "name": "USPS COLLECTION BOX - BLUE BOX", "address": {"city": "NORFOLK", "state": "VA", "street": "1 WATERSIDE DR", "postcode": "23510"}}},
{"geometry": {"type": "Point", "coordinates": [-78.6979451561, 37.5128225857]}, "type": "Feature", "properties": {"collection_times": [{"days": "Mon-Fri", "time": "1:00pm"}, {"days": "Sat-Sun", "time": "Closed"}], "id": "2351100001", "name": "USPS COLLECTION BOX - BLUE BOX", "address": {"city": "NORFOLK", "state": "VA", "street": "1300 PIERSEY ST", "postcode": "23511"}}},
{"geometry": {"type": "Point", "coordinates": [-76.3150757836, 36.9475316353]}, "type": "Feature", "properties": {"collection_times": [{"days": "Mon-Fri", "time": "1:00pm"}, {"days": "Sat-Sun", "time": "Closed"}], "id": "2351100004", "name": "USPS COLLECTION BOX - BLUE BOX", "address": {"city": "NORFOLK", "state": "VA", "street": "1530 GILBERT ST", "postcode": "23511"}}},
{"geometry": {"type": "Point", "coordinates": [-76.3285365491, 36.9456233449]}, "type": "Feature", "properties": {"collection_times": [{"days": "Mon-Fri", "time": "1:00pm"}, {"days": "Sat-Sun", "time": "Closed"}], "id": "2351100008", "name": "USPS COLLECTION BOX - BLUE BOX", "address": {"city": "NORFOLK", "state": "VA", "street": "1640 MORRIS ST", "postcode": "23511"}}},
{"geometry": {"type": "Point", "coordinates": [-76.30845641, 36.9446339342]}, "type": "Feature", "properties": {"collection_times": [{"days": "Mon-Fri", "time": "1:00pm"}, {"days": "Sat-Sun", "time": "Closed"}], "id": "2351100010", "name": "USPS COLLECTION BOX - BLUE BOX", "address": {"city": "NORFOLK", "state": "VA", "street": "9300 BACON AVE", "postcode": "23511"}}},
{"geometry": {"type": "Point", "coordinates": [-76.30845641, 36.9446339342]}, "type": "Feature", "properties": {"collection_times": [{"days": "Mon-Fri", "time": "1:00pm"}, {"days": "Sat-Sun", "time": "Closed"}], "id": "2351100013", "name": "USPS COLLECTION BOX - BLUE BOX", "address": {"city": "NORFOLK", "state": "VA", "street": "1968 GILBERT ST", "postcode": "23511"}}},
{"geometry": {"type": "Point", "coordinates": [-76.2995600508, 36.9401509896]}, "type": "Feature", "properties": {"collection_times": [{"days": "Mon-Fri", "time": "1:00pm"}, {"days": "Sat-Sun", "time": "Closed"}], "id": "2351100016", "name": "USPS COLLECTION BOX - BLUE BOX", "address": {"city": "NORFOLK", "state": "VA", "street": "1 DECATUR & HULL", "postcode": "23511"}}},
{"geometry": {"type": "Point", "coordinates": [-78.6979451561, 37.5128225857]}, "type": "Feature", "properties": {"collection_times": [{"days": "Mon-Fri", "time": "1:00pm"}, {"days": "Sat-Sun", "time": "Closed"}], "id": "2351100023", "name": "USPS COLLECTION BOX - BLUE BOX", "address": {"city": "NORFOLK", "state": "VA", "street": "9075 5TH AVE", "postcode": "23511"}}},
{"geometry": {"type": "Point", "coordinates": [-78.6979451561, 37.5128225857]}, "type": "Feature", "properties": {"collection_times": [{"days": "Mon-Fri", "time": "1:00pm"}, {"days": "Sat-Sun", "time": "Closed"}], "id": "2351100027", "name": "USPS COLLECTION BOX - BLUE BOX", "address": {"city": "NORFOLK", "state": "VA", "street": "581 A ST", "postcode": "23511"}}},
{"geometry": {"type": "Point", "coordinates": [-78.6979451561, 37.5128225857]}, "type": "Feature", "properties": {"collection_times": [{"days": "Mon-Sat", "time": "1:00pm"}, {"days": "Sun", "time": "Closed"}], "id": "2351100033", "name": "USPS COLLECTION BOX - BLUE BOX", "address": {"city": "NORFOLK", "state": "VA", "street": "1560 ADMIRAL TAUSSIG BLVD", "postcode": "23511"}}},
{"geometry": {"type": "Point", "coordinates": [-76.3211009204, 36.9460312958]}, "type": "Feature", "properties": {"collection_times": [{"days": "Mon-Fri", "time": "1:00pm"}, {"days": "Sat-Sun", "time": "Closed"}], "id": "2351100040", "name": "USPS COLLECTION BOX - BLUE BOX", "address": {"city": "NORFOLK", "state": "VA", "street": "1837 MORRIS ST", "postcode": "23511"}}},
{"geometry": {"type": "Point", "coordinates": [-76.30845641, 36.9446339342]}, "type": "Feature", "properties": {"collection_times": [{"days": "Mon-Fri", "time": "1:00pm"}, {"days": "Sat-Sun", "time": "Closed"}], "id": "2351100041", "name": "USPS COLLECTION BOX - BLUE BOX", "address": {"city": "NORFOLK", "state": "VA", "street": "9401 FARRAGUT AVE", "postcode": "23511"}}},
{"geometry": {"type": "Point", "coordinates": [-76.2993804655, 36.9411678301]}, "type": "Feature", "properties": {"collection_times": [{"days": "Mon-Fri", "time": "1:00pm"}, {"days": "Sat-Sun", "time": "Closed"}], "id": "2351100043", "name": "USPS COLLECTION BOX - BLUE BOX", "address": {"city": "NORFOLK", "state": "VA", "street": "9221 3RD AVE", "postcode": "23511"}}},
{"geometry": {"type": "Point", "coordinates": [-76.2193708233, 36.8794019117]}, "type": "Feature", "properties": {"collection_times": [{"days": "Mon-Fri", "time": "5:00pm"}, {"days": "Sat", "time": "10:00am"}, {"days": "Sun", "time": "Closed"}], "id": "2351300001", "name": "USPS COLLECTION BOX - BLUE BOX", "address": {"city": "NORFOLK", "state": "VA", "street": "2600 ELLSMERE AVE", "postcode": "23513"}}},
{"geometry": {"type": "Point", "coordinates": [-76.2372070099, 36.8888440179]}, "type": "Feature", "properties": {"collection_times": [{"days": "Mon-Fri", "time": "5:00pm"}, {"days": "Sat-Sun", "time": "Closed"}], "id": "2351300003", "name": "USPS COLLECTION BOX - EXPRESS", "address": {"city": "NORFOLK", "state": "VA", "street": "2600 ELLSMERE AVE", "postcode": "23513"}}},
{"geometry": {"type": "Point", "coordinates": [-76.2160028621, 36.8787510712]}, "type": "Feature", "properties": {"collection_times": [{"days": "Mon-Fri", "time": "5:00pm"}, {"days": "Sat", "time": "1:15pm"}, {"days": "Sun", "time": "Closed"}], "id": "2351300007", "name": "USPS COLLECTION BOX - BLUE BOX", "address": {"city": "NORFOLK", "state": "VA", "street": "2415 ALMEDA AVE", "postcode": "23513"}}},
{"geometry": {"type": "Point", "coordinates": [-76.2356099583, 36.8724165706]}, "type": "Feature", "properties": {"collection_times": [{"days": "Mon-Fri", "time": "11:00am"}, {"days": "Sat", "time": "12:00pm"}, {"days": "Sun", "time": "Closed"}], "id": "2351300010", "name": "USPS COLLECTION BOX - BLUE BOX", "address": {"city": "NORFOLK", "state": "VA", "street": "4617 LARKIN ST", "postcode": "23513"}}},
{"geometry": {"type": "Point", "coordinates": [-76.2517442498, 36.9015930419]}, "type": "Feature", "properties": {"collection_times": [{"days": "Mon-Sat", "time": "12:30pm"}, {"days": "Sun", "time": "Closed"}], "id": "2351300026", "name": "USPS COLLECTION BOX - BLUE BOX", "address": {"city": "NORFOLK", "state": "VA", "street": "6812 GLENOAK DR", "postcode": "23513"}}},
{"geometry": {"type": "Point", "coordinates": [-76.2401073113, 36.891724659]}, "type": "Feature", "properties": {"collection_times": [{"days": "Mon-Fri", "time": "5:00pm"}, {"days": "Sat", "time": "1:00pm"}, {"days": "Sun", "time": "Closed"}], "id": "2351300033", "name": "USPS COLLECTION BOX - BLUE BOX", "address": {"city": "NORFOLK", "state": "VA", "street": "1112 GREEN ST", "postcode": "23513"}}},
{"geometry": {"type": "Point", "coordinates": [-76.2401073113, 36.891724659]}, "type": "Feature", "properties": {"collection_times": [{"days": "Mon-Fri", "time": "5:00pm"}, {"days": "Sat", "time": "2:00pm"}, {"days": "Sun", "time": "Closed"}], "id": "2351300035", "name": "USPS COLLECTION BOX - PO LOBBY", "address": {"city": "NORFOLK", "state": "VA", "street": "1112 GREEN ST", "postcode": "23513"}}},
{"geometry": {"type": "Point", "coordinates": [-76.2372070099, 36.8888440179]}, "type": "Feature", "properties": {"collection_times": [{"days": "Mon-Fri", "time": "5:00pm"}, {"days": "Sat-Sun", "time": "Closed"}], "id": "2351300037", "name": "USPS COLLECTION BOX - EXPRESS", "address": {"city": "NORFOLK", "state": "VA", "street": "1112 GREEN ST", "postcode": "23513"}}},
{"geometry": {"type": "Point", "coordinates": [-76.229615141, 36.9009283461]}, "type": "Feature", "properties": {"collection_times": [{"days": "Mon-Fri", "time": "1:00pm"}, {"days": "Sat", "time": "11:00am"}, {"days": "Sun", "time": "Closed"}], "id": "2351300042", "name": "USPS COLLECTION BOX - BLUE BOX", "address": {"city": "NORFOLK", "state": "VA", "street": "6700 E TANNERS CREEK DR", "postcode": "23513"}}},
{"geometry": {"type": "Point", "coordinates": [-76.2466507644, 36.8653231651]}, "type": "Feature", "properties": {"collection_times": [{"days": "Mon-Fri", "time": "5:00pm"}, {"days": "Sat", "time": "12:30pm"}, {"days": "Sun", "time": "Closed"}], "id": "2351300043", "name": "USPS COLLECTION BOX - BLUE BOX", "address": {"city": "NORFOLK", "state": "VA", "street": "2400 INGLESIDE RD", "postcode": "23513"}}},
{"geometry": {"type": "Point", "coordinates": [-76.2216847284, 36.8781594537]}, "type": "Feature", "properties": {"collection_times": [{"days": "Mon-Fri", "time": "5:00pm"}, {"days": "Sat", "time": "10:00am"}, {"days": "Sun", "time": "Closed"}], "id": "2351300048", "name": "USPS COLLECTION BOX - BLUE BOX", "address": {"city": "NORFOLK", "state": "VA", "street": "2600 ELTHAM AVE", "postcode": "23513"}}},
{"geometry": {"type": "Point", "coordinates": [-76.2372070099, 36.8888440179]}, "type": "Feature", "properties": {"collection_times": [{"days": "Mon-Fri", "time": "5:00pm"}, {"days": "Sat-Sun", "time": "Closed"}], "id": "2351300049", "name": "USPS COLLECTION BOX - EXPRESS", "address": {"city": "NORFOLK", "state": "VA", "street": "2600 ELTHAM AVE", "postcode": "23513"}}},
{"geometry": {"type": "Point", "coordinates": [-76.2909152756, 36.8680028304]}, "type": "Feature", "properties": {"collection_times": [{"days": "Mon-Fri", "time": "5:30pm"}, {"days": "Sat", "time": "2:00pm"}, {"days": "Sun", "time": "Closed"}], "id": "2351700001", "name": "USPS COLLECTION BOX - BLUE BOX", "address": {"city": "NORFOLK", "state": "VA", "street": "417 W 20TH ST", "postcode": "23517"}}},
{"geometry": {"type": "Point", "coordinates": [-76.2905094894, 36.8678857759]}, "type": "Feature", "properties": {"collection_times": [{"days": "Mon-Fri", "time": "5:00pm"}, {"days": "Sat", "time": "2:00pm"}, {"days": "Sun", "time": "Closed"}], "id": "2351700004", "name": "USPS COLLECTION BOX - PO LOBBY", "address": {"city": "NORFOLK", "state": "VA", "street": "417 W 20TH ST", "postcode": "23517"}}},
{"geometry": {"type": "Point", "coordinates": [-76.2953982969, 36.8706767475]}, "type": "Feature", "properties": {"collection_times": [{"days": "Mon-Fri", "time": "2:00pm"}, {"days": "Sat", "time": "12:00pm"}, {"days": "Sun", "time": "Closed"}], "id": "2351700016", "name": "USPS COLLECTION BOX - BLUE BOX", "address": {"city": "NORFOLK", "state": "VA", "street": "742 W 21ST ST", "postcode": "23517"}}},
{"geometry": {"type": "Point", "coordinates": [-76.2993816578, 36.8652413942]}, "type": "Feature", "properties": {"collection_times": [{"days": "Mon-Sat", "time": "11:00am"}, {"days": "Sun", "time": "Closed"}], "id": "2351700020", "name": "USPS COLLECTION BOX - BLUE BOX", "address": {"city": "NORFOLK", "state": "VA", "street": "1114 COLLEY AVE", "postcode": "23517"}}},
{"geometry": {"type": "Point", "coordinates": [-76.2974740612, 36.8688310606]}, "type": "Feature", "properties": {"collection_times": [{"days": "Mon-Sat", "time": "12:00pm"}, {"days": "Sun", "time": "Closed"}], "id": "2351700022", "name": "USPS COLLECTION BOX - BLUE BOX", "address": {"city": "NORFOLK", "state": "VA", "street": "1619 COLLEY AVE", "postcode": "23517"}}},
{"geometry": {"type": "Point", "coordinates": [-76.2933097209, 36.8688005075]}, "type": "Feature", "properties": {"collection_times": [{"days": "Mon-Fri", "time": "5:30pm"}, {"days": "Sat-Sun", "time": "Closed"}], "id": "2351700060", "name": "USPS COLLECTION BOX - EXPRESS", "address": {"city": "NORFOLK", "state": "VA", "street": "417 W 20TH ST", "postcode": "23517"}}},
{"geometry": {"type": "Point", "coordinates": [-76.2868116678, 36.8679641169]}, "type": "Feature", "properties": {"collection_times": [{"days": "Mon-Sat", "time": "2:30pm"}, {"days": "Sun", "time": "Closed"}], "id": "2351700067", "name": "USPS COLLECTION BOX - BLUE BOX", "address": {"city": "NORFOLK", "state": "VA", "street": "222 W 21ST ST", "postcode": "23517"}}},
{"geometry": {"type": "Point", "coordinates": [-76.2136683858, 36.9150509243]}, "type": "Feature", "properties": {"collection_times": [{"days": "Mon-Fri", "time": "5:00pm"}, {"days": "Sat", "time": "3:00pm"}, {"days": "Sun", "time": "Closed"}], "id": "2351800003", "name": "USPS COLLECTION BOX - BLUE BOX", "address": {"city": "NORFOLK", "state": "VA", "street": "2461 E LITTLE CREEK RD", "postcode": "23518"}}},
{"geometry": {"type": "Point", "coordinates": [-76.2163987786, 36.9184508854]}, "type": "Feature", "properties": {"collection_times": [{"days": "Mon-Fri", "time": "5:00pm"}, {"days": "Sat-Sun", "time": "Closed"}], "id": "2351800004", "name": "USPS COLLECTION BOX - EXPRESS", "address": {"city": "NORFOLK", "state": "VA", "street": "2461 E LITTLE CREEK RD", "postcode": "23518"}}},
{"geometry": {"type": "Point", "coordinates": [-76.2188134037, 36.9152482176]}, "type": "Feature", "properties": {"collection_times": [{"days": "Mon-Fri", "time": "5:00pm"}, {"days": "Sat", "time": "12:00pm"}, {"days": "Sun", "time": "Closed"}], "id": "2351800005", "name": "USPS COLLECTION BOX - BLUE BOX", "address": {"city": "NORFOLK", "state": "VA", "street": "2340 E LITTLE CREEK RD", "postcode": "23518"}}},
{"geometry": {"type": "Point", "coordinates": [-76.2267901066, 36.9162687073]}, "type": "Feature", "properties": {"collection_times": [{"days": "Mon-Sat", "time": "2:00pm"}, {"days": "Sun", "time": "Closed"}], "id": "2351800006", "name": "USPS COLLECTION BOX - BLUE BOX", "address": {"city": "NORFOLK", "state": "VA", "street": "1851 E LITTLE CREEK RD", "postcode": "23518"}}},
{"geometry": {"type": "Point", "coordinates": [-76.2414118908, 36.915375555]}, "type": "Feature", "properties": {"collection_times": [{"days": "Mon-Fri", "time": "5:00pm"}, {"days": "Sat", "time": "1:30pm"}, {"days": "Sun", "time": "Closed"}], "id": "2351800007", "name": "USPS COLLECTION BOX - BLUE BOX", "address": {"city": "NORFOLK", "state": "VA", "street": "7930 CHESAPEAKE BLVD", "postcode": "23518"}}},
{"geometry": {"type": "Point", "coordinates": [-76.2357239964, 36.9245046388]}, "type": "Feature", "properties": {"collection_times": [{"days": "Mon-Sat", "time": "2:00pm"}, {"days": "Sun", "time": "Closed"}], "id": "2351800008", "name": "USPS COLLECTION BOX - BLUE BOX", "address": {"city": "NORFOLK", "state": "VA", "street": "1369 SHEPPARD AVE", "postcode": "23518"}}},
{"geometry": {"type": "Point", "coordinates": [-76.250007159, 36.9209446476]}, "type": "Feature", "properties": {"collection_times": [{"days": "Mon-Sat", "time": "1:30pm"}, {"days": "Sun", "time": "Closed"}], "id": "2351800010", "name": "USPS COLLECTION BOX - BLUE BOX", "address": {"city": "NORFOLK", "state": "VA", "street": "8148 COLIN DR", "postcode": "23518"}}},
{"geometry": {"type": "Point", "coordinates": [-76.2243024056, 36.8959615718]}, "type": "Feature", "properties": {"collection_times": [{"days": "Mon-Fri", "time": "4:45pm"}, {"days": "Sat", "time": "1:00pm"}, {"days": "Sun", "time": "Closed"}], "id": "2351800020", "name": "USPS COLLECTION BOX - BLUE BOX", "address": {"city": "NORFOLK", "state": "VA", "street": "6204 N MILITARY HWY", "postcode": "23518"}}},
{"geometry": {"type": "Point", "coordinates": [-76.2284055974, 36.9059278557]}, "type": "Feature", "properties": {"collection_times": [{"days": "Mon-Sat", "time": "1:30pm"}, {"days": "Sun", "time": "Closed"}], "id": "2351800022", "name": "USPS COLLECTION BOX - BLUE BOX", "address": {"city": "NORFOLK", "state": "VA", "street": "1601 SPRINGMEADOW BLVD", "postcode": "23518"}}},
{"geometry": {"type": "Point", "coordinates": [-76.2178103564, 36.8933898552]}, "type": "Feature", "properties": {"collection_times": [{"days": "Mon-Fri", "time": "1:45pm"}, {"days": "Sat", "time": "2:00pm"}, {"days": "Sun", "time": "Closed"}], "id": "2351800024", "name": "USPS COLLECTION BOX - BLUE BOX", "address": {"city": "NORFOLK", "state": "VA", "street": "5801 AZALEA GARDEN RD", "postcode": "23518"}}},
{"geometry": {"type": "Point", "coordinates": [-76.1911960044, 36.9272295303]}, "type": "Feature", "properties": {"collection_times": [{"days": "Mon-Sat", "time": "1:00pm"}, {"days": "Sun", "time": "Closed"}], "id": "2351800031", "name": "USPS COLLECTION BOX - BLUE BOX", "address": {"city": "NORFOLK", "state": "VA", "street": "9557 SHORE DR", "postcode": "23518"}}},
{"geometry": {"type": "Point", "coordinates": [-76.2381191596, 36.9182522208]}, "type": "Feature", "properties": {"collection_times": [{"days": "Mon-Sat", "time": "1:30pm"}, {"days": "Sun", "time": "Closed"}], "id": "2351800042", "name": "USPS COLLECTION BOX - BLUE BOX", "address": {"city": "NORFOLK", "state": "VA", "street": "8021 CARLTON ST", "postcode": "23518"}}},
{"geometry": {"type": "Point", "coordinates": [-76.2336207009, 36.9164642729]}, "type": "Feature", "properties": {"collection_times": [{"days": "Mon-Fri", "time": "5:00pm"}, {"days": "Sat", "time": "2:30pm"}, {"days": "Sun", "time": "Closed"}], "id": "2351800043", "name": "USPS COLLECTION BOX - BLUE BOX", "address": {"city": "NORFOLK", "state": "VA", "street": "1500 E LITTLE CREEK RD", "postcode": "23518"}}},
{"geometry": {"type": "Point", "coordinates": [-76.2313888346, 36.9168783173]}, "type": "Feature", "properties": {"collection_times": [{"days": "Mon-Fri", "time": "5:00pm"}, {"days": "Sat", "time": "1:00pm"}, {"days": "Sun", "time": "Closed"}], "id": "2351800044", "name": "USPS COLLECTION BOX - BLUE BOX", "address": {"city": "NORFOLK", "state": "VA", "street": "1600 E LITTLE CREEK RD", "postcode": "23518"}}},
{"geometry": {"type": "Point", "coordinates": [-76.2331637108, 36.9094845575]}, "type": "Feature", "properties": {"collection_times": [{"days": "Mon-Sat", "time": "1:30pm"}, {"days": "Sun", "time": "Closed"}], "id": "2351800046", "name": "USPS COLLECTION BOX - BLUE BOX", "address": {"city": "NORFOLK", "state": "VA", "street": "1524 JOHNSTONS RD", "postcode": "23518"}}},
{"geometry": {"type": "Point", "coordinates": [-76.2029301467, 36.9176521761]}, "type": "Feature", "properties": {"collection_times": [{"days": "Mon-Sat", "time": "1:00pm"}, {"days": "Sun", "time": "Closed"}], "id": "2351800048", "name": "USPS COLLECTION BOX - BLUE BOX", "address": {"city": "NORFOLK", "state": "VA", "street": "7931 WALTERS DR", "postcode": "23518"}}},
{"geometry": {"type": "Point", "coordinates": [-76.2088398993, 36.8883277166]}, "type": "Feature", "properties": {"collection_times": [{"days": "Mon-Fri", "time": "5:00pm"}, {"days": "Sat", "time": "1:45pm"}, {"days": "Sun", "time": "Closed"}], "id": "2351800052", "name": "USPS COLLECTION BOX - BLUE BOX", "address": {"city": "NORFOLK", "state": "VA", "street": "6000 ROBIN HOOD RD", "postcode": "23518"}}},
{"geometry": {"type": "Point", "coordinates": [-76.1921931623, 36.9182598749]}, "type": "Feature", "properties": {"collection_times": [{"days": "Mon-Fri", "time": "5:00pm"}, {"days": "Sat", "time": "1:00pm"}, {"days": "Sun", "time": "Closed"}], "id": "2351800055", "name": "USPS COLLECTION BOX - BLUE BOX", "address": {"city": "NORFOLK", "state": "VA", "street": "4249 E LITTLE CREEK RD STE C", "postcode": "23518"}}},
{"geometry": {"type": "Point", "coordinates": [-76.2235575918, 36.8946393861]}, "type": "Feature", "properties": {"collection_times": [{"days": "Mon-Sat", "time": "1:30pm"}, {"days": "Sun", "time": "Closed"}], "id": "2351800060", "name": "USPS COLLECTION BOX - BLUE BOX", "address": {"city": "NORFOLK", "state": "VA", "street": "6101 N MILITARY HWY", "postcode": "23518"}}},
{"geometry": {"type": "Point", "coordinates": [-76.2136683858, 36.9150509243]}, "type": "Feature", "properties": {"collection_times": [{"days": "Mon-Fri", "time": "5:00pm"}, {"days": "Sat", "time": "3:30pm"}, {"days": "Sun", "time": "Closed"}], "id": "2351800061", "name": "USPS COLLECTION BOX - PO LOBBY", "address": {"city": "NORFOLK", "state": "VA", "street": "2461 E LITTLE CREEK RD", "postcode": "23518"}}},
{"geometry": {"type": "Point", "coordinates": [-76.2163987786, 36.9184508854]}, "type": "Feature", "properties": {"collection_times": [{"days": "Mon-Fri", "time": "5:00pm"}, {"days": "Sat-Sun", "time": "Closed"}], "id": "2351800062", "name": "USPS COLLECTION BOX - EXPRESS", "address": {"city": "NORFOLK", "state": "VA", "street": "6000 ROBIN HOOD RD", "postcode": "23518"}}},
{"geometry": {"type": "Point", "coordinates": [-76.2718584283, 36.8298910297]}, "type": "Feature", "properties": {"collection_times": [{"days": "Mon-Fri", "time": "12:00pm"}, {"days": "Sat", "time": "10:30am"}, {"days": "Sun", "time": "Closed"}], "id": "2352300007", "name": "USPS COLLECTION BOX - BLUE BOX", "address": {"city": "NORFOLK", "state": "VA", "street": "1434 WILSON RD", "postcode": "23523"}}},
{"geometry": {"type": "Point", "coordinates": [-76.2699872343, 36.8297317019]}, "type": "Feature", "properties": {"collection_times": [{"days": "Mon-Fri", "time": "12:00pm"}, {"days": "Sat", "time": "2:00pm"}, {"days": "Sun", "time": "Closed"}], "id": "2352300009", "name": "USPS COLLECTION BOX - BLUE BOX", "address": {"city": "NORFOLK", "state": "VA", "street": "912 ROSECLAIR ST", "postcode": "23523"}}},
{"geometry": {"type": "Point", "coordinates": [-76.2718584288, 36.8298909833]}, "type": "Feature", "properties": {"collection_times": [{"days": "Mon-Fri", "time": "4:30pm"}, {"days": "Sat-Sun", "time": "Closed"}], "id": "2352300012", "name": "USPS COLLECTION BOX - EXPRESS", "address": {"city": "NORFOLK", "state": "VA", "street": "711 E LIBERTY ST", "postcode": "23523"}}},
{"geometry": {"type": "Point", "coordinates": [-76.2799090095, 36.8282185203]}, "type": "Feature", "properties": {"collection_times": [{"days": "Mon-Fri", "time": "5:00pm"}, {"days": "Sat", "time": "3:00pm"}, {"days": "Sun", "time": "Closed"}], "id": "2352300022", "name": "USPS COLLECTION BOX - BLUE BOX", "address": {"city": "NORFOLK", "state": "VA", "street": "711 E LIBERTY ST", "postcode": "23523"}}},
{"geometry": {"type": "Point", "coordinates": [-76.2622141186, 36.8340306357]}, "type": "Feature", "properties": {"collection_times": [{"days": "Mon-Fri", "time": "12:00pm"}, {"days": "Sat", "time": "12:45pm"}, {"days": "Sun", "time": "Closed"}], "id": "2352300023", "name": "USPS COLLECTION BOX - BLUE BOX", "address": {"city": "NORFOLK", "state": "VA", "street": "1710 SPRINGFIELD AVE", "postcode": "23523"}}}
]}
