{"type": "FeatureCollection", "features": [
{"geometry": {"type": "Point", "coordinates": [-76.4730531654, 37.043542334]}, "type": "Feature", "properties": {"collection_times": [{"days": "Mon-Fri", "time": "4:30pm"}, {"days": "Sat", "time": "2:15pm"}, {"days": "Sun", "time": "Closed"}], "id": "2360100014", "name": "USPS COLLECTION BOX - BLUE BOX", "address": {"city": "NEWPORT NEWS", "state": "VA", "street": "11006 WARWICK BLVD", "postcode": "23601"}}},
{"geometry": {"type": "Point", "coordinates": [-76.4605359476, 37.0583035774]}, "type": "Feature", "properties": {"collection_times": [{"days": "Mon-Fri", "time": "2:15pm"}, {"days": "Sat", "time": "1:30pm"}, {"days": "Sun", "time": "Closed"}], "id": "2360100018", "name": "USPS COLLECTION BOX - BLUE BOX", "address": {"city": "NEWPORT NEWS", "state": "VA", "street": "711 J CLYDE MORRIS BLVD", "postcode": "23601"}}},
{"geometry": {"type": "Point", "coordinates": [-76.4671080921, 37.0375629878]}, "type": "Feature", "properties": {"collection_times": [{"days": "Mon-Fri", "time": "5:00pm"}, {"days": "Sat", "time": "3:50pm"}, {"days": "Sun", "time": "Closed"}], "id": "2360100024", "name": "USPS COLLECTION BOX - BLUE BOX", "address": {"city": "NEWPORT NEWS", "state": "VA", "street": "10814 WARWICK BLVD", "postcode": "23601"}}},
{"geometry": {"type": "Point", "coordinates": [-76.485703907, 37.063353776]}, "type": "Feature", "properties": {"collection_times": [{"days": "Mon-Fri", "time": "5:00pm"}, {"days": "Sat-Sun", "time": "Closed"}], "id": "2360100027", "name": "USPS COLLECTION BOX - BLUE BOX", "address": {"city": "NEWPORT NEWS", "state": "VA", "street": "416 J CLYDE MORRIS BLVD", "postcode": "23601"}}},
{"geometry": {"type": "Point", "coordinates": [-76.4605359476, 37.0583035774]}, "type": "Feature", "properties": {"collection_times": [{"days": "Mon-Fri", "time": "2:00pm"}, {"days": "Sat", "time": "1:30pm"}, {"days": "Sun", "time": "Closed"}], "id": "2360100032", "name": "USPS COLLECTION BOX - BLUE BOX", "address": {"city": "NEWPORT NEWS", "state": "VA", "street": "980 J CLYDE MORRIS BLVD STE 116", "postcode": "23601"}}},
{"geometry": {"type": "Point", "coordinates": [-76.4674479007, 37.0380769762]}, "type": "Feature", "properties": {"collection_times": [{"days": "Mon-Fri", "time": "4:15pm"}, {"days": "Sat", "time": "3:30pm"}, {"days": "Sun", "time": "Closed"}], "id": "2360100033", "name": "USPS COLLECTION BOX - PO LOBBY", "address": {"city": "NEWPORT NEWS", "state": "VA", "street": "10830 WARWICK BLVD", "postcode": "23601"}}},
{"geometry": {"type": "Point", "coordinates": [-76.5341559734, 37.1270396778]}, "type": "Feature", "properties": {"collection_times": [{"days": "Mon-Fri", "time": "5:00pm"}, {"days": "Sat", "time": "3:30pm"}, {"days": "Sun", "time": "Closed"}], "id": "2360200003", "name": "USPS COLLECTION BOX - BLUE BOX", "address": {"city": "NEWPORT NEWS", "state": "VA", "street": "14104 WARWICK BLVD", "postcode": "23602"}}},
{"geometry": {"type": "Point", "coordinates": [-76.5341559734, 37.1270396778]}, "type": "Feature", "properties": {"collection_times": [{"days": "Mon-Fri", "time": "4:30pm"}, {"days": "Sat", "time": "12:00pm"}, {"days": "Sun", "time": "Closed"}], "id": "2360200005", "name": "USPS COLLECTION BOX - PO LOBBY", "address": {"city": "NEWPORT NEWS", "state": "VA", "street": "14104 WARWICK BLVD", "postcode": "23602"}}},
{"geometry": {"type": "Point", "coordinates": [-76.5188586961, 37.1367894194]}, "type": "Feature", "properties": {"collection_times": [{"days": "Mon-Fri", "time": "12:00pm"}, {"days": "Sat", "time": "1:30pm"}, {"days": "Sun", "time": "Closed"}], "id": "2360200009", "name": "USPS COLLECTION BOX - BLUE BOX", "address": {"city": "NEWPORT NEWS", "state": "VA", "street": "12725 JEFFERSON AVE", "postcode": "23602"}}},
{"geometry": {"type": "Point", "coordinates": [-76.545062697, 37.1723658414]}, "type": "Feature", "properties": {"collection_times": [{"days": "Mon-Fri", "time": "1:00pm"}, {"days": "Sat", "time": "1:30pm"}, {"days": "Sun", "time": "Closed"}], "id": "2360200019", "name": "USPS COLLECTION BOX - BLUE BOX", "address": {"city": "NEWPORT NEWS", "state": "VA", "street": "801 CHAPIN WOOD DR", "postcode": "23602"}}},
{"geometry": {"type": "Point", "coordinates": [-76.564404926, 37.1662237191]}, "type": "Feature", "properties": {"collection_times": [{"days": "Mon-Sat", "time": "1:30pm"}, {"days": "Sun", "time": "Closed"}], "id": "2360200020", "name": "USPS COLLECTION BOX - BLUE BOX", "address": {"city": "NEWPORT NEWS", "state": "VA", "street": "451 RIVERS RIDGE CIR", "postcode": "23602"}}},
{"geometry": {"type": "Point", "coordinates": [-76.5187564849, 37.1341516755]}, "type": "Feature", "properties": {"collection_times": [{"days": "Mon-Fri", "time": "12:00pm"}, {"days": "Sat", "time": "1:30pm"}, {"days": "Sun", "time": "Closed"}], "id": "2360200021", "name": "USPS COLLECTION BOX - BLUE BOX", "address": {"city": "NEWPORT NEWS", "state": "VA", "street": "574 TURNBERRY BLVD", "postcode": "23602"}}},
{"geometry": {"type": "Point", "coordinates": [-76.4919165877, 37.106587092]}, "type": "Feature", "properties": {"collection_times": [{"days": "Mon-Fri", "time": "12:00pm"}, {"days": "Sat", "time": "1:30pm"}, {"days": "Sun", "time": "Closed"}], "id": "2360200022", "name": "USPS COLLECTION BOX - BLUE BOX", "address": {"city": "NEWPORT NEWS", "state": "VA", "street": "660 HANCOCK DR", "postcode": "23602"}}},
{"geometry": {"type": "Point", "coordinates": [-76.5114608143, 37.1041053676]}, "type": "Feature", "properties": {"collection_times": [{"days": "Mon-Fri", "time": "2:30pm"}, {"days": "Sat", "time": "1:30pm"}, {"days": "Sun", "time": "Closed"}], "id": "2360200023", "name": "USPS COLLECTION BOX - BLUE BOX", "address": {"city": "NEWPORT NEWS", "state": "VA", "street": "312 OYSTER POINT RD", "postcode": "23602"}}},
{"geometry": {"type": "Point", "coordinates": [-76.5189511287, 37.1393537624]}, "type": "Feature", "properties": {"collection_times": [{"days": "Mon-Fri", "time": "4:30pm"}, {"days": "Sat", "time": "1:30pm"}, {"days": "Sun", "time": "Closed"}], "id": "2360200024", "name": "USPS COLLECTION BOX - BLUE BOX", "address": {"city": "NEWPORT NEWS", "state": "VA", "street": "606 DENBIGH BLVD", "postcode": "23602"}}},
{"geometry": {"type": "Point", "coordinates": [-76.5047322141, 37.1009886366]}, "type": "Feature", "properties": {"collection_times": [{"days": "Mon-Fri", "time": "2:45pm"}, {"days": "Sat", "time": "1:30pm"}, {"days": "Sun", "time": "Closed"}], "id": "2360200025", "name": "USPS COLLECTION BOX - BLUE BOX", "address": {"city": "NEWPORT NEWS", "state": "VA", "street": "352 WENDWOOD DR", "postcode": "23602"}}},
{"geometry": {"type": "Point", "coordinates": [-76.5560667789, 37.1604560103]}, "type": "Feature", "properties": {"collection_times": [{"days": "Mon-Sat", "time": "1:30pm"}, {"days": "Sun", "time": "Closed"}], "id": "2360200027", "name": "USPS COLLECTION BOX - BLUE BOX", "address": {"city": "NEWPORT NEWS", "state": "VA", "street": "406 MERRY OAKS DR", "postcode": "23602"}}},
{"geometry": {"type": "Point", "coordinates": [-76.5185153897, 37.113342615]}, "type": "Feature", "properties": {"collection_times": [{"days": "Mon-Fri", "time": "3:00pm"}, {"days": "Sat", "time": "1:30pm"}, {"days": "Sun", "time": "Closed"}], "id": "2360200029", "name": "USPS COLLECTION BOX - BLUE BOX", "address": {"city": "NEWPORT NEWS", "state": "VA", "street": "13268 WARWICK BLVD", "postcode": "23602"}}},
{"geometry": {"type": "Point", "coordinates": [-76.4862456065, 37.1045804863]}, "type": "Feature", "properties": {"collection_times": [{"days": "Mon-Fri", "time": "12:00pm"}, {"days": "Sat", "time": "1:30pm"}, {"days": "Sun", "time": "Closed"}], "id": "2360200030", "name": "USPS COLLECTION BOX - BLUE BOX", "address": {"city": "NEWPORT NEWS", "state": "VA", "street": "2101 VILLAGE GREEN PKWY", "postcode": "23602"}}},
{"geometry": {"type": "Point", "coordinates": [-76.5559654798, 37.1493993807]}, "type": "Feature", "properties": {"collection_times": [{"days": "Mon-Fri", "time": "2:00pm"}, {"days": "Sat", "time": "1:30pm"}, {"days": "Sun", "time": "Closed"}], "id": "2360200035", "name": "USPS COLLECTION BOX - BLUE BOX", "address": {"city": "NEWPORT NEWS", "state": "VA", "street": "6 ASTOR DR", "postcode": "23602"}}},
{"geometry": {"type": "Point", "coordinates": [-76.5367891619, 37.1286344885]}, "type": "Feature", "properties": {"collection_times": [{"days": "Mon-Fri", "time": "2:15pm"}, {"days": "Sat", "time": "1:30pm"}, {"days": "Sun", "time": "Closed"}], "id": "2360200038", "name": "USPS COLLECTION BOX - BLUE BOX", "address": {"city": "NEWPORT NEWS", "state": "VA", "street": "14347 WARWICK BLVD", "postcode": "23602"}}},
{"geometry": {"type": "Point", "coordinates": [-76.4987396293, 37.11172872]}, "type": "Feature", "properties": {"collection_times": [{"days": "Mon-Fri", "time": "4:15pm"}, {"days": "Sat", "time": "1:30pm"}, {"days": "Sun", "time": "Closed"}], "id": "2360200039", "name": "USPS COLLECTION BOX - BLUE BOX", "address": {"city": "NEWPORT NEWS", "state": "VA", "street": "12350 JEFFERSON AVE", "postcode": "23602"}}},
{"geometry": {"type": "Point", "coordinates": [-76.4987396293, 37.11172872]}, "type": "Feature", "properties": {"collection_times": [{"days": "Mon-Fri", "time": "4:15pm"}, {"days": "Sat", "time": "1:30pm"}, {"days": "Sun", "time": "Closed"}], "id": "2360200040", "name": "USPS COLLECTION BOX - BLUE BOX", "address": {"city": "NEWPORT NEWS", "state": "VA", "street": "12350 JEFFERSON AVE", "postcode": "23602"}}},
{"geometry": {"type": "Point", "coordinates": [-76.5341559734, 37.1270396778]}, "type": "Feature", "properties": {"collection_times": [{"days": "Mon-Fri", "time": "5:15pm"}, {"days": "Sat", "time": "2:00pm"}, {"days": "Sun", "time": "Closed"}], "id": "2360200041", "name": "USPS COLLECTION BOX - PO LOBBY", "address": {"city": "NEWPORT NEWS", "state": "VA", "street": "14104 WARWICK BLVD", "postcode": "23602"}}},
{"geometry": {"type": "Point", "coordinates": [-76.5359393122, 37.1283908907]}, "type": "Feature", "properties": {"collection_times": [{"days": "Mon-Fri", "time": "4:00pm"}, {"days": "Sat", "time": "1:30pm"}, {"days": "Sun", "time": "Closed"}], "id": "2360200043", "name": "USPS COLLECTION BOX - BLUE BOX", "address": {"city": "NEWPORT NEWS", "state": "VA", "street": "14346 WARWICK BLVD", "postcode": "23602"}}},
{"geometry": {"type": "Point", "coordinates": [-76.4738913846, 37.1157139346]}, "type": "Feature", "properties": {"collection_times": [{"days": "Mon-Fri", "time": "4:30pm"}, {"days": "Sat", "time": "1:30pm"}, {"days": "Sun", "time": "Closed"}], "id": "2360200048", "name": "USPS COLLECTION BOX - BLUE BOX", "address": {"city": "NEWPORT NEWS", "state": "VA", "street": "1405 KILN CREEK PKWY", "postcode": "23602"}}},
{"geometry": {"type": "Point", "coordinates": [-76.5110249955, 37.1536537736]}, "type": "Feature", "properties": {"collection_times": [{"days": "Mon-Fri", "time": "1:00pm"}, {"days": "Sat", "time": "1:30pm"}, {"days": "Sun", "time": "Closed"}], "id": "2360200049", "name": "USPS COLLECTION BOX - BLUE BOX", "address": {"city": "NEWPORT NEWS", "state": "VA", "street": "1215 COLONY PINES DR", "postcode": "23602"}}},
{"geometry": {"type": "Point", "coordinates": [-76.517835319, 37.1117815128]}, "type": "Feature", "properties": {"collection_times": [{"days": "Mon-Fri", "time": "2:15pm"}, {"days": "Sat", "time": "1:30pm"}, {"days": "Sun", "time": "Closed"}], "id": "2360200052", "name": "USPS COLLECTION BOX - BLUE BOX", "address": {"city": "NEWPORT NEWS", "state": "VA", "street": "13195 WARWICK BLVD", "postcode": "23602"}}},
{"geometry": {"type": "Point", "coordinates": [-76.5540224893, 37.1515132325]}, "type": "Feature", "properties": {"collection_times": [{"days": "Mon-Fri", "time": "2:00pm"}, {"days": "Sat", "time": "1:30pm"}, {"days": "Sun", "time": "Closed"}], "id": "2360200053", "name": "USPS COLLECTION BOX - BLUE BOX", "address": {"city": "NEWPORT NEWS", "state": "VA", "street": "15435 WARWICK BLVD", "postcode": "23602"}}},
{"geometry": {"type": "Point", "coordinates": [-76.5728858284, 37.1932048685]}, "type": "Feature", "properties": {"collection_times": [{"days": "Mon-Fri", "time": "3:00pm"}, {"days": "Sat", "time": "12:30pm"}, {"days": "Sun", "time": "Closed"}], "id": "2360300001", "name": "USPS COLLECTION BOX - BLUE BOX", "address": {"city": "NEWPORT NEWS", "state": "VA", "street": "17415 WARWICK BLVD", "postcode": "23603"}}},
{"geometry": {"type": "Point", "coordinates": [-76.5728858284, 37.1932048685]}, "type": "Feature", "properties": {"collection_times": [{"days": "Mon-Fri", "time": "3:00pm"}, {"days": "Sat", "time": "12:30pm"}, {"days": "Sun", "time": "Closed"}], "id": "2360300003", "name": "USPS COLLECTION BOX - PO LOBBY", "address": {"city": "NEWPORT NEWS", "state": "VA", "street": "17415 WARWICK BLVD", "postcode": "23603"}}},
{"geometry": {"type": "Point", "coordinates": [-76.5684833963, 37.1926159617]}, "type": "Feature", "properties": {"collection_times": [{"days": "Mon-Sat", "time": "1:30pm"}, {"days": "Sun", "time": "Closed"}], "id": "2360300004", "name": "USPS COLLECTION BOX - BLUE BOX", "address": {"city": "NEWPORT NEWS", "state": "VA", "street": "1977 LEBANON CHURCH RD", "postcode": "23603"}}},
{"geometry": {"type": "Point", "coordinates": [-76.572590165, 37.1990929588]}, "type": "Feature", "properties": {"collection_times": [{"days": "Mon-Sat", "time": "1:30pm"}, {"days": "Sun", "time": "Closed"}], "id": "2360300005", "name": "USPS COLLECTION BOX - BLUE BOX", "address": {"city": "NEWPORT NEWS", "state": "VA", "street": "612 CHELSEA PL", "postcode": "23603"}}},
{"geometry": {"type": "Point", "coordinates": [-76.578459456, 37.159380322]}, "type": "Feature", "properties": {"collection_times": [{"days": "Mon-Fri", "time": "3:00pm"}, {"days": "Sat", "time": "1:30pm"}, {"days": "Sun", "time": "Closed"}], "id": "2360400001", "name": "USPS COLLECTION BOX - BLUE BOX", "address": {"city": "NEWPORT NEWS", "state": "VA", "street": "1321 LEE BLVD", "postcode": "23604"}}},
{"geometry": {"type": "Point", "coordinates": [-76.578459456, 37.159380322]}, "type": "Feature", "properties": {"collection_times": [{"days": "Mon-Fri", "time": "3:00pm"}, {"days": "Sat", "time": "1:30pm"}, {"days": "Sun", "time": "Closed"}], "id": "2360400003", "name": "USPS COLLECTION BOX - PO LOBBY", "address": {"city": "NEWPORT NEWS", "state": "VA", "street": "1321 LEE BLVD", "postcode": "23604"}}},
{"geometry": {"type": "Point", "coordinates": [-76.578459456, 37.1593803215]}, "type": "Feature", "properties": {"collection_times": [{"days": "Mon-Fri", "time": "10:30am"}, {"days": "Sat-Sun", "time": "Closed"}], "id": "2360400009", "name": "USPS COLLECTION BOX - BLUE BOX", "address": {"city": "NEWPORT NEWS", "state": "VA", "street": "1321 LEE BLVD", "postcode": "23604"}}},
{"geometry": {"type": "Point", "coordinates": [-76.442042373, 37.0172400791]}, "type": "Feature", "properties": {"collection_times": [{"days": "Mon-Fri", "time": "5:00pm"}, {"days": "Sat", "time": "1:00pm"}, {"days": "Sun", "time": "Closed"}], "id": "2360500001", "name": "USPS COLLECTION BOX - BLUE BOX", "address": {"city": "NEWPORT NEWS", "state": "VA", "street": "636 79TH ST", "postcode": "23605"}}},
{"geometry": {"type": "Point", "coordinates": [-76.442042373, 37.0172400791]}, "type": "Feature", "properties": {"collection_times": [{"days": "Mon-Fri", "time": "5:00pm"}, {"days": "Sat", "time": "1:00pm"}, {"days": "Sun", "time": "Closed"}], "id": "2360500002", "name": "USPS COLLECTION BOX - BLUE BOX", "address": {"city": "NEWPORT NEWS", "state": "VA", "street": "636 79TH ST", "postcode": "23605"}}},
{"geometry": {"type": "Point", "coordinates": [-76.442042373, 37.0172400791]}, "type": "Feature", "properties": {"collection_times": [{"days": "Mon-Fri", "time": "4:45pm"}, {"days": "Sat", "time": "4:00pm"}, {"days": "Sun", "time": "Closed"}], "id": "2360500004", "name": "USPS COLLECTION BOX - PO LOBBY", "address": {"city": "NEWPORT NEWS", "state": "VA", "street": "636 79TH ST", "postcode": "23605"}}},
{"geometry": {"type": "Point", "coordinates": [-76.443802895, 37.018377489]}, "type": "Feature", "properties": {"collection_times": [{"days": "Mon-Fri", "time": "3:00pm"}, {"days": "Sat-Sun", "time": "Closed"}], "id": "2360500006", "name": "USPS COLLECTION BOX - BLUE BOX", "address": {"city": "NEWPORT NEWS", "state": "VA", "street": "6060 JEFFERSON AVE", "postcode": "23605"}}},
{"geometry": {"type": "Point", "coordinates": [-76.4416137836, 37.0202960492]}, "type": "Feature", "properties": {"collection_times": [{"days": "Mon-Fri", "time": "1:00pm"}, {"days": "Sat-Sun", "time": "Closed"}], "id": "2360500009", "name": "USPS COLLECTION BOX - BLUE BOX", "address": {"city": "NEWPORT NEWS", "state": "VA", "street": "111 NEWMARKET SQ", "postcode": "23605"}}},
{"geometry": {"type": "Point", "coordinates": [-76.4402349183, 37.0330469038]}, "type": "Feature", "properties": {"collection_times": [{"days": "Mon-Sat", "time": "1:00pm"}, {"days": "Sun", "time": "Closed"}], "id": "2360500015", "name": "USPS COLLECTION BOX - BLUE BOX", "address": {"city": "NEWPORT NEWS", "state": "VA", "street": "5100 GOLDSBORO DR", "postcode": "23605"}}},
{"geometry": {"type": "Point", "coordinates": [-76.442042373, 37.0172400791]}, "type": "Feature", "properties": {"collection_times": [{"days": "Mon-Fri", "time": "5:00pm"}, {"days": "Sat", "time": "1:00pm"}, {"days": "Sun", "time": "Closed"}], "id": "2360500025", "name": "USPS COLLECTION BOX - BLUE BOX", "address": {"city": "NEWPORT NEWS", "state": "VA", "street": "636 79TH ST", "postcode": "23605"}}},
{"geometry": {"type": "Point", "coordinates": [-76.4992186988, 37.0678818088]}, "type": "Feature", "properties": {"collection_times": [{"days": "Mon-Fri", "time": "6:00pm"}, {"days": "Sat", "time": "3:00pm"}, {"days": "Sun", "time": "Closed"}], "id": "2360600001", "name": "USPS COLLECTION BOX - BLUE BOX", "address": {"city": "NEWPORT NEWS", "state": "VA", "street": "359 HIDEN BLVD", "postcode": "23606"}}},
{"geometry": {"type": "Point", "coordinates": [-76.4992186988, 37.0678818088]}, "type": "Feature", "properties": {"collection_times": [{"days": "Mon-Fri", "time": "5:00pm"}, {"days": "Sat", "time": "3:00pm"}, {"days": "Sun", "time": "Closed"}], "id": "2360600005", "name": "USPS COLLECTION BOX - PO LOBBY", "address": {"city": "NEWPORT NEWS", "state": "VA", "street": "359 HIDEN BLVD", "postcode": "23606"}}},
{"geometry": {"type": "Point", "coordinates": [-76.4992186988, 37.0678818088]}, "type": "Feature", "properties": {"collection_times": [{"days": "Mon-Fri", "time": "5:00pm"}, {"days": "Sat", "time": "3:00pm"}, {"days": "Sun", "time": "Closed"}], "id": "2360600006", "name": "USPS COLLECTION BOX - PO LOBBY", "address": {"city": "NEWPORT NEWS", "state": "VA", "street": "359 HIDEN BLVD", "postcode": "23606"}}},
{"geometry": {"type": "Point", "coordinates": [-76.4730174191, 37.086405488]}, "type": "Feature", "properties": {"collection_times": [{"days": "Mon-Fri", "time": "4:00pm"}, {"days": "Sat", "time": "1:00pm"}, {"days": "Sun", "time": "Closed"}], "id": "2360600017", "name": "USPS COLLECTION BOX - BLUE BOX", "address": {"city": "NEWPORT NEWS", "state": "VA", "street": "700 TOWN CENTER DR", "postcode": "23606"}}},
{"geometry": {"type": "Point", "coordinates": [-76.4660683837, 37.0818888233]}, "type": "Feature", "properties": {"collection_times": [{"days": "Mon-Fri", "time": "5:00pm"}, {"days": "Sat", "time": "1:00pm"}, {"days": "Sun", "time": "Closed"}], "id": "2360600020", "name": "USPS COLLECTION BOX - BLUE BOX", "address": {"city": "NEWPORT NEWS", "state": "VA", "street": "739 THIMBLE SHOALS BLVD", "postcode": "23606"}}},
{"geometry": {"type": "Point", "coordinates": [-76.4935634284, 37.1039908539]}, "type": "Feature", "properties": {"collection_times": [{"days": "Mon-Sat", "time": "1:00pm"}, {"days": "Sun", "time": "Closed"}], "id": "2360600026", "name": "USPS COLLECTION BOX - BLUE BOX", "address": {"city": "NEWPORT NEWS", "state": "VA", "street": "12089 JEFFERSON AVE", "postcode": "23606"}}},
{"geometry": {"type": "Point", "coordinates": [-76.4964938547, 37.0846639632]}, "type": "Feature", "properties": {"collection_times": [{"days": "Mon-Sat", "time": "1:00pm"}, {"days": "Sun", "time": "Closed"}], "id": "2360600033", "name": "USPS COLLECTION BOX - BLUE BOX", "address": {"city": "NEWPORT NEWS", "state": "VA", "street": "414 WINTERHAVEN DR", "postcode": "23606"}}},
{"geometry": {"type": "Point", "coordinates": [-76.4654142848, 37.0806898]}, "type": "Feature", "properties": {"collection_times": [{"days": "Mon-Sat", "time": "1:00pm"}, {"days": "Sun", "time": "Closed"}], "id": "2360600037", "name": "USPS COLLECTION BOX - BLUE BOX", "address": {"city": "NEWPORT NEWS", "state": "VA", "street": "1 GREAT OAK CIR", "postcode": "23606"}}},
{"geometry": {"type": "Point", "coordinates": [-76.4690358387, 37.0849895973]}, "type": "Feature", "properties": {"collection_times": [{"days": "Mon-Fri", "time": "4:00pm"}, {"days": "Sat", "time": "1:00pm"}, {"days": "Sun", "time": "Closed"}], "id": "2360600038", "name": "USPS COLLECTION BOX - BLUE BOX", "address": {"city": "NEWPORT NEWS", "state": "VA", "street": "11836 CANON BLVD", "postcode": "23606"}}},
{"geometry": {"type": "Point", "coordinates": [-76.4773328329, 37.0783077664]}, "type": "Feature", "properties": {"collection_times": [{"days": "Mon-Fri", "time": "5:00pm"}, {"days": "Sat", "time": "1:00pm"}, {"days": "Sun", "time": "Closed"}], "id": "2360600044", "name": "USPS COLLECTION BOX - BLUE BOX", "address": {"city": "NEWPORT NEWS", "state": "VA", "street": "11712 JEFFERSON AVE STE C", "postcode": "23606"}}},
{"geometry": {"type": "Point", "coordinates": [-76.4794874293, 37.0817715468]}, "type": "Feature", "properties": {"collection_times": [{"days": "Mon-Fri", "time": "5:00pm"}, {"days": "Sat", "time": "1:00pm"}, {"days": "Sun", "time": "Closed"}], "id": "2360600045", "name": "USPS COLLECTION BOX - BLUE BOX", "address": {"city": "NEWPORT NEWS", "state": "VA", "street": "11742C JEFFERSON AVE", "postcode": "23606"}}},
{"geometry": {"type": "Point", "coordinates": [-76.4693109895, 37.0847580336]}, "type": "Feature", "properties": {"collection_times": [{"days": "Mon-Fri", "time": "5:00pm"}, {"days": "Sat", "time": "1:00pm"}, {"days": "Sun", "time": "Closed"}], "id": "2360600046", "name": "USPS COLLECTION BOX - BLUE BOX", "address": {"city": "NEWPORT NEWS", "state": "VA", "street": "11817 CANON BLVD", "postcode": "23606"}}},
{"geometry": {"type": "Point", "coordinates": [-76.5016077907, 37.0889498503]}, "type": "Feature", "properties": {"collection_times": [{"days": "Mon-Sat", "time": "1:00pm"}, {"days": "Sun", "time": "Closed"}], "id": "2360600050", "name": "USPS COLLECTION BOX - BLUE BOX", "address": {"city": "NEWPORT NEWS", "state": "VA", "street": "12715 WARWICK BLVD", "postcode": "23606"}}},
{"geometry": {"type": "Point", "coordinates": [-76.4911986514, 37.0796201744]}, "type": "Feature", "properties": {"collection_times": [{"days": "Mon-Fri", "time": "5:00pm"}, {"days": "Sat-Sun", "time": "Closed"}], "id": "2360600052", "name": "USPS COLLECTION BOX - PO LOBBY", "address": {"city": "NEWPORT NEWS", "state": "VA", "street": "739 THIMBLE SHOALS BLVD STE 501", "postcode": "23606"}}},
{"geometry": {"type": "Point", "coordinates": [-76.4911986514, 37.0796201744]}, "type": "Feature", "properties": {"collection_times": [{"days": "Mon-Fri", "time": "5:00pm"}, {"days": "Sat-Sun", "time": "Closed"}], "id": "2360600053", "name": "USPS COLLECTION BOX - PO LOBBY", "address": {"city": "NEWPORT NEWS", "state": "VA", "street": "739 THIMBLE SHOALS BLVD STE 501", "postcode": "23606"}}},
{"geometry": {"type": "Point", "coordinates": [-76.4799404512, 37.0819292035]}, "type": "Feature", "properties": {"collection_times": [{"days": "Mon-Sat", "time": "1:00pm"}, {"days": "Sun", "time": "Closed"}], "id": "2360600054", "name": "USPS COLLECTION BOX - BLUE BOX", "address": {"city": "NEWPORT NEWS", "state": "VA", "street": "11751 JEFFERSON AVE", "postcode": "23606"}}},
{"geometry": {"type": "Point", "coordinates": [-76.4992186988, 37.0678818088]}, "type": "Feature", "properties": {"collection_times": [{"days": "Mon-Fri", "time": "6:00pm"}, {"days": "Sat", "time": "3:00pm"}, {"days": "Sun", "time": "Closed"}], "id": "2360600056", "name": "USPS COLLECTION BOX - BLUE BOX", "address": {"city": "NEWPORT NEWS", "state": "VA", "street": "359 HIDEN BLVD", "postcode": "23606"}}},
{"geometry": {"type": "Point", "coordinates": [-76.4911986514, 37.0796201744]}, "type": "Feature", "properties": {"collection_times": [{"days": "Mon-Sat", "time": "1:00pm"}, {"days": "Sun", "time": "Closed"}], "id": "2360600057", "name": "USPS COLLECTION BOX - BLUE BOX", "address": {"city": "NEWPORT NEWS", "state": "VA", "street": "501 WATERS EDGE DR", "postcode": "23606"}}},
{"geometry": {"type": "Point", "coordinates": [-76.4812325286, 37.0839454742]}, "type": "Feature", "properties": {"collection_times": [{"days": "Mon-Fri", "time": "2:00pm"}, {"days": "Sat-Sun", "time": "Closed"}], "id": "2360600059", "name": "USPS COLLECTION BOX - BLUE BOX", "address": {"city": "NEWPORT NEWS", "state": "VA", "street": "11803 JEFFERSON AVE", "postcode": "23606"}}},
{"geometry": {"type": "Point", "coordinates": [-76.4367584226, 36.9879685106]}, "type": "Feature", "properties": {"collection_times": [{"days": "Mon-Fri", "time": "2:00pm"}, {"days": "Sat-Sun", "time": "Closed"}], "id": "2360700007", "name": "USPS COLLECTION BOX - BLUE BOX", "address": {"city": "NEWPORT NEWS", "state": "VA", "street": "4101 WASHINGTON AVE", "postcode": "23607"}}},
{"geometry": {"type": "Point", "coordinates": [-76.4324202073, 36.9777393358]}, "type": "Feature", "properties": {"collection_times": [{"days": "Mon-Sat", "time": "4:00pm"}, {"days": "Sun", "time": "Closed"}], "id": "2360700034", "name": "USPS COLLECTION BOX - BLUE BOX", "address": {"city": "NEWPORT NEWS", "state": "VA", "street": "102 26TH ST", "postcode": "23607"}}},
{"geometry": {"type": "Point", "coordinates": [-76.4334182857, 36.9861951864]}, "type": "Feature", "properties": {"collection_times": [{"days": "Mon-Sat", "time": "2:00pm"}, {"days": "Sun", "time": "Closed"}], "id": "2360700035", "name": "USPS COLLECTION BOX - BLUE BOX", "address": {"city": "NEWPORT NEWS", "state": "VA", "street": "3711 HUNTINGTON AVE", "postcode": "23607"}}},
{"geometry": {"type": "Point", "coordinates": [-76.4304821331, 36.9780689031]}, "type": "Feature", "properties": {"collection_times": [{"days": "Mon-Fri", "time": "4:00pm"}, {"days": "Sat-Sun", "time": "Closed"}], "id": "2360700039", "name": "USPS COLLECTION BOX - BLUE BOX", "address": {"city": "NEWPORT NEWS", "state": "VA", "street": "2500 WASHINGTON AVE", "postcode": "23607"}}},
{"geometry": {"type": "Point", "coordinates": [-76.43082366, 36.978546996]}, "type": "Feature", "properties": {"collection_times": [{"days": "Mon-Fri", "time": "4:00pm"}, {"days": "Sat-Sun", "time": "Closed"}], "id": "2360700055", "name": "USPS COLLECTION BOX - BLUE BOX", "address": {"city": "NEWPORT NEWS", "state": "VA", "street": "2600 WASHINGTON AVE", "postcode": "23607"}}},
{"geometry": {"type": "Point", "coordinates": [-76.432108334, 36.9771044194]}, "type": "Feature", "properties": {"collection_times": [{"days": "Mon-Fri", "time": "4:30pm"}, {"days": "Sat", "time": "3:00pm"}, {"days": "Sun", "time": "Closed"}], "id": "2360700057", "name": "USPS COLLECTION BOX - PO LOBBY", "address": {"city": "NEWPORT NEWS", "state": "VA", "street": "101 25TH ST", "postcode": "23607"}}},
{"geometry": {"type": "Point", "coordinates": [-76.4334182857, 36.9861951864]}, "type": "Feature", "properties": {"collection_times": [{"days": "Mon-Sat", "time": "2:00pm"}, {"days": "Sun", "time": "Closed"}], "id": "2360700059", "name": "USPS COLLECTION BOX - BLUE BOX", "address": {"city": "NEWPORT NEWS", "state": "VA", "street": "3711 HUNTINGTON AVE", "postcode": "23607"}}},
{"geometry": {"type": "Point", "coordinates": [-76.5126537413, 37.1371830484]}, "type": "Feature", "properties": {"collection_times": [{"days": "Mon-Fri", "time": "5:00pm"}, {"days": "Sat", "time": "3:30pm"}, {"days": "Sun", "time": "Closed"}], "id": "2360800000", "name": "USPS COLLECTION BOX - BLUE BOX", "address": {"city": "NEWPORT NEWS", "state": "VA", "street": "685 TURNBERRY BLVD", "postcode": "23608"}}},
{"geometry": {"type": "Point", "coordinates": [-76.5126537413, 37.1371830484]}, "type": "Feature", "properties": {"collection_times": [{"days": "Mon-Fri", "time": "5:00pm"}, {"days": "Sat", "time": "12:00pm"}, {"days": "Sun", "time": "Closed"}], "id": "2360800002", "name": "USPS COLLECTION BOX - PO LOBBY", "address": {"city": "NEWPORT NEWS", "state": "VA", "street": "685 TURNBERRY BLVD", "postcode": "23608"}}},
{"geometry": {"type": "Point", "coordinates": [-76.3832165751, 37.0078016249]}, "type": "Feature", "properties": {"collection_times": [{"days": "Mon-Fri", "time": "4:30pm"}, {"days": "Sat-Sun", "time": "Closed"}], "id": "2366100007", "name": "USPS COLLECTION BOX - PO LOBBY", "address": {"city": "HAMPTON", "state": "VA", "street": "405 CHESTERFIELD RD", "postcode": "23661"}}},
{"geometry": {"type": "Point", "coordinates": [-76.3664538739, 37.0133134975]}, "type": "Feature", "properties": {"collection_times": [{"days": "Mon-Fri", "time": "4:00pm"}, {"days": "Sat-Sun", "time": "Closed"}], "id": "2366100008", "name": "USPS COLLECTION BOX - BLUE BOX", "address": {"city": "HAMPTON", "state": "VA", "street": "3130 VICTORIA BLVD", "postcode": "23661"}}},
{"geometry": {"type": "Point", "coordinates": [-76.3699260872, 37.0077849848]}, "type": "Feature", "properties": {"collection_times": [{"days": "Mon-Fri", "time": "11:15am"}, {"days": "Sat-Sun", "time": "Closed"}], "id": "2366100017", "name": "USPS COLLECTION BOX - BLUE BOX", "address": {"city": "HAMPTON", "state": "VA", "street": "200 HAMPTON ROADS AVE", "postcode": "23661"}}},
{"geometry": {"type": "Point", "coordinates": [-76.3813106555, 37.0060879842]}, "type": "Feature", "properties": {"collection_times": [{"days": "Mon-Fri", "time": "5:00pm"}, {"days": "Sat", "time": "2:30pm"}, {"days": "Sun", "time": "Closed"}], "id": "2366100025", "name": "USPS COLLECTION BOX - BLUE BOX", "address": {"city": "HAMPTON", "state": "VA", "street": "405 CHESTERFIELD RD", "postcode": "23661"}}},
{"geometry": {"type": "Point", "coordinates": [-76.3786305557, 37.00271089]}, "type": "Feature", "properties": {"collection_times": [{"days": "Mon-Fri", "time": "11:15am"}, {"days": "Sat-Sun", "time": "Closed"}], "id": "2366100026", "name": "USPS COLLECTION BOX - BLUE BOX", "address": {"city": "HAMPTON", "state": "VA", "street": "2301 KECOUGHTAN RD", "postcode": "23661"}}},
{"geometry": {"type": "Point", "coordinates": [-76.3915436791, 37.1297323999]}, "type": "Feature", "properties": {"collection_times": [{"days": "Mon-Fri", "time": "5:00pm"}, {"days": "Sat", "time": "3:00pm"}, {"days": "Sun", "time": "Closed"}], "id": "2366200001", "name": "USPS COLLECTION BOX - BLUE BOX", "address": {"city": "POQUOSON", "state": "VA", "street": "529 WYTHE CREEK RD", "postcode": "23662"}}},
{"geometry": {"type": "Point", "coordinates": [-76.3917316802, 37.1265078147]}, "type": "Feature", "properties": {"collection_times": [{"days": "Mon-Fri", "time": "4:45pm"}, {"days": "Sat", "time": "12:15pm"}, {"days": "Sun", "time": "Closed"}], "id": "2366200002", "name": "USPS COLLECTION BOX - BLUE BOX", "address": {"city": "POQUOSON", "state": "VA", "street": "475 WYTHE CREEK RD", "postcode": "23662"}}},
{"geometry": {"type": "Point", "coordinates": [-76.3966331114, 37.1229096135]}, "type": "Feature", "properties": {"collection_times": [{"days": "Mon-Fri", "time": "4:30pm"}, {"days": "Sat-Sun", "time": "Closed"}], "id": "2366200010", "name": "USPS COLLECTION BOX - BLUE BOX", "address": {"city": "POQUOSON", "state": "VA", "street": "500 CITY HALL AVE", "postcode": "23662"}}},
{"geometry": {"type": "Point", "coordinates": [-76.3915436791, 37.1297323999]}, "type": "Feature", "properties": {"collection_times": [{"days": "Mon-Fri", "time": "4:30pm"}, {"days": "Sat", "time": "2:00pm"}, {"days": "Sun", "time": "Closed"}], "id": "2366200011", "name": "USPS COLLECTION BOX - PO LOBBY", "address": {"city": "POQUOSON", "state": "VA", "street": "529 WYTHE CREEK RD", "postcode": "23662"}}},
{"geometry": {"type": "Point", "coordinates": [-76.3210258837, 37.0175106359]}, "type": "Feature", "properties": {"collection_times": [{"days": "Mon-Fri", "time": "5:00pm"}, {"days": "Sat", "time": "4:45pm"}, {"days": "Sun", "time": "Closed"}], "id": "2366300002", "name": "USPS COLLECTION BOX - BLUE BOX", "address": {"city": "HAMPTON", "state": "VA", "street": "102 E MELLEN ST", "postcode": "23663"}}},
{"geometry": {"type": "Point", "coordinates": [-76.3093097854, 37.0481945491]}, "type": "Feature", "properties": {"collection_times": [{"days": "Mon-Sat", "time": "2:00pm"}, {"days": "Sun", "time": "Closed"}], "id": "2366300008", "name": "USPS COLLECTION BOX - BLUE BOX", "address": {"city": "HAMPTON", "state": "VA", "street": "2024 NICKERSON BLVD", "postcode": "23663"}}},
{"geometry": {"type": "Point", "coordinates": [-76.3224787905, 37.0188056809]}, "type": "Feature", "properties": {"collection_times": [{"days": "Mon-Fri", "time": "12:00pm"}, {"days": "Sat-Sun", "time": "Closed"}], "id": "2366300009", "name": "USPS COLLECTION BOX - BLUE BOX", "address": {"city": "HAMPTON", "state": "VA", "street": "13 W MELLEN ST", "postcode": "23663"}}},
{"geometry": {"type": "Point", "coordinates": [-76.3151337968, 37.0374751098]}, "type": "Feature", "properties": {"collection_times": [{"days": "Mon-Fri", "time": "1:00pm"}, {"days": "Sat", "time": "2:00pm"}, {"days": "Sun", "time": "Closed"}], "id": "2366300010", "name": "USPS COLLECTION BOX - BLUE BOX", "address": {"city": "HAMPTON", "state": "VA", "street": "1533 E PEMBROKE AVE", "postcode": "23663"}}},
{"geometry": {"type": "Point", "coordinates": [-76.3059219371, 37.0399826741]}, "type": "Feature", "properties": {"collection_times": [{"days": "Mon-Fri", "time": "1:00pm"}, {"days": "Sat", "time": "2:00pm"}, {"days": "Sun", "time": "Closed"}], "id": "2366300011", "name": "USPS COLLECTION BOX - BLUE BOX", "address": {"city": "HAMPTON", "state": "VA", "street": "1973 E PEMBROKE AVE", "postcode": "23663"}}},
{"geometry": {"type": "Point", "coordinates": [-76.3210258837, 37.0175106359]}, "type": "Feature", "properties": {"collection_times": [{"days": "Mon-Fri", "time": "5:00pm"}, {"days": "Sat-Sun", "time": "Closed"}], "id": "2366300019", "name": "USPS COLLECTION BOX - PO LOBBY", "address": {"city": "HAMPTON", "state": "VA", "street": "102 E MELLEN ST", "postcode": "23663"}}},
{"geometry": {"type": "Point", "coordinates": [-76.2991032881, 37.0626062147]}, "type": "Feature", "properties": {"collection_times": [{"days": "Mon-Fri", "time": "1:15pm"}, {"days": "Sat-Sun", "time": "Closed"}], "id": "2366400002", "name": "USPS COLLECTION BOX - BLUE BOX", "address": {"city": "HAMPTON", "state": "VA", "street": "46 BEACH RD", "postcode": "23664"}}},
{"geometry": {"type": "Point", "coordinates": [-76.3607524782, 37.0742671126]}, "type": "Feature", "properties": {"collection_times": [{"days": "Mon-Fri", "time": "12:15pm"}, {"days": "Sat", "time": "11:45am"}, {"days": "Sun", "time": "Closed"}], "id": "2366500002", "name": "USPS COLLECTION BOX - BLUE BOX", "address": {"city": "HAMPTON", "state": "VA", "street": "61 SPAATZ DR BLDG 290", "postcode": "23665"}}},
{"geometry": {"type": "Point", "coordinates": [-76.367653944, 37.071817643]}, "type": "Feature", "properties": {"collection_times": [{"days": "Mon-Fri", "time": "4:45pm"}, {"days": "Sat-Sun", "time": "Closed"}], "id": "2366500008", "name": "USPS COLLECTION BOX - BLUE BOX", "address": {"city": "HAMPTON", "state": "VA", "street": "17 W TAYLOR ST", "postcode": "23665"}}},
{"geometry": {"type": "Point", "coordinates": [-76.3494460993, 37.0776674296]}, "type": "Feature", "properties": {"collection_times": [{"days": "Mon-Fri", "time": "12:00pm"}, {"days": "Sat-Sun", "time": "Closed"}], "id": "2366500012", "name": "USPS COLLECTION BOX - BLUE BOX", "address": {"city": "HAMPTON", "state": "VA", "street": "136 BRYANT AVE", "postcode": "23665"}}},
{"geometry": {"type": "Point", "coordinates": [-76.3608177477, 37.0731909648]}, "type": "Feature", "properties": {"collection_times": [{"days": "Mon-Fri", "time": "5:00pm"}, {"days": "Sat", "time": "12:00pm"}, {"days": "Sun", "time": "Closed"}], "id": "2366500014", "name": "USPS COLLECTION BOX - BLUE BOX", "address": {"city": "HAMPTON", "state": "VA", "street": "62 WALNUT AVE", "postcode": "23665"}}},
{"geometry": {"type": "Point", "coordinates": [-76.3599346553, 37.0736888512]}, "type": "Feature", "properties": {"collection_times": [{"days": "Mon-Fri", "time": "4:00pm"}, {"days": "Sat", "time": "12:00pm"}, {"days": "Sun", "time": "Closed"}], "id": "2366500018", "name": "USPS COLLECTION BOX - PO LOBBY", "address": {"city": "HAMPTON", "state": "VA", "street": "62 WALNUT AVE", "postcode": "23665"}}},
{"geometry": {"type": "Point", "coordinates": [-76.4009064664, 37.0632696134]}, "type": "Feature", "properties": {"collection_times": [{"days": "Mon-Fri", "time": "5:00pm"}, {"days": "Sat-Sun", "time": "Closed"}], "id": "2366600002", "name": "USPS COLLECTION BOX - BLUE BOX", "address": {"city": "HAMPTON", "state": "VA", "street": "303 BUTLER FARM RD", "postcode": "23666"}}},
{"geometry": {"type": "Point", "coordinates": [-76.427345738, 37.0585125963]}, "type": "Feature", "properties": {"collection_times": [{"days": "Mon-Fri", "time": "10:30am"}, {"days": "Sat", "time": "12:45pm"}, {"days": "Sun", "time": "Closed"}], "id": "2366600005", "name": "USPS COLLECTION BOX - BLUE BOX", "address": {"city": "HAMPTON", "state": "VA", "street": "1160 BIG BETHEL RD", "postcode": "23666"}}},
{"geometry": {"type": "Point", "coordinates": [-76.3693343789, 37.0517064307]}, "type": "Feature", "properties": {"collection_times": [{"days": "Mon-Fri", "time": "11:45am"}, {"days": "Sat-Sun", "time": "Closed"}], "id": "2366600011", "name": "USPS COLLECTION BOX - BLUE BOX", "address": {"city": "HAMPTON", "state": "VA", "street": "18 MARVIN DR", "postcode": "23666"}}},
{"geometry": {"type": "Point", "coordinates": [-76.3818571825, 37.0451161664]}, "type": "Feature", "properties": {"collection_times": [{"days": "Mon-Fri", "time": "5:00pm"}, {"days": "Sat-Sun", "time": "Closed"}], "id": "2366600017", "name": "USPS COLLECTION BOX - BLUE BOX", "address": {"city": "HAMPTON", "state": "VA", "street": "2013 CUNNINGHAM DR", "postcode": "23666"}}},
{"geometry": {"type": "Point", "coordinates": [-76.3845431328, 37.0426762939]}, "type": "Feature", "properties": {"collection_times": [{"days": "Mon-Fri", "time": "5:00pm"}, {"days": "Sat", "time": "4:30pm"}, {"days": "Sun", "time": "Closed"}], "id": "2366600030", "name": "USPS COLLECTION BOX - BLUE BOX", "address": {"city": "HAMPTON", "state": "VA", "street": "1062 W MERCURY BLVD", "postcode": "23666"}}},
{"geometry": {"type": "Point", "coordinates": [-76.3980057554, 37.0508972868]}, "type": "Feature", "properties": {"collection_times": [{"days": "Mon-Fri", "time": "5:00pm"}, {"days": "Sat-Sun", "time": "Closed"}], "id": "2366600043", "name": "USPS COLLECTION BOX - BLUE BOX", "address": {"city": "HAMPTON", "state": "VA", "street": "2207 EXECUTIVE DR", "postcode": "23666"}}},
{"geometry": {"type": "Point", "coordinates": [-76.3949686278, 37.0463368776]}, "type": "Feature", "properties": {"collection_times": [{"days": "Mon-Fri", "time": "1:30pm"}, {"days": "Sat-Sun", "time": "Closed"}], "id": "2366600045", "name": "USPS COLLECTION BOX - BLUE BOX", "address": {"city": "HAMPTON", "state": "VA", "street": "2300 CUNNINGHAM DR", "postcode": "23666"}}},
{"geometry": {"type": "Point", "coordinates": [-76.4050222865, 37.0570277483]}, "type": "Feature", "properties": {"collection_times": [{"days": "Mon-Fri", "time": "5:00pm"}, {"days": "Sat-Sun", "time": "Closed"}], "id": "2366600056", "name": "USPS COLLECTION BOX - BLUE BOX", "address": {"city": "HAMPTON", "state": "VA", "street": "1 ENTERPRISE PKWY", "postcode": "23666"}}},
{"geometry": {"type": "Point", "coordinates": [-76.3939399095, 37.0522873295]}, "type": "Feature", "properties": {"collection_times": [{"days": "Mon-Sat", "time": "1:30pm"}, {"days": "Sun", "time": "Closed"}], "id": "2366600062", "name": "USPS COLLECTION BOX - BLUE BOX", "address": {"city": "HAMPTON", "state": "VA", "street": "1304 WYNDHAM DR", "postcode": "23666"}}},
{"geometry": {"type": "Point", "coordinates": [-76.3986661032, 37.0637772144]}, "type": "Feature", "properties": {"collection_times": [{"days": "Mon-Fri", "time": "5:00pm"}, {"days": "Sat-Sun", "time": "Closed"}], "id": "2366600063", "name": "USPS COLLECTION BOX - BLUE BOX", "address": {"city": "HAMPTON", "state": "VA", "street": "6 MANHATTAN SQ", "postcode": "23666"}}},
{"geometry": {"type": "Point", "coordinates": [-76.3898747114, 37.0862942549]}, "type": "Feature", "properties": {"collection_times": [{"days": "Mon-Fri", "time": "4:45pm"}, {"days": "Sat-Sun", "time": "Closed"}], "id": "2366600065", "name": "USPS COLLECTION BOX - BLUE BOX", "address": {"city": "HAMPTON", "state": "VA", "street": "121 FLOYD THOMPSON BLVD", "postcode": "23666"}}},
{"geometry": {"type": "Point", "coordinates": [-76.4257520579, 37.0355247351]}, "type": "Feature", "properties": {"collection_times": [{"days": "Mon-Fri", "time": "10:30am"}, {"days": "Sat", "time": "12:45pm"}, {"days": "Sun", "time": "Closed"}], "id": "2366600069", "name": "USPS COLLECTION BOX - BLUE BOX", "address": {"city": "HAMPTON", "state": "VA", "street": "199 ALBANY DR", "postcode": "23666"}}},
{"geometry": {"type": "Point", "coordinates": [-76.3923062591, 37.0555676088]}, "type": "Feature", "properties": {"collection_times": [{"days": "Mon-Fri", "time": "1:00pm"}, {"days": "Sat", "time": "11:30am"}, {"days": "Sun", "time": "Closed"}], "id": "2366600087", "name": "USPS COLLECTION BOX - BLUE BOX", "address": {"city": "HAMPTON", "state": "VA", "street": "3000 COLISEUM DR", "postcode": "23666"}}},
{"geometry": {"type": "Point", "coordinates": [-76.3845431328, 37.0426762939]}, "type": "Feature", "properties": {"collection_times": [{"days": "Mon-Fri", "time": "5:00pm"}, {"days": "Sat", "time": "3:00pm"}, {"days": "Sun", "time": "Closed"}], "id": "2366600088", "name": "USPS COLLECTION BOX - PO LOBBY", "address": {"city": "HAMPTON", "state": "VA", "street": "1062 W MERCURY BLVD", "postcode": "23666"}}},
{"geometry": {"type": "Point", "coordinates": [-76.3439137737, 37.0249431671]}, "type": "Feature", "properties": {"collection_times": [{"days": "Mon-Fri", "time": "4:15pm"}, {"days": "Sat-Sun", "time": "Closed"}], "id": "2366900004", "name": "USPS COLLECTION BOX - BLUE BOX", "address": {"city": "HAMPTON", "state": "VA", "street": "25 S KING ST", "postcode": "23669"}}},
{"geometry": {"type": "Point", "coordinates": [-76.3320174084, 37.0246130047]}, "type": "Feature", "properties": {"collection_times": [{"days": "Mon-Fri", "time": "4:15pm"}, {"days": "Sat-Sun", "time": "Closed"}], "id": "2366900008", "name": "USPS COLLECTION BOX - BLUE BOX", "address": {"city": "HAMPTON", "state": "VA", "street": "1026 SETTLERS LANDING RD", "postcode": "23669"}}},
{"geometry": {"type": "Point", "coordinates": [-76.3430228244, 37.0282426923]}, "type": "Feature", "properties": {"collection_times": [{"days": "Mon-Fri", "time": "5:00pm"}, {"days": "Sat-Sun", "time": "Closed"}], "id": "2366900012", "name": "USPS COLLECTION BOX - BLUE BOX", "address": {"city": "HAMPTON", "state": "VA", "street": "22 LINCOLN ST", "postcode": "23669"}}},
{"geometry": {"type": "Point", "coordinates": [-76.3364575834, 37.0585687757]}, "type": "Feature", "properties": {"collection_times": [{"days": "Mon-Fri", "time": "1:30pm"}, {"days": "Sat-Sun", "time": "Closed"}], "id": "2366900023", "name": "USPS COLLECTION BOX - BLUE BOX", "address": {"city": "HAMPTON", "state": "VA", "street": "127 CLEMWOOD PKWY", "postcode": "23669"}}},
{"geometry": {"type": "Point", "coordinates": [-76.348272407, 37.0395315009]}, "type": "Feature", "properties": {"collection_times": [{"days": "Mon-Fri", "time": "2:00pm"}, {"days": "Sat-Sun", "time": "Closed"}], "id": "2366900026", "name": "USPS COLLECTION BOX - BLUE BOX", "address": {"city": "HAMPTON", "state": "VA", "street": "989 N KING ST", "postcode": "23669"}}},
{"geometry": {"type": "Point", "coordinates": [-76.3221378651, 37.0687540524]}, "type": "Feature", "properties": {"collection_times": [{"days": "Mon-Fri", "time": "1:15pm"}, {"days": "Sat-Sun", "time": "Closed"}], "id": "2366900031", "name": "USPS COLLECTION BOX - BLUE BOX", "address": {"city": "HAMPTON", "state": "VA", "street": "1049 E LITTLE BACK RIVER RD", "postcode": "23669"}}},
{"geometry": {"type": "Point", "coordinates": [-76.3627644746, 37.0302974183]}, "type": "Feature", "properties": {"collection_times": [{"days": "Mon-Fri", "time": "5:00pm"}, {"days": "Sat-Sun", "time": "Closed"}], "id": "2366900044", "name": "USPS COLLECTION BOX - BLUE BOX", "address": {"city": "HAMPTON", "state": "VA", "street": "1320 LASALLE AVE", "postcode": "23669"}}},
{"geometry": {"type": "Point", "coordinates": [-76.353073948, 37.0114104427]}, "type": "Feature", "properties": {"collection_times": [{"days": "Mon-Fri", "time": "11:00am"}, {"days": "Sat", "time": "2:15pm"}, {"days": "Sun", "time": "Closed"}], "id": "2366900045", "name": "USPS COLLECTION BOX - BLUE BOX", "address": {"city": "HAMPTON", "state": "VA", "street": "3857 KECOUGHTAN RD", "postcode": "23669"}}},
{"geometry": {"type": "Point", "coordinates": [-76.3444927465, 37.0277641499]}, "type": "Feature", "properties": {"collection_times": [{"days": "Mon-Fri", "time": "5:00pm"}, {"days": "Sat", "time": "2:15pm"}, {"days": "Sun", "time": "Closed"}], "id": "2366900054", "name": "USPS COLLECTION BOX - BLUE BOX", "address": {"city": "HAMPTON", "state": "VA", "street": "89 LINCOLN ST", "postcode": "23669"}}},
{"geometry": {"type": "Point", "coordinates": [-76.327197396, 37.0567604191]}, "type": "Feature", "properties": {"collection_times": [{"days": "Mon-Fri", "time": "4:45pm"}, {"days": "Sat", "time": "1:45pm"}, {"days": "Sun", "time": "Closed"}], "id": "2366900055", "name": "USPS COLLECTION BOX - BLUE BOX", "address": {"city": "HAMPTON", "state": "VA", "street": "227 FOX HILL RD", "postcode": "23669"}}},
{"geometry": {"type": "Point", "coordinates": [-76.3444927465, 37.0277641499]}, "type": "Feature", "properties": {"collection_times": [{"days": "Mon-Fri", "time": "4:30pm"}, {"days": "Sat-Sun", "time": "Closed"}], "id": "2366900057", "name": "USPS COLLECTION BOX - PO LOBBY", "address": {"city": "HAMPTON", "state": "VA", "street": "89 LINCOLN ST", "postcode": "23669"}}},
{"geometry": {"type": "Point", "coordinates": [-76.4038072209, 37.0178064626]}, "type": "Feature", "properties": {"collection_times": [{"days": "Mon-Sat", "time": "5:00pm"}, {"days": "Sun", "time": "Closed"}], "id": "2367000001", "name": "USPS COLLECTION BOX - PO LOBBY", "address": {"city": "HAMPTON", "state": "VA", "street": "809 ABERDEEN RD", "postcode": "23670"}}},
{"geometry": {"type": "Point", "coordinates": [-76.4038072209, 37.0178064626]}, "type": "Feature", "properties": {"collection_times": [{"days": "Mon-Sat", "time": "5:00pm"}, {"days": "Sun", "time": "Closed"}], "id": "2367000005", "name": "USPS COLLECTION BOX - BLUE BOX", "address": {"city": "HAMPTON", "state": "VA", "street": "809 ABERDEEN RD", "postcode": "23670"}}},
{"geometry": {"type": "Point", "coordinates": [-76.5292261399, 37.2305161099]}, "type": "Feature", "properties": {"collection_times": [{"days": "Mon-Fri", "time": "3:00pm"}, {"days": "Sat-Sun", "time": "Closed"}], "id": "2369000000", "name": "USPS COLLECTION BOX - BLUE BOX", "address": {"city": "YORKTOWN", "state": "VA", "street": "1 U S COAST GUARD TRN CTR", "postcode": "23690"}}},
{"geometry": {"type": "Point", "coordinates": [-76.5089412812, 37.2361628562]}, "type": "Feature", "properties": {"collection_times": [{"days": "Mon-Fri", "time": "3:00pm"}, {"days": "Sat-Sun", "time": "Closed"}], "id": "2369000001", "name": "USPS COLLECTION BOX - BLUE BOX", "address": {"city": "YORKTOWN", "state": "VA", "street": "126 BALLARD ST", "postcode": "23690"}}},
{"geometry": {"type": "Point", "coordinates": [-76.5089412812, 37.2361628562]}, "type": "Feature", "properties": {"collection_times": [{"days": "Mon-Fri", "time": "3:00pm"}, {"days": "Sat-Sun", "time": "Closed"}], "id": "2369000002", "name": "USPS COLLECTION BOX - PO LOBBY", "address": {"city": "YORKTOWN", "state": "VA", "street": "126 BALLARD ST", "postcode": "23690"}}},
{"geometry": {"type": "Point", "coordinates": [-76.5292261399, 37.2305161099]}, "type": "Feature", "properties": {"collection_times": [{"days": "Mon-Fri", "time": "3:00pm"}, {"days": "Sat-Sun", "time": "Closed"}], "id": "2369000003", "name": "USPS COLLECTION BOX - PO LOBBY", "address": {"city": "YORKTOWN", "state": "VA", "street": "1 U S COAST GUARD TRN CTR", "postcode": "23690"}}},
{"geometry": {"type": "Point", "coordinates": [-76.460057997, 37.1741935641]}, "type": "Feature", "properties": {"collection_times": [{"days": "Mon-Sat", "time": "12:00pm"}, {"days": "Sun", "time": "Closed"}], "id": "2369200001", "name": "USPS COLLECTION BOX - BLUE BOX", "address": {"city": "YORKTOWN", "state": "VA", "street": "2900 HAMPTON HWY STE G", "postcode": "23692"}}},
{"geometry": {"type": "Point", "coordinates": [-76.4153683174, 37.1008995587]}, "type": "Feature", "properties": {"collection_times": [{"days": "Mon-Sat", "time": "12:00pm"}, {"days": "Sun", "time": "Closed"}], "id": "2369200002", "name": "USPS COLLECTION BOX - BLUE BOX", "address": {"city": "YORKTOWN", "state": "VA", "street": "3100 HAMPTON HWY", "postcode": "23692"}}},
{"geometry": {"type": "Point", "coordinates": [-76.4097410936, 37.0983023032]}, "type": "Feature", "properties": {"collection_times": [{"days": "Mon-Sat", "time": "12:00pm"}, {"days": "Sun", "time": "Closed"}], "id": "2369200003", "name": "USPS COLLECTION BOX - BLUE BOX", "address": {"city": "YORKTOWN", "state": "VA", "street": "119 PINEWOOD CRES", "postcode": "23692"}}},
{"geometry": {"type": "Point", "coordinates": [-76.437600775, 37.0994615273]}, "type": "Feature", "properties": {"collection_times": [{"days": "Mon-Sat", "time": "12:00pm"}, {"days": "Sun", "time": "Closed"}], "id": "2369200004", "name": "USPS COLLECTION BOX - BLUE BOX", "address": {"city": "YORKTOWN", "state": "VA", "street": "100 WROUGHT IRON BND", "postcode": "23692"}}},
{"geometry": {"type": "Point", "coordinates": [-76.4695096633, 37.1149169888]}, "type": "Feature", "properties": {"collection_times": [{"days": "Mon-Sat", "time": "12:00pm"}, {"days": "Sun", "time": "Closed"}], "id": "2369200005", "name": "USPS COLLECTION BOX - BLUE BOX", "address": {"city": "YORKTOWN", "state": "VA", "street": "5007 VICTORY BLVD", "postcode": "23692"}}},
{"geometry": {"type": "Point", "coordinates": [-76.4649925677, 37.1643211341]}, "type": "Feature", "properties": {"collection_times": [{"days": "Mon-Fri", "time": "5:00pm"}, {"days": "Sat", "time": "4:00pm"}, {"days": "Sun", "time": "Closed"}], "id": "2369200006", "name": "USPS COLLECTION BOX - BLUE BOX", "address": {"city": "YORKTOWN", "state": "VA", "street": "5702 GEORGE WASHINGTON MEM HWY", "postcode": "23692"}}},
{"geometry": {"type": "Point", "coordinates": [-76.4649925677, 37.1643211341]}, "type": "Feature", "properties": {"collection_times": [{"days": "Mon-Fri", "time": "5:00pm"}, {"days": "Sat", "time": "4:00pm"}, {"days": "Sun", "time": "Closed"}], "id": "2369200007", "name": "USPS COLLECTION BOX - BLUE BOX", "address": {"city": "YORKTOWN", "state": "VA", "street": "5702 GEORGE WASHINGTON MEM HWY", "postcode": "23692"}}},
{"geometry": {"type": "Point", "coordinates": [-76.4622598848, 37.1571774536]}, "type": "Feature", "properties": {"collection_times": [{"days": "Mon-Sat", "time": "12:00pm"}, {"days": "Sun", "time": "Closed"}], "id": "2369200008", "name": "USPS COLLECTION BOX - BLUE BOX", "address": {"city": "YORKTOWN", "state": "VA", "street": "5234 GEORGE WASHINGTON MEM HWY", "postcode": "23692"}}},
{"geometry": {"type": "Point", "coordinates": [-76.4579286989, 37.1451417726]}, "type": "Feature", "properties": {"collection_times": [{"days": "Mon-Sat", "time": "12:00pm"}, {"days": "Sun", "time": "Closed"}], "id": "2369200009", "name": "USPS COLLECTION BOX - BLUE BOX", "address": {"city": "YORKTOWN", "state": "VA", "street": "4324 GEORGE WASHINGTON MEM HWY", "postcode": "23692"}}},
{"geometry": {"type": "Point", "coordinates": [-76.4649925677, 37.1643211341]}, "type": "Feature", "properties": {"collection_times": [{"days": "Mon-Fri", "time": "5:00pm"}, {"days": "Sat", "time": "4:00pm"}, {"days": "Sun", "time": "Closed"}], "id": "2369200010", "name": "USPS COLLECTION BOX - PO LOBBY", "address": {"city": "YORKTOWN", "state": "VA", "street": "5702 GEORGE WASHINGTON MEM HWY", "postcode": "23692"}}},
{"geometry": {"type": "Point", "coordinates": [-76.465732522, 37.1613075789]}, "type": "Feature", "properties": {"collection_times": [{"days": "Mon-Sat", "time": "12:00pm"}, {"days": "Sun", "time": "Closed"}], "id": "2369200011", "name": "USPS COLLECTION BOX - BLUE BOX", "address": {"city": "YORKTOWN", "state": "VA", "street": "113 RUSTLING OAK RDG", "postcode": "23692"}}},
{"geometry": {"type": "Point", "coordinates": [-76.4649925677, 37.1643211341]}, "type": "Feature", "properties": {"collection_times": [{"days": "Mon-Fri", "time": "5:00pm"}, {"days": "Sat", "time": "4:00pm"}, {"days": "Sun", "time": "Closed"}], "id": "2369200013", "name": "USPS COLLECTION BOX - APC", "address": {"city": "YORKTOWN", "state": "VA", "street": "5702 GEORGE WASHINGTON MEM HWY", "postcode": "23692"}}},
{"geometry": {"type": "Point", "coordinates": [-76.5496650989, 37.2318324696]}, "type": "Feature", "properties": {"collection_times": [{"days": "Mon-Fri", "time": "4:45pm"}, {"days": "Sat", "time": "11:30am"}, {"days": "Sun", "time": "Closed"}], "id": "2369400001", "name": "USPS COLLECTION BOX - BLUE BOX", "address": {"city": "LACKEY", "state": "VA", "street": "2028 OLD WILLIAMSBURG RD", "postcode": "23694"}}},
{"geometry": {"type": "Point", "coordinates": [-76.5496650989, 37.2318324696]}, "type": "Feature", "properties": {"collection_times": [{"days": "Mon-Fri", "time": "4:45pm"}, {"days": "Sat", "time": "11:30am"}, {"days": "Sun", "time": "Closed"}], "id": "2369400002", "name": "USPS COLLECTION BOX - PO LOBBY", "address": {"city": "LACKEY", "state": "VA", "street": "2028 OLD WILLIAMSBURG RD", "postcode": "23694"}}},
{"geometry": {"type": "Point", "coordinates": [-76.4311345212, 37.1959020308]}, "type": "Feature", "properties": {"collection_times": [{"days": "Mon-Fri", "time": "4:00pm"}, {"days": "Sat", "time": "11:00am"}, {"days": "Sun", "time": "Closed"}], "id": "2369600001", "name": "USPS COLLECTION BOX - PO LOBBY", "address": {"city": "SEAFORD", "state": "VA", "street": "2300 SEAFORD RD", "postcode": "23696"}}},
{"geometry": {"type": "Point", "coordinates": [-76.4311345212, 37.1959020308]}, "type": "Feature", "properties": {"collection_times": [{"days": "Mon-Fri", "time": "4:00pm"}, {"days": "Sat", "time": "11:00am"}, {"days": "Sun", "time": "Closed"}], "id": "2369600002", "name": "USPS COLLECTION BOX - BLUE BOX", "address": {"city": "SEAFORD", "state": "VA", "street": "2300 SEAFORD RD", "postcode": "23696"}}}
]}
