{"type": "FeatureCollection", "features": [
{"geometry": {"type": "Point", "coordinates": [-76.3649600348, 36.8117144495]}, "type": "Feature", "properties": {"collection_times": [{"days": "Mon-Fri", "time": "5:00pm"}, {"days": "Sat", "time": "2:00pm"}, {"days": "Sun", "time": "Closed"}], "id": "2370100003", "name": "USPS COLLECTION BOX - BLUE BOX", "address": {"city": "PORTSMOUTH", "state": "VA", "street": "201 CHOWAN DR", "postcode": "23701"}}},
{"geometry": {"type": "Point", "coordinates": [-76.3732154844, 36.8221574708]}, "type": "Feature", "properties": {"collection_times": [{"days": "Mon-Fri", "time": "2:00pm"}, {"days": "Sat-Sun", "time": "Closed"}], "id": "2370100009", "name": "USPS COLLECTION BOX - BLUE BOX", "address": {"city": "PORTSMOUTH", "state": "VA", "street": "5102 VICK ST", "postcode": "23701"}}},
{"geometry": {"type": "Point", "coordinates": [-76.3633368162, 36.7928302792]}, "type": "Feature", "properties": {"collection_times": [{"days": "Mon-Fri", "time": "2:00pm"}, {"days": "Sat-Sun", "time": "Closed"}], "id": "2370100028", "name": "USPS COLLECTION BOX - BLUE BOX", "address": {"city": "PORTSMOUTH", "state": "VA", "street": "1601 CAVALIER BLVD", "postcode": "23701"}}},
{"geometry": {"type": "Point", "coordinates": [-76.3649600348, 36.8117144495]}, "type": "Feature", "properties": {"collection_times": [{"days": "Mon-Fri", "time": "5:00pm"}, {"days": "Sat", "time": "2:00pm"}, {"days": "Sun", "time": "Closed"}], "id": "2370100035", "name": "USPS COLLECTION BOX - PO LOBBY", "address": {"city": "PORTSMOUTH", "state": "VA", "street": "201 CHOWAN DR", "postcode": "23701"}}},
{"geometry": {"type": "Point", "coordinates": [-76.3588473847, 36.8105225629]}, "type": "Feature", "properties": {"collection_times": [{"days": "Mon-Fri", "time": "2:00pm"}, {"days": "Sat-Sun", "time": "Closed"}], "id": "2370100038", "name": "USPS COLLECTION BOX - BLUE BOX", "address": {"city": "PORTSMOUTH", "state": "VA", "street": "4000 VICTORY BLVD", "postcode": "23701"}}},
{"geometry": {"type": "Point", "coordinates": [-76.3179692776, 36.8014736048]}, "type": "Feature", "properties": {"collection_times": [{"days": "Mon-Fri", "time": "5:00pm"}, {"days": "Sat", "time": "2:00pm"}, {"days": "Sun", "time": "Closed"}], "id": "2370200001", "name": "USPS COLLECTION BOX - BLUE BOX", "address": {"city": "PORTSMOUTH", "state": "VA", "street": "30 PROSPECT PKWY", "postcode": "23702"}}},
{"geometry": {"type": "Point", "coordinates": [-76.3224136782, 36.8029862976]}, "type": "Feature", "properties": {"collection_times": [{"days": "Mon-Fri", "time": "5:00pm"}, {"days": "Sat", "time": "2:00pm"}, {"days": "Sun", "time": "Closed"}], "id": "2370200009", "name": "USPS COLLECTION BOX - BLUE BOX", "address": {"city": "PORTSMOUTH", "state": "VA", "street": "1 AFTON PKWY", "postcode": "23702"}}},
{"geometry": {"type": "Point", "coordinates": [-76.3187763453, 36.8080341944]}, "type": "Feature", "properties": {"collection_times": [{"days": "Mon-Fri", "time": "2:00pm"}, {"days": "Sat-Sun", "time": "Closed"}], "id": "2370200011", "name": "USPS COLLECTION BOX - BLUE BOX", "address": {"city": "PORTSMOUTH", "state": "VA", "street": "3914 GEORGE WASHINGTON HWY", "postcode": "23702"}}},
{"geometry": {"type": "Point", "coordinates": [-76.4007750426, 36.8684489084]}, "type": "Feature", "properties": {"collection_times": [{"days": "Mon-Fri", "time": "5:00pm"}, {"days": "Sat", "time": "2:00pm"}, {"days": "Sun", "time": "Closed"}], "id": "2370300003", "name": "USPS COLLECTION BOX - BLUE BOX", "address": {"city": "PORTSMOUTH", "state": "VA", "street": "3590 TOWNE POINT RD", "postcode": "23703"}}},
{"geometry": {"type": "Point", "coordinates": [-76.380612315, 36.8463099517]}, "type": "Feature", "properties": {"collection_times": [{"days": "Mon-Fri", "time": "2:00pm"}, {"days": "Sat-Sun", "time": "Closed"}], "id": "2370300009", "name": "USPS COLLECTION BOX - BLUE BOX", "address": {"city": "PORTSMOUTH", "state": "VA", "street": "3011 STERLING POINT DR", "postcode": "23703"}}},
{"geometry": {"type": "Point", "coordinates": [-76.3982288944, 36.8622810396]}, "type": "Feature", "properties": {"collection_times": [{"days": "Mon-Fri", "time": "5:00pm"}, {"days": "Sat-Sun", "time": "Closed"}], "id": "2370300013", "name": "USPS COLLECTION BOX - BLUE BOX", "address": {"city": "PORTSMOUTH", "state": "VA", "street": "3248 ACADEMY AVE", "postcode": "23703"}}},
{"geometry": {"type": "Point", "coordinates": [-76.3985296303, 36.8620235834]}, "type": "Feature", "properties": {"collection_times": [{"days": "Mon-Fri", "time": "5:00pm"}, {"days": "Sat-Sun", "time": "Closed"}], "id": "2370300016", "name": "USPS COLLECTION BOX - BLUE BOX", "address": {"city": "PORTSMOUTH", "state": "VA", "street": "3235 ACADEMY AVE", "postcode": "23703"}}},
{"geometry": {"type": "Point", "coordinates": [-76.396203843, 36.8573745975]}, "type": "Feature", "properties": {"collection_times": [{"days": "Mon-Fri", "time": "2:00pm"}, {"days": "Sat-Sun", "time": "Closed"}], "id": "2370300018", "name": "USPS COLLECTION BOX - BLUE BOX", "address": {"city": "PORTSMOUTH", "state": "VA", "street": "3000 TYRE NECK RD", "postcode": "23703"}}},
{"geometry": {"type": "Point", "coordinates": [-76.3834730584, 36.8550857434]}, "type": "Feature", "properties": {"collection_times": [{"days": "Mon-Fri", "time": "2:00pm"}, {"days": "Sat-Sun", "time": "Closed"}], "id": "2370300019", "name": "USPS COLLECTION BOX - BLUE BOX", "address": {"city": "PORTSMOUTH", "state": "VA", "street": "5214 HIGH ST W", "postcode": "23703"}}},
{"geometry": {"type": "Point", "coordinates": [-76.3996921581, 36.8748031855]}, "type": "Feature", "properties": {"collection_times": [{"days": "Mon-Fri", "time": "2:00pm"}, {"days": "Sat-Sun", "time": "Closed"}], "id": "2370300023", "name": "USPS COLLECTION BOX - BLUE BOX", "address": {"city": "PORTSMOUTH", "state": "VA", "street": "3600 GATEWAY DR", "postcode": "23703"}}},
{"geometry": {"type": "Point", "coordinates": [-76.3711917687, 36.8832172926]}, "type": "Feature", "properties": {"collection_times": [{"days": "Mon-Fri", "time": "2:00pm"}, {"days": "Sat-Sun", "time": "Closed"}], "id": "2370300026", "name": "USPS COLLECTION BOX - BLUE BOX", "address": {"city": "PORTSMOUTH", "state": "VA", "street": "5700 CHURCHLAND BLVD", "postcode": "23703"}}},
{"geometry": {"type": "Point", "coordinates": [-76.4007750426, 36.8684489084]}, "type": "Feature", "properties": {"collection_times": [{"days": "Mon-Fri", "time": "5:00pm"}, {"days": "Sat", "time": "2:00pm"}, {"days": "Sun", "time": "Closed"}], "id": "2370300033", "name": "USPS COLLECTION BOX - PO LOBBY", "address": {"city": "PORTSMOUTH", "state": "VA", "street": "3590 TOWNE POINT RD", "postcode": "23703"}}},
{"geometry": {"type": "Point", "coordinates": [-76.4007750426, 36.8684489084]}, "type": "Feature", "properties": {"collection_times": [{"days": "Mon-Fri", "time": "5:00pm"}, {"days": "Sat", "time": "2:00pm"}, {"days": "Sun", "time": "Closed"}], "id": "2370300034", "name": "USPS COLLECTION BOX - PO LOBBY", "address": {"city": "PORTSMOUTH", "state": "VA", "street": "3590 TOWNE POINT RD", "postcode": "23703"}}},
{"geometry": {"type": "Point", "coordinates": [-76.356557465, 36.8636474453]}, "type": "Feature", "properties": {"collection_times": [{"days": "Mon-Fri", "time": "2:00pm"}, {"days": "Sat-Sun", "time": "Closed"}], "id": "2370300035", "name": "USPS COLLECTION BOX - BLUE BOX", "address": {"city": "PORTSMOUTH", "state": "VA", "street": "1 RIVER POINTE DR", "postcode": "23703"}}},
{"geometry": {"type": "Point", "coordinates": [-76.3850458221, 36.8679315064]}, "type": "Feature", "properties": {"collection_times": [{"days": "Mon-Fri", "time": "5:00pm"}, {"days": "Sat-Sun", "time": "Closed"}], "id": "2370300038", "name": "USPS COLLECTION BOX - EXPRESS", "address": {"city": "PORTSMOUTH", "state": "VA", "street": "3590 TOWNE POINT RD", "postcode": "23703"}}},
{"geometry": {"type": "Point", "coordinates": [-76.2977843162, 36.8364255972]}, "type": "Feature", "properties": {"collection_times": [{"days": "Mon-Fri", "time": "5:00pm"}, {"days": "Sat", "time": "2:00pm"}, {"days": "Sun", "time": "Closed"}], "id": "2370400001", "name": "USPS COLLECTION BOX - BLUE BOX", "address": {"city": "PORTSMOUTH", "state": "VA", "street": "431 CRAWFORD ST", "postcode": "23704"}}},
{"geometry": {"type": "Point", "coordinates": [-76.2977843162, 36.8364255972]}, "type": "Feature", "properties": {"collection_times": [{"days": "Mon-Fri", "time": "5:00pm"}, {"days": "Sat", "time": "2:00pm"}, {"days": "Sun", "time": "Closed"}], "id": "2370400002", "name": "USPS COLLECTION BOX - BLUE BOX", "address": {"city": "PORTSMOUTH", "state": "VA", "street": "431 CRAWFORD ST", "postcode": "23704"}}},
{"geometry": {"type": "Point", "coordinates": [-76.2978459432, 36.8361926675]}, "type": "Feature", "properties": {"collection_times": [{"days": "Mon-Fri", "time": "5:00pm"}, {"days": "Sat", "time": "2:00pm"}, {"days": "Sun", "time": "Closed"}], "id": "2370400003", "name": "USPS COLLECTION BOX - BLUE BOX", "address": {"city": "PORTSMOUTH", "state": "VA", "street": "431 CRAWFORD ST", "postcode": "23704"}}},
{"geometry": {"type": "Point", "coordinates": [-76.2977843162, 36.8364255972]}, "type": "Feature", "properties": {"collection_times": [{"days": "Mon-Fri", "time": "5:00pm"}, {"days": "Sat-Sun", "time": "Closed"}], "id": "2370400006", "name": "USPS COLLECTION BOX - PO LOBBY", "address": {"city": "PORTSMOUTH", "state": "VA", "street": "431 CRAWFORD ST", "postcode": "23704"}}},
{"geometry": {"type": "Point", "coordinates": [-76.3108271914, 36.838355623]}, "type": "Feature", "properties": {"collection_times": [{"days": "Mon-Fri", "time": "2:00pm"}, {"days": "Sat-Sun", "time": "Closed"}], "id": "2370400009", "name": "USPS COLLECTION BOX - BLUE BOX", "address": {"city": "PORTSMOUTH", "state": "VA", "street": "300 GOODE WAY", "postcode": "23704"}}},
{"geometry": {"type": "Point", "coordinates": [-76.303812689, 36.8351489109]}, "type": "Feature", "properties": {"collection_times": [{"days": "Mon-Fri", "time": "5:00pm"}, {"days": "Sat-Sun", "time": "Closed"}], "id": "2370400012", "name": "USPS COLLECTION BOX - BLUE BOX", "address": {"city": "PORTSMOUTH", "state": "VA", "street": "505 WASHINGTON ST", "postcode": "23704"}}},
{"geometry": {"type": "Point", "coordinates": [-76.3008428442, 36.8360490105]}, "type": "Feature", "properties": {"collection_times": [{"days": "Mon-Fri", "time": "5:00pm"}, {"days": "Sat-Sun", "time": "Closed"}], "id": "2370400014", "name": "USPS COLLECTION BOX - BLUE BOX", "address": {"city": "PORTSMOUTH", "state": "VA", "street": "451 COURT ST", "postcode": "23704"}}},
{"geometry": {"type": "Point", "coordinates": [-76.3171152704, 36.8283110558]}, "type": "Feature", "properties": {"collection_times": [{"days": "Mon-Fri", "time": "2:00pm"}, {"days": "Sat-Sun", "time": "Closed"}], "id": "2370400042", "name": "USPS COLLECTION BOX - BLUE BOX", "address": {"city": "PORTSMOUTH", "state": "VA", "street": "1 NORFOLK NAVAL SHIPYARD", "postcode": "23704"}}},
{"geometry": {"type": "Point", "coordinates": [-76.3184305818, 36.8185817594]}, "type": "Feature", "properties": {"collection_times": [{"days": "Mon-Fri", "time": "2:00pm"}, {"days": "Sat-Sun", "time": "Closed"}], "id": "2370400050", "name": "USPS COLLECTION BOX - BLUE BOX", "address": {"city": "PORTSMOUTH", "state": "VA", "street": "1628 PORTSMOUTH BLVD", "postcode": "23704"}}},
{"geometry": {"type": "Point", "coordinates": [-76.2992987033, 36.8330779578]}, "type": "Feature", "properties": {"collection_times": [{"days": "Mon-Fri", "time": "2:00pm"}, {"days": "Sat-Sun", "time": "Closed"}], "id": "2370400058", "name": "USPS COLLECTION BOX - BLUE BOX", "address": {"city": "PORTSMOUTH", "state": "VA", "street": "300 COLUMBIA ST", "postcode": "23704"}}},
{"geometry": {"type": "Point", "coordinates": [-76.2967468575, 36.8332147631]}, "type": "Feature", "properties": {"collection_times": [{"days": "Mon-Fri", "time": "5:00pm"}, {"days": "Sat-Sun", "time": "Closed"}], "id": "2370400059", "name": "USPS COLLECTION BOX - BLUE BOX", "address": {"city": "PORTSMOUTH", "state": "VA", "street": "801 WATER ST", "postcode": "23704"}}},
{"geometry": {"type": "Point", "coordinates": [-76.3054834465, 36.8384093254]}, "type": "Feature", "properties": {"collection_times": [{"days": "Mon-Fri", "time": "2:00pm"}, {"days": "Sat-Sun", "time": "Closed"}], "id": "2370400070", "name": "USPS COLLECTION BOX - BLUE BOX", "address": {"city": "PORTSMOUTH", "state": "VA", "street": "303 GREEN ST", "postcode": "23704"}}},
{"geometry": {"type": "Point", "coordinates": [-76.2985125909, 36.8353545883]}, "type": "Feature", "properties": {"collection_times": [{"days": "Mon-Fri", "time": "5:00pm"}, {"days": "Sat-Sun", "time": "Closed"}], "id": "2370400077", "name": "USPS COLLECTION BOX - BLUE BOX", "address": {"city": "PORTSMOUTH", "state": "VA", "street": "215 HIGH ST", "postcode": "23704"}}},
{"geometry": {"type": "Point", "coordinates": [-76.2977133323, 36.8348713172]}, "type": "Feature", "properties": {"collection_times": [{"days": "Mon-Fri", "time": "5:00pm"}, {"days": "Sat-Sun", "time": "Closed"}], "id": "2370400078", "name": "USPS COLLECTION BOX - BLUE BOX", "address": {"city": "PORTSMOUTH", "state": "VA", "street": "601 CRAWFORD ST", "postcode": "23704"}}},
{"geometry": {"type": "Point", "coordinates": [-76.2992953676, 36.8261454823]}, "type": "Feature", "properties": {"collection_times": [{"days": "Mon-Fri", "time": "5:00pm"}, {"days": "Sat-Sun", "time": "Closed"}], "id": "2370400080", "name": "USPS COLLECTION BOX - BLUE BOX", "address": {"city": "PORTSMOUTH", "state": "VA", "street": "601 PORT CENTRE PKWY", "postcode": "23704"}}},
{"geometry": {"type": "Point", "coordinates": [-76.2977843162, 36.8364255972]}, "type": "Feature", "properties": {"collection_times": [{"days": "Mon-Fri", "time": "5:00pm"}, {"days": "Sat-Sun", "time": "Closed"}], "id": "2370400082", "name": "USPS COLLECTION BOX - PO LOBBY", "address": {"city": "PORTSMOUTH", "state": "VA", "street": "431 CRAWFORD ST", "postcode": "23704"}}},
{"geometry": {"type": "Point", "coordinates": [-76.3199289916, 36.8348356557]}, "type": "Feature", "properties": {"collection_times": [{"days": "Mon-Fri", "time": "5:00pm"}, {"days": "Sat-Sun", "time": "Closed"}], "id": "2370400083", "name": "USPS COLLECTION BOX - BLUE BOX", "address": {"city": "PORTSMOUTH", "state": "VA", "street": "1701 HIGH ST", "postcode": "23704"}}},
{"geometry": {"type": "Point", "coordinates": [-76.2998815335, 36.827137713]}, "type": "Feature", "properties": {"collection_times": [{"days": "Mon-Fri", "time": "5:00pm"}, {"days": "Sat-Sun", "time": "Closed"}], "id": "2370400087", "name": "USPS COLLECTION BOX - BLUE BOX", "address": {"city": "PORTSMOUTH", "state": "VA", "street": "1345 COURT ST", "postcode": "23704"}}},
{"geometry": {"type": "Point", "coordinates": [-76.2998815335, 36.827137713]}, "type": "Feature", "properties": {"collection_times": [{"days": "Mon-Fri", "time": "5:00pm"}, {"days": "Sat-Sun", "time": "Closed"}], "id": "2370400088", "name": "USPS COLLECTION BOX - BLUE BOX", "address": {"city": "PORTSMOUTH", "state": "VA", "street": "1345 COURT ST", "postcode": "23704"}}},
{"geometry": {"type": "Point", "coordinates": [-76.3344855145, 36.8389641288]}, "type": "Feature", "properties": {"collection_times": [{"days": "Mon-Fri", "time": "5:00pm"}, {"days": "Sat", "time": "2:00pm"}, {"days": "Sun", "time": "Closed"}], "id": "2370700001", "name": "USPS COLLECTION BOX - BLUE BOX", "address": {"city": "PORTSMOUTH", "state": "VA", "street": "933 BROAD ST", "postcode": "23707"}}},
{"geometry": {"type": "Point", "coordinates": [-76.3344855145, 36.8389641288]}, "type": "Feature", "properties": {"collection_times": [{"days": "Mon-Fri", "time": "5:00pm"}, {"days": "Sat", "time": "2:00pm"}, {"days": "Sun", "time": "Closed"}], "id": "2370700002", "name": "USPS COLLECTION BOX - BLUE BOX", "address": {"city": "PORTSMOUTH", "state": "VA", "street": "933 BROAD ST", "postcode": "23707"}}},
{"geometry": {"type": "Point", "coordinates": [-76.3342905995, 36.8384432874]}, "type": "Feature", "properties": {"collection_times": [{"days": "Mon-Fri", "time": "5:00pm"}, {"days": "Sat", "time": "2:00pm"}, {"days": "Sun", "time": "Closed"}], "id": "2370700003", "name": "USPS COLLECTION BOX - BLUE BOX", "address": {"city": "PORTSMOUTH", "state": "VA", "street": "933 BROAD ST", "postcode": "23707"}}},
{"geometry": {"type": "Point", "coordinates": [-76.3558716435, 36.8248523354]}, "type": "Feature", "properties": {"collection_times": [{"days": "Mon-Fri", "time": "2:00pm"}, {"days": "Sat-Sun", "time": "Closed"}], "id": "2370700024", "name": "USPS COLLECTION BOX - BLUE BOX", "address": {"city": "PORTSMOUTH", "state": "VA", "street": "4300 WINCHESTER DR", "postcode": "23707"}}},
{"geometry": {"type": "Point", "coordinates": [-76.3476387837, 36.8334045673]}, "type": "Feature", "properties": {"collection_times": [{"days": "Mon-Fri", "time": "2:00pm"}, {"days": "Sat-Sun", "time": "Closed"}], "id": "2370700031", "name": "USPS COLLECTION BOX - BLUE BOX", "address": {"city": "PORTSMOUTH", "state": "VA", "street": "600 RODMAN AVE", "postcode": "23707"}}},
{"geometry": {"type": "Point", "coordinates": [-76.3326831051, 36.8345699189]}, "type": "Feature", "properties": {"collection_times": [{"days": "Mon-Fri", "time": "2:00pm"}, {"days": "Sat-Sun", "time": "Closed"}], "id": "2370700033", "name": "USPS COLLECTION BOX - BLUE BOX", "address": {"city": "PORTSMOUTH", "state": "VA", "street": "2400 CUTHERELL ST", "postcode": "23707"}}},
{"geometry": {"type": "Point", "coordinates": [-76.3344855145, 36.8389641288]}, "type": "Feature", "properties": {"collection_times": [{"days": "Mon-Fri", "time": "5:00pm"}, {"days": "Sat", "time": "2:00pm"}, {"days": "Sun", "time": "Closed"}], "id": "2370700045", "name": "USPS COLLECTION BOX - PO LOBBY", "address": {"city": "PORTSMOUTH", "state": "VA", "street": "933 BROAD ST", "postcode": "23707"}}},
{"geometry": {"type": "Point", "coordinates": [-76.3344855145, 36.8389641288]}, "type": "Feature", "properties": {"collection_times": [{"days": "Mon-Fri", "time": "5:00pm"}, {"days": "Sat", "time": "2:00pm"}, {"days": "Sun", "time": "Closed"}], "id": "2370700046", "name": "USPS COLLECTION BOX - PO LOBBY", "address": {"city": "PORTSMOUTH", "state": "VA", "street": "933 BROAD ST", "postcode": "23707"}}},
{"geometry": {"type": "Point", "coordinates": [-76.346719963, 36.8509375589]}, "type": "Feature", "properties": {"collection_times": [{"days": "Mon-Fri", "time": "2:00pm"}, {"days": "Sat-Sun", "time": "Closed"}], "id": "2370700049", "name": "USPS COLLECTION BOX - BLUE BOX", "address": {"city": "PORTSMOUTH", "state": "VA", "street": "110 WILLIAMSON RD", "postcode": "23707"}}},
{"geometry": {"type": "Point", "coordinates": [-76.295388626, 36.8145294412]}, "type": "Feature", "properties": {"collection_times": [{"days": "Mon-Fri", "time": "2:45pm"}, {"days": "Sat-Sun", "time": "Closed"}], "id": "2370900002", "name": "USPS COLLECTION BOX - BLUE BOX", "address": {"city": "PORTSMOUTH", "state": "VA", "street": "1 NORFOLK NAVAL SHIPYARD", "postcode": "23709"}}},
{"geometry": {"type": "Point", "coordinates": [-76.295388626, 36.8145294412]}, "type": "Feature", "properties": {"collection_times": [{"days": "Mon-Fri", "time": "2:00pm"}, {"days": "Sat-Sun", "time": "Closed"}], "id": "2370900003", "name": "USPS COLLECTION BOX - BLUE BOX", "address": {"city": "PORTSMOUTH", "state": "VA", "street": "1 NORFOLK NAVAL SHIPYARD", "postcode": "23709"}}},
{"geometry": {"type": "Point", "coordinates": [-76.295388626, 36.8145294412]}, "type": "Feature", "properties": {"collection_times": [{"days": "Mon-Fri", "time": "2:00pm"}, {"days": "Sat-Sun", "time": "Closed"}], "id": "2370900004", "name": "USPS COLLECTION BOX - BLUE BOX", "address": {"city": "PORTSMOUTH", "state": "VA", "street": "1 NORFOLK NAVAL SHIPYARD", "postcode": "23709"}}}
]}
