{"type": "FeatureCollection", "features": [
{"geometry": {"type": "Point", "coordinates": [-77.3387961859, 37.2380884726]}, "type": "Feature", "properties": {"collection_times": [{"days": "Mon-Fri", "time": "3:00pm"}, {"days": "Sat", "time": "1:00pm"}, {"days": "Sun", "time": "Closed"}], "id": "2380100009", "name": "USPS COLLECTION BOX - BLUE BOX", "address": {"city": "PETERSBURG", "state": "VA", "street": "1401 MAHONE AVE", "postcode": "23801"}}},
{"geometry": {"type": "Point", "coordinates": [-77.3387961859, 37.2380884726]}, "type": "Feature", "properties": {"collection_times": [{"days": "Mon-Sat", "time": "3:00pm"}, {"days": "Sun", "time": "Closed"}], "id": "2380100010", "name": "USPS COLLECTION BOX - BLUE BOX", "address": {"city": "PETERSBURG", "state": "VA", "street": "1401 MAHONE AVE", "postcode": "23801"}}},
{"geometry": {"type": "Point", "coordinates": [-77.3481327738, 37.2246960411]}, "type": "Feature", "properties": {"collection_times": [{"days": "Mon-Sat", "time": "3:00pm"}, {"days": "Sun", "time": "Closed"}], "id": "2380100014", "name": "USPS COLLECTION BOX - BLUE BOX", "address": {"city": "PETERSBURG", "state": "VA", "street": "2401 QUARTERS RD", "postcode": "23801"}}},
{"geometry": {"type": "Point", "coordinates": [-77.3359356338, 37.2214350635]}, "type": "Feature", "properties": {"collection_times": [{"days": "Mon-Sat", "time": "3:00pm"}, {"days": "Sun", "time": "Closed"}], "id": "2380100015", "name": "USPS COLLECTION BOX - BLUE BOX", "address": {"city": "PETERSBURG", "state": "VA", "street": "1300 E AVE", "postcode": "23801"}}},
{"geometry": {"type": "Point", "coordinates": [-77.3337834743, 37.2457432563]}, "type": "Feature", "properties": {"collection_times": [{"days": "Mon-Sat", "time": "3:00pm"}, {"days": "Sun", "time": "Closed"}], "id": "2380100016", "name": "USPS COLLECTION BOX - BLUE BOX", "address": {"city": "PETERSBURG", "state": "VA", "street": "821 11TH ST", "postcode": "23801"}}},
{"geometry": {"type": "Point", "coordinates": [-77.3356589964, 37.2347805985]}, "type": "Feature", "properties": {"collection_times": [{"days": "Mon-Sat", "time": "3:00pm"}, {"days": "Sun", "time": "Closed"}], "id": "2380100017", "name": "USPS COLLECTION BOX - BLUE BOX", "address": {"city": "PETERSBURG", "state": "VA", "street": "222 EDGEWOOD RD", "postcode": "23801"}}},
{"geometry": {"type": "Point", "coordinates": [-77.4060827957, 37.2299726865]}, "type": "Feature", "properties": {"collection_times": [{"days": "Mon-Sat", "time": "3:00pm"}, {"days": "Sun", "time": "Closed"}], "id": "2380300001", "name": "USPS COLLECTION BOX - BLUE BOX", "address": {"city": "S CHESTERFLD", "state": "VA", "street": "135 W TABB ST", "postcode": "23803"}}},
{"geometry": {"type": "Point", "coordinates": [-77.4060827957, 37.2299726865]}, "type": "Feature", "properties": {"collection_times": [{"days": "Mon-Sat", "time": "3:00pm"}, {"days": "Sun", "time": "Closed"}], "id": "2380300002", "name": "USPS COLLECTION BOX - BLUE BOX", "address": {"city": "S CHESTERFLD", "state": "VA", "street": "135 W TABB ST", "postcode": "23803"}}},
{"geometry": {"type": "Point", "coordinates": [-77.4044555608, 37.2306393954]}, "type": "Feature", "properties": {"collection_times": [{"days": "Mon-Sat", "time": "3:00pm"}, {"days": "Sun", "time": "Closed"}], "id": "2380300003", "name": "USPS COLLECTION BOX - BLUE BOX", "address": {"city": "S CHESTERFLD", "state": "VA", "street": "212 N SYCAMORE ST", "postcode": "23803"}}},
{"geometry": {"type": "Point", "coordinates": [-77.4205671708, 37.2232070708]}, "type": "Feature", "properties": {"collection_times": [{"days": "Mon-Sat", "time": "3:00pm"}, {"days": "Sun", "time": "Closed"}], "id": "2380300004", "name": "USPS COLLECTION BOX - BLUE BOX", "address": {"city": "S CHESTERFLD", "state": "VA", "street": "21 S WEST ST", "postcode": "23803"}}},
{"geometry": {"type": "Point", "coordinates": [-77.4583677919, 37.2138562761]}, "type": "Feature", "properties": {"collection_times": [{"days": "Mon-Sat", "time": "3:00pm"}, {"days": "Sun", "time": "Closed"}], "id": "2380300008", "name": "USPS COLLECTION BOX - BLUE BOX", "address": {"city": "S CHESTERFLD", "state": "VA", "street": "4320 WESTGATE RD", "postcode": "23803"}}},
{"geometry": {"type": "Point", "coordinates": [-77.4403413668, 37.2179647729]}, "type": "Feature", "properties": {"collection_times": [{"days": "Mon-Sat", "time": "3:00pm"}, {"days": "Sun", "time": "Closed"}], "id": "2380300009", "name": "USPS COLLECTION BOX - BLUE BOX", "address": {"city": "S CHESTERFLD", "state": "VA", "street": "2200 W WASHINGTON ST", "postcode": "23803"}}},
{"geometry": {"type": "Point", "coordinates": [-77.4004518889, 37.2199993705]}, "type": "Feature", "properties": {"collection_times": [{"days": "Mon-Sat", "time": "3:00pm"}, {"days": "Sun", "time": "Closed"}], "id": "2380300014", "name": "USPS COLLECTION BOX - BLUE BOX", "address": {"city": "S CHESTERFLD", "state": "VA", "street": "518 S SYCAMORE ST", "postcode": "23803"}}},
{"geometry": {"type": "Point", "coordinates": [-77.3995596019, 37.2176240419]}, "type": "Feature", "properties": {"collection_times": [{"days": "Mon-Sat", "time": "3:00pm"}, {"days": "Sun", "time": "Closed"}], "id": "2380300015", "name": "USPS COLLECTION BOX - BLUE BOX", "address": {"city": "S CHESTERFLD", "state": "VA", "street": "700 S SYCAMORE ST", "postcode": "23803"}}},
{"geometry": {"type": "Point", "coordinates": [-77.4824942859, 37.2134233582]}, "type": "Feature", "properties": {"collection_times": [{"days": "Mon-Sat", "time": "3:00pm"}, {"days": "Sun", "time": "Closed"}], "id": "2380300021", "name": "USPS COLLECTION BOX - BLUE BOX", "address": {"city": "S CHESTERFLD", "state": "VA", "street": "20400 CHESTERFIELD AVE", "postcode": "23803"}}},
{"geometry": {"type": "Point", "coordinates": [-77.4012476501, 37.2266312817]}, "type": "Feature", "properties": {"collection_times": [{"days": "Mon-Sat", "time": "3:00pm"}, {"days": "Sun", "time": "Closed"}], "id": "2380300026", "name": "USPS COLLECTION BOX - BLUE BOX", "address": {"city": "S CHESTERFLD", "state": "VA", "street": "103 S ADAMS ST", "postcode": "23803"}}},
{"geometry": {"type": "Point", "coordinates": [-77.4025828969, 37.2287301769]}, "type": "Feature", "properties": {"collection_times": [{"days": "Mon-Fri", "time": "5:00pm"}, {"days": "Sat", "time": "3:00pm"}, {"days": "Sun", "time": "Closed"}], "id": "2380300035", "name": "USPS COLLECTION BOX - BLUE BOX", "address": {"city": "S CHESTERFLD", "state": "VA", "street": "29 FRANKLIN ST", "postcode": "23803"}}},
{"geometry": {"type": "Point", "coordinates": [-77.4334295353, 37.2405105023]}, "type": "Feature", "properties": {"collection_times": [{"days": "Mon-Sat", "time": "2:00pm"}, {"days": "Sun", "time": "Closed"}], "id": "2380300044", "name": "USPS COLLECTION BOX - BLUE BOX", "address": {"city": "S CHESTERFLD", "state": "VA", "street": "20833 WOODPECKER RD", "postcode": "23803"}}},
{"geometry": {"type": "Point", "coordinates": [-77.4022349992, 37.2288060344]}, "type": "Feature", "properties": {"collection_times": [{"days": "Mon-Fri", "time": "5:00pm"}, {"days": "Sat", "time": "3:00pm"}, {"days": "Sun", "time": "Closed"}], "id": "2380300046", "name": "USPS COLLECTION BOX - PO LOBBY", "address": {"city": "S CHESTERFLD", "state": "VA", "street": "29 FRANKLIN ST", "postcode": "23803"}}},
{"geometry": {"type": "Point", "coordinates": [-77.3672046216, 37.18369716]}, "type": "Feature", "properties": {"collection_times": [{"days": "Mon-Sat", "time": "2:00pm"}, {"days": "Sun", "time": "Closed"}], "id": "2380500002", "name": "USPS COLLECTION BOX - BLUE BOX", "address": {"city": "PETERSBURG", "state": "VA", "street": "3330 S CRATER RD", "postcode": "23805"}}},
{"geometry": {"type": "Point", "coordinates": [-77.3710046484, 37.1894432071]}, "type": "Feature", "properties": {"collection_times": [{"days": "Mon-Fri", "time": "5:00pm"}, {"days": "Sat", "time": "4:00pm"}, {"days": "Sun", "time": "Closed"}], "id": "2380500005", "name": "USPS COLLECTION BOX - BLUE BOX", "address": {"city": "PETERSBURG", "state": "VA", "street": "3131 S CRATER RD", "postcode": "23805"}}},
{"geometry": {"type": "Point", "coordinates": [-77.3841509997, 37.2034139715]}, "type": "Feature", "properties": {"collection_times": [{"days": "Mon-Sat", "time": "3:00pm"}, {"days": "Sun", "time": "Closed"}], "id": "2380500014", "name": "USPS COLLECTION BOX - BLUE BOX", "address": {"city": "PETERSBURG", "state": "VA", "street": "1951 S SYCAMORE ST", "postcode": "23805"}}},
{"geometry": {"type": "Point", "coordinates": [-77.3710046484, 37.1894432071]}, "type": "Feature", "properties": {"collection_times": [{"days": "Mon-Fri", "time": "5:00pm"}, {"days": "Sat", "time": "4:00pm"}, {"days": "Sun", "time": "Closed"}], "id": "2380500018", "name": "USPS COLLECTION BOX - PO LOBBY", "address": {"city": "PETERSBURG", "state": "VA", "street": "3131 S CRATER RD", "postcode": "23805"}}},
{"geometry": {"type": "Point", "coordinates": [-77.4175558861, 37.2383069869]}, "type": "Feature", "properties": {"collection_times": [{"days": "Mon-Sat", "time": "2:00pm"}, {"days": "Sun", "time": "Closed"}], "id": "2380600000", "name": "USPS COLLECTION BOX - BLUE BOX", "address": {"city": "PETERSBURG", "state": "VA", "street": "30 UNIVERSITY AVE", "postcode": "23806"}}},
{"geometry": {"type": "Point", "coordinates": [-77.8865206901, 36.8635966501]}, "type": "Feature", "properties": {"collection_times": [{"days": "Mon-Fri", "time": "4:00pm"}, {"days": "Sat", "time": "11:45am"}, {"days": "Sun", "time": "Closed"}], "id": "2382100001", "name": "USPS COLLECTION BOX - BLUE BOX", "address": {"city": "ALBERTA", "state": "VA", "street": "642 MAIN ST", "postcode": "23821"}}},
{"geometry": {"type": "Point", "coordinates": [-77.8865206901, 36.8635966501]}, "type": "Feature", "properties": {"collection_times": [{"days": "Mon-Fri", "time": "4:30pm"}, {"days": "Sat", "time": "12:00pm"}, {"days": "Sun", "time": "Closed"}], "id": "2382100002", "name": "USPS COLLECTION BOX - PO LOBBY", "address": {"city": "ALBERTA", "state": "VA", "street": "642 MAIN ST", "postcode": "23821"}}},
{"geometry": {"type": "Point", "coordinates": [-77.9989777108, 37.0777633422]}, "type": "Feature", "properties": {"collection_times": [{"days": "Mon-Fri", "time": "5:00pm"}, {"days": "Sat", "time": "12:00pm"}, {"days": "Sun", "time": "Closed"}], "id": "2382400004", "name": "USPS COLLECTION BOX - BLUE BOX", "address": {"city": "BLACKSTONE", "state": "VA", "street": "400 S MAIN ST", "postcode": "23824"}}},
{"geometry": {"type": "Point", "coordinates": [-77.9989777108, 37.0777633422]}, "type": "Feature", "properties": {"collection_times": [{"days": "Mon-Fri", "time": "5:00pm"}, {"days": "Sat", "time": "12:00pm"}, {"days": "Sun", "time": "Closed"}], "id": "2382400008", "name": "USPS COLLECTION BOX - PO LOBBY", "address": {"city": "BLACKSTONE", "state": "VA", "street": "400 S MAIN ST", "postcode": "23824"}}},
{"geometry": {"type": "Point", "coordinates": [-77.9878097259, 37.0916601846]}, "type": "Feature", "properties": {"collection_times": [{"days": "Mon-Sat", "time": "9:30am"}, {"days": "Sun", "time": "Closed"}], "id": "2382400009", "name": "USPS COLLECTION BOX - BLUE BOX", "address": {"city": "BLACKSTONE", "state": "VA", "street": "1718 KEMPER AVE", "postcode": "23824"}}},
{"geometry": {"type": "Point", "coordinates": [-77.200604518, 36.58497854]}, "type": "Feature", "properties": {"collection_times": [{"days": "Mon-Fri", "time": "4:30pm"}, {"days": "Sat", "time": "10:45am"}, {"days": "Sun", "time": "Closed"}], "id": "2382700004", "name": "USPS COLLECTION BOX - PO LOBBY", "address": {"city": "BOYKINS", "state": "VA", "street": "32129 N MAIN ST", "postcode": "23827"}}},
{"geometry": {"type": "Point", "coordinates": [-77.2484390145, 36.5698979475]}, "type": "Feature", "properties": {"collection_times": [{"days": "Mon-Fri", "time": "4:30pm"}, {"days": "Sat", "time": "11:30am"}, {"days": "Sun", "time": "Closed"}], "id": "2382800001", "name": "USPS COLLECTION BOX - BLUE BOX", "address": {"city": "BRANCHVILLE", "state": "VA", "street": "33143 WOODARD ST", "postcode": "23828"}}},
{"geometry": {"type": "Point", "coordinates": [-77.2484390145, 36.5698979475]}, "type": "Feature", "properties": {"collection_times": [{"days": "Mon-Fri", "time": "4:30pm"}, {"days": "Sat", "time": "11:30am"}, {"days": "Sun", "time": "Closed"}], "id": "2382800002", "name": "USPS COLLECTION BOX - PO LOBBY", "address": {"city": "BRANCHVILLE", "state": "VA", "street": "33143 WOODARD ST", "postcode": "23828"}}},
{"geometry": {"type": "Point", "coordinates": [-77.2007810601, 36.7093189645]}, "type": "Feature", "properties": {"collection_times": [{"days": "Mon-Fri", "time": "4:15pm"}, {"days": "Sat", "time": "11:15am"}, {"days": "Sun", "time": "Closed"}], "id": "2382900001", "name": "USPS COLLECTION BOX - BLUE BOX", "address": {"city": "CAPRON", "state": "VA", "street": "23021 MAIN ST", "postcode": "23829"}}},
{"geometry": {"type": "Point", "coordinates": [-77.2007810601, 36.7093189645]}, "type": "Feature", "properties": {"collection_times": [{"days": "Mon-Fri", "time": "4:15pm"}, {"days": "Sat", "time": "11:15am"}, {"days": "Sun", "time": "Closed"}], "id": "2382900002", "name": "USPS COLLECTION BOX - PO LOBBY", "address": {"city": "CAPRON", "state": "VA", "street": "23021 MAIN ST", "postcode": "23829"}}},
{"geometry": {"type": "Point", "coordinates": [-77.3952685036, 37.0359365271]}, "type": "Feature", "properties": {"collection_times": [{"days": "Mon-Fri", "time": "4:15pm"}, {"days": "Sat", "time": "11:15am"}, {"days": "Sun", "time": "Closed"}], "id": "2383000001", "name": "USPS COLLECTION BOX - BLUE BOX", "address": {"city": "CARSON", "state": "VA", "street": "17206 HALLIGAN PARK RD", "postcode": "23830"}}},
{"geometry": {"type": "Point", "coordinates": [-77.3952685036, 37.0359365271]}, "type": "Feature", "properties": {"collection_times": [{"days": "Mon-Fri", "time": "4:15pm"}, {"days": "Sat", "time": "11:15am"}, {"days": "Sun", "time": "Closed"}], "id": "2383000002", "name": "USPS COLLECTION BOX - PO LOBBY", "address": {"city": "CARSON", "state": "VA", "street": "17206 HALLIGAN PARK RD", "postcode": "23830"}}},
{"geometry": {"type": "Point", "coordinates": [-77.3952685036, 37.0359365271]}, "type": "Feature", "properties": {"collection_times": [{"days": "Mon-Fri", "time": "4:15pm"}, {"days": "Sat", "time": "11:15am"}, {"days": "Sun", "time": "Closed"}], "id": "2383000003", "name": "USPS COLLECTION BOX - PO LOBBY", "address": {"city": "CARSON", "state": "VA", "street": "17206 HALLIGAN PARK RD", "postcode": "23830"}}},
{"geometry": {"type": "Point", "coordinates": [-77.4184944723, 37.3567973198]}, "type": "Feature", "properties": {"collection_times": [{"days": "Mon-Fri", "time": "5:00pm"}, {"days": "Sat", "time": "3:00pm"}, {"days": "Sun", "time": "Closed"}], "id": "2383100000", "name": "USPS COLLECTION BOX - BLUE BOX", "address": {"city": "CHESTER", "state": "VA", "street": "12300 ROCK HILL RD", "postcode": "23831"}}},
{"geometry": {"type": "Point", "coordinates": [-77.4184944723, 37.3567973198]}, "type": "Feature", "properties": {"collection_times": [{"days": "Mon-Fri", "time": "5:00pm"}, {"days": "Sat", "time": "3:00pm"}, {"days": "Sun", "time": "Closed"}], "id": "2383100001", "name": "USPS COLLECTION BOX - BLUE BOX", "address": {"city": "CHESTER", "state": "VA", "street": "12300 ROCK HILL RD", "postcode": "23831"}}},
{"geometry": {"type": "Point", "coordinates": [-77.4184944723, 37.3567973198]}, "type": "Feature", "properties": {"collection_times": [{"days": "Mon-Fri", "time": "5:00pm"}, {"days": "Sat", "time": "3:00pm"}, {"days": "Sun", "time": "Closed"}], "id": "2383100002", "name": "USPS COLLECTION BOX - BLUE BOX", "address": {"city": "CHESTER", "state": "VA", "street": "12300 ROCK HILL RD", "postcode": "23831"}}},
{"geometry": {"type": "Point", "coordinates": [-77.4520744103, 37.3848846583]}, "type": "Feature", "properties": {"collection_times": [{"days": "Mon-Sat", "time": "10:00am"}, {"days": "Sun", "time": "Closed"}], "id": "2383100006", "name": "USPS COLLECTION BOX - BLUE BOX", "address": {"city": "CHESTER", "state": "VA", "street": "9819 CHESTER RD", "postcode": "23831"}}},
{"geometry": {"type": "Point", "coordinates": [-77.4121201836, 37.3520645044]}, "type": "Feature", "properties": {"collection_times": [{"days": "Mon-Sat", "time": "9:00am"}, {"days": "Sun", "time": "Closed"}], "id": "2383100010", "name": "USPS COLLECTION BOX - BLUE BOX", "address": {"city": "CHESTER", "state": "VA", "street": "12619 JEFFERSON DAVIS HWY", "postcode": "23831"}}},
{"geometry": {"type": "Point", "coordinates": [-77.4958959975, 37.3556301356]}, "type": "Feature", "properties": {"collection_times": [{"days": "Mon-Sat", "time": "11:00am"}, {"days": "Sun", "time": "Closed"}], "id": "2383100017", "name": "USPS COLLECTION BOX - BLUE BOX", "address": {"city": "CHESTER", "state": "VA", "street": "11601 IRON BRIDGE RD", "postcode": "23831"}}},
{"geometry": {"type": "Point", "coordinates": [-77.4179419302, 37.3582459301]}, "type": "Feature", "properties": {"collection_times": [{"days": "Mon-Fri", "time": "5:00pm"}, {"days": "Sat", "time": "3:00pm"}, {"days": "Sun", "time": "Closed"}], "id": "2383100028", "name": "USPS COLLECTION BOX - APC", "address": {"city": "CHESTER", "state": "VA", "street": "12300 ROCK HILL RD", "postcode": "23831"}}},
{"geometry": {"type": "Point", "coordinates": [-77.4179419302, 37.3582459301]}, "type": "Feature", "properties": {"collection_times": [{"days": "Mon-Fri", "time": "5:00pm"}, {"days": "Sat", "time": "3:00pm"}, {"days": "Sun", "time": "Closed"}], "id": "2383100029", "name": "USPS COLLECTION BOX - PO LOBBY", "address": {"city": "CHESTER", "state": "VA", "street": "12300 ROCK HILL RD", "postcode": "23831"}}},
{"geometry": {"type": "Point", "coordinates": [-77.4179419302, 37.3582459301]}, "type": "Feature", "properties": {"collection_times": [{"days": "Mon-Fri", "time": "5:00pm"}, {"days": "Sat", "time": "3:00pm"}, {"days": "Sun", "time": "Closed"}], "id": "2383100030", "name": "USPS COLLECTION BOX - PO LOBBY", "address": {"city": "CHESTER", "state": "VA", "street": "12300 ROCK HILL RD", "postcode": "23831"}}},
{"geometry": {"type": "Point", "coordinates": [-77.4179419302, 37.3582459301]}, "type": "Feature", "properties": {"collection_times": [{"days": "Mon-Fri", "time": "5:00pm"}, {"days": "Sat", "time": "3:00pm"}, {"days": "Sun", "time": "Closed"}], "id": "2383100031", "name": "USPS COLLECTION BOX - PO LOBBY", "address": {"city": "CHESTER", "state": "VA", "street": "12300 ROCK HILL RD", "postcode": "23831"}}},
{"geometry": {"type": "Point", "coordinates": [-77.507830926, 37.374513897]}, "type": "Feature", "properties": {"collection_times": [{"days": "Mon-Fri", "time": "5:00pm"}, {"days": "Sat", "time": "3:00pm"}, {"days": "Sun", "time": "Closed"}], "id": "2383200002", "name": "USPS COLLECTION BOX - BLUE BOX", "address": {"city": "CHESTERFIELD", "state": "VA", "street": "10221 KRAUSE RD", "postcode": "23832"}}},
{"geometry": {"type": "Point", "coordinates": [-77.5078140869, 37.3745619574]}, "type": "Feature", "properties": {"collection_times": [{"days": "Mon-Fri", "time": "5:00pm"}, {"days": "Sat", "time": "3:00pm"}, {"days": "Sun", "time": "Closed"}], "id": "2383200005", "name": "USPS COLLECTION BOX - BLUE BOX", "address": {"city": "CHESTERFIELD", "state": "VA", "street": "10221 KRAUSE RD", "postcode": "23832"}}},
{"geometry": {"type": "Point", "coordinates": [-77.5078140869, 37.3745619574]}, "type": "Feature", "properties": {"collection_times": [{"days": "Mon-Fri", "time": "5:00pm"}, {"days": "Sat", "time": "3:00pm"}, {"days": "Sun", "time": "Closed"}], "id": "2383200007", "name": "USPS COLLECTION BOX - PO LOBBY", "address": {"city": "CHESTERFIELD", "state": "VA", "street": "10221 KRAUSE RD", "postcode": "23832"}}},
{"geometry": {"type": "Point", "coordinates": [-77.5776759667, 37.4080330701]}, "type": "Feature", "properties": {"collection_times": [{"days": "Mon-Sat", "time": "12:00pm"}, {"days": "Sun", "time": "Closed"}], "id": "2383200009", "name": "USPS COLLECTION BOX - BLUE BOX", "address": {"city": "CHESTERFIELD", "state": "VA", "street": "10001 IRON BRIDGE RD", "postcode": "23832"}}},
{"geometry": {"type": "Point", "coordinates": [-77.5078309265, 37.3745138967]}, "type": "Feature", "properties": {"collection_times": [{"days": "Mon-Fri", "time": "5:00pm"}, {"days": "Sat", "time": "3:00pm"}, {"days": "Sun", "time": "Closed"}], "id": "2383200010", "name": "USPS COLLECTION BOX - BLUE BOX", "address": {"city": "CHESTERFIELD", "state": "VA", "street": "10221 KRAUSE RD", "postcode": "23832"}}},
{"geometry": {"type": "Point", "coordinates": [-77.6315768522, 37.1915618174]}, "type": "Feature", "properties": {"collection_times": [{"days": "Mon-Fri", "time": "4:30pm"}, {"days": "Sat", "time": "11:15am"}, {"days": "Sun", "time": "Closed"}], "id": "2383300001", "name": "USPS COLLECTION BOX - BLUE BOX", "address": {"city": "CHURCH ROAD", "state": "VA", "street": "15300 COX RD", "postcode": "23833"}}},
{"geometry": {"type": "Point", "coordinates": [-77.6315768522, 37.1915618174]}, "type": "Feature", "properties": {"collection_times": [{"days": "Mon-Fri", "time": "4:45pm"}, {"days": "Sat", "time": "11:30am"}, {"days": "Sun", "time": "Closed"}], "id": "2383300002", "name": "USPS COLLECTION BOX - PO LOBBY", "address": {"city": "CHURCH ROAD", "state": "VA", "street": "15300 COX RD", "postcode": "23833"}}},
{"geometry": {"type": "Point", "coordinates": [-77.4090393792, 37.2546501389]}, "type": "Feature", "properties": {"collection_times": [{"days": "Mon-Fri", "time": "3:00pm"}, {"days": "Sat", "time": "12:00pm"}, {"days": "Sun", "time": "Closed"}], "id": "2383400011", "name": "USPS COLLECTION BOX - BLUE BOX", "address": {"city": "COLONIAL HGTS", "state": "VA", "street": "201 JAMES AVE", "postcode": "23834"}}},
{"geometry": {"type": "Point", "coordinates": [-77.4088023806, 37.2428325484]}, "type": "Feature", "properties": {"collection_times": [{"days": "Mon-Fri", "time": "1:00pm"}, {"days": "Sat", "time": "12:00pm"}, {"days": "Sun", "time": "Closed"}], "id": "2383400014", "name": "USPS COLLECTION BOX - BLUE BOX", "address": {"city": "COLONIAL HGTS", "state": "VA", "street": "550 BOULEVARD", "postcode": "23834"}}},
{"geometry": {"type": "Point", "coordinates": [-77.4036498064, 37.2703615708]}, "type": "Feature", "properties": {"collection_times": [{"days": "Mon-Fri", "time": "3:00pm"}, {"days": "Sat", "time": "12:00pm"}, {"days": "Sun", "time": "Closed"}], "id": "2383400021", "name": "USPS COLLECTION BOX - BLUE BOX", "address": {"city": "COLONIAL HGTS", "state": "VA", "street": "3107 BOULEVARD STE 3", "postcode": "23834"}}},
{"geometry": {"type": "Point", "coordinates": [-77.4108197324, 37.250929733]}, "type": "Feature", "properties": {"collection_times": [{"days": "Mon-Fri", "time": "5:15pm"}, {"days": "Sat", "time": "12:00pm"}, {"days": "Sun", "time": "Closed"}], "id": "2383400027", "name": "USPS COLLECTION BOX - BLUE BOX", "address": {"city": "COLONIAL HGTS", "state": "VA", "street": "1205 BOULEVARD", "postcode": "23834"}}},
{"geometry": {"type": "Point", "coordinates": [-77.4108197324, 37.250929733]}, "type": "Feature", "properties": {"collection_times": [{"days": "Mon-Fri", "time": "5:15pm"}, {"days": "Sat", "time": "2:30pm"}, {"days": "Sun", "time": "Closed"}], "id": "2383400031", "name": "USPS COLLECTION BOX - PO LOBBY", "address": {"city": "COLONIAL HGTS", "state": "VA", "street": "1205 BOULEVARD", "postcode": "23834"}}},
{"geometry": {"type": "Point", "coordinates": [-77.3831049292, 37.3059763906]}, "type": "Feature", "properties": {"collection_times": [{"days": "Mon-Fri", "time": "1:00pm"}, {"days": "Sat", "time": "12:00pm"}, {"days": "Sun", "time": "Closed"}], "id": "2383400032", "name": "USPS COLLECTION BOX - BLUE BOX", "address": {"city": "COLONIAL HGTS", "state": "VA", "street": "16000 CONTINENTAL BLVD", "postcode": "23834"}}},
{"geometry": {"type": "Point", "coordinates": [-77.3855098377, 37.2519973908]}, "type": "Feature", "properties": {"collection_times": [{"days": "Mon-Fri", "time": "3:00pm"}, {"days": "Sat", "time": "12:00pm"}, {"days": "Sun", "time": "Closed"}], "id": "2383400033", "name": "USPS COLLECTION BOX - BLUE BOX", "address": {"city": "COLONIAL HGTS", "state": "VA", "street": "130 TEMPLE LAKE DR", "postcode": "23834"}}},
{"geometry": {"type": "Point", "coordinates": [-77.3846822541, 37.2726618721]}, "type": "Feature", "properties": {"collection_times": [{"days": "Mon-Fri", "time": "2:30pm"}, {"days": "Sat", "time": "12:00pm"}, {"days": "Sun", "time": "Closed"}], "id": "2383400034", "name": "USPS COLLECTION BOX - BLUE BOX", "address": {"city": "COLONIAL HGTS", "state": "VA", "street": "1214 RIVEROAKS DR", "postcode": "23834"}}},
{"geometry": {"type": "Point", "coordinates": [-77.4108197324, 37.250929733]}, "type": "Feature", "properties": {"collection_times": [{"days": "Mon-Fri", "time": "5:15pm"}, {"days": "Sat", "time": "12:00pm"}, {"days": "Sun", "time": "Closed"}], "id": "2383400036", "name": "USPS COLLECTION BOX - APC", "address": {"city": "COLONIAL HGTS", "state": "VA", "street": "1205 BOULEVARD", "postcode": "23834"}}},
{"geometry": {"type": "Point", "coordinates": [-77.3562428509, 37.3499077759]}, "type": "Feature", "properties": {"collection_times": [{"days": "Mon-Sat", "time": "10:00am"}, {"days": "Sun", "time": "Closed"}], "id": "2383600001", "name": "USPS COLLECTION BOX - BLUE BOX", "address": {"city": "CHESTER VA", "state": "VA", "street": "13209 RIVERS BEND BLVD", "postcode": "23836"}}},
{"geometry": {"type": "Point", "coordinates": [-77.0688424531, 36.7184034201]}, "type": "Feature", "properties": {"collection_times": [{"days": "Mon-Fri", "time": "4:30pm"}, {"days": "Sat", "time": "12:00pm"}, {"days": "Sun", "time": "Closed"}], "id": "2383700001", "name": "USPS COLLECTION BOX - BLUE BOX", "address": {"city": "COURTLAND", "state": "VA", "street": "22183 MAIN ST", "postcode": "23837"}}},
{"geometry": {"type": "Point", "coordinates": [-77.0688424531, 36.7184034201]}, "type": "Feature", "properties": {"collection_times": [{"days": "Mon-Fri", "time": "4:30pm"}, {"days": "Sat", "time": "12:00pm"}, {"days": "Sun", "time": "Closed"}], "id": "2383700003", "name": "USPS COLLECTION BOX - PO LOBBY", "address": {"city": "COURTLAND", "state": "VA", "street": "22183 MAIN ST", "postcode": "23837"}}},
{"geometry": {"type": "Point", "coordinates": [-77.6387527187, 37.0423699604]}, "type": "Feature", "properties": {"collection_times": [{"days": "Mon-Fri", "time": "4:15pm"}, {"days": "Sat", "time": "11:00am"}, {"days": "Sun", "time": "Closed"}], "id": "2384000001", "name": "USPS COLLECTION BOX - BLUE BOX", "address": {"city": "DEWITT", "state": "VA", "street": "16907 BOYDTON PLANK RD", "postcode": "23840"}}},
{"geometry": {"type": "Point", "coordinates": [-77.6387527187, 37.0423699604]}, "type": "Feature", "properties": {"collection_times": [{"days": "Mon-Fri", "time": "4:15pm"}, {"days": "Sat", "time": "11:00am"}, {"days": "Sun", "time": "Closed"}], "id": "2384000002", "name": "USPS COLLECTION BOX - PO LOBBY", "address": {"city": "DEWITT", "state": "VA", "street": "16907 BOYDTON PLANK RD", "postcode": "23840"}}},
{"geometry": {"type": "Point", "coordinates": [-77.5833630657, 37.0741416994]}, "type": "Feature", "properties": {"collection_times": [{"days": "Mon-Fri", "time": "4:30pm"}, {"days": "Sat", "time": "11:30am"}, {"days": "Sun", "time": "Closed"}], "id": "2384100001", "name": "USPS COLLECTION BOX - BLUE BOX", "address": {"city": "DINWIDDIE", "state": "VA", "street": "14416 COURTHOUSE RD", "postcode": "23841"}}},
{"geometry": {"type": "Point", "coordinates": [-77.5833630657, 37.0741416994]}, "type": "Feature", "properties": {"collection_times": [{"days": "Mon-Fri", "time": "5:00pm"}, {"days": "Sat", "time": "11:30am"}, {"days": "Sun", "time": "Closed"}], "id": "2384100002", "name": "USPS COLLECTION BOX - PO LOBBY", "address": {"city": "DINWIDDIE", "state": "VA", "street": "14416 COURTHOUSE RD", "postcode": "23841"}}},
{"geometry": {"type": "Point", "coordinates": [-77.5833275086, 37.0740136044]}, "type": "Feature", "properties": {"collection_times": [{"days": "Mon-Fri", "time": "5:00pm"}, {"days": "Sat", "time": "11:30am"}, {"days": "Sun", "time": "Closed"}], "id": "2384100004", "name": "USPS COLLECTION BOX - PO LOBBY", "address": {"city": "DINWIDDIE", "state": "VA", "street": "14416 COURTHOUSE RD", "postcode": "23841"}}},
{"geometry": {"type": "Point", "coordinates": [-77.2267270952, 37.1244987145]}, "type": "Feature", "properties": {"collection_times": [{"days": "Mon-Fri", "time": "5:00pm"}, {"days": "Sat", "time": "10:30am"}, {"days": "Sun", "time": "Closed"}], "id": "2384200002", "name": "USPS COLLECTION BOX - BLUE BOX", "address": {"city": "DISPUTANTA", "state": "VA", "street": "10001 COUNTY DR", "postcode": "23842"}}},
{"geometry": {"type": "Point", "coordinates": [-77.2267270952, 37.1244987145]}, "type": "Feature", "properties": {"collection_times": [{"days": "Mon-Fri", "time": "5:00pm"}, {"days": "Sat", "time": "10:30am"}, {"days": "Sun", "time": "Closed"}], "id": "2384200003", "name": "USPS COLLECTION BOX - PO LOBBY", "address": {"city": "DISPUTANTA", "state": "VA", "street": "10001 COUNTY DR", "postcode": "23842"}}},
{"geometry": {"type": "Point", "coordinates": [-77.7999598826, 36.829694441]}, "type": "Feature", "properties": {"collection_times": [{"days": "Mon-Fri", "time": "4:15pm"}, {"days": "Sat", "time": "11:15am"}, {"days": "Sun", "time": "Closed"}], "id": "2384300001", "name": "USPS COLLECTION BOX - BLUE BOX", "address": {"city": "DOLPHIN", "state": "VA", "street": "7593 LIBERTY RD", "postcode": "23843"}}},
{"geometry": {"type": "Point", "coordinates": [-77.7999598826, 36.829694441]}, "type": "Feature", "properties": {"collection_times": [{"days": "Mon-Fri", "time": "4:15pm"}, {"days": "Sat", "time": "11:15am"}, {"days": "Sun", "time": "Closed"}], "id": "2384300002", "name": "USPS COLLECTION BOX - PO LOBBY", "address": {"city": "DOLPHIN", "state": "VA", "street": "7593 LIBERTY RD", "postcode": "23843"}}},
{"geometry": {"type": "Point", "coordinates": [-77.304665331, 36.7104027125]}, "type": "Feature", "properties": {"collection_times": [{"days": "Mon-Fri", "time": "4:00pm"}, {"days": "Sat", "time": "11:30am"}, {"days": "Sun", "time": "Closed"}], "id": "2384400001", "name": "USPS COLLECTION BOX - BLUE BOX", "address": {"city": "DREWRYVILLE", "state": "VA", "street": "22365 DREWRY RD", "postcode": "23844"}}},
{"geometry": {"type": "Point", "coordinates": [-77.304665331, 36.7104027125]}, "type": "Feature", "properties": {"collection_times": [{"days": "Mon-Fri", "time": "4:30pm"}, {"days": "Sat", "time": "11:45am"}, {"days": "Sun", "time": "Closed"}], "id": "2384400002", "name": "USPS COLLECTION BOX - PO LOBBY", "address": {"city": "DREWRYVILLE", "state": "VA", "street": "22365 DREWRY RD", "postcode": "23844"}}},
{"geometry": {"type": "Point", "coordinates": [-77.9904915285, 36.5817079593]}, "type": "Feature", "properties": {"collection_times": [{"days": "Mon-Fri", "time": "4:00pm"}, {"days": "Sat", "time": "11:45am"}, {"days": "Sun", "time": "Closed"}], "id": "2384500002", "name": "USPS COLLECTION BOX - PO LOBBY", "address": {"city": "EBONY", "state": "VA", "street": "468 ROBINSON FERRY RD", "postcode": "23845"}}},
{"geometry": {"type": "Point", "coordinates": [-77.5380355116, 36.6954697158]}, "type": "Feature", "properties": {"collection_times": [{"days": "Mon-Fri", "time": "5:00pm"}, {"days": "Sat", "time": "1:30pm"}, {"days": "Sun", "time": "Closed"}], "id": "2384700021", "name": "USPS COLLECTION BOX - BLUE BOX", "address": {"city": "EMPORIA", "state": "VA", "street": "516 N MAIN ST", "postcode": "23847"}}},
{"geometry": {"type": "Point", "coordinates": [-77.6500176259, 36.6666839736]}, "type": "Feature", "properties": {"collection_times": [{"days": "Mon-Fri", "time": "4:45pm"}, {"days": "Sat-Sun", "time": "Closed"}], "id": "2384700024", "name": "USPS COLLECTION BOX - BLUE BOX", "address": {"city": "EMPORIA", "state": "VA", "street": "1781 GREENSVILLE COUNTY CIR", "postcode": "23847"}}},
{"geometry": {"type": "Point", "coordinates": [-77.5424256215, 36.6866886663]}, "type": "Feature", "properties": {"collection_times": [{"days": "Mon-Fri", "time": "5:15pm"}, {"days": "Sat-Sun", "time": "Closed"}], "id": "2384700026", "name": "USPS COLLECTION BOX - BLUE BOX", "address": {"city": "EMPORIA", "state": "VA", "street": "337 S MAIN ST", "postcode": "23847"}}},
{"geometry": {"type": "Point", "coordinates": [-77.5412928359, 36.6897075716]}, "type": "Feature", "properties": {"collection_times": [{"days": "Mon-Fri", "time": "5:30pm"}, {"days": "Sat", "time": "3:00pm"}, {"days": "Sun", "time": "Closed"}], "id": "2384700027", "name": "USPS COLLECTION BOX - BLUE BOX", "address": {"city": "EMPORIA", "state": "VA", "street": "109 S MAIN ST", "postcode": "23847"}}},
{"geometry": {"type": "Point", "coordinates": [-77.5412928359, 36.6897075716]}, "type": "Feature", "properties": {"collection_times": [{"days": "Mon-Fri", "time": "5:30pm"}, {"days": "Sat", "time": "3:00pm"}, {"days": "Sun", "time": "Closed"}], "id": "2384700028", "name": "USPS COLLECTION BOX - BLUE BOX", "address": {"city": "EMPORIA", "state": "VA", "street": "109 S MAIN ST", "postcode": "23847"}}},
{"geometry": {"type": "Point", "coordinates": [-77.5252776768, 36.6895807258]}, "type": "Feature", "properties": {"collection_times": [{"days": "Mon-Fri", "time": "5:00pm"}, {"days": "Sat-Sun", "time": "Closed"}], "id": "2384700034", "name": "USPS COLLECTION BOX - BLUE BOX", "address": {"city": "EMPORIA", "state": "VA", "street": "1750 E ATLANTIC ST", "postcode": "23847"}}},
{"geometry": {"type": "Point", "coordinates": [-77.5355955386, 36.7028227057]}, "type": "Feature", "properties": {"collection_times": [{"days": "Mon-Fri", "time": "5:00pm"}, {"days": "Sat", "time": "1:30pm"}, {"days": "Sun", "time": "Closed"}], "id": "2384700035", "name": "USPS COLLECTION BOX - BLUE BOX", "address": {"city": "EMPORIA", "state": "VA", "street": "727 N MAIN ST", "postcode": "23847"}}},
{"geometry": {"type": "Point", "coordinates": [-77.5392575486, 36.6932780161]}, "type": "Feature", "properties": {"collection_times": [{"days": "Mon-Fri", "time": "4:45pm"}, {"days": "Sat", "time": "1:30pm"}, {"days": "Sun", "time": "Closed"}], "id": "2384700042", "name": "USPS COLLECTION BOX - BLUE BOX", "address": {"city": "EMPORIA", "state": "VA", "street": "320 N MAIN ST", "postcode": "23847"}}},
{"geometry": {"type": "Point", "coordinates": [-77.5412928359, 36.6897075716]}, "type": "Feature", "properties": {"collection_times": [{"days": "Mon-Fri", "time": "5:30pm"}, {"days": "Sat", "time": "3:00pm"}, {"days": "Sun", "time": "Closed"}], "id": "2384700043", "name": "USPS COLLECTION BOX - PO LOBBY", "address": {"city": "EMPORIA", "state": "VA", "street": "109 S MAIN ST", "postcode": "23847"}}},
{"geometry": {"type": "Point", "coordinates": [-77.5412928359, 36.6897075716]}, "type": "Feature", "properties": {"collection_times": [{"days": "Mon-Fri", "time": "5:30pm"}, {"days": "Sat", "time": "3:00pm"}, {"days": "Sun", "time": "Closed"}], "id": "2384700044", "name": "USPS COLLECTION BOX - PO LOBBY", "address": {"city": "EMPORIA", "state": "VA", "street": "109 S MAIN ST", "postcode": "23847"}}},
{"geometry": {"type": "Point", "coordinates": [-77.5528883746, 36.7040914965]}, "type": "Feature", "properties": {"collection_times": [{"days": "Mon-Fri", "time": "4:45pm"}, {"days": "Sat-Sun", "time": "Closed"}], "id": "2384700045", "name": "USPS COLLECTION BOX - BLUE BOX", "address": {"city": "EMPORIA", "state": "VA", "street": "920 W ATLANTIC ST", "postcode": "23847"}}},
{"geometry": {"type": "Point", "coordinates": [-77.5365836786, 36.6930343661]}, "type": "Feature", "properties": {"collection_times": [{"days": "Mon-Fri", "time": "5:00pm"}, {"days": "Sat", "time": "1:30pm"}, {"days": "Sun", "time": "Closed"}], "id": "2384700063", "name": "USPS COLLECTION BOX - BLUE BOX", "address": {"city": "EMPORIA", "state": "VA", "street": "401 HALIFAX ST", "postcode": "23847"}}},
{"geometry": {"type": "Point", "coordinates": [-77.7313763176, 37.1484237291]}, "type": "Feature", "properties": {"collection_times": [{"days": "Mon-Fri", "time": "4:45pm"}, {"days": "Sat", "time": "11:45am"}, {"days": "Sun", "time": "Closed"}], "id": "2385000001", "name": "USPS COLLECTION BOX - BLUE BOX", "address": {"city": "FORD", "state": "VA", "street": "9109 BALTIMORE RD", "postcode": "23850"}}},
{"geometry": {"type": "Point", "coordinates": [-77.7313763176, 37.1484237291]}, "type": "Feature", "properties": {"collection_times": [{"days": "Mon-Fri", "time": "4:45pm"}, {"days": "Sat", "time": "11:45am"}, {"days": "Sun", "time": "Closed"}], "id": "2385000002", "name": "USPS COLLECTION BOX - PO LOBBY", "address": {"city": "FORD", "state": "VA", "street": "9109 BALTIMORE RD", "postcode": "23850"}}},
{"geometry": {"type": "Point", "coordinates": [-76.9349944672, 36.6912197405]}, "type": "Feature", "properties": {"collection_times": [{"days": "Mon-Fri", "time": "5:00pm"}, {"days": "Sat", "time": "4:00pm"}, {"days": "Sun", "time": "Closed"}], "id": "2385100001", "name": "USPS COLLECTION BOX - BLUE BOX", "address": {"city": "FRANKLIN", "state": "VA", "street": "100 FAIRVIEW DR", "postcode": "23851"}}},
{"geometry": {"type": "Point", "coordinates": [-76.9482406888, 36.6694079134]}, "type": "Feature", "properties": {"collection_times": [{"days": "Mon-Fri", "time": "5:00pm"}, {"days": "Sat", "time": "4:00pm"}, {"days": "Sun", "time": "Closed"}], "id": "2385100013", "name": "USPS COLLECTION BOX - BLUE BOX", "address": {"city": "FRANKLIN", "state": "VA", "street": "1350 ARMORY DR", "postcode": "23851"}}},
{"geometry": {"type": "Point", "coordinates": [-76.9244153467, 36.6796918183]}, "type": "Feature", "properties": {"collection_times": [{"days": "Mon-Fri", "time": "5:15pm"}, {"days": "Sat", "time": "4:15pm"}, {"days": "Sun", "time": "Closed"}], "id": "2385100014", "name": "USPS COLLECTION BOX - BLUE BOX", "address": {"city": "FRANKLIN", "state": "VA", "street": "519 N MAIN ST", "postcode": "23851"}}},
{"geometry": {"type": "Point", "coordinates": [-76.9430383983, 36.6713016938]}, "type": "Feature", "properties": {"collection_times": [{"days": "Mon-Fri", "time": "5:00pm"}, {"days": "Sat", "time": "4:00pm"}, {"days": "Sun", "time": "Closed"}], "id": "2385100015", "name": "USPS COLLECTION BOX - BLUE BOX", "address": {"city": "FRANKLIN", "state": "VA", "street": "1200 ARMORY DR", "postcode": "23851"}}},
{"geometry": {"type": "Point", "coordinates": [-76.9225869797, 36.6779632571]}, "type": "Feature", "properties": {"collection_times": [{"days": "Mon-Fri", "time": "5:00pm"}, {"days": "Sat", "time": "4:00pm"}, {"days": "Sun", "time": "Closed"}], "id": "2385100017", "name": "USPS COLLECTION BOX - BLUE BOX", "address": {"city": "FRANKLIN", "state": "VA", "street": "115 E 2ND AVE", "postcode": "23851"}}},
{"geometry": {"type": "Point", "coordinates": [-76.9244153467, 36.6796918183]}, "type": "Feature", "properties": {"collection_times": [{"days": "Mon-Fri", "time": "5:15pm"}, {"days": "Sat", "time": "4:15pm"}, {"days": "Sun", "time": "Closed"}], "id": "2385100019", "name": "USPS COLLECTION BOX - PO LOBBY", "address": {"city": "FRANKLIN", "state": "VA", "street": "519 N MAIN ST", "postcode": "23851"}}},
{"geometry": {"type": "Point", "coordinates": [-76.9244153467, 36.6796918183]}, "type": "Feature", "properties": {"collection_times": [{"days": "Mon-Fri", "time": "5:15pm"}, {"days": "Sat", "time": "4:15pm"}, {"days": "Sun", "time": "Closed"}], "id": "2385100020", "name": "USPS COLLECTION BOX - PO LOBBY", "address": {"city": "FRANKLIN", "state": "VA", "street": "519 N MAIN ST", "postcode": "23851"}}},
{"geometry": {"type": "Point", "coordinates": [-77.7557717878, 36.7750950816]}, "type": "Feature", "properties": {"collection_times": [{"days": "Mon-Fri", "time": "4:30pm"}, {"days": "Sat", "time": "11:00am"}, {"days": "Sun", "time": "Closed"}], "id": "2385600001", "name": "USPS COLLECTION BOX - BLUE BOX", "address": {"city": "FREEMAN", "state": "VA", "street": "18031 GOVERNOR HARRISON PKWY", "postcode": "23856"}}},
{"geometry": {"type": "Point", "coordinates": [-77.7069825802, 36.7880815282]}, "type": "Feature", "properties": {"collection_times": [{"days": "Mon-Fri", "time": "4:35pm"}, {"days": "Sat", "time": "11:00am"}, {"days": "Sun", "time": "Closed"}], "id": "2385600002", "name": "USPS COLLECTION BOX - PO LOBBY", "address": {"city": "FREEMAN", "state": "VA", "street": "18031 GOV HARRISON PKWY", "postcode": "23856"}}},
{"geometry": {"type": "Point", "coordinates": [-77.8908738905, 36.5666956753]}, "type": "Feature", "properties": {"collection_times": [{"days": "Mon-Fri", "time": "4:00pm"}, {"days": "Sat", "time": "11:30am"}, {"days": "Sun", "time": "Closed"}], "id": "2385700001", "name": "USPS COLLECTION BOX - BLUE BOX", "address": {"city": "GASBURG", "state": "VA", "street": "4205 GASBURG RD", "postcode": "23857"}}},
{"geometry": {"type": "Point", "coordinates": [-77.8908738905, 36.5666956753]}, "type": "Feature", "properties": {"collection_times": [{"days": "Mon-Fri", "time": "4:15pm"}, {"days": "Sat", "time": "11:30am"}, {"days": "Sun", "time": "Closed"}], "id": "2385700002", "name": "USPS COLLECTION BOX - PO LOBBY", "address": {"city": "GASBURG", "state": "VA", "street": "4205 GASBURG RD", "postcode": "23857"}}},
{"geometry": {"type": "Point", "coordinates": [-77.2874622517, 37.3028639268]}, "type": "Feature", "properties": {"collection_times": [{"days": "Mon-Fri", "time": "5:00pm"}, {"days": "Sat", "time": "3:00pm"}, {"days": "Sun", "time": "Closed"}], "id": "2386000003", "name": "USPS COLLECTION BOX - BLUE BOX", "address": {"city": "HOPEWELL", "state": "VA", "street": "117 W POYTHRESS ST", "postcode": "23860"}}},
{"geometry": {"type": "Point", "coordinates": [-77.2874622517, 37.3028639268]}, "type": "Feature", "properties": {"collection_times": [{"days": "Mon-Fri", "time": "5:00pm"}, {"days": "Sat", "time": "3:00pm"}, {"days": "Sun", "time": "Closed"}], "id": "2386000004", "name": "USPS COLLECTION BOX - BLUE BOX", "address": {"city": "HOPEWELL", "state": "VA", "street": "117 W POYTHRESS ST", "postcode": "23860"}}},
{"geometry": {"type": "Point", "coordinates": [-77.2871436869, 37.3019130815]}, "type": "Feature", "properties": {"collection_times": [{"days": "Mon-Fri", "time": "4:00pm"}, {"days": "Sat", "time": "2:00pm"}, {"days": "Sun", "time": "Closed"}], "id": "2386000010", "name": "USPS COLLECTION BOX - BLUE BOX", "address": {"city": "HOPEWELL", "state": "VA", "street": "100 W CITY POINT RD", "postcode": "23860"}}},
{"geometry": {"type": "Point", "coordinates": [-77.2916827767, 37.3070251614]}, "type": "Feature", "properties": {"collection_times": [{"days": "Mon-Fri", "time": "4:00pm"}, {"days": "Sat", "time": "2:00pm"}, {"days": "Sun", "time": "Closed"}], "id": "2386000012", "name": "USPS COLLECTION BOX - BLUE BOX", "address": {"city": "HOPEWELL", "state": "VA", "street": "409 EPPES ST", "postcode": "23860"}}},
{"geometry": {"type": "Point", "coordinates": [-77.2871582296, 37.304696694]}, "type": "Feature", "properties": {"collection_times": [{"days": "Mon-Fri", "time": "4:00pm"}, {"days": "Sat", "time": "2:00pm"}, {"days": "Sun", "time": "Closed"}], "id": "2386000013", "name": "USPS COLLECTION BOX - BLUE BOX", "address": {"city": "HOPEWELL", "state": "VA", "street": "207 E CAWSON ST", "postcode": "23860"}}},
{"geometry": {"type": "Point", "coordinates": [-77.2872991666, 37.3039376739]}, "type": "Feature", "properties": {"collection_times": [{"days": "Mon-Fri", "time": "4:00pm"}, {"days": "Sat", "time": "2:00pm"}, {"days": "Sun", "time": "Closed"}], "id": "2386000014", "name": "USPS COLLECTION BOX - BLUE BOX", "address": {"city": "HOPEWELL", "state": "VA", "street": "300 N MAIN ST", "postcode": "23860"}}},
{"geometry": {"type": "Point", "coordinates": [-77.2873347856, 37.3038581077]}, "type": "Feature", "properties": {"collection_times": [{"days": "Mon-Fri", "time": "4:00pm"}, {"days": "Sat", "time": "2:00pm"}, {"days": "Sun", "time": "Closed"}], "id": "2386000015", "name": "USPS COLLECTION BOX - BLUE BOX", "address": {"city": "HOPEWELL", "state": "VA", "street": "100 E BROADWAY AVE", "postcode": "23860"}}},
{"geometry": {"type": "Point", "coordinates": [-77.2978921708, 37.2912770815]}, "type": "Feature", "properties": {"collection_times": [{"days": "Mon-Fri", "time": "3:30pm"}, {"days": "Sat", "time": "2:00pm"}, {"days": "Sun", "time": "Closed"}], "id": "2386000016", "name": "USPS COLLECTION BOX - BLUE BOX", "address": {"city": "HOPEWELL", "state": "VA", "street": "105 CAVALIER SQ", "postcode": "23860"}}},
{"geometry": {"type": "Point", "coordinates": [-77.3278463427, 37.2598015364]}, "type": "Feature", "properties": {"collection_times": [{"days": "Mon-Fri", "time": "3:30pm"}, {"days": "Sat", "time": "2:00pm"}, {"days": "Sun", "time": "Closed"}], "id": "2386000017", "name": "USPS COLLECTION BOX - BLUE BOX", "address": {"city": "HOPEWELL", "state": "VA", "street": "5280 OAKLAWN BLVD", "postcode": "23860"}}},
{"geometry": {"type": "Point", "coordinates": [-77.2845611002, 37.3059564125]}, "type": "Feature", "properties": {"collection_times": [{"days": "Mon-Fri", "time": "4:00pm"}, {"days": "Sat", "time": "2:00pm"}, {"days": "Sun", "time": "Closed"}], "id": "2386000019", "name": "USPS COLLECTION BOX - BLUE BOX", "address": {"city": "HOPEWELL", "state": "VA", "street": "316 E CAWSON ST", "postcode": "23860"}}},
{"geometry": {"type": "Point", "coordinates": [-77.2928023396, 37.3035795486]}, "type": "Feature", "properties": {"collection_times": [{"days": "Mon-Fri", "time": "4:00pm"}, {"days": "Sat", "time": "2:00pm"}, {"days": "Sun", "time": "Closed"}], "id": "2386000021", "name": "USPS COLLECTION BOX - BLUE BOX", "address": {"city": "HOPEWELL", "state": "VA", "street": "300 N 6TH AVE", "postcode": "23860"}}},
{"geometry": {"type": "Point", "coordinates": [-77.2874622517, 37.3028639268]}, "type": "Feature", "properties": {"collection_times": [{"days": "Mon-Fri", "time": "5:00pm"}, {"days": "Sat", "time": "3:00pm"}, {"days": "Sun", "time": "Closed"}], "id": "2386000024", "name": "USPS COLLECTION BOX - PO LOBBY", "address": {"city": "HOPEWELL", "state": "VA", "street": "117 W POYTHRESS ST", "postcode": "23860"}}},
{"geometry": {"type": "Point", "coordinates": [-77.2874622517, 37.3028639268]}, "type": "Feature", "properties": {"collection_times": [{"days": "Mon-Fri", "time": "5:00pm"}, {"days": "Sat", "time": "3:00pm"}, {"days": "Sun", "time": "Closed"}], "id": "2386000025", "name": "USPS COLLECTION BOX - PO LOBBY", "address": {"city": "HOPEWELL", "state": "VA", "street": "117 W POYTHRESS ST", "postcode": "23860"}}},
{"geometry": {"type": "Point", "coordinates": [-76.8963836408, 36.9061781673]}, "type": "Feature", "properties": {"collection_times": [{"days": "Mon-Fri", "time": "4:45pm"}, {"days": "Sat", "time": "10:45am"}, {"days": "Sun", "time": "Closed"}], "id": "2386600001", "name": "USPS COLLECTION BOX - BLUE BOX", "address": {"city": "IVOR", "state": "VA", "street": "8280 MAIN ST", "postcode": "23866"}}},
{"geometry": {"type": "Point", "coordinates": [-76.8963836408, 36.9061781673]}, "type": "Feature", "properties": {"collection_times": [{"days": "Mon-Fri", "time": "5:00pm"}, {"days": "Sat", "time": "10:45am"}, {"days": "Sun", "time": "Closed"}], "id": "2386600002", "name": "USPS COLLECTION BOX - PO LOBBY", "address": {"city": "IVOR", "state": "VA", "street": "8280 MAIN ST", "postcode": "23866"}}},
{"geometry": {"type": "Point", "coordinates": [-77.4753035213, 36.8188828966]}, "type": "Feature", "properties": {"collection_times": [{"days": "Mon-Fri", "time": "4:15pm"}, {"days": "Sat", "time": "11:30am"}, {"days": "Sun", "time": "Closed"}], "id": "2386700001", "name": "USPS COLLECTION BOX - BLUE BOX", "address": {"city": "JARRATT", "state": "VA", "street": "215 JARRATT AVE", "postcode": "23867"}}},
{"geometry": {"type": "Point", "coordinates": [-77.4753035213, 36.8188828966]}, "type": "Feature", "properties": {"collection_times": [{"days": "Mon-Fri", "time": "4:30pm"}, {"days": "Sat", "time": "11:45am"}, {"days": "Sun", "time": "Closed"}], "id": "2386700002", "name": "USPS COLLECTION BOX - PO LOBBY", "address": {"city": "JARRATT", "state": "VA", "street": "215 JARRATT AVE", "postcode": "23867"}}},
{"geometry": {"type": "Point", "coordinates": [-77.8463536325, 36.7584725253]}, "type": "Feature", "properties": {"collection_times": [{"days": "Mon-Fri", "time": "10:30am"}, {"days": "Sat-Sun", "time": "Closed"}], "id": "2386800004", "name": "USPS COLLECTION BOX - BLUE BOX", "address": {"city": "LAWRENCEVILLE", "state": "VA", "street": "100 TOBACCO ST", "postcode": "23868"}}},
{"geometry": {"type": "Point", "coordinates": [-77.8471224767, 36.7572079602]}, "type": "Feature", "properties": {"collection_times": [{"days": "Mon-Fri", "time": "10:30am"}, {"days": "Sat-Sun", "time": "Closed"}], "id": "2386800007", "name": "USPS COLLECTION BOX - BLUE BOX", "address": {"city": "LAWRENCEVILLE", "state": "VA", "street": "205 N MAIN ST", "postcode": "23868"}}},
{"geometry": {"type": "Point", "coordinates": [-77.8521459935, 36.7528626847]}, "type": "Feature", "properties": {"collection_times": [{"days": "Mon-Fri", "time": "5:00pm"}, {"days": "Sat", "time": "11:00am"}, {"days": "Sun", "time": "Closed"}], "id": "2386800008", "name": "USPS COLLECTION BOX - BLUE BOX", "address": {"city": "LAWRENCEVILLE", "state": "VA", "street": "409 S HICKS ST", "postcode": "23868"}}},
{"geometry": {"type": "Point", "coordinates": [-77.8521459935, 36.7528626847]}, "type": "Feature", "properties": {"collection_times": [{"days": "Mon-Fri", "time": "5:00pm"}, {"days": "Sat", "time": "11:00am"}, {"days": "Sun", "time": "Closed"}], "id": "2386800011", "name": "USPS COLLECTION BOX - PO LOBBY", "address": {"city": "LAWRENCEVILLE", "state": "VA", "street": "409 S HICKS ST", "postcode": "23868"}}},
{"geometry": {"type": "Point", "coordinates": [-77.8521459935, 36.7528626847]}, "type": "Feature", "properties": {"collection_times": [{"days": "Mon-Fri", "time": "5:00pm"}, {"days": "Sat", "time": "11:00am"}, {"days": "Sun", "time": "Closed"}], "id": "2386800012", "name": "USPS COLLECTION BOX - PO LOBBY", "address": {"city": "LAWRENCEVILLE", "state": "VA", "street": "409 S HICKS ST", "postcode": "23868"}}},
{"geometry": {"type": "Point", "coordinates": [-77.765743561, 36.610553804]}, "type": "Feature", "properties": {"collection_times": [{"days": "Mon-Sat", "time": "11:00am"}, {"days": "Sun", "time": "Closed"}], "id": "2386800015", "name": "USPS COLLECTION BOX - BLUE BOX", "address": {"city": "LAWRENCEVILLE", "state": "VA", "street": "3746 TRIPLET RD", "postcode": "23868"}}},
{"geometry": {"type": "Point", "coordinates": [-77.7218655757, 36.9876198528]}, "type": "Feature", "properties": {"collection_times": [{"days": "Mon-Fri", "time": "4:30pm"}, {"days": "Sat", "time": "10:00am"}, {"days": "Sun", "time": "Closed"}], "id": "2387200001", "name": "USPS COLLECTION BOX - BLUE BOX", "address": {"city": "MCKENNEY", "state": "VA", "street": "10504 RIVES AVE", "postcode": "23872"}}},
{"geometry": {"type": "Point", "coordinates": [-77.7218655757, 36.9876198528]}, "type": "Feature", "properties": {"collection_times": [{"days": "Mon-Fri", "time": "4:30pm"}, {"days": "Sat", "time": "10:00am"}, {"days": "Sun", "time": "Closed"}], "id": "2387200002", "name": "USPS COLLECTION BOX - PO LOBBY", "address": {"city": "MCKENNEY", "state": "VA", "street": "10504 RIVES AVE", "postcode": "23872"}}},
{"geometry": {"type": "Point", "coordinates": [-77.9563402954, 36.8073743679]}, "type": "Feature", "properties": {"collection_times": [{"days": "Mon-Sat", "time": "11:30am"}, {"days": "Sun", "time": "Closed"}], "id": "2387300001", "name": "USPS COLLECTION BOX - BLUE BOX", "address": {"city": "MEREDITHVILLE", "state": "VA", "street": "4771 BOYDTON PLANK RD", "postcode": "23873"}}},
{"geometry": {"type": "Point", "coordinates": [-77.124185486, 36.623687729]}, "type": "Feature", "properties": {"collection_times": [{"days": "Mon-Fri", "time": "4:15pm"}, {"days": "Sat", "time": "11:00am"}, {"days": "Sun", "time": "Closed"}], "id": "2387400001", "name": "USPS COLLECTION BOX - BLUE BOX", "address": {"city": "NEWSOMS", "state": "VA", "street": "29174 S MAIN ST", "postcode": "23874"}}},
{"geometry": {"type": "Point", "coordinates": [-77.124185486, 36.623687729]}, "type": "Feature", "properties": {"collection_times": [{"days": "Mon-Fri", "time": "4:15pm"}, {"days": "Sat", "time": "11:00am"}, {"days": "Sun", "time": "Closed"}], "id": "2387400002", "name": "USPS COLLECTION BOX - PO LOBBY", "address": {"city": "NEWSOMS", "state": "VA", "street": "29174 S MAIN ST", "postcode": "23874"}}},
{"geometry": {"type": "Point", "coordinates": [-77.2854805242, 37.2221542149]}, "type": "Feature", "properties": {"collection_times": [{"days": "Mon-Fri", "time": "5:00pm"}, {"days": "Sat", "time": "11:30am"}, {"days": "Sun", "time": "Closed"}], "id": "2387500001", "name": "USPS COLLECTION BOX - BLUE BOX", "address": {"city": "PRINCE GEORGE", "state": "VA", "street": "6605 COURTHOUSE RD", "postcode": "23875"}}},
{"geometry": {"type": "Point", "coordinates": [-77.2854805242, 37.2221542149]}, "type": "Feature", "properties": {"collection_times": [{"days": "Mon-Fri", "time": "5:00pm"}, {"days": "Sat", "time": "11:30am"}, {"days": "Sun", "time": "Closed"}], "id": "2387500003", "name": "USPS COLLECTION BOX - BLUE BOX", "address": {"city": "PRINCE GEORGE", "state": "VA", "street": "6605 COURTHOUSE RD", "postcode": "23875"}}},
{"geometry": {"type": "Point", "coordinates": [-77.2854805242, 37.2221542149]}, "type": "Feature", "properties": {"collection_times": [{"days": "Mon-Fri", "time": "5:00pm"}, {"days": "Sat", "time": "11:30am"}, {"days": "Sun", "time": "Closed"}], "id": "2387500004", "name": "USPS COLLECTION BOX - PO LOBBY", "address": {"city": "PRINCE GEORGE", "state": "VA", "street": "6605 COURTHOUSE RD", "postcode": "23875"}}},
{"geometry": {"type": "Point", "coordinates": [-77.7711361524, 36.9420885716]}, "type": "Feature", "properties": {"collection_times": [{"days": "Mon-Fri", "time": "4:15pm"}, {"days": "Sat", "time": "11:15am"}, {"days": "Sun", "time": "Closed"}], "id": "2387600001", "name": "USPS COLLECTION BOX - BLUE BOX", "address": {"city": "RAWLINGS", "state": "VA", "street": "4818 RAWLINGS RD", "postcode": "23876"}}},
{"geometry": {"type": "Point", "coordinates": [-76.9840915322, 36.77597075]}, "type": "Feature", "properties": {"collection_times": [{"days": "Mon-Fri", "time": "4:30pm"}, {"days": "Sat", "time": "11:30am"}, {"days": "Sun", "time": "Closed"}], "id": "2387800001", "name": "USPS COLLECTION BOX - BLUE BOX", "address": {"city": "SEDLEY", "state": "VA", "street": "18050 JOHNSONS MILL RD", "postcode": "23878"}}},
{"geometry": {"type": "Point", "coordinates": [-76.9840915322, 36.77597075]}, "type": "Feature", "properties": {"collection_times": [{"days": "Mon-Fri", "time": "4:30pm"}, {"days": "Sat", "time": "11:30am"}, {"days": "Sun", "time": "Closed"}], "id": "2387800002", "name": "USPS COLLECTION BOX - PO LOBBY", "address": {"city": "SEDLEY", "state": "VA", "street": "18050 JOHNSONS MILL RD", "postcode": "23878"}}},
{"geometry": {"type": "Point", "coordinates": [-76.9675832536, 37.1679238095]}, "type": "Feature", "properties": {"collection_times": [{"days": "Mon-Fri", "time": "4:30pm"}, {"days": "Sat", "time": "11:30am"}, {"days": "Sun", "time": "Closed"}], "id": "2388100001", "name": "USPS COLLECTION BOX - BLUE BOX", "address": {"city": "SPRING GROVE", "state": "VA", "street": "17 SWANNS POINT RD", "postcode": "23881"}}},
{"geometry": {"type": "Point", "coordinates": [-76.9675832536, 37.1679238095]}, "type": "Feature", "properties": {"collection_times": [{"days": "Mon-Fri", "time": "4:30pm"}, {"days": "Sat", "time": "11:30am"}, {"days": "Sun", "time": "Closed"}], "id": "2388100002", "name": "USPS COLLECTION BOX - PO LOBBY", "address": {"city": "SPRING GROVE", "state": "VA", "street": "17 SWANNS POINT RD", "postcode": "23881"}}},
{"geometry": {"type": "Point", "coordinates": [-77.401044553, 36.9487642435]}, "type": "Feature", "properties": {"collection_times": [{"days": "Mon-Fri", "time": "4:45pm"}, {"days": "Sat", "time": "11:30am"}, {"days": "Sun", "time": "Closed"}], "id": "2388200002", "name": "USPS COLLECTION BOX - BLUE BOX", "address": {"city": "STONY CREEK", "state": "VA", "street": "12445 MAIN ST", "postcode": "23882"}}},
{"geometry": {"type": "Point", "coordinates": [-77.401044553, 36.9487642435]}, "type": "Feature", "properties": {"collection_times": [{"days": "Mon-Fri", "time": "4:45pm"}, {"days": "Sat", "time": "11:30am"}, {"days": "Sun", "time": "Closed"}], "id": "2388200004", "name": "USPS COLLECTION BOX - PO LOBBY", "address": {"city": "STONY CREEK", "state": "VA", "street": "12445 MAIN ST", "postcode": "23882"}}},
{"geometry": {"type": "Point", "coordinates": [-76.8332618284, 37.1378509706]}, "type": "Feature", "properties": {"collection_times": [{"days": "Mon-Fri", "time": "4:30pm"}, {"days": "Sat", "time": "11:30am"}, {"days": "Sun", "time": "Closed"}], "id": "2388300002", "name": "USPS COLLECTION BOX - BLUE BOX", "address": {"city": "SURRY", "state": "VA", "street": "91 COLONIAL TRL E", "postcode": "23883"}}},
{"geometry": {"type": "Point", "coordinates": [-76.8332618284, 37.1378509706]}, "type": "Feature", "properties": {"collection_times": [{"days": "Mon-Fri", "time": "4:30pm"}, {"days": "Sat", "time": "11:30am"}, {"days": "Sun", "time": "Closed"}], "id": "2388300003", "name": "USPS COLLECTION BOX - PO LOBBY", "address": {"city": "SURRY", "state": "VA", "street": "91 COLONIAL TRL E", "postcode": "23883"}}},
{"geometry": {"type": "Point", "coordinates": [-77.2793897961, 36.915391164]}, "type": "Feature", "properties": {"collection_times": [{"days": "Mon-Fri", "time": "4:45pm"}, {"days": "Sat", "time": "12:15pm"}, {"days": "Sun", "time": "Closed"}], "id": "2388400001", "name": "USPS COLLECTION BOX - BLUE BOX", "address": {"city": "SUSSEX", "state": "VA", "street": "15083 COURTHOUSE RD", "postcode": "23884"}}},
{"geometry": {"type": "Point", "coordinates": [-77.2794953649, 36.9206592401]}, "type": "Feature", "properties": {"collection_times": [{"days": "Mon-Fri", "time": "4:45pm"}, {"days": "Sat", "time": "12:15pm"}, {"days": "Sun", "time": "Closed"}], "id": "2388400002", "name": "USPS COLLECTION BOX - PO LOBBY", "address": {"city": "SUSSEX", "state": "VA", "street": "15083 COURTHOUSE RD", "postcode": "23884"}}},
{"geometry": {"type": "Point", "coordinates": [-77.5588472723, 37.1973449839]}, "type": "Feature", "properties": {"collection_times": [{"days": "Mon-Fri", "time": "4:30pm"}, {"days": "Sat", "time": "10:30am"}, {"days": "Sun", "time": "Closed"}], "id": "2388500001", "name": "USPS COLLECTION BOX - BLUE BOX", "address": {"city": "SUTHERLAND", "state": "VA", "street": "5503 HART RD", "postcode": "23885"}}},
{"geometry": {"type": "Point", "coordinates": [-77.5588472723, 37.1973449839]}, "type": "Feature", "properties": {"collection_times": [{"days": "Mon-Fri", "time": "4:45pm"}, {"days": "Sat", "time": "11:00am"}, {"days": "Sun", "time": "Closed"}], "id": "2388500002", "name": "USPS COLLECTION BOX - PO LOBBY", "address": {"city": "SUTHERLAND", "state": "VA", "street": "5503 HART RD", "postcode": "23885"}}},
{"geometry": {"type": "Point", "coordinates": [-77.8297188598, 36.5885301283]}, "type": "Feature", "properties": {"collection_times": [{"days": "Mon-Fri", "time": "4:15pm"}, {"days": "Sat", "time": "11:30am"}, {"days": "Sun", "time": "Closed"}], "id": "2388700000", "name": "USPS COLLECTION BOX - BLUE BOX", "address": {"city": "VALENTINES", "state": "VA", "street": "23 MANNING DR", "postcode": "23887"}}},
{"geometry": {"type": "Point", "coordinates": [-77.8367165046, 36.5639505767]}, "type": "Feature", "properties": {"collection_times": [{"days": "Mon-Sat", "time": "2:00pm"}, {"days": "Sun", "time": "Closed"}], "id": "2388700002", "name": "USPS COLLECTION BOX - BLUE BOX", "address": {"city": "VALENTINES", "state": "VA", "street": "300 LAKE RESORT DR", "postcode": "23887"}}},
{"geometry": {"type": "Point", "coordinates": [-76.987981406, 36.9729247996]}, "type": "Feature", "properties": {"collection_times": [{"days": "Mon-Fri", "time": "4:30pm"}, {"days": "Sat", "time": "10:00am"}, {"days": "Sun", "time": "Closed"}], "id": "2388800001", "name": "USPS COLLECTION BOX - BLUE BOX", "address": {"city": "WAKEFIELD", "state": "VA", "street": "312 W CHURCH ST", "postcode": "23888"}}},
{"geometry": {"type": "Point", "coordinates": [-76.987981406, 36.9729247996]}, "type": "Feature", "properties": {"collection_times": [{"days": "Mon-Fri", "time": "4:30pm"}, {"days": "Sat", "time": "10:00am"}, {"days": "Sun", "time": "Closed"}], "id": "2388800002", "name": "USPS COLLECTION BOX - PO LOBBY", "address": {"city": "WAKEFIELD", "state": "VA", "street": "312 W CHURCH ST", "postcode": "23888"}}},
{"geometry": {"type": "Point", "coordinates": [-77.8105017316, 36.9007379874]}, "type": "Feature", "properties": {"collection_times": [{"days": "Mon-Fri", "time": "4:15pm"}, {"days": "Sat", "time": "11:30am"}, {"days": "Sun", "time": "Closed"}], "id": "2388900001", "name": "USPS COLLECTION BOX - PO LOBBY", "address": {"city": "WARFIELD", "state": "VA", "street": "15243 BOYDTON PLANK RD", "postcode": "23889"}}},
{"geometry": {"type": "Point", "coordinates": [-77.0944495756, 37.0359745376]}, "type": "Feature", "properties": {"collection_times": [{"days": "Mon-Fri", "time": "4:30pm"}, {"days": "Sat", "time": "10:30am"}, {"days": "Sun", "time": "Closed"}], "id": "2389000001", "name": "USPS COLLECTION BOX - BLUE BOX", "address": {"city": "WAVERLY", "state": "VA", "street": "325 W MAIN ST", "postcode": "23890"}}},
{"geometry": {"type": "Point", "coordinates": [-77.0944495756, 37.0359745376]}, "type": "Feature", "properties": {"collection_times": [{"days": "Mon-Fri", "time": "4:30pm"}, {"days": "Sat", "time": "10:30am"}, {"days": "Sun", "time": "Closed"}], "id": "2389000002", "name": "USPS COLLECTION BOX - PO LOBBY", "address": {"city": "WAVERLY", "state": "VA", "street": "325 W MAIN ST", "postcode": "23890"}}},
{"geometry": {"type": "Point", "coordinates": [-77.9608892316, 36.636765491]}, "type": "Feature", "properties": {"collection_times": [{"days": "Mon-Fri", "time": "4:00pm"}, {"days": "Sat", "time": "11:30am"}, {"days": "Sun", "time": "Closed"}], "id": "2389300002", "name": "USPS COLLECTION BOX - PO LOBBY", "address": {"city": "WHITE PLAINS", "state": "VA", "street": "6529 ROBINSON FERRY RD", "postcode": "23893"}}},
{"geometry": {"type": "Point", "coordinates": [-77.8664031168, 37.1396346141]}, "type": "Feature", "properties": {"collection_times": [{"days": "Mon-Fri", "time": "4:30pm"}, {"days": "Sat", "time": "11:15am"}, {"days": "Sun", "time": "Closed"}], "id": "2389400001", "name": "USPS COLLECTION BOX - BLUE BOX", "address": {"city": "WILSONS", "state": "VA", "street": "2120 SPRINGTON RD", "postcode": "23894"}}},
{"geometry": {"type": "Point", "coordinates": [-77.8664031168, 37.1396346141]}, "type": "Feature", "properties": {"collection_times": [{"days": "Mon-Fri", "time": "4:45pm"}, {"days": "Sat", "time": "11:45am"}, {"days": "Sun", "time": "Closed"}], "id": "2389400002", "name": "USPS COLLECTION BOX - PO LOBBY", "address": {"city": "WILSONS", "state": "VA", "street": "2120 SPRINGTON RD", "postcode": "23894"}}},
{"geometry": {"type": "Point", "coordinates": [-77.2894576218, 36.8350819063]}, "type": "Feature", "properties": {"collection_times": [{"days": "Mon-Fri", "time": "2:00pm"}, {"days": "Sat", "time": "11:15am"}, {"days": "Sun", "time": "Closed"}], "id": "2389700002", "name": "USPS COLLECTION BOX - PO LOBBY", "address": {"city": "YALE", "state": "VA", "street": "20123 COURTHOUSE RD", "postcode": "23897"}}},
{"geometry": {"type": "Point", "coordinates": [-76.829775131, 36.8665142048]}, "type": "Feature", "properties": {"collection_times": [{"days": "Mon-Fri", "time": "4:30pm"}, {"days": "Sat", "time": "11:00am"}, {"days": "Sun", "time": "Closed"}], "id": "2389800001", "name": "USPS COLLECTION BOX - BLUE BOX", "address": {"city": "ZUNI", "state": "VA", "street": "5375 WINDSOR BLVD", "postcode": "23898"}}},
{"geometry": {"type": "Point", "coordinates": [-76.829775131, 36.8665142048]}, "type": "Feature", "properties": {"collection_times": [{"days": "Mon-Fri", "time": "4:30pm"}, {"days": "Sat", "time": "11:00am"}, {"days": "Sun", "time": "Closed"}], "id": "2389800002", "name": "USPS COLLECTION BOX - PO LOBBY", "address": {"city": "ZUNI", "state": "VA", "street": "5375 WINDSOR BLVD", "postcode": "23898"}}},
{"geometry": {"type": "Point", "coordinates": [-76.965941526, 37.2247137458]}, "type": "Feature", "properties": {"collection_times": [{"days": "Mon-Fri", "time": "4:00pm"}, {"days": "Sat", "time": "11:45am"}, {"days": "Sun", "time": "Closed"}], "id": "2389900001", "name": "USPS COLLECTION BOX - BLUE BOX", "address": {"city": "CLAREMONT", "state": "VA", "street": "3962 SPRING GROVE AVE", "postcode": "23899"}}},
{"geometry": {"type": "Point", "coordinates": [-76.965941526, 37.2247137458]}, "type": "Feature", "properties": {"collection_times": [{"days": "Mon-Fri", "time": "4:45pm"}, {"days": "Sat", "time": "11:45am"}, {"days": "Sun", "time": "Closed"}], "id": "2389900002", "name": "USPS COLLECTION BOX - PO LOBBY", "address": {"city": "CLAREMONT", "state": "VA", "street": "3962 SPRING GROVE AVE", "postcode": "23899"}}}
]}
