{"type": "FeatureCollection", "features": [
{"geometry": {"type": "Point", "coordinates": [-78.39564151, 37.283971369]}, "type": "Feature", "properties": {"collection_times": [{"days": "Mon-Sat", "time": "12:00pm"}, {"days": "Sun", "time": "Closed"}], "id": "2390100004", "name": "USPS COLLECTION BOX - BLUE BOX", "address": {"city": "FARMVILLE", "state": "VA", "street": "1506 S MAIN ST", "postcode": "23901"}}},
{"geometry": {"type": "Point", "coordinates": [-78.414216657, 37.305269071]}, "type": "Feature", "properties": {"collection_times": [{"days": "Mon-Sat", "time": "11:15am"}, {"days": "Sun", "time": "Closed"}], "id": "2390100008", "name": "USPS COLLECTION BOX - BLUE BOX", "address": {"city": "FARMVILLE", "state": "VA", "street": "1517 W 3RD ST", "postcode": "23901"}}},
{"geometry": {"type": "Point", "coordinates": [-78.392782707, 37.301655452]}, "type": "Feature", "properties": {"collection_times": [{"days": "Mon-Sat", "time": "1:00pm"}, {"days": "Sun", "time": "Closed"}], "id": "2390100010", "name": "USPS COLLECTION BOX - BLUE BOX", "address": {"city": "FARMVILLE", "state": "VA", "street": "118 N MAIN ST", "postcode": "23901"}}},
{"geometry": {"type": "Point", "coordinates": [-78.39026617, 37.30023732]}, "type": "Feature", "properties": {"collection_times": [{"days": "Mon-Fri", "time": "5:00pm"}, {"days": "Sat", "time": "4:00pm"}, {"days": "Sun", "time": "Closed"}], "id": "2390100014", "name": "USPS COLLECTION BOX - BLUE BOX", "address": {"city": "FARMVILLE", "state": "VA", "street": "116 N VIRGINIA ST", "postcode": "23901"}}},
{"geometry": {"type": "Point", "coordinates": [-78.398339982, 37.278032274]}, "type": "Feature", "properties": {"collection_times": [{"days": "Mon-Sat", "time": "12:00pm"}, {"days": "Sun", "time": "Closed"}], "id": "2390100016", "name": "USPS COLLECTION BOX - BLUE BOX", "address": {"city": "FARMVILLE", "state": "VA", "street": "1800 PEERY DR", "postcode": "23901"}}},
{"geometry": {"type": "Point", "coordinates": [-78.389481732, 37.301457492]}, "type": "Feature", "properties": {"collection_times": [{"days": "Mon-Fri", "time": "5:00pm"}, {"days": "Sat", "time": "4:00pm"}, {"days": "Sun", "time": "Closed"}], "id": "2390100017", "name": "USPS COLLECTION BOX - PO LOBBY", "address": {"city": "FARMVILLE", "state": "VA", "street": "301 E 3RD ST", "postcode": "23901"}}},
{"geometry": {"type": "Point", "coordinates": [-78.394333562, 37.30160751]}, "type": "Feature", "properties": {"collection_times": [{"days": "Mon-Sat", "time": "9:00am"}, {"days": "Sun", "time": "Closed"}], "id": "2390100026", "name": "USPS COLLECTION BOX - BLUE BOX", "address": {"city": "FARMVILLE", "state": "VA", "street": "201 HIGH ST", "postcode": "23901"}}},
{"geometry": {"type": "Point", "coordinates": [-78.3894817323, 37.3014574919]}, "type": "Feature", "properties": {"collection_times": [{"days": "Mon-Fri", "time": "5:00pm"}, {"days": "Sat", "time": "4:00pm"}, {"days": "Sun", "time": "Closed"}], "id": "2390100029", "name": "USPS COLLECTION BOX - PO LOBBY", "address": {"city": "FARMVILLE", "state": "VA", "street": "301 E 3RD ST", "postcode": "23901"}}},
{"geometry": {"type": "Point", "coordinates": [-78.2771039004, 36.690868803]}, "type": "Feature", "properties": {"collection_times": [{"days": "Mon-Fri", "time": "3:45pm"}, {"days": "Sat", "time": "11:30am"}, {"days": "Sun", "time": "Closed"}], "id": "2391500000", "name": "USPS COLLECTION BOX - BLUE BOX", "address": {"city": "BASKERVILLE", "state": "VA", "street": "4444 BASKERVILLE RD", "postcode": "23915"}}},
{"geometry": {"type": "Point", "coordinates": [-78.2771039004, 36.690868803]}, "type": "Feature", "properties": {"collection_times": [{"days": "Mon-Fri", "time": "3:45pm"}, {"days": "Sat", "time": "11:30am"}, {"days": "Sun", "time": "Closed"}], "id": "2391500001", "name": "USPS COLLECTION BOX - PO LOBBY", "address": {"city": "BASKERVILLE", "state": "VA", "street": "4444 BASKERVILLE RD", "postcode": "23915"}}},
{"geometry": {"type": "Point", "coordinates": [-78.3924699672, 36.6675004811]}, "type": "Feature", "properties": {"collection_times": [{"days": "Mon-Fri", "time": "4:10pm"}, {"days": "Sat", "time": "11:30am"}, {"days": "Sun", "time": "Closed"}], "id": "2391700000", "name": "USPS COLLECTION BOX - BLUE BOX", "address": {"city": "BOYDTON", "state": "VA", "street": "419 MADISON ST", "postcode": "23917"}}},
{"geometry": {"type": "Point", "coordinates": [-78.3924699672, 36.6675004811]}, "type": "Feature", "properties": {"collection_times": [{"days": "Mon-Fri", "time": "4:10pm"}, {"days": "Sat", "time": "11:30am"}, {"days": "Sun", "time": "Closed"}], "id": "2391700002", "name": "USPS COLLECTION BOX - PO LOBBY", "address": {"city": "BOYDTON", "state": "VA", "street": "419 MADISON ST", "postcode": "23917"}}},
{"geometry": {"type": "Point", "coordinates": [-78.116678244, 36.5795925965]}, "type": "Feature", "properties": {"collection_times": [{"days": "Mon-Fri", "time": "4:00pm"}, {"days": "Sat", "time": "12:00pm"}, {"days": "Sun", "time": "Closed"}], "id": "2391900000", "name": "USPS COLLECTION BOX - PO LOBBY", "address": {"city": "BRACEY", "state": "VA", "street": "3913 HIGHWAY NINE ZERO THREE", "postcode": "23919"}}},
{"geometry": {"type": "Point", "coordinates": [-78.116678244, 36.5795925965]}, "type": "Feature", "properties": {"collection_times": [{"days": "Mon-Fri", "time": "3:50pm"}, {"days": "Sat", "time": "12:00pm"}, {"days": "Sun", "time": "Closed"}], "id": "2391900001", "name": "USPS COLLECTION BOX - BLUE BOX", "address": {"city": "BRACEY", "state": "VA", "street": "3913 HIGHWAY NINE ZERO THREE", "postcode": "23919"}}},
{"geometry": {"type": "Point", "coordinates": [-78.0570607666, 36.5762547]}, "type": "Feature", "properties": {"collection_times": [{"days": "Mon-Sat", "time": "12:00pm"}, {"days": "Sun", "time": "Closed"}], "id": "2391900002", "name": "USPS COLLECTION BOX - BLUE BOX", "address": {"city": "BRACEY", "state": "VA", "street": "74 TANGLEWOOD DR", "postcode": "23919"}}},
{"geometry": {"type": "Point", "coordinates": [-78.0287748243, 36.7068980785]}, "type": "Feature", "properties": {"collection_times": [{"days": "Mon-Fri", "time": "4:00pm"}, {"days": "Sat", "time": "11:30am"}, {"days": "Sun", "time": "Closed"}], "id": "2392000000", "name": "USPS COLLECTION BOX - BLUE BOX", "address": {"city": "BRODNAX", "state": "VA", "street": "460 PINEY POND RD", "postcode": "23920"}}},
{"geometry": {"type": "Point", "coordinates": [-78.0287748243, 36.7068980785]}, "type": "Feature", "properties": {"collection_times": [{"days": "Mon-Fri", "time": "4:00pm"}, {"days": "Sat", "time": "11:30am"}, {"days": "Sun", "time": "Closed"}], "id": "2392000001", "name": "USPS COLLECTION BOX - PO LOBBY", "address": {"city": "BRODNAX", "state": "VA", "street": "460 PINEY POND RD", "postcode": "23920"}}},
{"geometry": {"type": "Point", "coordinates": [-78.5489369371, 37.547394504]}, "type": "Feature", "properties": {"collection_times": [{"days": "Mon-Fri", "time": "4:30pm"}, {"days": "Sat", "time": "10:30am"}, {"days": "Sun", "time": "Closed"}], "id": "2392100001", "name": "USPS COLLECTION BOX - BLUE BOX", "address": {"city": "BUCKINGHAM", "state": "VA", "street": "4241 OAK HILL RD", "postcode": "23921"}}},
{"geometry": {"type": "Point", "coordinates": [-78.5489369371, 37.547394504]}, "type": "Feature", "properties": {"collection_times": [{"days": "Mon-Fri", "time": "4:30pm"}, {"days": "Sat", "time": "10:30am"}, {"days": "Sun", "time": "Closed"}], "id": "2392100002", "name": "USPS COLLECTION BOX - PO LOBBY", "address": {"city": "BUCKINGHAM", "state": "VA", "street": "4241 OAK HILL RD", "postcode": "23921"}}},
{"geometry": {"type": "Point", "coordinates": [-78.2012852489, 37.1864379803]}, "type": "Feature", "properties": {"collection_times": [{"days": "Mon-Fri", "time": "4:50pm"}, {"days": "Sat", "time": "11:50am"}, {"days": "Sun", "time": "Closed"}], "id": "2392200000", "name": "USPS COLLECTION BOX - BLUE BOX", "address": {"city": "BURKEVILLE", "state": "VA", "street": "204 S AGNEW ST", "postcode": "23922"}}},
{"geometry": {"type": "Point", "coordinates": [-78.2012852489, 37.1864379803]}, "type": "Feature", "properties": {"collection_times": [{"days": "Mon-Fri", "time": "5:00pm"}, {"days": "Sat", "time": "12:00pm"}, {"days": "Sun", "time": "Closed"}], "id": "2392200001", "name": "USPS COLLECTION BOX - PO LOBBY", "address": {"city": "BURKEVILLE", "state": "VA", "street": "204 S AGNEW ST", "postcode": "23922"}}},
{"geometry": {"type": "Point", "coordinates": [-78.6539677252, 37.0550777099]}, "type": "Feature", "properties": {"collection_times": [{"days": "Mon-Fri", "time": "4:00pm"}, {"days": "Sat", "time": "12:00pm"}, {"days": "Sun", "time": "Closed"}], "id": "2392300000", "name": "USPS COLLECTION BOX - BLUE BOX", "address": {"city": "CHARLOTTE C H", "state": "VA", "street": "140 DAVID BRUCE AVE", "postcode": "23923"}}},
{"geometry": {"type": "Point", "coordinates": [-78.6539677252, 37.0550777099]}, "type": "Feature", "properties": {"collection_times": [{"days": "Mon-Fri", "time": "4:00pm"}, {"days": "Sat", "time": "12:00pm"}, {"days": "Sun", "time": "Closed"}], "id": "2392300001", "name": "USPS COLLECTION BOX - PO LOBBY", "address": {"city": "CHARLOTTE C H", "state": "VA", "street": "140 DAVID BRUCE AVE", "postcode": "23923"}}},
{"geometry": {"type": "Point", "coordinates": [-78.4593709685, 36.8010829505]}, "type": "Feature", "properties": {"collection_times": [{"days": "Mon-Fri", "time": "4:15pm"}, {"days": "Sat", "time": "2:30pm"}, {"days": "Sun", "time": "Closed"}], "id": "2392400000", "name": "USPS COLLECTION BOX - BLUE BOX", "address": {"city": "CHASE CITY", "state": "VA", "street": "400 N MAIN ST", "postcode": "23924"}}},
{"geometry": {"type": "Point", "coordinates": [-78.4592381238, 36.8010388533]}, "type": "Feature", "properties": {"collection_times": [{"days": "Mon-Fri", "time": "4:15pm"}, {"days": "Sat", "time": "2:30pm"}, {"days": "Sun", "time": "Closed"}], "id": "2392400004", "name": "USPS COLLECTION BOX - BLUE BOX", "address": {"city": "CHASE CITY", "state": "VA", "street": "300 WALKER ST", "postcode": "23924"}}},
{"geometry": {"type": "Point", "coordinates": [-78.4632559175, 36.8089175942]}, "type": "Feature", "properties": {"collection_times": [{"days": "Mon-Fri", "time": "4:15pm"}, {"days": "Sat", "time": "2:30pm"}, {"days": "Sun", "time": "Closed"}], "id": "2392400005", "name": "USPS COLLECTION BOX - BLUE BOX", "address": {"city": "CHASE CITY", "state": "VA", "street": "960 N MAIN ST", "postcode": "23924"}}},
{"geometry": {"type": "Point", "coordinates": [-78.4587229904, 36.7993601752]}, "type": "Feature", "properties": {"collection_times": [{"days": "Mon-Fri", "time": "4:15pm"}, {"days": "Sat", "time": "2:30pm"}, {"days": "Sun", "time": "Closed"}], "id": "2392400007", "name": "USPS COLLECTION BOX - BLUE BOX", "address": {"city": "CHASE CITY", "state": "VA", "street": "211 N MAIN ST", "postcode": "23924"}}},
{"geometry": {"type": "Point", "coordinates": [-78.445568481, 36.801118664]}, "type": "Feature", "properties": {"collection_times": [{"days": "Mon-Sat", "time": "9:00am"}, {"days": "Sun", "time": "Closed"}], "id": "2392400009", "name": "USPS COLLECTION BOX - BLUE BOX", "address": {"city": "CHASE CITY", "state": "VA", "street": "600 CHASE AVE", "postcode": "23924"}}},
{"geometry": {"type": "Point", "coordinates": [-78.4632559175, 36.8089175942]}, "type": "Feature", "properties": {"collection_times": [{"days": "Mon-Fri", "time": "4:15pm"}, {"days": "Sat", "time": "2:30pm"}, {"days": "Sun", "time": "Closed"}], "id": "2392400011", "name": "USPS COLLECTION BOX - PO LOBBY", "address": {"city": "CHASE CITY", "state": "VA", "street": "960 N MAIN ST", "postcode": "23924"}}},
{"geometry": {"type": "Point", "coordinates": [-78.5583855848, 36.6266350276]}, "type": "Feature", "properties": {"collection_times": [{"days": "Mon-Fri", "time": "3:45pm"}, {"days": "Sat", "time": "11:45am"}, {"days": "Sun", "time": "Closed"}], "id": "2392700001", "name": "USPS COLLECTION BOX - PO LOBBY", "address": {"city": "CLARKSVILLE", "state": "VA", "street": "104 4TH ST", "postcode": "23927"}}},
{"geometry": {"type": "Point", "coordinates": [-78.5583855848, 36.6266350276]}, "type": "Feature", "properties": {"collection_times": [{"days": "Mon-Fri", "time": "3:45pm"}, {"days": "Sat", "time": "11:30am"}, {"days": "Sun", "time": "Closed"}], "id": "2392700002", "name": "USPS COLLECTION BOX - BLUE BOX", "address": {"city": "CLARKSVILLE", "state": "VA", "street": "104 4TH ST", "postcode": "23927"}}},
{"geometry": {"type": "Point", "coordinates": [-78.1235289895, 37.1764718956]}, "type": "Feature", "properties": {"collection_times": [{"days": "Mon-Fri", "time": "4:30pm"}, {"days": "Sat", "time": "12:00pm"}, {"days": "Sun", "time": "Closed"}], "id": "2393000007", "name": "USPS COLLECTION BOX - BLUE BOX", "address": {"city": "CREWE", "state": "VA", "street": "101 W TENNESSEE AVE", "postcode": "23930"}}},
{"geometry": {"type": "Point", "coordinates": [-78.1235289895, 37.1764718956]}, "type": "Feature", "properties": {"collection_times": [{"days": "Mon-Fri", "time": "4:45pm"}, {"days": "Sat", "time": "12:00pm"}, {"days": "Sun", "time": "Closed"}], "id": "2393000010", "name": "USPS COLLECTION BOX - PO LOBBY", "address": {"city": "CREWE", "state": "VA", "street": "101 W TENNESSEE AVE", "postcode": "23930"}}},
{"geometry": {"type": "Point", "coordinates": [-78.6493013302, 37.1177838193]}, "type": "Feature", "properties": {"collection_times": [{"days": "Mon-Fri", "time": "3:45pm"}, {"days": "Sat", "time": "11:45am"}, {"days": "Sun", "time": "Closed"}], "id": "2393400001", "name": "USPS COLLECTION BOX - PO LOBBY", "address": {"city": "CULLEN", "state": "VA", "street": "4304 THOMAS JEFFERSON HWY", "postcode": "23934"}}},
{"geometry": {"type": "Point", "coordinates": [-78.4657568512, 37.5455247511]}, "type": "Feature", "properties": {"collection_times": [{"days": "Mon-Fri", "time": "4:30pm"}, {"days": "Sat", "time": "11:00am"}, {"days": "Sun", "time": "Closed"}], "id": "2393600000", "name": "USPS COLLECTION BOX - BLUE BOX", "address": {"city": "DILLWYN", "state": "VA", "street": "16625 OAK ST", "postcode": "23936"}}},
{"geometry": {"type": "Point", "coordinates": [-78.4951971647, 37.4669439734]}, "type": "Feature", "properties": {"collection_times": [{"days": "Mon-Fri", "time": "4:30pm"}, {"days": "Sat", "time": "11:00am"}, {"days": "Sun", "time": "Closed"}], "id": "2393600001", "name": "USPS COLLECTION BOX - PO LOBBY", "address": {"city": "DILLWYN", "state": "VA", "street": "16625 OAK ST", "postcode": "23936"}}},
{"geometry": {"type": "Point", "coordinates": [-78.4951971647, 37.4669439734]}, "type": "Feature", "properties": {"collection_times": [{"days": "Mon-Fri", "time": "4:30pm"}, {"days": "Sat", "time": "11:00am"}, {"days": "Sun", "time": "Closed"}], "id": "2393600002", "name": "USPS COLLECTION BOX - PO LOBBY", "address": {"city": "DILLWYN", "state": "VA", "street": "16625 OAK ST", "postcode": "23936"}}},
{"geometry": {"type": "Point", "coordinates": [-78.6015454893, 36.9931396158]}, "type": "Feature", "properties": {"collection_times": [{"days": "Mon-Fri", "time": "3:30pm"}, {"days": "Sat", "time": "12:00pm"}, {"days": "Sun", "time": "Closed"}], "id": "2393700000", "name": "USPS COLLECTION BOX - BLUE BOX", "address": {"city": "DRAKES BRANCH", "state": "VA", "street": "4871 DRAKES MAIN ST", "postcode": "23937"}}},
{"geometry": {"type": "Point", "coordinates": [-78.6015454893, 36.9931396158]}, "type": "Feature", "properties": {"collection_times": [{"days": "Mon-Fri", "time": "3:30pm"}, {"days": "Sat", "time": "12:00pm"}, {"days": "Sun", "time": "Closed"}], "id": "2393700001", "name": "USPS COLLECTION BOX - PO LOBBY", "address": {"city": "DRAKES BRANCH", "state": "VA", "street": "4871 DRAKES MAIN ST", "postcode": "23937"}}},
{"geometry": {"type": "Point", "coordinates": [-78.6015454893, 36.9931396158]}, "type": "Feature", "properties": {"collection_times": [{"days": "Mon-Fri", "time": "3:30pm"}, {"days": "Sat", "time": "12:00pm"}, {"days": "Sun", "time": "Closed"}], "id": "2393700002", "name": "USPS COLLECTION BOX - PO LOBBY", "address": {"city": "DRAKES BRANCH", "state": "VA", "street": "4871 DRAKES MAIN ST", "postcode": "23937"}}},
{"geometry": {"type": "Point", "coordinates": [-78.0802506999, 36.9244579282]}, "type": "Feature", "properties": {"collection_times": [{"days": "Mon-Fri", "time": "4:00pm"}, {"days": "Sat", "time": "11:00am"}, {"days": "Sun", "time": "Closed"}], "id": "2393800000", "name": "USPS COLLECTION BOX - BLUE BOX", "address": {"city": "DUNDAS", "state": "VA", "street": "4091 DUNDAS RD", "postcode": "23938"}}},
{"geometry": {"type": "Point", "coordinates": [-78.0802506999, 36.9244579282]}, "type": "Feature", "properties": {"collection_times": [{"days": "Mon-Fri", "time": "4:00pm"}, {"days": "Sat", "time": "11:00am"}, {"days": "Sun", "time": "Closed"}], "id": "2393800001", "name": "USPS COLLECTION BOX - PO LOBBY", "address": {"city": "DUNDAS", "state": "VA", "street": "4091 DUNDAS RD", "postcode": "23938"}}},
{"geometry": {"type": "Point", "coordinates": [-78.3052268423, 37.1348042195]}, "type": "Feature", "properties": {"collection_times": [{"days": "Mon-Fri", "time": "4:30pm"}, {"days": "Sat", "time": "11:45am"}, {"days": "Sun", "time": "Closed"}], "id": "2394200000", "name": "USPS COLLECTION BOX - BLUE BOX", "address": {"city": "GREEN BAY", "state": "VA", "street": "8278 W PATRICK HENRY HWY", "postcode": "23942"}}},
{"geometry": {"type": "Point", "coordinates": [-78.3052268423, 37.1348042195]}, "type": "Feature", "properties": {"collection_times": [{"days": "Mon-Fri", "time": "4:30pm"}, {"days": "Sat", "time": "11:45am"}, {"days": "Sun", "time": "Closed"}], "id": "2394200001", "name": "USPS COLLECTION BOX - PO LOBBY", "address": {"city": "GREEN BAY", "state": "VA", "street": "8278 W PATRICK HENRY HWY", "postcode": "23942"}}},
{"geometry": {"type": "Point", "coordinates": [-78.124073894, 36.9631971721]}, "type": "Feature", "properties": {"collection_times": [{"days": "Mon-Fri", "time": "3:30pm"}, {"days": "Sat", "time": "8:00am"}, {"days": "Sun", "time": "Closed"}], "id": "2394400000", "name": "USPS COLLECTION BOX - BLUE BOX", "address": {"city": "KENBRIDGE", "state": "VA", "street": "118 E 5TH AVE", "postcode": "23944"}}},
{"geometry": {"type": "Point", "coordinates": [-78.124073894, 36.9631971721]}, "type": "Feature", "properties": {"collection_times": [{"days": "Mon-Fri", "time": "3:30pm"}, {"days": "Sat", "time": "9:45am"}, {"days": "Sun", "time": "Closed"}], "id": "2394400002", "name": "USPS COLLECTION BOX - PO LOBBY", "address": {"city": "KENBRIDGE", "state": "VA", "street": "118 E 5TH AVE", "postcode": "23944"}}},
{"geometry": {"type": "Point", "coordinates": [-78.4817355554, 37.0397658877]}, "type": "Feature", "properties": {"collection_times": [{"days": "Mon-Fri", "time": "4:15pm"}, {"days": "Sat", "time": "12:00pm"}, {"days": "Sun", "time": "Closed"}], "id": "2394700000", "name": "USPS COLLECTION BOX - BLUE BOX", "address": {"city": "KEYSVILLE", "state": "VA", "street": "225 KING ST", "postcode": "23947"}}},
{"geometry": {"type": "Point", "coordinates": [-78.4817355554, 37.0397658877]}, "type": "Feature", "properties": {"collection_times": [{"days": "Mon-Fri", "time": "4:15pm"}, {"days": "Sat", "time": "12:00pm"}, {"days": "Sun", "time": "Closed"}], "id": "2394700001", "name": "USPS COLLECTION BOX - PO LOBBY", "address": {"city": "KEYSVILLE", "state": "VA", "street": "225 KING ST", "postcode": "23947"}}},
{"geometry": {"type": "Point", "coordinates": [-78.0938120773, 36.6950610747]}, "type": "Feature", "properties": {"collection_times": [{"days": "Mon-Fri", "time": "4:00pm"}, {"days": "Sat", "time": "11:00am"}, {"days": "Sun", "time": "Closed"}], "id": "2395000003", "name": "USPS COLLECTION BOX - PO LOBBY", "address": {"city": "LA CROSSE", "state": "VA", "street": "50 SAINT TAMMANY RD", "postcode": "23950"}}},
{"geometry": {"type": "Point", "coordinates": [-78.2616944729, 36.9624344093]}, "type": "Feature", "properties": {"collection_times": [{"days": "Mon-Fri", "time": "3:30pm"}, {"days": "Sat", "time": "11:30am"}, {"days": "Sun", "time": "Closed"}], "id": "2395200000", "name": "USPS COLLECTION BOX - BLUE BOX", "address": {"city": "LUNENBURG", "state": "VA", "street": "11452 COURTHOUSE RD", "postcode": "23952"}}},
{"geometry": {"type": "Point", "coordinates": [-78.3796333534, 37.0872960103]}, "type": "Feature", "properties": {"collection_times": [{"days": "Mon-Fri", "time": "4:15pm"}, {"days": "Sat", "time": "11:15am"}, {"days": "Sun", "time": "Closed"}], "id": "2395400001", "name": "USPS COLLECTION BOX - PO LOBBY", "address": {"city": "MEHERRIN", "state": "VA", "street": "495 MOORES ORDINARY RD", "postcode": "23954"}}},
{"geometry": {"type": "Point", "coordinates": [-78.3958578824, 37.1031831392]}, "type": "Feature", "properties": {"collection_times": [{"days": "Mon-Fri", "time": "2:00pm"}, {"days": "Sat", "time": "10:00am"}, {"days": "Sun", "time": "Closed"}], "id": "2395400003", "name": "USPS COLLECTION BOX - BLUE BOX", "address": {"city": "MEHERRIN", "state": "VA", "street": "518 MOORES ORDINARY RD", "postcode": "23954"}}},
{"geometry": {"type": "Point", "coordinates": [-78.0795664003, 37.1295103745]}, "type": "Feature", "properties": {"collection_times": [{"days": "Mon-Fri", "time": "4:30pm"}, {"days": "Sat", "time": "11:30am"}, {"days": "Sun", "time": "Closed"}], "id": "2395500000", "name": "USPS COLLECTION BOX - BLUE BOX", "address": {"city": "NOTTOWAY", "state": "VA", "street": "329 W COURTHOUSE RD", "postcode": "23955"}}},
{"geometry": {"type": "Point", "coordinates": [-78.0795664003, 37.1295103745]}, "type": "Feature", "properties": {"collection_times": [{"days": "Mon-Fri", "time": "4:30pm"}, {"days": "Sat", "time": "11:30am"}, {"days": "Sun", "time": "Closed"}], "id": "2395500001", "name": "USPS COLLECTION BOX - PO LOBBY", "address": {"city": "NOTTOWAY", "state": "VA", "street": "329 W COURTHOUSE RD", "postcode": "23955"}}},
{"geometry": {"type": "Point", "coordinates": [-78.7470544678, 37.080474437]}, "type": "Feature", "properties": {"collection_times": [{"days": "Mon-Fri", "time": "3:15pm"}, {"days": "Sat", "time": "12:00pm"}, {"days": "Sun", "time": "Closed"}], "id": "2395900000", "name": "USPS COLLECTION BOX - BLUE BOX", "address": {"city": "PHENIX", "state": "VA", "street": "6836 PHENIX MAIN ST", "postcode": "23959"}}},
{"geometry": {"type": "Point", "coordinates": [-78.7470544678, 37.080474437]}, "type": "Feature", "properties": {"collection_times": [{"days": "Mon-Fri", "time": "3:15pm"}, {"days": "Sat", "time": "12:00pm"}, {"days": "Sun", "time": "Closed"}], "id": "2395900001", "name": "USPS COLLECTION BOX - PO LOBBY", "address": {"city": "PHENIX", "state": "VA", "street": "6836 PHENIX MAIN ST", "postcode": "23959"}}},
{"geometry": {"type": "Point", "coordinates": [-78.5592942937, 37.3036551059]}, "type": "Feature", "properties": {"collection_times": [{"days": "Mon-Fri", "time": "4:00pm"}, {"days": "Sat", "time": "11:45am"}, {"days": "Sun", "time": "Closed"}], "id": "2396000000", "name": "USPS COLLECTION BOX - BLUE BOX", "address": {"city": "PROSPECT", "state": "VA", "street": "152 PROSPECT RD", "postcode": "23960"}}},
{"geometry": {"type": "Point", "coordinates": [-78.5592942937, 37.3036551059]}, "type": "Feature", "properties": {"collection_times": [{"days": "Mon-Fri", "time": "4:00pm"}, {"days": "Sat", "time": "12:00pm"}, {"days": "Sun", "time": "Closed"}], "id": "2396000001", "name": "USPS COLLECTION BOX - PO LOBBY", "address": {"city": "PROSPECT", "state": "VA", "street": "152 PROSPECT RD", "postcode": "23960"}}},
{"geometry": {"type": "Point", "coordinates": [-78.7060885465, 36.9491559251]}, "type": "Feature", "properties": {"collection_times": [{"days": "Mon-Fri", "time": "3:10pm"}, {"days": "Sat", "time": "11:50am"}, {"days": "Sun", "time": "Closed"}], "id": "2396200001", "name": "USPS COLLECTION BOX - PO LOBBY", "address": {"city": "RANDOLPH", "state": "VA", "street": "6000 ROANOKE STATION RD", "postcode": "23962"}}},
{"geometry": {"type": "Point", "coordinates": [-78.8078577382, 37.200664962]}, "type": "Feature", "properties": {"collection_times": [{"days": "Mon-Fri", "time": "3:00pm"}, {"days": "Sat", "time": "12:00pm"}, {"days": "Sun", "time": "Closed"}], "id": "2396300000", "name": "USPS COLLECTION BOX - BLUE BOX", "address": {"city": "RED HOUSE", "state": "VA", "street": "9699 RED HOUSE RD", "postcode": "23963"}}},
{"geometry": {"type": "Point", "coordinates": [-78.8117270172, 37.1882691456]}, "type": "Feature", "properties": {"collection_times": [{"days": "Mon-Fri", "time": "3:00pm"}, {"days": "Sat", "time": "12:00pm"}, {"days": "Sun", "time": "Closed"}], "id": "2396300001", "name": "USPS COLLECTION BOX - PO LOBBY", "address": {"city": "RED HOUSE", "state": "VA", "street": "9699 RED HOUSE RD", "postcode": "23963"}}},
{"geometry": {"type": "Point", "coordinates": [-78.6234463712, 36.7697990892]}, "type": "Feature", "properties": {"collection_times": [{"days": "Mon-Fri", "time": "3:20pm"}, {"days": "Sat", "time": "12:00pm"}, {"days": "Sun", "time": "Closed"}], "id": "2396400001", "name": "USPS COLLECTION BOX - PO LOBBY", "address": {"city": "RED OAK", "state": "VA", "street": "6025 BARNESVILLE HWY", "postcode": "23964"}}},
{"geometry": {"type": "Point", "coordinates": [-78.2934827673, 37.2703432371]}, "type": "Feature", "properties": {"collection_times": [{"days": "Mon-Fri", "time": "4:30pm"}, {"days": "Sat", "time": "11:30am"}, {"days": "Sun", "time": "Closed"}], "id": "2396600001", "name": "USPS COLLECTION BOX - PO LOBBY", "address": {"city": "RICE", "state": "VA", "street": "658 RICES DEPOT RD", "postcode": "23966"}}},
{"geometry": {"type": "Point", "coordinates": [-78.2773087523, 37.2790906869]}, "type": "Feature", "properties": {"collection_times": [{"days": "Mon-Sat", "time": "12:30pm"}, {"days": "Sun", "time": "Closed"}], "id": "2396600004", "name": "USPS COLLECTION BOX - BLUE BOX", "address": {"city": "RICE", "state": "VA", "street": "23182 PRINCE EDWARD HWY", "postcode": "23966"}}},
{"geometry": {"type": "Point", "coordinates": [-78.6634606327, 36.9292619478]}, "type": "Feature", "properties": {"collection_times": [{"days": "Mon-Fri", "time": "3:40pm"}, {"days": "Sat", "time": "11:30am"}, {"days": "Sun", "time": "Closed"}], "id": "2396700000", "name": "USPS COLLECTION BOX - BLUE BOX", "address": {"city": "SAXE", "state": "VA", "street": "180 HAILEY RD", "postcode": "23967"}}},
{"geometry": {"type": "Point", "coordinates": [-78.6634606327, 36.9292619478]}, "type": "Feature", "properties": {"collection_times": [{"days": "Mon-Fri", "time": "3:40pm"}, {"days": "Sat", "time": "11:30am"}, {"days": "Sun", "time": "Closed"}], "id": "2396700001", "name": "USPS COLLECTION BOX - PO LOBBY", "address": {"city": "SAXE", "state": "VA", "street": "180 HAILEY RD", "postcode": "23967"}}},
{"geometry": {"type": "Point", "coordinates": [-78.4930562852, 36.6971363928]}, "type": "Feature", "properties": {"collection_times": [{"days": "Mon-Fri", "time": "3:40pm"}, {"days": "Sat", "time": "12:00pm"}, {"days": "Sun", "time": "Closed"}], "id": "2396800002", "name": "USPS COLLECTION BOX - BLUE BOX", "address": {"city": "SKIPWITH", "state": "VA", "street": "6000 SKIPWITH RD", "postcode": "23968"}}},
{"geometry": {"type": "Point", "coordinates": [-78.4930562852, 36.6971363928]}, "type": "Feature", "properties": {"collection_times": [{"days": "Mon-Fri", "time": "3:40pm"}, {"days": "Sat", "time": "12:00pm"}, {"days": "Sun", "time": "Closed"}], "id": "2396800003", "name": "USPS COLLECTION BOX - PO LOBBY", "address": {"city": "SKIPWITH", "state": "VA", "street": "6000 SKIPWITH RD", "postcode": "23968"}}},
{"geometry": {"type": "Point", "coordinates": [-78.133002072, 36.73405462]}, "type": "Feature", "properties": {"collection_times": [{"days": "Mon-Fri", "time": "4:00pm"}, {"days": "Sat-Sun", "time": "Closed"}], "id": "2397000002", "name": "USPS COLLECTION BOX - BLUE BOX", "address": {"city": "SOUTH HILL", "state": "VA", "street": "125 BUENA VISTA CIR", "postcode": "23970"}}},
{"geometry": {"type": "Point", "coordinates": [-78.135701162, 36.724959328]}, "type": "Feature", "properties": {"collection_times": [{"days": "Mon-Fri", "time": "11:00am"}, {"days": "Sat-Sun", "time": "Closed"}], "id": "2397000003", "name": "USPS COLLECTION BOX - BLUE BOX", "address": {"city": "SOUTH HILL", "state": "VA", "street": "600 W DANVILLE ST", "postcode": "23970"}}},
{"geometry": {"type": "Point", "coordinates": [-78.129170917, 36.726475558]}, "type": "Feature", "properties": {"collection_times": [{"days": "Mon-Fri", "time": "4:00pm"}, {"days": "Sat-Sun", "time": "Closed"}], "id": "2397000005", "name": "USPS COLLECTION BOX - BLUE BOX", "address": {"city": "SOUTH HILL", "state": "VA", "street": "100 S MECKLENBURG AVE", "postcode": "23970"}}},
{"geometry": {"type": "Point", "coordinates": [-78.118886596, 36.721128804]}, "type": "Feature", "properties": {"collection_times": [{"days": "Mon-Fri", "time": "11:00am"}, {"days": "Sat-Sun", "time": "Closed"}], "id": "2397000006", "name": "USPS COLLECTION BOX - BLUE BOX", "address": {"city": "SOUTH HILL", "state": "VA", "street": "700 E ATLANTIC ST", "postcode": "23970"}}},
{"geometry": {"type": "Point", "coordinates": [-78.117761728, 36.732963693]}, "type": "Feature", "properties": {"collection_times": [{"days": "Mon-Fri", "time": "5:00pm"}, {"days": "Sat", "time": "11:00am"}, {"days": "Sun", "time": "Closed"}], "id": "2397000008", "name": "USPS COLLECTION BOX - BLUE BOX", "address": {"city": "SOUTH HILL", "state": "VA", "street": "216 E FERRELL ST", "postcode": "23970"}}},
{"geometry": {"type": "Point", "coordinates": [-78.117761728, 36.732963693]}, "type": "Feature", "properties": {"collection_times": [{"days": "Mon-Fri", "time": "5:00pm"}, {"days": "Sat", "time": "11:00am"}, {"days": "Sun", "time": "Closed"}], "id": "2397000009", "name": "USPS COLLECTION BOX - BLUE BOX", "address": {"city": "SOUTH HILL", "state": "VA", "street": "216 E FERRELL ST", "postcode": "23970"}}},
{"geometry": {"type": "Point", "coordinates": [-78.129719967, 36.725207155]}, "type": "Feature", "properties": {"collection_times": [{"days": "Mon-Fri", "time": "4:00pm"}, {"days": "Sat-Sun", "time": "Closed"}], "id": "2397000010", "name": "USPS COLLECTION BOX - BLUE BOX", "address": {"city": "SOUTH HILL", "state": "VA", "street": "211 S MECKLENBURG AVE", "postcode": "23970"}}},
{"geometry": {"type": "Point", "coordinates": [-78.117761728, 36.732963693]}, "type": "Feature", "properties": {"collection_times": [{"days": "Mon-Fri", "time": "5:00pm"}, {"days": "Sat", "time": "11:00am"}, {"days": "Sun", "time": "Closed"}], "id": "2397000011", "name": "USPS COLLECTION BOX - PO LOBBY", "address": {"city": "SOUTH HILL", "state": "VA", "street": "216 E FERRELL ST", "postcode": "23970"}}},
{"geometry": {"type": "Point", "coordinates": [-78.117761728, 36.732963693]}, "type": "Feature", "properties": {"collection_times": [{"days": "Mon-Fri", "time": "5:00pm"}, {"days": "Sat", "time": "11:00am"}, {"days": "Sun", "time": "Closed"}], "id": "2397000012", "name": "USPS COLLECTION BOX - PO LOBBY", "address": {"city": "SOUTH HILL", "state": "VA", "street": "216 E FERRELL ST", "postcode": "23970"}}},
{"geometry": {"type": "Point", "coordinates": [-78.125098678, 36.725253776]}, "type": "Feature", "properties": {"collection_times": [{"days": "Mon-Fri", "time": "4:00pm"}, {"days": "Sat-Sun", "time": "Closed"}], "id": "2397000013", "name": "USPS COLLECTION BOX - BLUE BOX", "address": {"city": "SOUTH HILL", "state": "VA", "street": "302 E ATLANTIC ST", "postcode": "23970"}}},
{"geometry": {"type": "Point", "coordinates": [-78.2266811665, 36.9939007117]}, "type": "Feature", "properties": {"collection_times": [{"days": "Mon-Fri", "time": "3:30pm"}, {"days": "Sat", "time": "11:45am"}, {"days": "Sun", "time": "Closed"}], "id": "2397400000", "name": "USPS COLLECTION BOX - BLUE BOX", "address": {"city": "VICTORIA", "state": "VA", "street": "1715 MAIN ST", "postcode": "23974"}}},
{"geometry": {"type": "Point", "coordinates": [-78.2266811665, 36.9939007117]}, "type": "Feature", "properties": {"collection_times": [{"days": "Mon-Fri", "time": "3:45pm"}, {"days": "Sat", "time": "12:00pm"}, {"days": "Sun", "time": "Closed"}], "id": "2397400002", "name": "USPS COLLECTION BOX - PO LOBBY", "address": {"city": "VICTORIA", "state": "VA", "street": "1715 MAIN ST", "postcode": "23974"}}},
{"geometry": {"type": "Point", "coordinates": [-78.59234729, 36.8533784634]}, "type": "Feature", "properties": {"collection_times": [{"days": "Mon-Fri", "time": "3:00pm"}, {"days": "Sat", "time": "12:00pm"}, {"days": "Sun", "time": "Closed"}], "id": "2397600001", "name": "USPS COLLECTION BOX - PO LOBBY", "address": {"city": "WYLLIESBURG", "state": "VA", "street": "790 BARNESVILLE HWY", "postcode": "23976"}}},
{"geometry": {"type": "Point", "coordinates": [-78.59234729, 36.8533784634]}, "type": "Feature", "properties": {"collection_times": [{"days": "Mon-Fri", "time": "3:00pm"}, {"days": "Sat", "time": "12:00pm"}, {"days": "Sun", "time": "Closed"}], "id": "2397600002", "name": "USPS COLLECTION BOX - BLUE BOX", "address": {"city": "WYLLIESBURG", "state": "VA", "street": "790 BARNESVILLE HWY", "postcode": "23976"}}}
]}
