{"type": "FeatureCollection", "features": [
{"geometry": {"type": "Point", "coordinates": [-79.9411977198, 37.2692043035]}, "type": "Feature", "properties": {"collection_times": [{"days": "Mon-Fri", "time": "4:00pm"}, {"days": "Sat", "time": "9:00am"}, {"days": "Sun", "time": "Closed"}], "id": "2401100016", "name": "USPS COLLECTION BOX - BLUE BOX", "address": {"city": "ROANOKE", "state": "VA", "street": "30 FRANKLIN RD SW", "postcode": "24011"}}},
{"geometry": {"type": "Point", "coordinates": [-79.9444949863, 37.2715759684]}, "type": "Feature", "properties": {"collection_times": [{"days": "Mon-Fri", "time": "3:45pm"}, {"days": "Sat", "time": "9:00am"}, {"days": "Sun", "time": "Closed"}], "id": "2401100039", "name": "USPS COLLECTION BOX - BLUE BOX", "address": {"city": "ROANOKE", "state": "VA", "street": "210 CAMPBELL AVE SW", "postcode": "24011"}}},
{"geometry": {"type": "Point", "coordinates": [-79.9443508774, 37.2706711558]}, "type": "Feature", "properties": {"collection_times": [{"days": "Mon-Fri", "time": "3:45pm"}, {"days": "Sat", "time": "9:00am"}, {"days": "Sun", "time": "Closed"}], "id": "2401100053", "name": "USPS COLLECTION BOX - BLUE BOX", "address": {"city": "ROANOKE", "state": "VA", "street": "212 CHURCH AVE SW", "postcode": "24011"}}},
{"geometry": {"type": "Point", "coordinates": [-79.9424360004, 37.2706102494]}, "type": "Feature", "properties": {"collection_times": [{"days": "Mon-Fri", "time": "4:30pm"}, {"days": "Sat-Sun", "time": "Closed"}], "id": "2401100059", "name": "USPS COLLECTION BOX - PO LOBBY", "address": {"city": "ROANOKE", "state": "VA", "street": "101 CHURCH AVE SW", "postcode": "24011"}}},
{"geometry": {"type": "Point", "coordinates": [-79.9443508774, 37.2706711558]}, "type": "Feature", "properties": {"collection_times": [{"days": "Mon-Fri", "time": "3:45pm"}, {"days": "Sat", "time": "9:00am"}, {"days": "Sun", "time": "Closed"}], "id": "2401100063", "name": "USPS COLLECTION BOX - BLUE BOX", "address": {"city": "ROANOKE", "state": "VA", "street": "212 CHURCH AVE SW", "postcode": "24011"}}},
{"geometry": {"type": "Point", "coordinates": [-79.942327784, 37.2704877853]}, "type": "Feature", "properties": {"collection_times": [{"days": "Mon-Fri", "time": "4:00pm"}, {"days": "Sat", "time": "9:00am"}, {"days": "Sun", "time": "Closed"}], "id": "2401100066", "name": "USPS COLLECTION BOX - BLUE BOX", "address": {"city": "ROANOKE", "state": "VA", "street": "406 1ST ST SW", "postcode": "24011"}}},
{"geometry": {"type": "Point", "coordinates": [-79.942327784, 37.2704877853]}, "type": "Feature", "properties": {"collection_times": [{"days": "Mon-Fri", "time": "4:00pm"}, {"days": "Sat", "time": "9:00am"}, {"days": "Sun", "time": "Closed"}], "id": "2401100067", "name": "USPS COLLECTION BOX - BLUE BOX", "address": {"city": "ROANOKE", "state": "VA", "street": "406 1ST ST SW", "postcode": "24011"}}},
{"geometry": {"type": "Point", "coordinates": [-79.9405577478, 37.2698068134]}, "type": "Feature", "properties": {"collection_times": [{"days": "Mon-Fri", "time": "4:15pm"}, {"days": "Sat", "time": "9:00am"}, {"days": "Sun", "time": "Closed"}], "id": "2401100072", "name": "USPS COLLECTION BOX - BLUE BOX", "address": {"city": "ROANOKE", "state": "VA", "street": "10 FRANKLIN RD SE", "postcode": "24011"}}},
{"geometry": {"type": "Point", "coordinates": [-79.9405577478, 37.2698068134]}, "type": "Feature", "properties": {"collection_times": [{"days": "Mon-Fri", "time": "4:15pm"}, {"days": "Sat", "time": "9:00am"}, {"days": "Sun", "time": "Closed"}], "id": "2401100073", "name": "USPS COLLECTION BOX - BLUE BOX", "address": {"city": "ROANOKE", "state": "VA", "street": "10 FRANKLIN RD SE", "postcode": "24011"}}},
{"geometry": {"type": "Point", "coordinates": [-79.9405577478, 37.2698068134]}, "type": "Feature", "properties": {"collection_times": [{"days": "Mon-Fri", "time": "4:15pm"}, {"days": "Sat", "time": "9:00am"}, {"days": "Sun", "time": "Closed"}], "id": "2401100074", "name": "USPS COLLECTION BOX - BLUE BOX", "address": {"city": "ROANOKE", "state": "VA", "street": "10 FRANKLIN RD SE", "postcode": "24011"}}},
{"geometry": {"type": "Point", "coordinates": [-79.9317499667, 37.3060238041]}, "type": "Feature", "properties": {"collection_times": [{"days": "Mon-Fri", "time": "3:00pm"}, {"days": "Sat", "time": "9:00am"}, {"days": "Sun", "time": "Closed"}], "id": "2401200002", "name": "USPS COLLECTION BOX - BLUE BOX", "address": {"city": "ROANOKE", "state": "VA", "street": "3428 PLANTATION RD NE", "postcode": "24012"}}},
{"geometry": {"type": "Point", "coordinates": [-79.9636108731, 37.3178580024]}, "type": "Feature", "properties": {"collection_times": [{"days": "Mon-Sat", "time": "9:00am"}, {"days": "Sun", "time": "Closed"}], "id": "2401200007", "name": "USPS COLLECTION BOX - BLUE BOX", "address": {"city": "ROANOKE", "state": "VA", "street": "5050 RUTGERS ST NW", "postcode": "24012"}}},
{"geometry": {"type": "Point", "coordinates": [-79.9687398645, 37.324088254]}, "type": "Feature", "properties": {"collection_times": [{"days": "Mon-Fri", "time": "2:00pm"}, {"days": "Sat", "time": "9:00am"}, {"days": "Sun", "time": "Closed"}], "id": "2401200019", "name": "USPS COLLECTION BOX - BLUE BOX", "address": {"city": "ROANOKE", "state": "VA", "street": "5202 AVIATION DR NW", "postcode": "24012"}}},
{"geometry": {"type": "Point", "coordinates": [-79.9628765061, 37.3116185811]}, "type": "Feature", "properties": {"collection_times": [{"days": "Mon-Fri", "time": "2:00pm"}, {"days": "Sat", "time": "9:00am"}, {"days": "Sun", "time": "Closed"}], "id": "2401200021", "name": "USPS COLLECTION BOX - BLUE BOX", "address": {"city": "ROANOKE", "state": "VA", "street": "2524 MARR ST NW", "postcode": "24012"}}},
{"geometry": {"type": "Point", "coordinates": [-79.9345928897, 37.2905801516]}, "type": "Feature", "properties": {"collection_times": [{"days": "Mon-Fri", "time": "12:30pm"}, {"days": "Sat", "time": "9:00am"}, {"days": "Sun", "time": "Closed"}], "id": "2401200033", "name": "USPS COLLECTION BOX - BLUE BOX", "address": {"city": "ROANOKE", "state": "VA", "street": "2009 WILLIAMSON RD NE", "postcode": "24012"}}},
{"geometry": {"type": "Point", "coordinates": [-79.9451686971, 37.3041759277]}, "type": "Feature", "properties": {"collection_times": [{"days": "Mon-Fri", "time": "2:00pm"}, {"days": "Sat", "time": "9:00am"}, {"days": "Sun", "time": "Closed"}], "id": "2401200056", "name": "USPS COLLECTION BOX - BLUE BOX", "address": {"city": "ROANOKE", "state": "VA", "street": "3628 WILLIAMSON RD NW", "postcode": "24012"}}},
{"geometry": {"type": "Point", "coordinates": [-79.9624172646, 37.3086992324]}, "type": "Feature", "properties": {"collection_times": [{"days": "Mon-Fri", "time": "12:00pm"}, {"days": "Sat", "time": "9:00am"}, {"days": "Sun", "time": "Closed"}], "id": "2401200060", "name": "USPS COLLECTION BOX - BLUE BOX", "address": {"city": "ROANOKE", "state": "VA", "street": "4802 VALLEY VIEW BLVD NW", "postcode": "24012"}}},
{"geometry": {"type": "Point", "coordinates": [-79.9555010969, 37.3180909591]}, "type": "Feature", "properties": {"collection_times": [{"days": "Mon-Fri", "time": "2:30pm"}, {"days": "Sat", "time": "9:00am"}, {"days": "Sun", "time": "Closed"}], "id": "2401200062", "name": "USPS COLLECTION BOX - BLUE BOX", "address": {"city": "ROANOKE", "state": "VA", "street": "5002 AIRPORT RD NW", "postcode": "24012"}}},
{"geometry": {"type": "Point", "coordinates": [-79.9396157335, 37.266814506]}, "type": "Feature", "properties": {"collection_times": [{"days": "Mon-Sat", "time": "9:00am"}, {"days": "Sun", "time": "Closed"}], "id": "2401300014", "name": "USPS COLLECTION BOX - BLUE BOX", "address": {"city": "ROANOKE", "state": "VA", "street": "101 ELM AVE SE", "postcode": "24013"}}},
{"geometry": {"type": "Point", "coordinates": [-79.9703678406, 37.2354367232]}, "type": "Feature", "properties": {"collection_times": [{"days": "Mon-Fri", "time": "12:00pm"}, {"days": "Sat", "time": "9:00am"}, {"days": "Sun", "time": "Closed"}], "id": "2401400023", "name": "USPS COLLECTION BOX - BLUE BOX", "address": {"city": "ROANOKE", "state": "VA", "street": "3613 FRANKLIN RD SW", "postcode": "24014"}}},
{"geometry": {"type": "Point", "coordinates": [-79.9471701094, 37.2477724155]}, "type": "Feature", "properties": {"collection_times": [{"days": "Mon-Fri", "time": "4:30pm"}, {"days": "Sat", "time": "9:00am"}, {"days": "Sun", "time": "Closed"}], "id": "2401400039", "name": "USPS COLLECTION BOX - BLUE BOX", "address": {"city": "ROANOKE", "state": "VA", "street": "2229 CRYSTAL SPRING AVE SW", "postcode": "24014"}}},
{"geometry": {"type": "Point", "coordinates": [-79.9471701094, 37.2477724155]}, "type": "Feature", "properties": {"collection_times": [{"days": "Mon-Fri", "time": "4:30pm"}, {"days": "Sat", "time": "9:00am"}, {"days": "Sun", "time": "Closed"}], "id": "2401400040", "name": "USPS COLLECTION BOX - BLUE BOX", "address": {"city": "ROANOKE", "state": "VA", "street": "2229 CRYSTAL SPRING AVE SW", "postcode": "24014"}}},
{"geometry": {"type": "Point", "coordinates": [-79.9471701094, 37.2477724155]}, "type": "Feature", "properties": {"collection_times": [{"days": "Mon-Fri", "time": "4:30pm"}, {"days": "Sat", "time": "9:00am"}, {"days": "Sun", "time": "Closed"}], "id": "2401400042", "name": "USPS COLLECTION BOX - BLUE BOX", "address": {"city": "ROANOKE", "state": "VA", "street": "2229 CRYSTAL SPRING AVE SW", "postcode": "24014"}}},
{"geometry": {"type": "Point", "coordinates": [-79.9471701094, 37.2477724155]}, "type": "Feature", "properties": {"collection_times": [{"days": "Mon-Fri", "time": "4:30pm"}, {"days": "Sat", "time": "12:00pm"}, {"days": "Sun", "time": "Closed"}], "id": "2401400060", "name": "USPS COLLECTION BOX - PO LOBBY", "address": {"city": "ROANOKE", "state": "VA", "street": "2229 CRYSTAL SPRING AVE SW", "postcode": "24014"}}},
{"geometry": {"type": "Point", "coordinates": [-79.965113231, 37.2232035408]}, "type": "Feature", "properties": {"collection_times": [{"days": "Mon-Sat", "time": "9:00am"}, {"days": "Sun", "time": "Closed"}], "id": "2401400061", "name": "USPS COLLECTION BOX - BLUE BOX", "address": {"city": "ROANOKE", "state": "VA", "street": "4419 PHEASANT RIDGE RD", "postcode": "24014"}}},
{"geometry": {"type": "Point", "coordinates": [-79.968652596, 37.23736391]}, "type": "Feature", "properties": {"collection_times": [{"days": "Mon-Fri", "time": "12:00pm"}, {"days": "Sat", "time": "9:00am"}, {"days": "Sun", "time": "Closed"}], "id": "2401400066", "name": "USPS COLLECTION BOX - BLUE BOX", "address": {"city": "ROANOKE", "state": "VA", "street": "3535 FRANKLIN RD SW", "postcode": "24014"}}},
{"geometry": {"type": "Point", "coordinates": [-79.968652596, 37.23736391]}, "type": "Feature", "properties": {"collection_times": [{"days": "Mon-Fri", "time": "12:00pm"}, {"days": "Sat", "time": "9:00am"}, {"days": "Sun", "time": "Closed"}], "id": "2401400070", "name": "USPS COLLECTION BOX - BLUE BOX", "address": {"city": "ROANOKE", "state": "VA", "street": "3535 FRANKLIN RD SW", "postcode": "24014"}}},
{"geometry": {"type": "Point", "coordinates": [-79.9929932079, 37.2421734707]}, "type": "Feature", "properties": {"collection_times": [{"days": "Mon-Fri", "time": "10:30am"}, {"days": "Sat", "time": "9:00am"}, {"days": "Sun", "time": "Closed"}], "id": "2401500000", "name": "USPS COLLECTION BOX - BLUE BOX", "address": {"city": "ROANOKE", "state": "VA", "street": "3021 BRAMBLETON AVE SW", "postcode": "24015"}}},
{"geometry": {"type": "Point", "coordinates": [-79.954907844, 37.2553812076]}, "type": "Feature", "properties": {"collection_times": [{"days": "Mon-Fri", "time": "10:45am"}, {"days": "Sat", "time": "9:00am"}, {"days": "Sun", "time": "Closed"}], "id": "2401500004", "name": "USPS COLLECTION BOX - BLUE BOX", "address": {"city": "ROANOKE", "state": "VA", "street": "2036 COLONIAL AVE SW", "postcode": "24015"}}},
{"geometry": {"type": "Point", "coordinates": [-79.9526279725, 37.2548884853]}, "type": "Feature", "properties": {"collection_times": [{"days": "Mon-Fri", "time": "11:45am"}, {"days": "Sat", "time": "9:00am"}, {"days": "Sun", "time": "Closed"}], "id": "2401500007", "name": "USPS COLLECTION BOX - BLUE BOX", "address": {"city": "ROANOKE", "state": "VA", "street": "630 BRANDON AVE SW", "postcode": "24015"}}},
{"geometry": {"type": "Point", "coordinates": [-79.9793856309, 37.2611256563]}, "type": "Feature", "properties": {"collection_times": [{"days": "Mon-Fri", "time": "5:00pm"}, {"days": "Sat", "time": "12:00pm"}, {"days": "Sun", "time": "Closed"}], "id": "2401500027", "name": "USPS COLLECTION BOX - BLUE BOX", "address": {"city": "ROANOKE", "state": "VA", "street": "1733 GRANDIN RD SW", "postcode": "24015"}}},
{"geometry": {"type": "Point", "coordinates": [-79.9793856309, 37.2611256563]}, "type": "Feature", "properties": {"collection_times": [{"days": "Mon-Fri", "time": "5:00pm"}, {"days": "Sat", "time": "12:00pm"}, {"days": "Sun", "time": "Closed"}], "id": "2401500030", "name": "USPS COLLECTION BOX - BLUE BOX", "address": {"city": "ROANOKE", "state": "VA", "street": "1733 GRANDIN RD SW", "postcode": "24015"}}},
{"geometry": {"type": "Point", "coordinates": [-79.9793856309, 37.2611256563]}, "type": "Feature", "properties": {"collection_times": [{"days": "Mon-Fri", "time": "5:00pm"}, {"days": "Sat", "time": "12:00pm"}, {"days": "Sun", "time": "Closed"}], "id": "2401500033", "name": "USPS COLLECTION BOX - PO LOBBY", "address": {"city": "ROANOKE", "state": "VA", "street": "1733 GRANDIN RD SW", "postcode": "24015"}}},
{"geometry": {"type": "Point", "coordinates": [-79.9451969339, 37.2628125558]}, "type": "Feature", "properties": {"collection_times": [{"days": "Mon-Fri", "time": "12:45pm"}, {"days": "Sat", "time": "9:00am"}, {"days": "Sun", "time": "Closed"}], "id": "2401600027", "name": "USPS COLLECTION BOX - BLUE BOX", "address": {"city": "ROANOKE", "state": "VA", "street": "1201 3RD ST SW", "postcode": "24016"}}},
{"geometry": {"type": "Point", "coordinates": [-79.9408046031, 37.2676450019]}, "type": "Feature", "properties": {"collection_times": [{"days": "Mon-Fri", "time": "4:15pm"}, {"days": "Sat", "time": "9:00am"}, {"days": "Sun", "time": "Closed"}], "id": "2401600029", "name": "USPS COLLECTION BOX - BLUE BOX", "address": {"city": "ROANOKE", "state": "VA", "street": "707 S JEFFERSON ST", "postcode": "24016"}}},
{"geometry": {"type": "Point", "coordinates": [-79.9457588394, 37.2705952428]}, "type": "Feature", "properties": {"collection_times": [{"days": "Mon-Fri", "time": "3:45pm"}, {"days": "Sat", "time": "9:00am"}, {"days": "Sun", "time": "Closed"}], "id": "2401600036", "name": "USPS COLLECTION BOX - BLUE BOX", "address": {"city": "ROANOKE", "state": "VA", "street": "315 CHURCH AVE SW", "postcode": "24016"}}},
{"geometry": {"type": "Point", "coordinates": [-79.9416096555, 37.2632868423]}, "type": "Feature", "properties": {"collection_times": [{"days": "Mon-Fri", "time": "12:30pm"}, {"days": "Sat", "time": "9:00am"}, {"days": "Sun", "time": "Closed"}], "id": "2401600039", "name": "USPS COLLECTION BOX - BLUE BOX", "address": {"city": "ROANOKE", "state": "VA", "street": "16 ALBEMARLE AVE SW", "postcode": "24016"}}},
{"geometry": {"type": "Point", "coordinates": [-79.9440837695, 37.2608914304]}, "type": "Feature", "properties": {"collection_times": [{"days": "Mon-Fri", "time": "11:00am"}, {"days": "Sat", "time": "9:00am"}, {"days": "Sun", "time": "Closed"}], "id": "2401600041", "name": "USPS COLLECTION BOX - BLUE BOX", "address": {"city": "ROANOKE", "state": "VA", "street": "1315 2ND ST SW", "postcode": "24016"}}},
{"geometry": {"type": "Point", "coordinates": [-79.9466543393, 37.2630290373]}, "type": "Feature", "properties": {"collection_times": [{"days": "Mon-Sat", "time": "9:00am"}, {"days": "Sun", "time": "Closed"}], "id": "2401600043", "name": "USPS COLLECTION BOX - BLUE BOX", "address": {"city": "ROANOKE", "state": "VA", "street": "1201 FRANKLIN RD SW", "postcode": "24016"}}},
{"geometry": {"type": "Point", "coordinates": [-79.9677900199, 37.2858137306]}, "type": "Feature", "properties": {"collection_times": [{"days": "Mon-Fri", "time": "11:00am"}, {"days": "Sat", "time": "9:00am"}, {"days": "Sun", "time": "Closed"}], "id": "2401700013", "name": "USPS COLLECTION BOX - BLUE BOX", "address": {"city": "ROANOKE", "state": "VA", "street": "1916 ORANGE AVE NW", "postcode": "24017"}}},
{"geometry": {"type": "Point", "coordinates": [-79.9859494055, 37.2853644496]}, "type": "Feature", "properties": {"collection_times": [{"days": "Mon-Fri", "time": "1:00pm"}, {"days": "Sat", "time": "9:00am"}, {"days": "Sun", "time": "Closed"}], "id": "2401700033", "name": "USPS COLLECTION BOX - BLUE BOX", "address": {"city": "ROANOKE", "state": "VA", "street": "2624 SALEM TPKE NW", "postcode": "24017"}}},
{"geometry": {"type": "Point", "coordinates": [-79.984947904, 37.2891333928]}, "type": "Feature", "properties": {"collection_times": [{"days": "Mon-Fri", "time": "5:00pm"}, {"days": "Sat", "time": "12:00pm"}, {"days": "Sun", "time": "Closed"}], "id": "2401700051", "name": "USPS COLLECTION BOX - PO LOBBY", "address": {"city": "ROANOKE", "state": "VA", "street": "3018 MELROSE AVE NW", "postcode": "24017"}}},
{"geometry": {"type": "Point", "coordinates": [-79.984947904, 37.2891333928]}, "type": "Feature", "properties": {"collection_times": [{"days": "Mon-Fri", "time": "5:00pm"}, {"days": "Sat", "time": "12:00pm"}, {"days": "Sun", "time": "Closed"}], "id": "2401700053", "name": "USPS COLLECTION BOX - BLUE BOX", "address": {"city": "ROANOKE", "state": "VA", "street": "3018 MELROSE AVE NW", "postcode": "24017"}}},
{"geometry": {"type": "Point", "coordinates": [-79.9917530522, 37.2223108234]}, "type": "Feature", "properties": {"collection_times": [{"days": "Mon-Fri", "time": "2:15pm"}, {"days": "Sat", "time": "9:00am"}, {"days": "Sun", "time": "Closed"}], "id": "2401800000", "name": "USPS COLLECTION BOX - BLUE BOX", "address": {"city": "ROANOKE", "state": "VA", "street": "3130 CHAPARRAL DR", "postcode": "24018"}}},
{"geometry": {"type": "Point", "coordinates": [-80.0328878507, 37.246992332]}, "type": "Feature", "properties": {"collection_times": [{"days": "Mon-Fri", "time": "3:30pm"}, {"days": "Sat", "time": "9:00am"}, {"days": "Sun", "time": "Closed"}], "id": "2401800005", "name": "USPS COLLECTION BOX - BLUE BOX", "address": {"city": "ROANOKE", "state": "VA", "street": "2041 ELECTRIC RD", "postcode": "24018"}}},
{"geometry": {"type": "Point", "coordinates": [-80.0169702414, 37.2334956434]}, "type": "Feature", "properties": {"collection_times": [{"days": "Mon-Fri", "time": "3:15pm"}, {"days": "Sat", "time": "9:00am"}, {"days": "Sun", "time": "Closed"}], "id": "2401800014", "name": "USPS COLLECTION BOX - BLUE BOX", "address": {"city": "ROANOKE", "state": "VA", "street": "2840 ELECTRIC RD", "postcode": "24018"}}},
{"geometry": {"type": "Point", "coordinates": [-80.0169702414, 37.2334956434]}, "type": "Feature", "properties": {"collection_times": [{"days": "Mon-Fri", "time": "3:15pm"}, {"days": "Sat", "time": "9:00am"}, {"days": "Sun", "time": "Closed"}], "id": "2401800015", "name": "USPS COLLECTION BOX - BLUE BOX", "address": {"city": "ROANOKE", "state": "VA", "street": "2840 ELECTRIC RD", "postcode": "24018"}}},
{"geometry": {"type": "Point", "coordinates": [-79.9940009902, 37.2248725141]}, "type": "Feature", "properties": {"collection_times": [{"days": "Mon-Fri", "time": "2:00pm"}, {"days": "Sat", "time": "9:00am"}, {"days": "Sun", "time": "Closed"}], "id": "2401800021", "name": "USPS COLLECTION BOX - BLUE BOX", "address": {"city": "ROANOKE", "state": "VA", "street": "3800 ELECTRIC RD", "postcode": "24018"}}},
{"geometry": {"type": "Point", "coordinates": [-79.9940009902, 37.2248725141]}, "type": "Feature", "properties": {"collection_times": [{"days": "Mon-Fri", "time": "2:00pm"}, {"days": "Sat", "time": "9:00am"}, {"days": "Sun", "time": "Closed"}], "id": "2401800022", "name": "USPS COLLECTION BOX - BLUE BOX", "address": {"city": "ROANOKE", "state": "VA", "street": "3800 ELECTRIC RD", "postcode": "24018"}}},
{"geometry": {"type": "Point", "coordinates": [-79.9921245467, 37.2244247463]}, "type": "Feature", "properties": {"collection_times": [{"days": "Mon-Fri", "time": "2:15pm"}, {"days": "Sat", "time": "9:00am"}, {"days": "Sun", "time": "Closed"}], "id": "2401800027", "name": "USPS COLLECTION BOX - BLUE BOX", "address": {"city": "ROANOKE", "state": "VA", "street": "3959 ELECTRIC RD", "postcode": "24018"}}},
{"geometry": {"type": "Point", "coordinates": [-80.0001205356, 37.2378970741]}, "type": "Feature", "properties": {"collection_times": [{"days": "Mon-Fri", "time": "3:00pm"}, {"days": "Sat", "time": "9:00am"}, {"days": "Sun", "time": "Closed"}], "id": "2401800032", "name": "USPS COLLECTION BOX - BLUE BOX", "address": {"city": "ROANOKE", "state": "VA", "street": "3512 BRAMBLETON AVE", "postcode": "24018"}}},
{"geometry": {"type": "Point", "coordinates": [-80.0110167707, 37.2331534086]}, "type": "Feature", "properties": {"collection_times": [{"days": "Mon-Fri", "time": "4:30pm"}, {"days": "Sat", "time": "12:00pm"}, {"days": "Sun", "time": "Closed"}], "id": "2401800033", "name": "USPS COLLECTION BOX - BLUE BOX", "address": {"city": "ROANOKE", "state": "VA", "street": "4069 POSTAL DR", "postcode": "24018"}}},
{"geometry": {"type": "Point", "coordinates": [-80.0110167707, 37.2331534086]}, "type": "Feature", "properties": {"collection_times": [{"days": "Mon-Fri", "time": "4:30pm"}, {"days": "Sat", "time": "12:00pm"}, {"days": "Sun", "time": "Closed"}], "id": "2401800035", "name": "USPS COLLECTION BOX - BLUE BOX", "address": {"city": "ROANOKE", "state": "VA", "street": "4069 POSTAL DR", "postcode": "24018"}}},
{"geometry": {"type": "Point", "coordinates": [-80.0104933463, 37.2270881821]}, "type": "Feature", "properties": {"collection_times": [{"days": "Mon-Fri", "time": "3:00pm"}, {"days": "Sat", "time": "9:00am"}, {"days": "Sun", "time": "Closed"}], "id": "2401800048", "name": "USPS COLLECTION BOX - BLUE BOX", "address": {"city": "ROANOKE", "state": "VA", "street": "4404 BRAMBLETON AVE", "postcode": "24018"}}},
{"geometry": {"type": "Point", "coordinates": [-80.0110167707, 37.2331534086]}, "type": "Feature", "properties": {"collection_times": [{"days": "Mon-Fri", "time": "4:45pm"}, {"days": "Sat", "time": "12:00pm"}, {"days": "Sun", "time": "Closed"}], "id": "2401800050", "name": "USPS COLLECTION BOX - PO LOBBY", "address": {"city": "ROANOKE", "state": "VA", "street": "4069 POSTAL DR", "postcode": "24018"}}},
{"geometry": {"type": "Point", "coordinates": [-80.0189834626, 37.2336484947]}, "type": "Feature", "properties": {"collection_times": [{"days": "Mon-Fri", "time": "3:15pm"}, {"days": "Sat", "time": "9:00am"}, {"days": "Sun", "time": "Closed"}], "id": "2401800054", "name": "USPS COLLECTION BOX - BLUE BOX", "address": {"city": "ROANOKE", "state": "VA", "street": "2772 ELECTRIC RD", "postcode": "24018"}}},
{"geometry": {"type": "Point", "coordinates": [-80.0110167707, 37.2331534086]}, "type": "Feature", "properties": {"collection_times": [{"days": "Mon-Fri", "time": "4:45pm"}, {"days": "Sat", "time": "12:00pm"}, {"days": "Sun", "time": "Closed"}], "id": "2401800055", "name": "USPS COLLECTION BOX - APC", "address": {"city": "ROANOKE", "state": "VA", "street": "4069 POSTAL DR", "postcode": "24018"}}},
{"geometry": {"type": "Point", "coordinates": [-79.9795664428, 37.2269202199]}, "type": "Feature", "properties": {"collection_times": [{"days": "Mon-Fri", "time": "2:15pm"}, {"days": "Sat", "time": "9:00am"}, {"days": "Sun", "time": "Closed"}], "id": "2401800060", "name": "USPS COLLECTION BOX - BLUE BOX", "address": {"city": "ROANOKE", "state": "VA", "street": "4235 ELECTRIC RD", "postcode": "24018"}}},
{"geometry": {"type": "Point", "coordinates": [-79.9821263089, 37.2251020252]}, "type": "Feature", "properties": {"collection_times": [{"days": "Mon-Fri", "time": "2:30pm"}, {"days": "Sat", "time": "9:00am"}, {"days": "Sun", "time": "Closed"}], "id": "2401800061", "name": "USPS COLLECTION BOX - BLUE BOX", "address": {"city": "ROANOKE", "state": "VA", "street": "4092 ELECTRIC RD", "postcode": "24018"}}},
{"geometry": {"type": "Point", "coordinates": [-79.9751277587, 37.2305973877]}, "type": "Feature", "properties": {"collection_times": [{"days": "Mon-Fri", "time": "2:00pm"}, {"days": "Sat", "time": "9:00am"}, {"days": "Sun", "time": "Closed"}], "id": "2401800062", "name": "USPS COLLECTION BOX - BLUE BOX", "address": {"city": "ROANOKE", "state": "VA", "street": "4488 ELECTRIC RD", "postcode": "24018"}}},
{"geometry": {"type": "Point", "coordinates": [-79.982755881, 37.2273285187]}, "type": "Feature", "properties": {"collection_times": [{"days": "Mon-Fri", "time": "2:00pm"}, {"days": "Sat", "time": "9:00am"}, {"days": "Sun", "time": "Closed"}], "id": "2401800063", "name": "USPS COLLECTION BOX - BLUE BOX", "address": {"city": "ROANOKE", "state": "VA", "street": "4358 STARKEY RD", "postcode": "24018"}}},
{"geometry": {"type": "Point", "coordinates": [-79.982755881, 37.2273285187]}, "type": "Feature", "properties": {"collection_times": [{"days": "Mon-Fri", "time": "2:00pm"}, {"days": "Sat", "time": "9:00am"}, {"days": "Sun", "time": "Closed"}], "id": "2401800064", "name": "USPS COLLECTION BOX - BLUE BOX", "address": {"city": "ROANOKE", "state": "VA", "street": "4358 STARKEY RD", "postcode": "24018"}}},
{"geometry": {"type": "Point", "coordinates": [-79.982755881, 37.2273285187]}, "type": "Feature", "properties": {"collection_times": [{"days": "Mon-Fri", "time": "2:00pm"}, {"days": "Sat", "time": "9:00am"}, {"days": "Sun", "time": "Closed"}], "id": "2401800065", "name": "USPS COLLECTION BOX - BLUE BOX", "address": {"city": "ROANOKE", "state": "VA", "street": "4358 STARKEY RD", "postcode": "24018"}}},
{"geometry": {"type": "Point", "coordinates": [-79.9917530522, 37.2223108234]}, "type": "Feature", "properties": {"collection_times": [{"days": "Mon-Fri", "time": "2:15pm"}, {"days": "Sat", "time": "9:00am"}, {"days": "Sun", "time": "Closed"}], "id": "2401800066", "name": "USPS COLLECTION BOX - BLUE BOX", "address": {"city": "ROANOKE", "state": "VA", "street": "5115 BERNARD DR", "postcode": "24018"}}},
{"geometry": {"type": "Point", "coordinates": [-79.999533788, 37.2382247537]}, "type": "Feature", "properties": {"collection_times": [{"days": "Mon-Sat", "time": "9:00am"}, {"days": "Sun", "time": "Closed"}], "id": "2401800069", "name": "USPS COLLECTION BOX - BLUE BOX", "address": {"city": "ROANOKE", "state": "VA", "street": "3433 BRAMBLETON AVE", "postcode": "24018"}}},
{"geometry": {"type": "Point", "coordinates": [-80.0018969736, 37.3184203764]}, "type": "Feature", "properties": {"collection_times": [{"days": "Mon-Fri", "time": "2:30pm"}, {"days": "Sat", "time": "9:00am"}, {"days": "Sun", "time": "Closed"}], "id": "2401900001", "name": "USPS COLLECTION BOX - BLUE BOX", "address": {"city": "ROANOKE", "state": "VA", "street": "3031 PETERS CREEK RD NW", "postcode": "24019"}}},
{"geometry": {"type": "Point", "coordinates": [-79.9437076837, 37.3506255948]}, "type": "Feature", "properties": {"collection_times": [{"days": "Mon-Fri", "time": "10:00am"}, {"days": "Sat-Sun", "time": "Closed"}], "id": "2401900006", "name": "USPS COLLECTION BOX - BLUE BOX", "address": {"city": "ROANOKE", "state": "VA", "street": "7800 WILLIAMSON RD", "postcode": "24019"}}},
{"geometry": {"type": "Point", "coordinates": [-79.9556502703, 37.3371159472]}, "type": "Feature", "properties": {"collection_times": [{"days": "Mon-Fri", "time": "4:30pm"}, {"days": "Sat", "time": "9:00am"}, {"days": "Sun", "time": "Closed"}], "id": "2401900008", "name": "USPS COLLECTION BOX - BLUE BOX", "address": {"city": "ROANOKE", "state": "VA", "street": "6619 WILLIAMSON RD", "postcode": "24019"}}},
{"geometry": {"type": "Point", "coordinates": [-79.9556502703, 37.3371159472]}, "type": "Feature", "properties": {"collection_times": [{"days": "Mon-Fri", "time": "4:30pm"}, {"days": "Sat", "time": "9:00am"}, {"days": "Sun", "time": "Closed"}], "id": "2401900009", "name": "USPS COLLECTION BOX - BLUE BOX", "address": {"city": "ROANOKE", "state": "VA", "street": "6619 WILLIAMSON RD", "postcode": "24019"}}},
{"geometry": {"type": "Point", "coordinates": [-79.9556657168, 37.3371637579]}, "type": "Feature", "properties": {"collection_times": [{"days": "Mon-Fri", "time": "5:00pm"}, {"days": "Sat", "time": "12:00pm"}, {"days": "Sun", "time": "Closed"}], "id": "2401900012", "name": "USPS COLLECTION BOX - BLUE BOX", "address": {"city": "ROANOKE", "state": "VA", "street": "6621 WILLIAMSON RD", "postcode": "24019"}}},
{"geometry": {"type": "Point", "coordinates": [-79.9556657168, 37.3371637579]}, "type": "Feature", "properties": {"collection_times": [{"days": "Mon-Fri", "time": "5:00pm"}, {"days": "Sat", "time": "12:00pm"}, {"days": "Sun", "time": "Closed"}], "id": "2401900013", "name": "USPS COLLECTION BOX - BLUE BOX", "address": {"city": "ROANOKE", "state": "VA", "street": "6621 WILLIAMSON RD", "postcode": "24019"}}},
{"geometry": {"type": "Point", "coordinates": [-79.983548999, 37.3302486585]}, "type": "Feature", "properties": {"collection_times": [{"days": "Mon-Fri", "time": "2:30pm"}, {"days": "Sat", "time": "9:00am"}, {"days": "Sun", "time": "Closed"}], "id": "2401900022", "name": "USPS COLLECTION BOX - BLUE BOX", "address": {"city": "ROANOKE", "state": "VA", "street": "5162 VALLEYPOINTE PKWY", "postcode": "24019"}}},
{"geometry": {"type": "Point", "coordinates": [-79.9556657168, 37.3371637579]}, "type": "Feature", "properties": {"collection_times": [{"days": "Mon-Fri", "time": "5:00pm"}, {"days": "Sat", "time": "12:00pm"}, {"days": "Sun", "time": "Closed"}], "id": "2401900032", "name": "USPS COLLECTION BOX - PO LOBBY", "address": {"city": "ROANOKE", "state": "VA", "street": "6621 WILLIAMSON RD", "postcode": "24019"}}},
{"geometry": {"type": "Point", "coordinates": [-79.9737401715, 37.3358564734]}, "type": "Feature", "properties": {"collection_times": [{"days": "Mon-Fri", "time": "2:30pm"}, {"days": "Sat", "time": "9:00am"}, {"days": "Sun", "time": "Closed"}], "id": "2401900035", "name": "USPS COLLECTION BOX - BLUE BOX", "address": {"city": "ROANOKE", "state": "VA", "street": "5420 PETERS CREEK RD", "postcode": "24019"}}},
{"geometry": {"type": "Point", "coordinates": [-79.9338991695, 37.278506081]}, "type": "Feature", "properties": {"collection_times": [{"days": "Mon-Sat", "time": "6:30pm"}, {"days": "Sun", "time": "Closed"}], "id": "2402200000", "name": "USPS COLLECTION BOX - PO LOBBY", "address": {"city": "ROANOKE", "state": "VA", "street": "419 RUTHERFORD AVE NE", "postcode": "24022"}}},
{"geometry": {"type": "Point", "coordinates": [-79.9338991695, 37.278506081]}, "type": "Feature", "properties": {"collection_times": [{"days": "Mon-Sat", "time": "6:30pm"}, {"days": "Sun", "time": "Closed"}], "id": "2402200001", "name": "USPS COLLECTION BOX - PO LOBBY", "address": {"city": "ROANOKE", "state": "VA", "street": "419 RUTHERFORD AVE NE", "postcode": "24022"}}},
{"geometry": {"type": "Point", "coordinates": [-79.9338991695, 37.278506081]}, "type": "Feature", "properties": {"collection_times": [{"days": "Mon-Sat", "time": "6:30pm"}, {"days": "Sun", "time": "Closed"}], "id": "2402200002", "name": "USPS COLLECTION BOX - PO LOBBY", "address": {"city": "ROANOKE", "state": "VA", "street": "419 RUTHERFORD AVE NE", "postcode": "24022"}}},
{"geometry": {"type": "Point", "coordinates": [-79.9338991695, 37.278506081]}, "type": "Feature", "properties": {"collection_times": [{"days": "Mon-Sat", "time": "6:30pm"}, {"days": "Sun", "time": "Closed"}], "id": "2402200003", "name": "USPS COLLECTION BOX - PO LOBBY", "address": {"city": "ROANOKE", "state": "VA", "street": "419 RUTHERFORD AVE NE", "postcode": "24022"}}},
{"geometry": {"type": "Point", "coordinates": [-79.9338991695, 37.278506081]}, "type": "Feature", "properties": {"collection_times": [{"days": "Mon-Sat", "time": "6:30pm"}, {"days": "Sun", "time": "Closed"}], "id": "2402200006", "name": "USPS COLLECTION BOX - BLUE BOX", "address": {"city": "ROANOKE", "state": "VA", "street": "419 RUTHERFORD AVE NE", "postcode": "24022"}}},
{"geometry": {"type": "Point", "coordinates": [-79.9338991695, 37.278506081]}, "type": "Feature", "properties": {"collection_times": [{"days": "Mon-Sat", "time": "6:30pm"}, {"days": "Sun", "time": "Closed"}], "id": "2402200009", "name": "USPS COLLECTION BOX - BLUE BOX", "address": {"city": "ROANOKE", "state": "VA", "street": "419 RUTHERFORD AVE NE", "postcode": "24022"}}},
{"geometry": {"type": "Point", "coordinates": [-79.9338991695, 37.278506081]}, "type": "Feature", "properties": {"collection_times": [{"days": "Mon-Sat", "time": "6:30pm"}, {"days": "Sun", "time": "Closed"}], "id": "2402200010", "name": "USPS COLLECTION BOX - APC", "address": {"city": "ROANOKE", "state": "VA", "street": "419 RUTHERFORD AVE NE", "postcode": "24022"}}},
{"geometry": {"type": "Point", "coordinates": [-80.4901242402, 36.5967285392]}, "type": "Feature", "properties": {"collection_times": [{"days": "Mon-Fri", "time": "4:00pm"}, {"days": "Sat", "time": "11:00am"}, {"days": "Sun", "time": "Closed"}], "id": "2405300000", "name": "USPS COLLECTION BOX - BLUE BOX", "address": {"city": "ARARAT", "state": "VA", "street": "5134 ARARAT HWY", "postcode": "24053"}}},
{"geometry": {"type": "Point", "coordinates": [-80.4901242402, 36.5967285392]}, "type": "Feature", "properties": {"collection_times": [{"days": "Mon-Fri", "time": "4:00pm"}, {"days": "Sat", "time": "11:00am"}, {"days": "Sun", "time": "Closed"}], "id": "2405300001", "name": "USPS COLLECTION BOX - PO LOBBY", "address": {"city": "ARARAT", "state": "VA", "street": "5134 ARARAT HWY", "postcode": "24053"}}},
{"geometry": {"type": "Point", "coordinates": [-79.7178920543, 36.660290199]}, "type": "Feature", "properties": {"collection_times": [{"days": "Mon-Fri", "time": "4:00pm"}, {"days": "Sat", "time": "10:00am"}, {"days": "Sun", "time": "Closed"}], "id": "2405400000", "name": "USPS COLLECTION BOX - BLUE BOX", "address": {"city": "AXTON", "state": "VA", "street": "1725 DANIEL RD", "postcode": "24054"}}},
{"geometry": {"type": "Point", "coordinates": [-79.7178920543, 36.660290199]}, "type": "Feature", "properties": {"collection_times": [{"days": "Mon-Fri", "time": "4:00pm"}, {"days": "Sat", "time": "10:00am"}, {"days": "Sun", "time": "Closed"}], "id": "2405400001", "name": "USPS COLLECTION BOX - PO LOBBY", "address": {"city": "AXTON", "state": "VA", "street": "1725 DANIEL RD", "postcode": "24054"}}},
{"geometry": {"type": "Point", "coordinates": [-79.9819577038, 36.7536346337]}, "type": "Feature", "properties": {"collection_times": [{"days": "Mon-Fri", "time": "4:00pm"}, {"days": "Sat", "time": "12:00pm"}, {"days": "Sun", "time": "Closed"}], "id": "2405500000", "name": "USPS COLLECTION BOX - BLUE BOX", "address": {"city": "BASSETT", "state": "VA", "street": "3465 FAIRYSTONE PARK HWY", "postcode": "24055"}}},
{"geometry": {"type": "Point", "coordinates": [-79.9819577038, 36.7536346337]}, "type": "Feature", "properties": {"collection_times": [{"days": "Mon-Fri", "time": "4:30pm"}, {"days": "Sat", "time": "12:00pm"}, {"days": "Sun", "time": "Closed"}], "id": "2405500001", "name": "USPS COLLECTION BOX - PO LOBBY", "address": {"city": "BASSETT", "state": "VA", "street": "3465 FAIRYSTONE PARK HWY", "postcode": "24055"}}},
{"geometry": {"type": "Point", "coordinates": [-80.5523304726, 37.1410102084]}, "type": "Feature", "properties": {"collection_times": [{"days": "Mon-Fri", "time": "11:45am"}, {"days": "Sat", "time": "11:30am"}, {"days": "Sun", "time": "Closed"}], "id": "2405800000", "name": "USPS COLLECTION BOX - BLUE BOX", "address": {"city": "BELSPRING", "state": "VA", "street": "7893 NECK CREEK RD", "postcode": "24058"}}},
{"geometry": {"type": "Point", "coordinates": [-80.5523304726, 37.1410102084]}, "type": "Feature", "properties": {"collection_times": [{"days": "Mon-Fri", "time": "11:45am"}, {"days": "Sat", "time": "11:30am"}, {"days": "Sun", "time": "Closed"}], "id": "2405800001", "name": "USPS COLLECTION BOX - PO LOBBY", "address": {"city": "BELSPRING", "state": "VA", "street": "7893 NECK CREEK RD", "postcode": "24058"}}},
{"geometry": {"type": "Point", "coordinates": [-80.5523304726, 37.1410102084]}, "type": "Feature", "properties": {"collection_times": [{"days": "Mon-Fri", "time": "11:45am"}, {"days": "Sat", "time": "11:30am"}, {"days": "Sun", "time": "Closed"}], "id": "2405800002", "name": "USPS COLLECTION BOX - PO LOBBY", "address": {"city": "BELSPRING", "state": "VA", "street": "7893 NECK CREEK RD", "postcode": "24058"}}},
{"geometry": {"type": "Point", "coordinates": [-80.118264766, 37.1490279528]}, "type": "Feature", "properties": {"collection_times": [{"days": "Mon-Fri", "time": "12:45pm"}, {"days": "Sat", "time": "10:30am"}, {"days": "Sun", "time": "Closed"}], "id": "2405900000", "name": "USPS COLLECTION BOX - BLUE BOX", "address": {"city": "BENT MOUNTAIN", "state": "VA", "street": "9961 BENT MOUNTAIN RD", "postcode": "24059"}}},
{"geometry": {"type": "Point", "coordinates": [-80.118264766, 37.1490279528]}, "type": "Feature", "properties": {"collection_times": [{"days": "Mon-Fri", "time": "12:45pm"}, {"days": "Sat", "time": "10:30am"}, {"days": "Sun", "time": "Closed"}], "id": "2405900001", "name": "USPS COLLECTION BOX - PO LOBBY", "address": {"city": "BENT MOUNTAIN", "state": "VA", "street": "9961 BENT MOUNTAIN RD", "postcode": "24059"}}},
{"geometry": {"type": "Point", "coordinates": [-80.4532727913, 37.2173949828]}, "type": "Feature", "properties": {"collection_times": [{"days": "Mon-Fri", "time": "3:30pm"}, {"days": "Sat", "time": "9:00am"}, {"days": "Sun", "time": "Closed"}], "id": "2406000001", "name": "USPS COLLECTION BOX - BLUE BOX", "address": {"city": "BLACKSBURG", "state": "VA", "street": "800 HETHWOOD BLVD", "postcode": "24060"}}},
{"geometry": {"type": "Point", "coordinates": [-80.425835762, 37.2331205287]}, "type": "Feature", "properties": {"collection_times": [{"days": "Mon-Fri", "time": "11:00am"}, {"days": "Sat", "time": "9:00am"}, {"days": "Sun", "time": "Closed"}], "id": "2406000003", "name": "USPS COLLECTION BOX - BLUE BOX", "address": {"city": "BLACKSBURG", "state": "VA", "street": "6300 HEATHER DR", "postcode": "24060"}}},
{"geometry": {"type": "Point", "coordinates": [-80.4119720717, 37.2020654264]}, "type": "Feature", "properties": {"collection_times": [{"days": "Mon-Fri", "time": "3:30pm"}, {"days": "Sat", "time": "9:00am"}, {"days": "Sun", "time": "Closed"}], "id": "2406000005", "name": "USPS COLLECTION BOX - BLUE BOX", "address": {"city": "BLACKSBURG", "state": "VA", "street": "1872 PRATT DR", "postcode": "24060"}}},
{"geometry": {"type": "Point", "coordinates": [-80.4070857316, 37.1880221037]}, "type": "Feature", "properties": {"collection_times": [{"days": "Mon-Fri", "time": "3:30pm"}, {"days": "Sat", "time": "9:00am"}, {"days": "Sun", "time": "Closed"}], "id": "2406000006", "name": "USPS COLLECTION BOX - BLUE BOX", "address": {"city": "BLACKSBURG", "state": "VA", "street": "3700 S MAIN ST", "postcode": "24060"}}},
{"geometry": {"type": "Point", "coordinates": [-80.3987569824, 37.2057802494]}, "type": "Feature", "properties": {"collection_times": [{"days": "Mon-Fri", "time": "3:30pm"}, {"days": "Sat", "time": "9:00am"}, {"days": "Sun", "time": "Closed"}], "id": "2406000010", "name": "USPS COLLECTION BOX - BLUE BOX", "address": {"city": "BLACKSBURG", "state": "VA", "street": "1999 S MAIN ST", "postcode": "24060"}}},
{"geometry": {"type": "Point", "coordinates": [-80.402239426, 37.2183884343]}, "type": "Feature", "properties": {"collection_times": [{"days": "Mon-Fri", "time": "4:00pm"}, {"days": "Sat", "time": "9:00am"}, {"days": "Sun", "time": "Closed"}], "id": "2406000013", "name": "USPS COLLECTION BOX - BLUE BOX", "address": {"city": "BLACKSBURG", "state": "VA", "street": "1324 S MAIN ST", "postcode": "24060"}}},
{"geometry": {"type": "Point", "coordinates": [-80.4132469298, 37.2273694863]}, "type": "Feature", "properties": {"collection_times": [{"days": "Mon-Fri", "time": "4:00pm"}, {"days": "Sat", "time": "9:00am"}, {"days": "Sun", "time": "Closed"}], "id": "2406000015", "name": "USPS COLLECTION BOX - BLUE BOX", "address": {"city": "BLACKSBURG", "state": "VA", "street": "300 WASHINGTON ST SW", "postcode": "24060"}}},
{"geometry": {"type": "Point", "coordinates": [-80.429680336, 37.2444154465]}, "type": "Feature", "properties": {"collection_times": [{"days": "Mon-Fri", "time": "12:00pm"}, {"days": "Sat", "time": "9:00am"}, {"days": "Sun", "time": "Closed"}], "id": "2406000031", "name": "USPS COLLECTION BOX - BLUE BOX", "address": {"city": "BLACKSBURG", "state": "VA", "street": "500 SUNRIDGE DR", "postcode": "24060"}}},
{"geometry": {"type": "Point", "coordinates": [-80.4141630727, 37.2294469445]}, "type": "Feature", "properties": {"collection_times": [{"days": "Mon-Fri", "time": "4:30pm"}, {"days": "Sat", "time": "9:00am"}, {"days": "Sun", "time": "Closed"}], "id": "2406000032", "name": "USPS COLLECTION BOX - BLUE BOX", "address": {"city": "BLACKSBURG", "state": "VA", "street": "118 N MAIN ST", "postcode": "24060"}}},
{"geometry": {"type": "Point", "coordinates": [-80.4146164958, 37.2300024189]}, "type": "Feature", "properties": {"collection_times": [{"days": "Mon-Fri", "time": "4:30pm"}, {"days": "Sat", "time": "9:00am"}, {"days": "Sun", "time": "Closed"}], "id": "2406000033", "name": "USPS COLLECTION BOX - BLUE BOX", "address": {"city": "BLACKSBURG", "state": "VA", "street": "100 E JACKSON ST", "postcode": "24060"}}},
{"geometry": {"type": "Point", "coordinates": [-80.425835762, 37.2331205287]}, "type": "Feature", "properties": {"collection_times": [{"days": "Mon-Fri", "time": "4:30pm"}, {"days": "Sat", "time": "9:00am"}, {"days": "Sun", "time": "Closed"}], "id": "2406000034", "name": "USPS COLLECTION BOX - BLUE BOX", "address": {"city": "BLACKSBURG", "state": "VA", "street": "1425 S MAIN ST", "postcode": "24060"}}},
{"geometry": {"type": "Point", "coordinates": [-80.4341795953, 37.2361944406]}, "type": "Feature", "properties": {"collection_times": [{"days": "Mon-Fri", "time": "5:00pm"}, {"days": "Sat", "time": "9:00am"}, {"days": "Sun", "time": "Closed"}], "id": "2406000036", "name": "USPS COLLECTION BOX - BLUE BOX", "address": {"city": "BLACKSBURG", "state": "VA", "street": "909 UNIVERSITY CITY BLVD", "postcode": "24060"}}},
{"geometry": {"type": "Point", "coordinates": [-80.4341795953, 37.2361944406]}, "type": "Feature", "properties": {"collection_times": [{"days": "Mon-Fri", "time": "5:00pm"}, {"days": "Sat", "time": "9:00am"}, {"days": "Sun", "time": "Closed"}], "id": "2406000037", "name": "USPS COLLECTION BOX - BLUE BOX", "address": {"city": "BLACKSBURG", "state": "VA", "street": "909 UNIVERSITY CITY BLVD", "postcode": "24060"}}},
{"geometry": {"type": "Point", "coordinates": [-80.432668057, 37.2423238514]}, "type": "Feature", "properties": {"collection_times": [{"days": "Mon-Fri", "time": "1:00pm"}, {"days": "Sat", "time": "9:00am"}, {"days": "Sun", "time": "Closed"}], "id": "2406000040", "name": "USPS COLLECTION BOX - BLUE BOX", "address": {"city": "BLACKSBURG", "state": "VA", "street": "1317 UNIVERSITY CITY BLVD", "postcode": "24060"}}},
{"geometry": {"type": "Point", "coordinates": [-80.3987569031, 37.2057593901]}, "type": "Feature", "properties": {"collection_times": [{"days": "Mon-Fri", "time": "3:30pm"}, {"days": "Sat", "time": "9:00am"}, {"days": "Sun", "time": "Closed"}], "id": "2406000046", "name": "USPS COLLECTION BOX - BLUE BOX", "address": {"city": "BLACKSBURG", "state": "VA", "street": "2001 S MAIN ST", "postcode": "24060"}}},
{"geometry": {"type": "Point", "coordinates": [-80.4141630727, 37.2294469445]}, "type": "Feature", "properties": {"collection_times": [{"days": "Mon-Fri", "time": "4:30pm"}, {"days": "Sat", "time": "9:00am"}, {"days": "Sun", "time": "Closed"}], "id": "2406000049", "name": "USPS COLLECTION BOX - PO LOBBY", "address": {"city": "BLACKSBURG", "state": "VA", "street": "118 N MAIN ST", "postcode": "24060"}}},
{"geometry": {"type": "Point", "coordinates": [-80.4341795953, 37.2361944406]}, "type": "Feature", "properties": {"collection_times": [{"days": "Mon-Fri", "time": "5:00pm"}, {"days": "Sat", "time": "9:00am"}, {"days": "Sun", "time": "Closed"}], "id": "2406000052", "name": "USPS COLLECTION BOX - PO LOBBY", "address": {"city": "BLACKSBURG", "state": "VA", "street": "909 UNIVERSITY CITY BLVD", "postcode": "24060"}}},
{"geometry": {"type": "Point", "coordinates": [-80.4153800073, 37.2457440646]}, "type": "Feature", "properties": {"collection_times": [{"days": "Mon-Fri", "time": "4:00pm"}, {"days": "Sat", "time": "9:00am"}, {"days": "Sun", "time": "Closed"}], "id": "2406000055", "name": "USPS COLLECTION BOX - BLUE BOX", "address": {"city": "BLACKSBURG", "state": "VA", "street": "1400 N MAIN ST", "postcode": "24060"}}},
{"geometry": {"type": "Point", "coordinates": [-80.4341795953, 37.2361944406]}, "type": "Feature", "properties": {"collection_times": [{"days": "Mon-Fri", "time": "5:00pm"}, {"days": "Sat", "time": "9:00am"}, {"days": "Sun", "time": "Closed"}], "id": "2406000057", "name": "USPS COLLECTION BOX - APC", "address": {"city": "BLACKSBURG", "state": "VA", "street": "909 UNIVERSITY CITY BLVD", "postcode": "24060"}}},
{"geometry": {"type": "Point", "coordinates": [-80.3987630165, 37.2068032106]}, "type": "Feature", "properties": {"collection_times": [{"days": "Mon-Fri", "time": "3:30pm"}, {"days": "Sat", "time": "9:00am"}, {"days": "Sun", "time": "Closed"}], "id": "2406000058", "name": "USPS COLLECTION BOX - BLUE BOX", "address": {"city": "BLACKSBURG", "state": "VA", "street": "1901 S MAIN ST", "postcode": "24060"}}},
{"geometry": {"type": "Point", "coordinates": [-80.4179638745, 37.2330331933]}, "type": "Feature", "properties": {"collection_times": [{"days": "Mon-Fri", "time": "4:00pm"}, {"days": "Sat", "time": "9:00am"}, {"days": "Sun", "time": "Closed"}], "id": "2406000059", "name": "USPS COLLECTION BOX - BLUE BOX", "address": {"city": "BLACKSBURG", "state": "VA", "street": "610 N MAIN ST", "postcode": "24060"}}},
{"geometry": {"type": "Point", "coordinates": [-80.4003516016, 37.1960240967]}, "type": "Feature", "properties": {"collection_times": [{"days": "Mon-Fri", "time": "3:30pm"}, {"days": "Sat", "time": "9:00am"}, {"days": "Sun", "time": "Closed"}], "id": "2406000060", "name": "USPS COLLECTION BOX - BLUE BOX", "address": {"city": "BLACKSBURG", "state": "VA", "street": "200 PROFESSIONAL PARK DR SE", "postcode": "24060"}}},
{"geometry": {"type": "Point", "coordinates": [-80.4215844465, 37.2452727882]}, "type": "Feature", "properties": {"collection_times": [{"days": "Mon-Sat", "time": "9:00am"}, {"days": "Sun", "time": "Closed"}], "id": "2406000063", "name": "USPS COLLECTION BOX - BLUE BOX", "address": {"city": "BLACKSBURG", "state": "VA", "street": "413 HUNT CLUB RD", "postcode": "24060"}}},
{"geometry": {"type": "Point", "coordinates": [-79.8210501223, 37.364079758]}, "type": "Feature", "properties": {"collection_times": [{"days": "Mon-Fri", "time": "5:00pm"}, {"days": "Sat", "time": "12:00pm"}, {"days": "Sun", "time": "Closed"}], "id": "2406400000", "name": "USPS COLLECTION BOX - BLUE BOX", "address": {"city": "BLUE RIDGE", "state": "VA", "street": "3521 BLUE RIDGE BLVD", "postcode": "24064"}}},
{"geometry": {"type": "Point", "coordinates": [-79.8210501223, 37.364079758]}, "type": "Feature", "properties": {"collection_times": [{"days": "Mon-Fri", "time": "5:00pm"}, {"days": "Sat", "time": "12:00pm"}, {"days": "Sun", "time": "Closed"}], "id": "2406400002", "name": "USPS COLLECTION BOX - PO LOBBY", "address": {"city": "BLUE RIDGE", "state": "VA", "street": "3521 BLUE RIDGE BLVD", "postcode": "24064"}}},
{"geometry": {"type": "Point", "coordinates": [-79.8210501223, 37.364079758]}, "type": "Feature", "properties": {"collection_times": [{"days": "Mon-Fri", "time": "5:00pm"}, {"days": "Sat", "time": "12:00pm"}, {"days": "Sun", "time": "Closed"}], "id": "2406400003", "name": "USPS COLLECTION BOX - PO LOBBY", "address": {"city": "BLUE RIDGE", "state": "VA", "street": "3521 BLUE RIDGE BLVD", "postcode": "24064"}}},
{"geometry": {"type": "Point", "coordinates": [-79.9530248147, 37.1144784977]}, "type": "Feature", "properties": {"collection_times": [{"days": "Mon-Fri", "time": "4:30pm"}, {"days": "Sat", "time": "11:00am"}, {"days": "Sun", "time": "Closed"}], "id": "2406500000", "name": "USPS COLLECTION BOX - BLUE BOX", "address": {"city": "BOONES MILL", "state": "VA", "street": "60 MAIN ST", "postcode": "24065"}}},
{"geometry": {"type": "Point", "coordinates": [-79.9530248147, 37.1144784977]}, "type": "Feature", "properties": {"collection_times": [{"days": "Mon-Fri", "time": "4:30pm"}, {"days": "Sat", "time": "11:00am"}, {"days": "Sun", "time": "Closed"}], "id": "2406500001", "name": "USPS COLLECTION BOX - PO LOBBY", "address": {"city": "BOONES MILL", "state": "VA", "street": "60 MAIN ST", "postcode": "24065"}}},
{"geometry": {"type": "Point", "coordinates": [-79.6803584467, 37.5272322755]}, "type": "Feature", "properties": {"collection_times": [{"days": "Mon-Fri", "time": "4:30pm"}, {"days": "Sat", "time": "12:00pm"}, {"days": "Sun", "time": "Closed"}], "id": "2406600000", "name": "USPS COLLECTION BOX - BLUE BOX", "address": {"city": "BUCHANAN", "state": "VA", "street": "19698 MAIN ST", "postcode": "24066"}}},
{"geometry": {"type": "Point", "coordinates": [-79.6803584467, 37.5272322755]}, "type": "Feature", "properties": {"collection_times": [{"days": "Mon-Fri", "time": "4:30pm"}, {"days": "Sat", "time": "12:00pm"}, {"days": "Sun", "time": "Closed"}], "id": "2406600001", "name": "USPS COLLECTION BOX - PO LOBBY", "address": {"city": "BUCHANAN", "state": "VA", "street": "19698 MAIN ST", "postcode": "24066"}}},
{"geometry": {"type": "Point", "coordinates": [-80.035530623, 37.0128638156]}, "type": "Feature", "properties": {"collection_times": [{"days": "Mon-Fri", "time": "3:00pm"}, {"days": "Sat", "time": "10:30am"}, {"days": "Sun", "time": "Closed"}], "id": "2406700000", "name": "USPS COLLECTION BOX - BLUE BOX", "address": {"city": "CALLAWAY", "state": "VA", "street": "7855 CALLAWAY RD", "postcode": "24067"}}},
{"geometry": {"type": "Point", "coordinates": [-80.035530623, 37.0128638156]}, "type": "Feature", "properties": {"collection_times": [{"days": "Mon-Fri", "time": "3:00pm"}, {"days": "Sat", "time": "10:30am"}, {"days": "Sun", "time": "Closed"}], "id": "2406700001", "name": "USPS COLLECTION BOX - PO LOBBY", "address": {"city": "CALLAWAY", "state": "VA", "street": "7855 CALLAWAY RD", "postcode": "24067"}}},
{"geometry": {"type": "Point", "coordinates": [-80.049552546, 37.011466525]}, "type": "Feature", "properties": {"collection_times": [{"days": "Mon-Sat", "time": "11:30am"}, {"days": "Sun", "time": "Closed"}], "id": "2406700003", "name": "USPS COLLECTION BOX - BLUE BOX", "address": {"city": "CALLAWAY", "state": "VA", "street": "8470 CALLAWAY RD", "postcode": "24067"}}},
{"geometry": {"type": "Point", "coordinates": [-79.6814385423, 36.5585484375]}, "type": "Feature", "properties": {"collection_times": [{"days": "Mon-Fri", "time": "3:00pm"}, {"days": "Sat", "time": "10:30am"}, {"days": "Sun", "time": "Closed"}], "id": "2406900000", "name": "USPS COLLECTION BOX - BLUE BOX", "address": {"city": "CASCADE", "state": "VA", "street": "5860 CASCADE RD", "postcode": "24069"}}},
{"geometry": {"type": "Point", "coordinates": [-79.6814385423, 36.5585484375]}, "type": "Feature", "properties": {"collection_times": [{"days": "Mon-Fri", "time": "3:00pm"}, {"days": "Sat", "time": "10:30am"}, {"days": "Sun", "time": "Closed"}], "id": "2406900001", "name": "USPS COLLECTION BOX - PO LOBBY", "address": {"city": "CASCADE", "state": "VA", "street": "5860 CASCADE RD", "postcode": "24069"}}},
{"geometry": {"type": "Point", "coordinates": [-80.1092769215, 37.3825214945]}, "type": "Feature", "properties": {"collection_times": [{"days": "Mon-Fri", "time": "3:30pm"}, {"days": "Sat", "time": "10:30am"}, {"days": "Sun", "time": "Closed"}], "id": "2407000000", "name": "USPS COLLECTION BOX - BLUE BOX", "address": {"city": "CATAWBA", "state": "VA", "street": "4917 CATAWBA CREEK RD", "postcode": "24070"}}},
{"geometry": {"type": "Point", "coordinates": [-80.1092769215, 37.3825214945]}, "type": "Feature", "properties": {"collection_times": [{"days": "Mon-Fri", "time": "3:30pm"}, {"days": "Sat", "time": "10:30am"}, {"days": "Sun", "time": "Closed"}], "id": "2407000001", "name": "USPS COLLECTION BOX - PO LOBBY", "address": {"city": "CATAWBA", "state": "VA", "street": "4917 CATAWBA CREEK RD", "postcode": "24070"}}},
{"geometry": {"type": "Point", "coordinates": [-80.2324137321, 37.0278404198]}, "type": "Feature", "properties": {"collection_times": [{"days": "Mon-Sat", "time": "11:45am"}, {"days": "Sun", "time": "Closed"}], "id": "2407200000", "name": "USPS COLLECTION BOX - BLUE BOX", "address": {"city": "CHECK", "state": "VA", "street": "168 MEADOW RUN RD SE", "postcode": "24072"}}},
{"geometry": {"type": "Point", "coordinates": [-80.2324137321, 37.0278404198]}, "type": "Feature", "properties": {"collection_times": [{"days": "Mon-Sat", "time": "11:45am"}, {"days": "Sun", "time": "Closed"}], "id": "2407200001", "name": "USPS COLLECTION BOX - PO LOBBY", "address": {"city": "CHECK", "state": "VA", "street": "168 MEADOW RUN RD SE", "postcode": "24072"}}},
{"geometry": {"type": "Point", "coordinates": [-80.3973589566, 37.1305513837]}, "type": "Feature", "properties": {"collection_times": [{"days": "Mon-Fri", "time": "2:00pm"}, {"days": "Sat", "time": "9:30am"}, {"days": "Sun", "time": "Closed"}], "id": "2407300005", "name": "USPS COLLECTION BOX - BLUE BOX", "address": {"city": "CHRISTIANSBURG", "state": "VA", "street": "510 ROANOKE ST", "postcode": "24073"}}},
{"geometry": {"type": "Point", "coordinates": [-80.352459958, 37.1392383482]}, "type": "Feature", "properties": {"collection_times": [{"days": "Mon-Sat", "time": "10:00am"}, {"days": "Sun", "time": "Closed"}], "id": "2407300007", "name": "USPS COLLECTION BOX - BLUE BOX", "address": {"city": "CHRISTIANSBURG", "state": "VA", "street": "50 HAMPTON BLVD", "postcode": "24073"}}},
{"geometry": {"type": "Point", "coordinates": [-80.4148764918, 37.1498700408]}, "type": "Feature", "properties": {"collection_times": [{"days": "Mon-Fri", "time": "1:45pm"}, {"days": "Sat", "time": "9:15am"}, {"days": "Sun", "time": "Closed"}], "id": "2407300011", "name": "USPS COLLECTION BOX - BLUE BOX", "address": {"city": "CHRISTIANSBURG", "state": "VA", "street": "1580 N FRANKLIN ST", "postcode": "24073"}}},
{"geometry": {"type": "Point", "coordinates": [-80.405303482, 37.1424069021]}, "type": "Feature", "properties": {"collection_times": [{"days": "Mon-Fri", "time": "1:30pm"}, {"days": "Sat", "time": "9:00am"}, {"days": "Sun", "time": "Closed"}], "id": "2407300012", "name": "USPS COLLECTION BOX - BLUE BOX", "address": {"city": "CHRISTIANSBURG", "state": "VA", "street": "985 CAMBRIA ST NE", "postcode": "24073"}}},
{"geometry": {"type": "Point", "coordinates": [-80.4088324434, 37.1299396614]}, "type": "Feature", "properties": {"collection_times": [{"days": "Mon-Fri", "time": "5:00pm"}, {"days": "Sat", "time": "9:45am"}, {"days": "Sun", "time": "Closed"}], "id": "2407300013", "name": "USPS COLLECTION BOX - BLUE BOX", "address": {"city": "CHRISTIANSBURG", "state": "VA", "street": "2 E MAIN ST", "postcode": "24073"}}},
{"geometry": {"type": "Point", "coordinates": [-80.3720403044, 37.1347803845]}, "type": "Feature", "properties": {"collection_times": [{"days": "Mon-Sat", "time": "10:00am"}, {"days": "Sun", "time": "Closed"}], "id": "2407300016", "name": "USPS COLLECTION BOX - BLUE BOX", "address": {"city": "CHRISTIANSBURG", "state": "VA", "street": "2020 ROANOKE ST", "postcode": "24073"}}},
{"geometry": {"type": "Point", "coordinates": [-80.388584288, 37.1338168472]}, "type": "Feature", "properties": {"collection_times": [{"days": "Mon-Fri", "time": "2:00pm"}, {"days": "Sat", "time": "9:15am"}, {"days": "Sun", "time": "Closed"}], "id": "2407300018", "name": "USPS COLLECTION BOX - BLUE BOX", "address": {"city": "CHRISTIANSBURG", "state": "VA", "street": "125 ARROWHEAD TRL", "postcode": "24073"}}},
{"geometry": {"type": "Point", "coordinates": [-80.4201383507, 37.1689734837]}, "type": "Feature", "properties": {"collection_times": [{"days": "Mon-Sat", "time": "10:00am"}, {"days": "Sun", "time": "Closed"}], "id": "2407300030", "name": "USPS COLLECTION BOX - BLUE BOX", "address": {"city": "CHRISTIANSBURG", "state": "VA", "street": "100 ARBOR DR", "postcode": "24073"}}},
{"geometry": {"type": "Point", "coordinates": [-80.4179384837, 37.1682231915]}, "type": "Feature", "properties": {"collection_times": [{"days": "Mon-Fri", "time": "5:00pm"}, {"days": "Sat", "time": "12:00pm"}, {"days": "Sun", "time": "Closed"}], "id": "2407300031", "name": "USPS COLLECTION BOX - BLUE BOX", "address": {"city": "CHRISTIANSBURG", "state": "VA", "street": "350 ARBOR DR", "postcode": "24073"}}},
{"geometry": {"type": "Point", "coordinates": [-80.4088324434, 37.1299396614]}, "type": "Feature", "properties": {"collection_times": [{"days": "Mon-Fri", "time": "5:00pm"}, {"days": "Sat", "time": "9:45am"}, {"days": "Sun", "time": "Closed"}], "id": "2407300034", "name": "USPS COLLECTION BOX - PO LOBBY", "address": {"city": "CHRISTIANSBURG", "state": "VA", "street": "2 E MAIN ST", "postcode": "24073"}}},
{"geometry": {"type": "Point", "coordinates": [-80.4179384837, 37.1682231915]}, "type": "Feature", "properties": {"collection_times": [{"days": "Mon-Fri", "time": "5:00pm"}, {"days": "Sat", "time": "12:00pm"}, {"days": "Sun", "time": "Closed"}], "id": "2407300035", "name": "USPS COLLECTION BOX - PO LOBBY", "address": {"city": "CHRISTIANSBURG", "state": "VA", "street": "350 ARBOR DR", "postcode": "24073"}}},
{"geometry": {"type": "Point", "coordinates": [-80.5122862855, 37.0775129998]}, "type": "Feature", "properties": {"collection_times": [{"days": "Mon-Sat", "time": "10:00am"}, {"days": "Sun", "time": "Closed"}], "id": "2407300036", "name": "USPS COLLECTION BOX - BLUE BOX", "address": {"city": "CHRISTIANSBURG", "state": "VA", "street": "2900 TYLER RD", "postcode": "24073"}}},
{"geometry": {"type": "Point", "coordinates": [-80.4138724538, 37.1368597474]}, "type": "Feature", "properties": {"collection_times": [{"days": "Mon-Fri", "time": "1:30pm"}, {"days": "Sat", "time": "9:00am"}, {"days": "Sun", "time": "Closed"}], "id": "2407300038", "name": "USPS COLLECTION BOX - BLUE BOX", "address": {"city": "CHRISTIANSBURG", "state": "VA", "street": "555 N FRANKLIN ST", "postcode": "24073"}}},
{"geometry": {"type": "Point", "coordinates": [-80.4179384837, 37.1682231915]}, "type": "Feature", "properties": {"collection_times": [{"days": "Mon-Fri", "time": "5:00pm"}, {"days": "Sat", "time": "12:00pm"}, {"days": "Sun", "time": "Closed"}], "id": "2407300040", "name": "USPS COLLECTION BOX - APC", "address": {"city": "CHRISTIANSBURG", "state": "VA", "street": "350 ARBOR DR", "postcode": "24073"}}},
{"geometry": {"type": "Point", "coordinates": [-80.4181078976, 36.589794207]}, "type": "Feature", "properties": {"collection_times": [{"days": "Mon-Fri", "time": "3:00pm"}, {"days": "Sat", "time": "11:00am"}, {"days": "Sun", "time": "Closed"}], "id": "2407600000", "name": "USPS COLLECTION BOX - BLUE BOX", "address": {"city": "CLAUDVILLE", "state": "VA", "street": "4551 CLAUDVILLE HWY", "postcode": "24076"}}},
{"geometry": {"type": "Point", "coordinates": [-80.4181078976, 36.589794207]}, "type": "Feature", "properties": {"collection_times": [{"days": "Mon-Fri", "time": "3:00pm"}, {"days": "Sat", "time": "11:00am"}, {"days": "Sun", "time": "Closed"}], "id": "2407600001", "name": "USPS COLLECTION BOX - PO LOBBY", "address": {"city": "CLAUDVILLE", "state": "VA", "street": "4551 CLAUDVILLE HWY", "postcode": "24076"}}},
{"geometry": {"type": "Point", "coordinates": [-79.9053444477, 37.3640569935]}, "type": "Feature", "properties": {"collection_times": [{"days": "Mon-Fri", "time": "4:00pm"}, {"days": "Sat", "time": "12:00pm"}, {"days": "Sun", "time": "Closed"}], "id": "2407700000", "name": "USPS COLLECTION BOX - BLUE BOX", "address": {"city": "CLOVERDALE", "state": "VA", "street": "4518 READ MOUNTAIN RD", "postcode": "24077"}}},
{"geometry": {"type": "Point", "coordinates": [-79.9053444477, 37.3640569935]}, "type": "Feature", "properties": {"collection_times": [{"days": "Mon-Fri", "time": "4:00pm"}, {"days": "Sat", "time": "12:00pm"}, {"days": "Sun", "time": "Closed"}], "id": "2407700001", "name": "USPS COLLECTION BOX - PO LOBBY", "address": {"city": "CLOVERDALE", "state": "VA", "street": "4518 READ MOUNTAIN RD", "postcode": "24077"}}},
{"geometry": {"type": "Point", "coordinates": [-79.9111338592, 36.7173624006]}, "type": "Feature", "properties": {"collection_times": [{"days": "Mon-Fri", "time": "5:00pm"}, {"days": "Sat", "time": "2:30pm"}, {"days": "Sun", "time": "Closed"}], "id": "2407800000", "name": "USPS COLLECTION BOX - BLUE BOX", "address": {"city": "COLLINSVILLE", "state": "VA", "street": "3365 VIRGINIA AVE", "postcode": "24078"}}},
{"geometry": {"type": "Point", "coordinates": [-79.9111338592, 36.7173624006]}, "type": "Feature", "properties": {"collection_times": [{"days": "Mon-Fri", "time": "5:00pm"}, {"days": "Sat", "time": "2:30pm"}, {"days": "Sun", "time": "Closed"}], "id": "2407800009", "name": "USPS COLLECTION BOX - PO LOBBY", "address": {"city": "COLLINSVILLE", "state": "VA", "street": "3365 VIRGINIA AVE", "postcode": "24078"}}},
{"geometry": {"type": "Point", "coordinates": [-80.1547632528, 37.0534462677]}, "type": "Feature", "properties": {"collection_times": [{"days": "Mon-Fri", "time": "2:45pm"}, {"days": "Sat", "time": "11:00am"}, {"days": "Sun", "time": "Closed"}], "id": "2407900000", "name": "USPS COLLECTION BOX - BLUE BOX", "address": {"city": "COPPER HILL", "state": "VA", "street": "8480 FLOYD HWY N", "postcode": "24079"}}},
{"geometry": {"type": "Point", "coordinates": [-80.1547632528, 37.0534462677]}, "type": "Feature", "properties": {"collection_times": [{"days": "Mon-Fri", "time": "2:45pm"}, {"days": "Sat", "time": "11:00am"}, {"days": "Sun", "time": "Closed"}], "id": "2407900001", "name": "USPS COLLECTION BOX - PO LOBBY", "address": {"city": "COPPER HILL", "state": "VA", "street": "8480 FLOYD HWY N", "postcode": "24079"}}},
{"geometry": {"type": "Point", "coordinates": [-80.1401677106, 36.6396617886]}, "type": "Feature", "properties": {"collection_times": [{"days": "Mon-Fri", "time": "3:15pm"}, {"days": "Sat", "time": "1:45pm"}, {"days": "Sun", "time": "Closed"}], "id": "2408200000", "name": "USPS COLLECTION BOX - BLUE BOX", "address": {"city": "CRITZ", "state": "VA", "street": "2658 ABRAM PENN HWY", "postcode": "24082"}}},
{"geometry": {"type": "Point", "coordinates": [-80.1401677106, 36.6396617886]}, "type": "Feature", "properties": {"collection_times": [{"days": "Mon-Fri", "time": "3:15pm"}, {"days": "Sat", "time": "1:45pm"}, {"days": "Sun", "time": "Closed"}], "id": "2408200001", "name": "USPS COLLECTION BOX - PO LOBBY", "address": {"city": "CRITZ", "state": "VA", "street": "2658 ABRAM PENN HWY", "postcode": "24082"}}},
{"geometry": {"type": "Point", "coordinates": [-79.9133866596, 37.4085859583]}, "type": "Feature", "properties": {"collection_times": [{"days": "Mon-Fri", "time": "5:00pm"}, {"days": "Sat", "time": "12:00pm"}, {"days": "Sun", "time": "Closed"}], "id": "2408300000", "name": "USPS COLLECTION BOX - BLUE BOX", "address": {"city": "DALEVILLE", "state": "VA", "street": "1492 ROANOKE RD", "postcode": "24083"}}},
{"geometry": {"type": "Point", "coordinates": [-79.909763764, 37.3967057663]}, "type": "Feature", "properties": {"collection_times": [{"days": "Mon-Sat", "time": "10:00am"}, {"days": "Sun", "time": "Closed"}], "id": "2408300004", "name": "USPS COLLECTION BOX - BLUE BOX", "address": {"city": "DALEVILLE", "state": "VA", "street": "72 KINGSTON DR", "postcode": "24083"}}},
{"geometry": {"type": "Point", "coordinates": [-80.6864655747, 37.0915379967]}, "type": "Feature", "properties": {"collection_times": [{"days": "Mon-Fri", "time": "4:45pm"}, {"days": "Sat", "time": "11:00am"}, {"days": "Sun", "time": "Closed"}], "id": "2408400000", "name": "USPS COLLECTION BOX - BLUE BOX", "address": {"city": "DUBLIN", "state": "VA", "street": "1 TOWN CENTER DR", "postcode": "24084"}}},
{"geometry": {"type": "Point", "coordinates": [-80.6879415604, 37.1332555638]}, "type": "Feature", "properties": {"collection_times": [{"days": "Mon-Fri", "time": "1:30pm"}, {"days": "Sat", "time": "12:30pm"}, {"days": "Sun", "time": "Closed"}], "id": "2408400002", "name": "USPS COLLECTION BOX - BLUE BOX", "address": {"city": "DUBLIN", "state": "VA", "street": "348 BROAD ST", "postcode": "24084"}}},
{"geometry": {"type": "Point", "coordinates": [-80.6864655747, 37.0915379967]}, "type": "Feature", "properties": {"collection_times": [{"days": "Mon-Fri", "time": "4:00pm"}, {"days": "Sat", "time": "11:00am"}, {"days": "Sun", "time": "Closed"}], "id": "2408400003", "name": "USPS COLLECTION BOX - PO LOBBY", "address": {"city": "DUBLIN", "state": "VA", "street": "1 TOWN CENTER DR", "postcode": "24084"}}},
{"geometry": {"type": "Point", "coordinates": [-79.7992552863, 37.6393980786]}, "type": "Feature", "properties": {"collection_times": [{"days": "Mon-Fri", "time": "11:15am"}, {"days": "Sat", "time": "10:30am"}, {"days": "Sun", "time": "Closed"}], "id": "2408500000", "name": "USPS COLLECTION BOX - BLUE BOX", "address": {"city": "EAGLE ROCK", "state": "VA", "street": "14630 CHURCH ST", "postcode": "24085"}}},
{"geometry": {"type": "Point", "coordinates": [-79.8214274862, 37.6217045614]}, "type": "Feature", "properties": {"collection_times": [{"days": "Mon-Sat", "time": "11:00am"}, {"days": "Sun", "time": "Closed"}], "id": "2408500001", "name": "USPS COLLECTION BOX - BLUE BOX", "address": {"city": "EAGLE ROCK", "state": "VA", "street": "9904 BOTETOURT RD", "postcode": "24085"}}},
{"geometry": {"type": "Point", "coordinates": [-79.7992552863, 37.6393980786]}, "type": "Feature", "properties": {"collection_times": [{"days": "Mon-Fri", "time": "11:15am"}, {"days": "Sat", "time": "10:30am"}, {"days": "Sun", "time": "Closed"}], "id": "2408500002", "name": "USPS COLLECTION BOX - PO LOBBY", "address": {"city": "EAGLE ROCK", "state": "VA", "street": "14630 CHURCH ST", "postcode": "24085"}}},
{"geometry": {"type": "Point", "coordinates": [-80.6308923095, 37.2905796572]}, "type": "Feature", "properties": {"collection_times": [{"days": "Mon-Fri", "time": "4:15pm"}, {"days": "Sat", "time": "2:00pm"}, {"days": "Sun", "time": "Closed"}], "id": "2408600000", "name": "USPS COLLECTION BOX - BLUE BOX", "address": {"city": "EGGLESTON", "state": "VA", "street": "3618 CHURCH HILL RD", "postcode": "24086"}}},
{"geometry": {"type": "Point", "coordinates": [-80.6308923095, 37.2905796572]}, "type": "Feature", "properties": {"collection_times": [{"days": "Mon-Fri", "time": "4:15pm"}, {"days": "Sat", "time": "12:00pm"}, {"days": "Sun", "time": "Closed"}], "id": "2408600001", "name": "USPS COLLECTION BOX - PO LOBBY", "address": {"city": "EGGLESTON", "state": "VA", "street": "3618 CHURCH HILL RD", "postcode": "24086"}}},
{"geometry": {"type": "Point", "coordinates": [-80.2286127936, 37.2200805375]}, "type": "Feature", "properties": {"collection_times": [{"days": "Mon-Fri", "time": "4:15pm"}, {"days": "Sat", "time": "11:00am"}, {"days": "Sun", "time": "Closed"}], "id": "2408700000", "name": "USPS COLLECTION BOX - BLUE BOX", "address": {"city": "ELLISTON", "state": "VA", "street": "9420 ROANOKE RD", "postcode": "24087"}}},
{"geometry": {"type": "Point", "coordinates": [-80.2450878782, 37.2268941358]}, "type": "Feature", "properties": {"collection_times": [{"days": "Mon-Fri", "time": "11:30am"}, {"days": "Sat", "time": "11:00am"}, {"days": "Sun", "time": "Closed"}], "id": "2408700003", "name": "USPS COLLECTION BOX - BLUE BOX", "address": {"city": "ELLISTON", "state": "VA", "street": "5151 NORTHFORK RD", "postcode": "24087"}}},
{"geometry": {"type": "Point", "coordinates": [-80.2201772243, 37.1595328547]}, "type": "Feature", "properties": {"collection_times": [{"days": "Mon-Sat", "time": "9:00am"}, {"days": "Sun", "time": "Closed"}], "id": "2408700004", "name": "USPS COLLECTION BOX - BLUE BOX", "address": {"city": "ELLISTON", "state": "VA", "street": "131 DARK RUN RD", "postcode": "24087"}}},
{"geometry": {"type": "Point", "coordinates": [-80.2286127936, 37.2200805375]}, "type": "Feature", "properties": {"collection_times": [{"days": "Mon-Fri", "time": "4:30pm"}, {"days": "Sat", "time": "11:00am"}, {"days": "Sun", "time": "Closed"}], "id": "2408700005", "name": "USPS COLLECTION BOX - PO LOBBY", "address": {"city": "ELLISTON", "state": "VA", "street": "9420 ROANOKE RD", "postcode": "24087"}}},
{"geometry": {"type": "Point", "coordinates": [-80.0114688659, 36.9202631967]}, "type": "Feature", "properties": {"collection_times": [{"days": "Mon-Fri", "time": "4:15pm"}, {"days": "Sat", "time": "12:00pm"}, {"days": "Sun", "time": "Closed"}], "id": "2408800000", "name": "USPS COLLECTION BOX - BLUE BOX", "address": {"city": "FERRUM", "state": "VA", "street": "57 FIELDCREST RD", "postcode": "24088"}}},
{"geometry": {"type": "Point", "coordinates": [-80.0114688659, 36.9202631967]}, "type": "Feature", "properties": {"collection_times": [{"days": "Mon-Fri", "time": "4:30pm"}, {"days": "Sat", "time": "12:00pm"}, {"days": "Sun", "time": "Closed"}], "id": "2408800001", "name": "USPS COLLECTION BOX - PO LOBBY", "address": {"city": "FERRUM", "state": "VA", "street": "57 FIELDCREST RD", "postcode": "24088"}}},
{"geometry": {"type": "Point", "coordinates": [-79.9396324334, 36.6998650336]}, "type": "Feature", "properties": {"collection_times": [{"days": "Mon-Fri", "time": "4:30pm"}, {"days": "Sat", "time": "12:00pm"}, {"days": "Sun", "time": "Closed"}], "id": "2408900000", "name": "USPS COLLECTION BOX - BLUE BOX", "address": {"city": "FIELDALE", "state": "VA", "street": "20 MARSHALL WAY", "postcode": "24089"}}},
{"geometry": {"type": "Point", "coordinates": [-79.9396324334, 36.6998650336]}, "type": "Feature", "properties": {"collection_times": [{"days": "Mon-Fri", "time": "4:30pm"}, {"days": "Sat", "time": "12:00pm"}, {"days": "Sun", "time": "Closed"}], "id": "2408900001", "name": "USPS COLLECTION BOX - PO LOBBY", "address": {"city": "FIELDALE", "state": "VA", "street": "20 MARSHALL WAY", "postcode": "24089"}}},
{"geometry": {"type": "Point", "coordinates": [-79.8779627849, 37.4963683494]}, "type": "Feature", "properties": {"collection_times": [{"days": "Mon-Fri", "time": "5:00pm"}, {"days": "Sat", "time": "11:00am"}, {"days": "Sun", "time": "Closed"}], "id": "2409000001", "name": "USPS COLLECTION BOX - PO LOBBY", "address": {"city": "FINCASTLE", "state": "VA", "street": "223 S ROANOKE ST", "postcode": "24090"}}},
{"geometry": {"type": "Point", "coordinates": [-79.8779627849, 37.4963683494]}, "type": "Feature", "properties": {"collection_times": [{"days": "Mon-Fri", "time": "5:00pm"}, {"days": "Sat", "time": "11:00am"}, {"days": "Sun", "time": "Closed"}], "id": "2409000002", "name": "USPS COLLECTION BOX - BLUE BOX", "address": {"city": "FINCASTLE", "state": "VA", "street": "223 S ROANOKE ST", "postcode": "24090"}}},
{"geometry": {"type": "Point", "coordinates": [-80.311340381, 36.9156709835]}, "type": "Feature", "properties": {"collection_times": [{"days": "Mon-Fri", "time": "5:15pm"}, {"days": "Sat", "time": "12:00pm"}, {"days": "Sun", "time": "Closed"}], "id": "2409100000", "name": "USPS COLLECTION BOX - BLUE BOX", "address": {"city": "FLOYD", "state": "VA", "street": "819 E MAIN ST", "postcode": "24091"}}},
{"geometry": {"type": "Point", "coordinates": [-80.311340381, 36.9156709835]}, "type": "Feature", "properties": {"collection_times": [{"days": "Mon-Fri", "time": "5:15pm"}, {"days": "Sat", "time": "12:00pm"}, {"days": "Sun", "time": "Closed"}], "id": "2409100001", "name": "USPS COLLECTION BOX - PO LOBBY", "address": {"city": "FLOYD", "state": "VA", "street": "819 E MAIN ST", "postcode": "24091"}}},
{"geometry": {"type": "Point", "coordinates": [-79.7700267018, 37.0156834185]}, "type": "Feature", "properties": {"collection_times": [{"days": "Mon-Fri", "time": "2:30pm"}, {"days": "Sat", "time": "10:30am"}, {"days": "Sun", "time": "Closed"}], "id": "2409200000", "name": "USPS COLLECTION BOX - BLUE BOX", "address": {"city": "GLADEHILL", "state": "VA", "street": "7300 OLD FRANKLIN TPKE", "postcode": "24092"}}},
{"geometry": {"type": "Point", "coordinates": [-79.7643133421, 36.989932335]}, "type": "Feature", "properties": {"collection_times": [{"days": "Mon-Fri", "time": "2:30pm"}, {"days": "Sat", "time": "10:30am"}, {"days": "Sun", "time": "Closed"}], "id": "2409200001", "name": "USPS COLLECTION BOX - PO LOBBY", "address": {"city": "GLADEHILL", "state": "VA", "street": "7300 OLD FRANKLIN TPKE", "postcode": "24092"}}},
{"geometry": {"type": "Point", "coordinates": [-80.8672688424, 37.370008449]}, "type": "Feature", "properties": {"collection_times": [{"days": "Mon-Fri", "time": "1:45pm"}, {"days": "Sat", "time": "11:15am"}, {"days": "Sun", "time": "Closed"}], "id": "2409300000", "name": "USPS COLLECTION BOX - BLUE BOX", "address": {"city": "GLEN LYN", "state": "VA", "street": "106 DAVIS AVE", "postcode": "24093"}}},
{"geometry": {"type": "Point", "coordinates": [-80.8672688424, 37.370008449]}, "type": "Feature", "properties": {"collection_times": [{"days": "Mon-Fri", "time": "1:45pm"}, {"days": "Sat", "time": "11:15am"}, {"days": "Sun", "time": "Closed"}], "id": "2409300001", "name": "USPS COLLECTION BOX - PO LOBBY", "address": {"city": "GLEN LYN", "state": "VA", "street": "106 DAVIS AVE", "postcode": "24093"}}},
{"geometry": {"type": "Point", "coordinates": [-79.7329628323, 37.2157956232]}, "type": "Feature", "properties": {"collection_times": [{"days": "Mon-Fri", "time": "4:00pm"}, {"days": "Sat", "time": "11:00am"}, {"days": "Sun", "time": "Closed"}], "id": "2409500000", "name": "USPS COLLECTION BOX - BLUE BOX", "address": {"city": "GOODVIEW", "state": "VA", "street": "7315 GOODVIEW RD", "postcode": "24095"}}},
{"geometry": {"type": "Point", "coordinates": [-79.7329628323, 37.2157956232]}, "type": "Feature", "properties": {"collection_times": [{"days": "Mon-Fri", "time": "4:00pm"}, {"days": "Sat", "time": "11:00am"}, {"days": "Sun", "time": "Closed"}], "id": "2409500001", "name": "USPS COLLECTION BOX - PO LOBBY", "address": {"city": "GOODVIEW", "state": "VA", "street": "7315 GOODVIEW RD", "postcode": "24095"}}}
]}
