{"type": "FeatureCollection", "features": [
{"geometry": {"type": "Point", "coordinates": [-79.7966571947, 37.2101672647]}, "type": "Feature", "properties": {"collection_times": [{"days": "Mon-Fri", "time": "4:30pm"}, {"days": "Sat", "time": "11:00am"}, {"days": "Sun", "time": "Closed"}], "id": "2410100000", "name": "USPS COLLECTION BOX - BLUE BOX", "address": {"city": "HARDY", "state": "VA", "street": "7210 HARDY RD", "postcode": "24101"}}},
{"geometry": {"type": "Point", "coordinates": [-79.7984505787, 37.1749897028]}, "type": "Feature", "properties": {"collection_times": [{"days": "Mon-Fri", "time": "4:00pm"}, {"days": "Sat", "time": "12:00pm"}, {"days": "Sun", "time": "Closed"}], "id": "2410100001", "name": "USPS COLLECTION BOX - BLUE BOX", "address": {"city": "HARDY", "state": "VA", "street": "40 VILLAGE SPRINGS DR STE 14", "postcode": "24101"}}},
{"geometry": {"type": "Point", "coordinates": [-79.7966571947, 37.2101672647]}, "type": "Feature", "properties": {"collection_times": [{"days": "Mon-Fri", "time": "4:30pm"}, {"days": "Sat", "time": "11:00am"}, {"days": "Sun", "time": "Closed"}], "id": "2410100002", "name": "USPS COLLECTION BOX - PO LOBBY", "address": {"city": "HARDY", "state": "VA", "street": "7210 HARDY RD", "postcode": "24101"}}},
{"geometry": {"type": "Point", "coordinates": [-79.7272480679, 37.1206692397]}, "type": "Feature", "properties": {"collection_times": [{"days": "Mon-Sat", "time": "11:00am"}, {"days": "Sun", "time": "Closed"}], "id": "2410100003", "name": "USPS COLLECTION BOX - BLUE BOX", "address": {"city": "HARDY", "state": "VA", "street": "13010 BOOKER T WASHINGTON HWY", "postcode": "24101"}}},
{"geometry": {"type": "Point", "coordinates": [-79.9900830735, 36.8299736163]}, "type": "Feature", "properties": {"collection_times": [{"days": "Mon-Fri", "time": "10:45am"}, {"days": "Sat", "time": "10:30am"}, {"days": "Sun", "time": "Closed"}], "id": "2410200000", "name": "USPS COLLECTION BOX - BLUE BOX", "address": {"city": "HENRY", "state": "VA", "street": "30 TOWNE CREEK RD", "postcode": "24102"}}},
{"geometry": {"type": "Point", "coordinates": [-79.9900830735, 36.8299736163]}, "type": "Feature", "properties": {"collection_times": [{"days": "Mon-Fri", "time": "10:45am"}, {"days": "Sat", "time": "10:30am"}, {"days": "Sun", "time": "Closed"}], "id": "2410200001", "name": "USPS COLLECTION BOX - PO LOBBY", "address": {"city": "HENRY", "state": "VA", "street": "30 TOWNE CREEK RD", "postcode": "24102"}}},
{"geometry": {"type": "Point", "coordinates": [-79.9888498688, 36.8440035611]}, "type": "Feature", "properties": {"collection_times": [{"days": "Mon-Sat", "time": "10:00am"}, {"days": "Sun", "time": "Closed"}], "id": "2410200002", "name": "USPS COLLECTION BOX - BLUE BOX", "address": {"city": "HENRY", "state": "VA", "street": "12825 HENRY RD", "postcode": "24102"}}},
{"geometry": {"type": "Point", "coordinates": [-79.9888498688, 36.8440035611]}, "type": "Feature", "properties": {"collection_times": [{"days": "Mon-Sat", "time": "1:00pm"}, {"days": "Sun", "time": "Closed"}], "id": "2410200003", "name": "USPS COLLECTION BOX - BLUE BOX", "address": {"city": "HENRY", "state": "VA", "street": "4641 HENRY RD", "postcode": "24102"}}},
{"geometry": {"type": "Point", "coordinates": [-79.5712553243, 37.1128571285]}, "type": "Feature", "properties": {"collection_times": [{"days": "Mon-Fri", "time": "4:45pm"}, {"days": "Sat", "time": "11:00am"}, {"days": "Sun", "time": "Closed"}], "id": "2410400000", "name": "USPS COLLECTION BOX - BLUE BOX", "address": {"city": "HUDDLESTON", "state": "VA", "street": "1080 TOLERS FERRY RD", "postcode": "24104"}}},
{"geometry": {"type": "Point", "coordinates": [-79.5712553243, 37.1128571285]}, "type": "Feature", "properties": {"collection_times": [{"days": "Mon-Fri", "time": "4:30pm"}, {"days": "Sat", "time": "11:00am"}, {"days": "Sun", "time": "Closed"}], "id": "2410400002", "name": "USPS COLLECTION BOX - PO LOBBY", "address": {"city": "HUDDLESTON", "state": "VA", "street": "1080 TOLERS FERRY RD", "postcode": "24104"}}},
{"geometry": {"type": "Point", "coordinates": [-79.5712553243, 37.1128571285]}, "type": "Feature", "properties": {"collection_times": [{"days": "Mon-Fri", "time": "4:30pm"}, {"days": "Sat", "time": "11:00am"}, {"days": "Sun", "time": "Closed"}], "id": "2410400003", "name": "USPS COLLECTION BOX - PO LOBBY", "address": {"city": "HUDDLESTON", "state": "VA", "street": "1080 TOLERS FERRY RD", "postcode": "24104"}}},
{"geometry": {"type": "Point", "coordinates": [-80.5533542315, 36.9093496143]}, "type": "Feature", "properties": {"collection_times": [{"days": "Mon-Fri", "time": "12:45pm"}, {"days": "Sat", "time": "1:45pm"}, {"days": "Sun", "time": "Closed"}], "id": "2410500001", "name": "USPS COLLECTION BOX - BLUE BOX", "address": {"city": "INDIAN VALLEY", "state": "VA", "street": "321 INDIAN VALLEY POST OFFICE RD NW", "postcode": "24105"}}},
{"geometry": {"type": "Point", "coordinates": [-80.5955820099, 37.2160006622]}, "type": "Feature", "properties": {"collection_times": [{"days": "Mon-Sat", "time": "12:00pm"}, {"days": "Sun", "time": "Closed"}], "id": "2411100000", "name": "USPS COLLECTION BOX - BLUE BOX", "address": {"city": "MCCOY", "state": "VA", "street": "6100 CENTENNIAL RD", "postcode": "24111"}}},
{"geometry": {"type": "Point", "coordinates": [-80.5955820099, 37.2160006622]}, "type": "Feature", "properties": {"collection_times": [{"days": "Mon-Sat", "time": "12:00pm"}, {"days": "Sun", "time": "Closed"}], "id": "2411100001", "name": "USPS COLLECTION BOX - PO LOBBY", "address": {"city": "MCCOY", "state": "VA", "street": "6100 CENTENNIAL RD", "postcode": "24111"}}},
{"geometry": {"type": "Point", "coordinates": [-79.8681447829, 36.6898833766]}, "type": "Feature", "properties": {"collection_times": [{"days": "Mon-Fri", "time": "4:00pm"}, {"days": "Sat", "time": "3:00pm"}, {"days": "Sun", "time": "Closed"}], "id": "2411200005", "name": "USPS COLLECTION BOX - BLUE BOX", "address": {"city": "MARTINSVILLE", "state": "VA", "street": "2 CLAY ST", "postcode": "24112"}}},
{"geometry": {"type": "Point", "coordinates": [-79.8671695258, 36.6890795179]}, "type": "Feature", "properties": {"collection_times": [{"days": "Mon-Sat", "time": "9:00am"}, {"days": "Sun", "time": "Closed"}], "id": "2411200007", "name": "USPS COLLECTION BOX - BLUE BOX", "address": {"city": "MARTINSVILLE", "state": "VA", "street": "15 CLEVELAND AVE", "postcode": "24112"}}},
{"geometry": {"type": "Point", "coordinates": [-79.8732956163, 36.6909348088]}, "type": "Feature", "properties": {"collection_times": [{"days": "Mon-Fri", "time": "4:00pm"}, {"days": "Sat", "time": "3:00pm"}, {"days": "Sun", "time": "Closed"}], "id": "2411200015", "name": "USPS COLLECTION BOX - BLUE BOX", "address": {"city": "MARTINSVILLE", "state": "VA", "street": "1 W CHURCH ST", "postcode": "24112"}}},
{"geometry": {"type": "Point", "coordinates": [-79.8567655626, 36.6892731664]}, "type": "Feature", "properties": {"collection_times": [{"days": "Mon-Sat", "time": "12:00pm"}, {"days": "Sun", "time": "Closed"}], "id": "2411200018", "name": "USPS COLLECTION BOX - BLUE BOX", "address": {"city": "MARTINSVILLE", "state": "VA", "street": "730 E CHURCH ST", "postcode": "24112"}}},
{"geometry": {"type": "Point", "coordinates": [-79.8692274395, 36.6901601456]}, "type": "Feature", "properties": {"collection_times": [{"days": "Mon-Fri", "time": "4:00pm"}, {"days": "Sat", "time": "3:00pm"}, {"days": "Sun", "time": "Closed"}], "id": "2411200019", "name": "USPS COLLECTION BOX - BLUE BOX", "address": {"city": "MARTINSVILLE", "state": "VA", "street": "201 E CHURCH ST", "postcode": "24112"}}},
{"geometry": {"type": "Point", "coordinates": [-79.8519789249, 36.6791185226]}, "type": "Feature", "properties": {"collection_times": [{"days": "Mon-Fri", "time": "4:00pm"}, {"days": "Sat", "time": "3:00pm"}, {"days": "Sun", "time": "Closed"}], "id": "2411200022", "name": "USPS COLLECTION BOX - BLUE BOX", "address": {"city": "MARTINSVILLE", "state": "VA", "street": "1123 SPRUCE ST", "postcode": "24112"}}},
{"geometry": {"type": "Point", "coordinates": [-79.8732956163, 36.6909348088]}, "type": "Feature", "properties": {"collection_times": [{"days": "Mon-Fri", "time": "4:00pm"}, {"days": "Sat-Sun", "time": "Closed"}], "id": "2411200025", "name": "USPS COLLECTION BOX - PO LOBBY", "address": {"city": "MARTINSVILLE", "state": "VA", "street": "1 W CHURCH ST", "postcode": "24112"}}},
{"geometry": {"type": "Point", "coordinates": [-79.8519789249, 36.6791185226]}, "type": "Feature", "properties": {"collection_times": [{"days": "Mon-Fri", "time": "4:00pm"}, {"days": "Sat", "time": "3:00pm"}, {"days": "Sun", "time": "Closed"}], "id": "2411200026", "name": "USPS COLLECTION BOX - PO LOBBY", "address": {"city": "MARTINSVILLE", "state": "VA", "street": "1123 SPRUCE ST", "postcode": "24112"}}},
{"geometry": {"type": "Point", "coordinates": [-79.8841118702, 36.667191386]}, "type": "Feature", "properties": {"collection_times": [{"days": "Mon-Sat", "time": "10:00am"}, {"days": "Sun", "time": "Closed"}], "id": "2411200032", "name": "USPS COLLECTION BOX - BLUE BOX", "address": {"city": "MARTINSVILLE", "state": "VA", "street": "1506 GREENSBORO RD", "postcode": "24112"}}},
{"geometry": {"type": "Point", "coordinates": [-79.879047835, 36.693596677]}, "type": "Feature", "properties": {"collection_times": [{"days": "Mon-Sat", "time": "9:00am"}, {"days": "Sun", "time": "Closed"}], "id": "2411200033", "name": "USPS COLLECTION BOX - BLUE BOX", "address": {"city": "MARTINSVILLE", "state": "VA", "street": "314 FAYETTE ST", "postcode": "24112"}}},
{"geometry": {"type": "Point", "coordinates": [-80.335379897, 36.7146712965]}, "type": "Feature", "properties": {"collection_times": [{"days": "Mon-Fri", "time": "3:15pm"}, {"days": "Sat", "time": "11:30am"}, {"days": "Sun", "time": "Closed"}], "id": "2412000000", "name": "USPS COLLECTION BOX - BLUE BOX", "address": {"city": "MEADOWS OF DAN", "state": "VA", "street": "3561 JEB STUART HWY", "postcode": "24120"}}},
{"geometry": {"type": "Point", "coordinates": [-80.335379897, 36.7146712965]}, "type": "Feature", "properties": {"collection_times": [{"days": "Mon-Fri", "time": "3:15pm"}, {"days": "Sat", "time": "11:30am"}, {"days": "Sun", "time": "Closed"}], "id": "2412000001", "name": "USPS COLLECTION BOX - PO LOBBY", "address": {"city": "MEADOWS OF DAN", "state": "VA", "street": "3561 JEB STUART HWY", "postcode": "24120"}}},
{"geometry": {"type": "Point", "coordinates": [-80.335379897, 36.7146712965]}, "type": "Feature", "properties": {"collection_times": [{"days": "Mon-Fri", "time": "3:15pm"}, {"days": "Sat", "time": "11:30am"}, {"days": "Sun", "time": "Closed"}], "id": "2412000002", "name": "USPS COLLECTION BOX - PO LOBBY", "address": {"city": "MEADOWS OF DAN", "state": "VA", "street": "3561 JEB STUART HWY", "postcode": "24120"}}},
{"geometry": {"type": "Point", "coordinates": [-79.6311225116, 37.1714408053]}, "type": "Feature", "properties": {"collection_times": [{"days": "Mon-Fri", "time": "4:30pm"}, {"days": "Sat", "time": "10:30am"}, {"days": "Sun", "time": "Closed"}], "id": "2412100000", "name": "USPS COLLECTION BOX - BLUE BOX", "address": {"city": "MONETA", "state": "VA", "street": "14211 MONETA RD", "postcode": "24121"}}},
{"geometry": {"type": "Point", "coordinates": [-79.6731270259, 37.143381868]}, "type": "Feature", "properties": {"collection_times": [{"days": "Mon-Sat", "time": "1:00pm"}, {"days": "Sun", "time": "Closed"}], "id": "2412100001", "name": "USPS COLLECTION BOX - BLUE BOX", "address": {"city": "MONETA", "state": "VA", "street": "16430 BOOKER T WASHINGTON HWY", "postcode": "24121"}}},
{"geometry": {"type": "Point", "coordinates": [-79.6311225116, 37.1714408053]}, "type": "Feature", "properties": {"collection_times": [{"days": "Mon-Fri", "time": "4:45pm"}, {"days": "Sat", "time": "2:00pm"}, {"days": "Sun", "time": "Closed"}], "id": "2412100003", "name": "USPS COLLECTION BOX - PO LOBBY", "address": {"city": "MONETA", "state": "VA", "street": "14211 MONETA RD", "postcode": "24121"}}},
{"geometry": {"type": "Point", "coordinates": [-79.7290786117, 37.3834909317]}, "type": "Feature", "properties": {"collection_times": [{"days": "Mon-Fri", "time": "3:15pm"}, {"days": "Sat", "time": "11:00am"}, {"days": "Sun", "time": "Closed"}], "id": "2412200000", "name": "USPS COLLECTION BOX - BLUE BOX", "address": {"city": "MONTVALE", "state": "VA", "street": "11345 W LYNCHBURG SALEM TPKE", "postcode": "24122"}}},
{"geometry": {"type": "Point", "coordinates": [-79.7290786117, 37.3834909317]}, "type": "Feature", "properties": {"collection_times": [{"days": "Mon-Fri", "time": "3:15pm"}, {"days": "Sat", "time": "11:00am"}, {"days": "Sun", "time": "Closed"}], "id": "2412200001", "name": "USPS COLLECTION BOX - PO LOBBY", "address": {"city": "MONTVALE", "state": "VA", "street": "11345 W LYNCHBURG SALEM TPKE", "postcode": "24122"}}},
{"geometry": {"type": "Point", "coordinates": [-79.7290786117, 37.3834909317]}, "type": "Feature", "properties": {"collection_times": [{"days": "Mon-Fri", "time": "3:15pm"}, {"days": "Sat", "time": "11:00am"}, {"days": "Sun", "time": "Closed"}], "id": "2412200002", "name": "USPS COLLECTION BOX - PO LOBBY", "address": {"city": "MONTVALE", "state": "VA", "street": "11345 W LYNCHBURG SALEM TPKE", "postcode": "24122"}}},
{"geometry": {"type": "Point", "coordinates": [-79.7195572982, 37.3797279924]}, "type": "Feature", "properties": {"collection_times": [{"days": "Mon-Sat", "time": "10:00am"}, {"days": "Sun", "time": "Closed"}], "id": "2412200003", "name": "USPS COLLECTION BOX - BLUE BOX", "address": {"city": "MONTVALE", "state": "VA", "street": "10761 W LYNCHBURG SALEM TPKE", "postcode": "24122"}}},
{"geometry": {"type": "Point", "coordinates": [-80.8078496007, 37.3300870621]}, "type": "Feature", "properties": {"collection_times": [{"days": "Mon-Fri", "time": "3:00pm"}, {"days": "Sat", "time": "10:45am"}, {"days": "Sun", "time": "Closed"}], "id": "2412400000", "name": "USPS COLLECTION BOX - BLUE BOX", "address": {"city": "NARROWS", "state": "VA", "street": "305 MAIN ST", "postcode": "24124"}}},
{"geometry": {"type": "Point", "coordinates": [-80.8078496007, 37.3300870621]}, "type": "Feature", "properties": {"collection_times": [{"days": "Mon-Fri", "time": "3:00pm"}, {"days": "Sat", "time": "10:45am"}, {"days": "Sun", "time": "Closed"}], "id": "2412400001", "name": "USPS COLLECTION BOX - PO LOBBY", "address": {"city": "NARROWS", "state": "VA", "street": "305 MAIN ST", "postcode": "24124"}}},
{"geometry": {"type": "Point", "coordinates": [-80.6904520876, 37.0728238941]}, "type": "Feature", "properties": {"collection_times": [{"days": "Mon-Fri", "time": "11:45am"}, {"days": "Sat", "time": "10:30am"}, {"days": "Sun", "time": "Closed"}], "id": "2412600000", "name": "USPS COLLECTION BOX - BLUE BOX", "address": {"city": "NEWBERN", "state": "VA", "street": "5339 WILDERNESS RD", "postcode": "24126"}}},
{"geometry": {"type": "Point", "coordinates": [-80.6904520876, 37.0728238941]}, "type": "Feature", "properties": {"collection_times": [{"days": "Mon-Fri", "time": "11:45am"}, {"days": "Sat", "time": "10:30am"}, {"days": "Sun", "time": "Closed"}], "id": "2412600001", "name": "USPS COLLECTION BOX - PO LOBBY", "address": {"city": "NEWBERN", "state": "VA", "street": "5339 WILDERNESS RD", "postcode": "24126"}}},
{"geometry": {"type": "Point", "coordinates": [-80.111865581, 37.5011564899]}, "type": "Feature", "properties": {"collection_times": [{"days": "Mon-Fri", "time": "3:45pm"}, {"days": "Sat", "time": "11:00am"}, {"days": "Sun", "time": "Closed"}], "id": "2412700000", "name": "USPS COLLECTION BOX - BLUE BOX", "address": {"city": "NEW CASTLE", "state": "VA", "street": "283 MAIN ST", "postcode": "24127"}}},
{"geometry": {"type": "Point", "coordinates": [-80.111865581, 37.5011564899]}, "type": "Feature", "properties": {"collection_times": [{"days": "Mon-Fri", "time": "3:45pm"}, {"days": "Sat", "time": "11:00am"}, {"days": "Sun", "time": "Closed"}], "id": "2412700001", "name": "USPS COLLECTION BOX - PO LOBBY", "address": {"city": "NEW CASTLE", "state": "VA", "street": "283 MAIN ST", "postcode": "24127"}}},
{"geometry": {"type": "Point", "coordinates": [-80.111865581, 37.5011564899]}, "type": "Feature", "properties": {"collection_times": [{"days": "Mon-Fri", "time": "3:45pm"}, {"days": "Sat", "time": "11:00am"}, {"days": "Sun", "time": "Closed"}], "id": "2412700002", "name": "USPS COLLECTION BOX - PO LOBBY", "address": {"city": "NEW CASTLE", "state": "VA", "street": "283 MAIN ST", "postcode": "24127"}}},
{"geometry": {"type": "Point", "coordinates": [-80.4381624016, 37.3319341291]}, "type": "Feature", "properties": {"collection_times": [{"days": "Mon-Fri", "time": "3:00pm"}, {"days": "Sat", "time": "10:45am"}, {"days": "Sun", "time": "Closed"}], "id": "2412800000", "name": "USPS COLLECTION BOX - BLUE BOX", "address": {"city": "NEWPORT", "state": "VA", "street": "119 BLUE GRASS TRL", "postcode": "24128"}}},
{"geometry": {"type": "Point", "coordinates": [-80.4381624016, 37.3319341291]}, "type": "Feature", "properties": {"collection_times": [{"days": "Mon-Fri", "time": "3:00pm"}, {"days": "Sat", "time": "10:45am"}, {"days": "Sun", "time": "Closed"}], "id": "2412800001", "name": "USPS COLLECTION BOX - PO LOBBY", "address": {"city": "NEWPORT", "state": "VA", "street": "119 BLUE GRASS TRL", "postcode": "24128"}}},
{"geometry": {"type": "Point", "coordinates": [-80.5523304726, 37.1410102084]}, "type": "Feature", "properties": {"collection_times": [{"days": "Mon-Fri", "time": "11:15am"}, {"days": "Sat", "time": "11:30am"}, {"days": "Sun", "time": "Closed"}], "id": "2412900000", "name": "USPS COLLECTION BOX - BLUE BOX", "address": {"city": "NEW RIVER", "state": "VA", "street": "6461 NEW RIVER RD", "postcode": "24129"}}},
{"geometry": {"type": "Point", "coordinates": [-80.5523304726, 37.1410102084]}, "type": "Feature", "properties": {"collection_times": [{"days": "Mon-Fri", "time": "11:15am"}, {"days": "Sat", "time": "11:45am"}, {"days": "Sun", "time": "Closed"}], "id": "2412900001", "name": "USPS COLLECTION BOX - PO LOBBY", "address": {"city": "NEW RIVER", "state": "VA", "street": "6461 NEW RIVER RD", "postcode": "24129"}}},
{"geometry": {"type": "Point", "coordinates": [-79.98445, 37.616642]}, "type": "Feature", "properties": {"collection_times": [{"days": "Mon-Sat", "time": "1:45pm"}, {"days": "Sun", "time": "Closed"}], "id": "2413000000", "name": "USPS COLLECTION BOX - BLUE BOX", "address": {"city": "ORISKANY", "state": "VA", "street": "68 ORISKANY SQ", "postcode": "24130"}}},
{"geometry": {"type": "Point", "coordinates": [-79.9834339457, 37.6168339507]}, "type": "Feature", "properties": {"collection_times": [{"days": "Mon-Sat", "time": "1:45pm"}, {"days": "Sun", "time": "Closed"}], "id": "2413000001", "name": "USPS COLLECTION BOX - PO LOBBY", "address": {"city": "ORISKANY", "state": "VA", "street": "68 ORISKANY SQ", "postcode": "24130"}}},
{"geometry": {"type": "Point", "coordinates": [-80.5523304726, 37.1410102084]}, "type": "Feature", "properties": {"collection_times": [{"days": "Mon-Fri", "time": "11:45am"}, {"days": "Sat", "time": "11:15am"}, {"days": "Sun", "time": "Closed"}], "id": "2413200000", "name": "USPS COLLECTION BOX - BLUE BOX", "address": {"city": "PARROTT", "state": "VA", "street": "6059 PARROTT MOUNTAIN RD", "postcode": "24132"}}},
{"geometry": {"type": "Point", "coordinates": [-80.5523304726, 37.1410102084]}, "type": "Feature", "properties": {"collection_times": [{"days": "Mon-Fri", "time": "11:45am"}, {"days": "Sat", "time": "11:15am"}, {"days": "Sun", "time": "Closed"}], "id": "2413200001", "name": "USPS COLLECTION BOX - PO LOBBY", "address": {"city": "PARROTT", "state": "VA", "street": "6059 PARROTT MOUNTAIN RD", "postcode": "24132"}}},
{"geometry": {"type": "Point", "coordinates": [-80.145913499, 36.6777646759]}, "type": "Feature", "properties": {"collection_times": [{"days": "Mon-Fri", "time": "4:00pm"}, {"days": "Sat", "time": "11:30am"}, {"days": "Sun", "time": "Closed"}], "id": "2413300000", "name": "USPS COLLECTION BOX - BLUE BOX", "address": {"city": "PATRICK SPRINGS", "state": "VA", "street": "22015 JEB STUART HWY", "postcode": "24133"}}},
{"geometry": {"type": "Point", "coordinates": [-80.145913499, 36.6777646759]}, "type": "Feature", "properties": {"collection_times": [{"days": "Mon-Fri", "time": "4:30pm"}, {"days": "Sat", "time": "11:30am"}, {"days": "Sun", "time": "Closed"}], "id": "2413300001", "name": "USPS COLLECTION BOX - PO LOBBY", "address": {"city": "PATRICK SPRINGS", "state": "VA", "street": "22015 JEB STUART HWY", "postcode": "24133"}}},
{"geometry": {"type": "Point", "coordinates": [-80.736171076, 37.328438972]}, "type": "Feature", "properties": {"collection_times": [{"days": "Mon-Sat", "time": "12:00pm"}, {"days": "Sun", "time": "Closed"}], "id": "2413400001", "name": "USPS COLLECTION BOX - BLUE BOX", "address": {"city": "PEARISBURG", "state": "VA", "street": "316 N MAIN ST", "postcode": "24134"}}},
{"geometry": {"type": "Point", "coordinates": [-80.7357248696, 37.3276116642]}, "type": "Feature", "properties": {"collection_times": [{"days": "Mon-Fri", "time": "5:00pm"}, {"days": "Sat", "time": "3:30pm"}, {"days": "Sun", "time": "Closed"}], "id": "2413400002", "name": "USPS COLLECTION BOX - BLUE BOX", "address": {"city": "PEARISBURG", "state": "VA", "street": "206 N MAIN ST", "postcode": "24134"}}},
{"geometry": {"type": "Point", "coordinates": [-80.7103422263, 37.3294010629]}, "type": "Feature", "properties": {"collection_times": [{"days": "Mon-Sat", "time": "10:30am"}, {"days": "Sun", "time": "Closed"}], "id": "2413400003", "name": "USPS COLLECTION BOX - BLUE BOX", "address": {"city": "PEARISBURG", "state": "VA", "street": "160 KINTER WAY", "postcode": "24134"}}},
{"geometry": {"type": "Point", "coordinates": [-80.7357248696, 37.3276116642]}, "type": "Feature", "properties": {"collection_times": [{"days": "Mon-Fri", "time": "5:00pm"}, {"days": "Sat", "time": "3:30pm"}, {"days": "Sun", "time": "Closed"}], "id": "2413400006", "name": "USPS COLLECTION BOX - PO LOBBY", "address": {"city": "PEARISBURG", "state": "VA", "street": "206 N MAIN ST", "postcode": "24134"}}},
{"geometry": {"type": "Point", "coordinates": [-80.5171916176, 37.383637665]}, "type": "Feature", "properties": {"collection_times": [{"days": "Mon-Fri", "time": "4:45pm"}, {"days": "Sat", "time": "11:45am"}, {"days": "Sun", "time": "Closed"}], "id": "2413600000", "name": "USPS COLLECTION BOX - BLUE BOX", "address": {"city": "PEMBROKE", "state": "VA", "street": "102 PROGRESS ST", "postcode": "24136"}}},
{"geometry": {"type": "Point", "coordinates": [-80.5171916176, 37.383637665]}, "type": "Feature", "properties": {"collection_times": [{"days": "Mon-Fri", "time": "4:45pm"}, {"days": "Sat", "time": "11:45am"}, {"days": "Sun", "time": "Closed"}], "id": "2413600001", "name": "USPS COLLECTION BOX - PO LOBBY", "address": {"city": "PEMBROKE", "state": "VA", "street": "102 PROGRESS ST", "postcode": "24136"}}},
{"geometry": {"type": "Point", "coordinates": [-79.6269767851, 36.9814505233]}, "type": "Feature", "properties": {"collection_times": [{"days": "Mon-Fri", "time": "3:45pm"}, {"days": "Sat", "time": "11:00am"}, {"days": "Sun", "time": "Closed"}], "id": "2413700000", "name": "USPS COLLECTION BOX - BLUE BOX", "address": {"city": "PENHOOK", "state": "VA", "street": "137 MORGANS FORK RD", "postcode": "24137"}}},
{"geometry": {"type": "Point", "coordinates": [-79.6269767851, 36.9814505233]}, "type": "Feature", "properties": {"collection_times": [{"days": "Mon-Fri", "time": "3:45pm"}, {"days": "Sat", "time": "11:00am"}, {"days": "Sun", "time": "Closed"}], "id": "2413700001", "name": "USPS COLLECTION BOX - PO LOBBY", "address": {"city": "PENHOOK", "state": "VA", "street": "137 MORGANS FORK RD", "postcode": "24137"}}},
{"geometry": {"type": "Point", "coordinates": [-80.3732733155, 37.0635002317]}, "type": "Feature", "properties": {"collection_times": [{"days": "Mon-Fri", "time": "11:15am"}, {"days": "Sat", "time": "11:30am"}, {"days": "Sun", "time": "Closed"}], "id": "2413800000", "name": "USPS COLLECTION BOX - BLUE BOX", "address": {"city": "PILOT", "state": "VA", "street": "5044 PILOT RD", "postcode": "24138"}}},
{"geometry": {"type": "Point", "coordinates": [-80.3732733155, 37.0635002317]}, "type": "Feature", "properties": {"collection_times": [{"days": "Mon-Fri", "time": "11:15am"}, {"days": "Sat", "time": "11:30am"}, {"days": "Sun", "time": "Closed"}], "id": "2413800001", "name": "USPS COLLECTION BOX - PO LOBBY", "address": {"city": "PILOT", "state": "VA", "street": "5044 PILOT RD", "postcode": "24138"}}},
{"geometry": {"type": "Point", "coordinates": [-79.4647371127, 36.9821627948]}, "type": "Feature", "properties": {"collection_times": [{"days": "Mon-Fri", "time": "11:45am"}, {"days": "Sat", "time": "11:30am"}, {"days": "Sun", "time": "Closed"}], "id": "2413900000", "name": "USPS COLLECTION BOX - BLUE BOX", "address": {"city": "PITTSVILLE", "state": "VA", "street": "5424 PITTSVILLE RD", "postcode": "24139"}}},
{"geometry": {"type": "Point", "coordinates": [-79.4647371127, 36.9821627948]}, "type": "Feature", "properties": {"collection_times": [{"days": "Mon-Fri", "time": "11:45am"}, {"days": "Sat", "time": "11:30am"}, {"days": "Sun", "time": "Closed"}], "id": "2413900002", "name": "USPS COLLECTION BOX - PO LOBBY", "address": {"city": "PITTSVILLE", "state": "VA", "street": "5424 PITTSVILLE RD", "postcode": "24139"}}},
{"geometry": {"type": "Point", "coordinates": [-80.5491567437, 37.1362975692]}, "type": "Feature", "properties": {"collection_times": [{"days": "Mon-Sat", "time": "3:30pm"}, {"days": "Sun", "time": "Closed"}], "id": "2414100004", "name": "USPS COLLECTION BOX - BLUE BOX", "address": {"city": "RADFORD", "state": "VA", "street": "801 FAIRFAX ST", "postcode": "24141"}}},
{"geometry": {"type": "Point", "coordinates": [-80.5533481986, 37.1389046721]}, "type": "Feature", "properties": {"collection_times": [{"days": "Mon-Sat", "time": "3:30pm"}, {"days": "Sun", "time": "Closed"}], "id": "2414100008", "name": "USPS COLLECTION BOX - BLUE BOX", "address": {"city": "RADFORD", "state": "VA", "street": "300 TYLER AVE", "postcode": "24141"}}},
{"geometry": {"type": "Point", "coordinates": [-80.5690067508, 37.1297244551]}, "type": "Feature", "properties": {"collection_times": [{"days": "Mon-Sat", "time": "3:30pm"}, {"days": "Sun", "time": "Closed"}], "id": "2414100011", "name": "USPS COLLECTION BOX - BLUE BOX", "address": {"city": "RADFORD", "state": "VA", "street": "707 RANDOLPH ST", "postcode": "24141"}}},
{"geometry": {"type": "Point", "coordinates": [-80.5384439617, 37.1326441885]}, "type": "Feature", "properties": {"collection_times": [{"days": "Mon-Sat", "time": "11:00am"}, {"days": "Sun", "time": "Closed"}], "id": "2414100012", "name": "USPS COLLECTION BOX - BLUE BOX", "address": {"city": "RADFORD", "state": "VA", "street": "400 ROBEY ST", "postcode": "24141"}}},
{"geometry": {"type": "Point", "coordinates": [-80.5791944799, 37.1422540987]}, "type": "Feature", "properties": {"collection_times": [{"days": "Mon-Sat", "time": "1:00pm"}, {"days": "Sun", "time": "Closed"}], "id": "2414100014", "name": "USPS COLLECTION BOX - BLUE BOX", "address": {"city": "RADFORD", "state": "VA", "street": "7460 LEE HWY", "postcode": "24141"}}},
{"geometry": {"type": "Point", "coordinates": [-80.5778627706, 37.1309860732]}, "type": "Feature", "properties": {"collection_times": [{"days": "Mon-Sat", "time": "3:30pm"}, {"days": "Sun", "time": "Closed"}], "id": "2414100018", "name": "USPS COLLECTION BOX - BLUE BOX", "address": {"city": "RADFORD", "state": "VA", "street": "606 2ND ST", "postcode": "24141"}}},
{"geometry": {"type": "Point", "coordinates": [-80.5737993801, 37.1348900196]}, "type": "Feature", "properties": {"collection_times": [{"days": "Mon-Sat", "time": "10:00am"}, {"days": "Sun", "time": "Closed"}], "id": "2414100024", "name": "USPS COLLECTION BOX - BLUE BOX", "address": {"city": "RADFORD", "state": "VA", "street": "210 W MAIN ST", "postcode": "24141"}}},
{"geometry": {"type": "Point", "coordinates": [-80.5448276981, 37.128895392]}, "type": "Feature", "properties": {"collection_times": [{"days": "Mon-Sat", "time": "11:30am"}, {"days": "Sun", "time": "Closed"}], "id": "2414100028", "name": "USPS COLLECTION BOX - BLUE BOX", "address": {"city": "RADFORD", "state": "VA", "street": "1200 TYLER AVE", "postcode": "24141"}}},
{"geometry": {"type": "Point", "coordinates": [-80.5581377192, 37.1386338838]}, "type": "Feature", "properties": {"collection_times": [{"days": "Mon-Sat", "time": "10:30am"}, {"days": "Sun", "time": "Closed"}], "id": "2414100029", "name": "USPS COLLECTION BOX - BLUE BOX", "address": {"city": "RADFORD", "state": "VA", "street": "1301 DOWNEY ST", "postcode": "24141"}}},
{"geometry": {"type": "Point", "coordinates": [-80.5572939478, 37.1409058435]}, "type": "Feature", "properties": {"collection_times": [{"days": "Mon-Sat", "time": "3:30pm"}, {"days": "Sun", "time": "Closed"}], "id": "2414100030", "name": "USPS COLLECTION BOX - BLUE BOX", "address": {"city": "RADFORD", "state": "VA", "street": "1127 E MAIN ST", "postcode": "24141"}}},
{"geometry": {"type": "Point", "coordinates": [-80.544695805, 37.1369583667]}, "type": "Feature", "properties": {"collection_times": [{"days": "Mon-Sat", "time": "11:00am"}, {"days": "Sun", "time": "Closed"}], "id": "2414100032", "name": "USPS COLLECTION BOX - BLUE BOX", "address": {"city": "RADFORD", "state": "VA", "street": "600 E MAIN ST", "postcode": "24141"}}},
{"geometry": {"type": "Point", "coordinates": [-80.5761607819, 37.1334838608]}, "type": "Feature", "properties": {"collection_times": [{"days": "Mon-Sat", "time": "11:00am"}, {"days": "Sun", "time": "Closed"}], "id": "2414100034", "name": "USPS COLLECTION BOX - BLUE BOX", "address": {"city": "RADFORD", "state": "VA", "street": "401 W MAIN ST", "postcode": "24141"}}},
{"geometry": {"type": "Point", "coordinates": [-80.5837858965, 37.1285104869]}, "type": "Feature", "properties": {"collection_times": [{"days": "Mon-Sat", "time": "5:15pm"}, {"days": "Sun", "time": "Closed"}], "id": "2414100035", "name": "USPS COLLECTION BOX - PO LOBBY", "address": {"city": "RADFORD", "state": "VA", "street": "901 W MAIN ST", "postcode": "24141"}}},
{"geometry": {"type": "Point", "coordinates": [-80.5837858965, 37.1285104869]}, "type": "Feature", "properties": {"collection_times": [{"days": "Mon-Fri", "time": "5:00pm"}, {"days": "Sat", "time": "3:30pm"}, {"days": "Sun", "time": "Closed"}], "id": "2414100037", "name": "USPS COLLECTION BOX - BLUE BOX", "address": {"city": "RADFORD", "state": "VA", "street": "901 W MAIN ST", "postcode": "24141"}}},
{"geometry": {"type": "Point", "coordinates": [-80.5837858965, 37.1285104869]}, "type": "Feature", "properties": {"collection_times": [{"days": "Mon-Fri", "time": "5:00pm"}, {"days": "Sat", "time": "3:30pm"}, {"days": "Sun", "time": "Closed"}], "id": "2414100038", "name": "USPS COLLECTION BOX - BLUE BOX", "address": {"city": "RADFORD", "state": "VA", "street": "901 W MAIN ST", "postcode": "24141"}}},
{"geometry": {"type": "Point", "coordinates": [-80.5842635599, 37.1507598114]}, "type": "Feature", "properties": {"collection_times": [{"days": "Mon-Fri", "time": "2:30pm"}, {"days": "Sat", "time": "1:00pm"}, {"days": "Sun", "time": "Closed"}], "id": "2414100040", "name": "USPS COLLECTION BOX - BLUE BOX", "address": {"city": "RADFORD", "state": "VA", "street": "6107 FULK DR", "postcode": "24141"}}},
{"geometry": {"type": "Point", "coordinates": [-79.8183969794, 37.0184589764]}, "type": "Feature", "properties": {"collection_times": [{"days": "Mon-Fri", "time": "11:45am"}, {"days": "Sat", "time": "11:15am"}, {"days": "Sun", "time": "Closed"}], "id": "2414600000", "name": "USPS COLLECTION BOX - BLUE BOX", "address": {"city": "REDWOOD", "state": "VA", "street": "3450 OLD FRANKLIN TPKE", "postcode": "24146"}}},
{"geometry": {"type": "Point", "coordinates": [-80.8221906912, 37.3800909581]}, "type": "Feature", "properties": {"collection_times": [{"days": "Mon-Fri", "time": "3:00pm"}, {"days": "Sat", "time": "11:15am"}, {"days": "Sun", "time": "Closed"}], "id": "2414700000", "name": "USPS COLLECTION BOX - BLUE BOX", "address": {"city": "RICH CREEK", "state": "VA", "street": "299 OLD VIRGINIA AVE", "postcode": "24147"}}},
{"geometry": {"type": "Point", "coordinates": [-80.8221906912, 37.3800909581]}, "type": "Feature", "properties": {"collection_times": [{"days": "Mon-Fri", "time": "3:00pm"}, {"days": "Sat", "time": "11:15am"}, {"days": "Sun", "time": "Closed"}], "id": "2414700001", "name": "USPS COLLECTION BOX - PO LOBBY", "address": {"city": "RICH CREEK", "state": "VA", "street": "299 OLD VIRGINIA AVE", "postcode": "24147"}}},
{"geometry": {"type": "Point", "coordinates": [-79.9314786794, 36.5859151872]}, "type": "Feature", "properties": {"collection_times": [{"days": "Mon-Fri", "time": "4:30pm"}, {"days": "Sat", "time": "12:00pm"}, {"days": "Sun", "time": "Closed"}], "id": "2414800000", "name": "USPS COLLECTION BOX - BLUE BOX", "address": {"city": "RIDGEWAY", "state": "VA", "street": "82 MAGNOLIA ST", "postcode": "24148"}}},
{"geometry": {"type": "Point", "coordinates": [-79.9314786794, 36.5859151872]}, "type": "Feature", "properties": {"collection_times": [{"days": "Mon-Fri", "time": "4:30pm"}, {"days": "Sat", "time": "12:00pm"}, {"days": "Sun", "time": "Closed"}], "id": "2414800001", "name": "USPS COLLECTION BOX - PO LOBBY", "address": {"city": "RIDGEWAY", "state": "VA", "street": "82 MAGNOLIA ST", "postcode": "24148"}}},
{"geometry": {"type": "Point", "coordinates": [-80.4429709577, 37.0701566838]}, "type": "Feature", "properties": {"collection_times": [{"days": "Mon-Fri", "time": "4:30pm"}, {"days": "Sat", "time": "11:30am"}, {"days": "Sun", "time": "Closed"}], "id": "2414900000", "name": "USPS COLLECTION BOX - BLUE BOX", "address": {"city": "RINER", "state": "VA", "street": "3955 RINER RD", "postcode": "24149"}}},
{"geometry": {"type": "Point", "coordinates": [-80.4429709577, 37.0701566838]}, "type": "Feature", "properties": {"collection_times": [{"days": "Mon-Fri", "time": "4:30pm"}, {"days": "Sat", "time": "11:30am"}, {"days": "Sun", "time": "Closed"}], "id": "2414900001", "name": "USPS COLLECTION BOX - PO LOBBY", "address": {"city": "RINER", "state": "VA", "street": "3955 RINER RD", "postcode": "24149"}}},
{"geometry": {"type": "Point", "coordinates": [-80.4429709577, 37.0701566838]}, "type": "Feature", "properties": {"collection_times": [{"days": "Mon-Fri", "time": "4:30pm"}, {"days": "Sat", "time": "11:30am"}, {"days": "Sun", "time": "Closed"}], "id": "2414900002", "name": "USPS COLLECTION BOX - BLUE BOX", "address": {"city": "RINER", "state": "VA", "street": "3955 RINER RD", "postcode": "24149"}}},
{"geometry": {"type": "Point", "coordinates": [-80.6859180434, 37.3366167074]}, "type": "Feature", "properties": {"collection_times": [{"days": "Mon-Fri", "time": "11:45am"}, {"days": "Sat", "time": "10:00am"}, {"days": "Sun", "time": "Closed"}], "id": "2415000000", "name": "USPS COLLECTION BOX - BLUE BOX", "address": {"city": "RIPPLEMEAD", "state": "VA", "street": "101 GREYSTONE DR", "postcode": "24150"}}},
{"geometry": {"type": "Point", "coordinates": [-80.6859180434, 37.3366167074]}, "type": "Feature", "properties": {"collection_times": [{"days": "Mon-Fri", "time": "11:45am"}, {"days": "Sat", "time": "10:00am"}, {"days": "Sun", "time": "Closed"}], "id": "2415000001", "name": "USPS COLLECTION BOX - PO LOBBY", "address": {"city": "RIPPLEMEAD", "state": "VA", "street": "101 GREYSTONE DR", "postcode": "24150"}}},
{"geometry": {"type": "Point", "coordinates": [-79.8927235668, 36.9971411372]}, "type": "Feature", "properties": {"collection_times": [{"days": "Mon-Fri", "time": "5:00pm"}, {"days": "Sat", "time": "12:00pm"}, {"days": "Sun", "time": "Closed"}], "id": "2415100000", "name": "USPS COLLECTION BOX - BLUE BOX", "address": {"city": "ROCKY MOUNT", "state": "VA", "street": "20 E COLLEGE ST", "postcode": "24151"}}},
{"geometry": {"type": "Point", "coordinates": [-79.8918617294, 36.9976600856]}, "type": "Feature", "properties": {"collection_times": [{"days": "Mon-Sat", "time": "9:00am"}, {"days": "Sun", "time": "Closed"}], "id": "2415100002", "name": "USPS COLLECTION BOX - BLUE BOX", "address": {"city": "ROCKY MOUNT", "state": "VA", "street": "365 FRANKLIN ST", "postcode": "24151"}}},
{"geometry": {"type": "Point", "coordinates": [-79.8915392231, 36.9962855288]}, "type": "Feature", "properties": {"collection_times": [{"days": "Mon-Fri", "time": "12:15pm"}, {"days": "Sat", "time": "12:00pm"}, {"days": "Sun", "time": "Closed"}], "id": "2415100004", "name": "USPS COLLECTION BOX - BLUE BOX", "address": {"city": "ROCKY MOUNT", "state": "VA", "street": "52 FRANKLIN ST", "postcode": "24151"}}},
{"geometry": {"type": "Point", "coordinates": [-79.882591995, 37.0014170461]}, "type": "Feature", "properties": {"collection_times": [{"days": "Mon-Sat", "time": "10:00am"}, {"days": "Sun", "time": "Closed"}], "id": "2415100006", "name": "USPS COLLECTION BOX - BLUE BOX", "address": {"city": "ROCKY MOUNT", "state": "VA", "street": "350 TANYARD RD", "postcode": "24151"}}},
{"geometry": {"type": "Point", "coordinates": [-79.8898381878, 36.9918330248]}, "type": "Feature", "properties": {"collection_times": [{"days": "Mon-Sat", "time": "12:00pm"}, {"days": "Sun", "time": "Closed"}], "id": "2415100010", "name": "USPS COLLECTION BOX - BLUE BOX", "address": {"city": "ROCKY MOUNT", "state": "VA", "street": "529 S MAIN ST", "postcode": "24151"}}},
{"geometry": {"type": "Point", "coordinates": [-79.8885754203, 36.9954827814]}, "type": "Feature", "properties": {"collection_times": [{"days": "Mon-Fri", "time": "12:15pm"}, {"days": "Sat", "time": "12:00pm"}, {"days": "Sun", "time": "Closed"}], "id": "2415100012", "name": "USPS COLLECTION BOX - BLUE BOX", "address": {"city": "ROCKY MOUNT", "state": "VA", "street": "40 E COURT ST", "postcode": "24151"}}},
{"geometry": {"type": "Point", "coordinates": [-79.8999402831, 36.9911717588]}, "type": "Feature", "properties": {"collection_times": [{"days": "Mon-Sat", "time": "11:00am"}, {"days": "Sun", "time": "Closed"}], "id": "2415100016", "name": "USPS COLLECTION BOX - BLUE BOX", "address": {"city": "ROCKY MOUNT", "state": "VA", "street": "1035 FRANKLIN ST", "postcode": "24151"}}},
{"geometry": {"type": "Point", "coordinates": [-79.8945696922, 37.0074684982]}, "type": "Feature", "properties": {"collection_times": [{"days": "Mon-Sat", "time": "12:00pm"}, {"days": "Sun", "time": "Closed"}], "id": "2415100022", "name": "USPS COLLECTION BOX - BLUE BOX", "address": {"city": "ROCKY MOUNT", "state": "VA", "street": "875 N MAIN ST", "postcode": "24151"}}},
{"geometry": {"type": "Point", "coordinates": [-79.8757413941, 37.007611394]}, "type": "Feature", "properties": {"collection_times": [{"days": "Mon-Sat", "time": "9:00am"}, {"days": "Sun", "time": "Closed"}], "id": "2415100023", "name": "USPS COLLECTION BOX - BLUE BOX", "address": {"city": "ROCKY MOUNT", "state": "VA", "street": "890 TANYARD RD", "postcode": "24151"}}},
{"geometry": {"type": "Point", "coordinates": [-79.8648182882, 36.962637754]}, "type": "Feature", "properties": {"collection_times": [{"days": "Mon-Sat", "time": "12:00pm"}, {"days": "Sun", "time": "Closed"}], "id": "2415100024", "name": "USPS COLLECTION BOX - BLUE BOX", "address": {"city": "ROCKY MOUNT", "state": "VA", "street": "310 BANK ST", "postcode": "24151"}}},
{"geometry": {"type": "Point", "coordinates": [-79.8927235668, 36.9971411372]}, "type": "Feature", "properties": {"collection_times": [{"days": "Mon-Fri", "time": "5:00pm"}, {"days": "Sat", "time": "12:00pm"}, {"days": "Sun", "time": "Closed"}], "id": "2415100025", "name": "USPS COLLECTION BOX - PO LOBBY", "address": {"city": "ROCKY MOUNT", "state": "VA", "street": "20 E COLLEGE ST", "postcode": "24151"}}},
{"geometry": {"type": "Point", "coordinates": [-79.8675930662, 37.013510502]}, "type": "Feature", "properties": {"collection_times": [{"days": "Mon-Sat", "time": "9:00am"}, {"days": "Sun", "time": "Closed"}], "id": "2415100026", "name": "USPS COLLECTION BOX - BLUE BOX", "address": {"city": "ROCKY MOUNT", "state": "VA", "street": "400 OLD FRANKLIN TPKE", "postcode": "24151"}}},
{"geometry": {"type": "Point", "coordinates": [-80.0545780516, 37.2738566607]}, "type": "Feature", "properties": {"collection_times": [{"days": "Mon-Fri", "time": "9:00am"}, {"days": "Sat", "time": "8:00am"}, {"days": "Sun", "time": "Closed"}], "id": "2415300002", "name": "USPS COLLECTION BOX - BLUE BOX", "address": {"city": "SALEM", "state": "VA", "street": "1601 S COLORADO ST", "postcode": "24153"}}},
{"geometry": {"type": "Point", "coordinates": [-80.0542361765, 37.290336462]}, "type": "Feature", "properties": {"collection_times": [{"days": "Mon-Fri", "time": "9:15am"}, {"days": "Sat", "time": "8:00am"}, {"days": "Sun", "time": "Closed"}], "id": "2415300004", "name": "USPS COLLECTION BOX - BLUE BOX", "address": {"city": "SALEM", "state": "VA", "street": "231 ROANOKE BLVD", "postcode": "24153"}}},
{"geometry": {"type": "Point", "coordinates": [-80.0312761734, 37.2989978647]}, "type": "Feature", "properties": {"collection_times": [{"days": "Mon-Fri", "time": "10:00am"}, {"days": "Sat", "time": "8:00am"}, {"days": "Sun", "time": "Closed"}], "id": "2415300009", "name": "USPS COLLECTION BOX - BLUE BOX", "address": {"city": "SALEM", "state": "VA", "street": "200 KESSLER MILL RD", "postcode": "24153"}}},
{"geometry": {"type": "Point", "coordinates": [-80.1064951928, 37.2818802384]}, "type": "Feature", "properties": {"collection_times": [{"days": "Mon-Fri", "time": "10:00am"}, {"days": "Sat", "time": "8:00am"}, {"days": "Sun", "time": "Closed"}], "id": "2415300010", "name": "USPS COLLECTION BOX - BLUE BOX", "address": {"city": "SALEM", "state": "VA", "street": "2723 W MAIN ST", "postcode": "24153"}}},
{"geometry": {"type": "Point", "coordinates": [-80.0333784868, 37.2651003156]}, "type": "Feature", "properties": {"collection_times": [{"days": "Mon-Fri", "time": "9:30am"}, {"days": "Sat", "time": "8:00am"}, {"days": "Sun", "time": "Closed"}], "id": "2415300015", "name": "USPS COLLECTION BOX - BLUE BOX", "address": {"city": "SALEM", "state": "VA", "street": "1923 ELECTRIC RD", "postcode": "24153"}}},
{"geometry": {"type": "Point", "coordinates": [-80.0246147026, 37.2664636746]}, "type": "Feature", "properties": {"collection_times": [{"days": "Mon-Fri", "time": "9:00am"}, {"days": "Sat", "time": "8:00am"}, {"days": "Sun", "time": "Closed"}], "id": "2415300016", "name": "USPS COLLECTION BOX - BLUE BOX", "address": {"city": "SALEM", "state": "VA", "street": "2105 APPERSON DR", "postcode": "24153"}}},
{"geometry": {"type": "Point", "coordinates": [-80.0263408211, 37.2642037155]}, "type": "Feature", "properties": {"collection_times": [{"days": "Mon-Fri", "time": "9:00am"}, {"days": "Sat", "time": "8:00am"}, {"days": "Sun", "time": "Closed"}], "id": "2415300018", "name": "USPS COLLECTION BOX - BLUE BOX", "address": {"city": "SALEM", "state": "VA", "street": "1941 BRAEBURN DR", "postcode": "24153"}}},
{"geometry": {"type": "Point", "coordinates": [-80.0329270679, 37.2676190457]}, "type": "Feature", "properties": {"collection_times": [{"days": "Mon-Fri", "time": "9:00am"}, {"days": "Sat", "time": "8:00am"}, {"days": "Sun", "time": "Closed"}], "id": "2415300019", "name": "USPS COLLECTION BOX - BLUE BOX", "address": {"city": "SALEM", "state": "VA", "street": "1717 LANCING DR", "postcode": "24153"}}},
{"geometry": {"type": "Point", "coordinates": [-80.0272560395, 37.2963614848]}, "type": "Feature", "properties": {"collection_times": [{"days": "Mon-Fri", "time": "10:00am"}, {"days": "Sat", "time": "8:00am"}, {"days": "Sun", "time": "Closed"}], "id": "2415300020", "name": "USPS COLLECTION BOX - BLUE BOX", "address": {"city": "SALEM", "state": "VA", "street": "161 ELECTRIC RD", "postcode": "24153"}}},
{"geometry": {"type": "Point", "coordinates": [-80.0243389089, 37.276130289]}, "type": "Feature", "properties": {"collection_times": [{"days": "Mon-Fri", "time": "9:30am"}, {"days": "Sat", "time": "8:00am"}, {"days": "Sun", "time": "Closed"}], "id": "2415300021", "name": "USPS COLLECTION BOX - BLUE BOX", "address": {"city": "SALEM", "state": "VA", "street": "1970 ROANOKE BLVD", "postcode": "24153"}}},
{"geometry": {"type": "Point", "coordinates": [-80.0243389089, 37.276130289]}, "type": "Feature", "properties": {"collection_times": [{"days": "Mon-Fri", "time": "9:30am"}, {"days": "Sat", "time": "8:00am"}, {"days": "Sun", "time": "Closed"}], "id": "2415300022", "name": "USPS COLLECTION BOX - BLUE BOX", "address": {"city": "SALEM", "state": "VA", "street": "1970 ROANOKE BLVD", "postcode": "24153"}}},
{"geometry": {"type": "Point", "coordinates": [-80.054683941, 37.2934518283]}, "type": "Feature", "properties": {"collection_times": [{"days": "Mon-Fri", "time": "9:45am"}, {"days": "Sat", "time": "8:00am"}, {"days": "Sun", "time": "Closed"}], "id": "2415300027", "name": "USPS COLLECTION BOX - BLUE BOX", "address": {"city": "SALEM", "state": "VA", "street": "305 E MAIN ST", "postcode": "24153"}}},
{"geometry": {"type": "Point", "coordinates": [-80.0563339083, 37.2930146317]}, "type": "Feature", "properties": {"collection_times": [{"days": "Mon-Fri", "time": "10:00am"}, {"days": "Sat", "time": "8:00am"}, {"days": "Sun", "time": "Closed"}], "id": "2415300029", "name": "USPS COLLECTION BOX - BLUE BOX", "address": {"city": "SALEM", "state": "VA", "street": "140 E MAIN ST", "postcode": "24153"}}},
{"geometry": {"type": "Point", "coordinates": [-80.0575094239, 37.2919677625]}, "type": "Feature", "properties": {"collection_times": [{"days": "Mon-Fri", "time": "10:00am"}, {"days": "Sat", "time": "8:00am"}, {"days": "Sun", "time": "Closed"}], "id": "2415300031", "name": "USPS COLLECTION BOX - BLUE BOX", "address": {"city": "SALEM", "state": "VA", "street": "2 E CALHOUN ST", "postcode": "24153"}}},
{"geometry": {"type": "Point", "coordinates": [-80.0579849277, 37.2927147524]}, "type": "Feature", "properties": {"collection_times": [{"days": "Mon-Fri", "time": "10:00am"}, {"days": "Sat", "time": "8:00am"}, {"days": "Sun", "time": "Closed"}], "id": "2415300032", "name": "USPS COLLECTION BOX - BLUE BOX", "address": {"city": "SALEM", "state": "VA", "street": "42 E MAIN ST", "postcode": "24153"}}},
{"geometry": {"type": "Point", "coordinates": [-80.033869172, 37.2788487475]}, "type": "Feature", "properties": {"collection_times": [{"days": "Mon-Fri", "time": "9:15am"}, {"days": "Sat", "time": "8:00am"}, {"days": "Sun", "time": "Closed"}], "id": "2415300033", "name": "USPS COLLECTION BOX - BLUE BOX", "address": {"city": "SALEM", "state": "VA", "street": "1501 ROANOKE BLVD", "postcode": "24153"}}},
{"geometry": {"type": "Point", "coordinates": [-80.0551588844, 37.2902713993]}, "type": "Feature", "properties": {"collection_times": [{"days": "Mon-Fri", "time": "10:00am"}, {"days": "Sat", "time": "8:00am"}, {"days": "Sun", "time": "Closed"}], "id": "2415300036", "name": "USPS COLLECTION BOX - BLUE BOX", "address": {"city": "SALEM", "state": "VA", "street": "303 S COLORADO ST", "postcode": "24153"}}},
{"geometry": {"type": "Point", "coordinates": [-80.0550794685, 37.273306044]}, "type": "Feature", "properties": {"collection_times": [{"days": "Mon-Fri", "time": "9:00am"}, {"days": "Sat", "time": "8:00am"}, {"days": "Sun", "time": "Closed"}], "id": "2415300044", "name": "USPS COLLECTION BOX - BLUE BOX", "address": {"city": "SALEM", "state": "VA", "street": "100 KIMBALL AVE", "postcode": "24153"}}},
{"geometry": {"type": "Point", "coordinates": [-80.0760584742, 37.2909525519]}, "type": "Feature", "properties": {"collection_times": [{"days": "Mon-Fri", "time": "9:30am"}, {"days": "Sat", "time": "8:00am"}, {"days": "Sun", "time": "Closed"}], "id": "2415300046", "name": "USPS COLLECTION BOX - BLUE BOX", "address": {"city": "SALEM", "state": "VA", "street": "1970 ROANOKE BLVD", "postcode": "24153"}}},
{"geometry": {"type": "Point", "coordinates": [-80.0311503878, 37.2696332063]}, "type": "Feature", "properties": {"collection_times": [{"days": "Mon-Fri", "time": "9:00am"}, {"days": "Sat", "time": "8:00am"}, {"days": "Sun", "time": "Closed"}], "id": "2415300049", "name": "USPS COLLECTION BOX - BLUE BOX", "address": {"city": "SALEM", "state": "VA", "street": "1796 APPERSON DR", "postcode": "24153"}}},
{"geometry": {"type": "Point", "coordinates": [-80.0786618201, 37.2898015589]}, "type": "Feature", "properties": {"collection_times": [{"days": "Mon-Fri", "time": "9:00am"}, {"days": "Sat", "time": "8:00am"}, {"days": "Sun", "time": "Closed"}], "id": "2415300051", "name": "USPS COLLECTION BOX - BLUE BOX", "address": {"city": "SALEM", "state": "VA", "street": "1329 W MAIN ST", "postcode": "24153"}}},
{"geometry": {"type": "Point", "coordinates": [-80.0642142846, 37.2915827613]}, "type": "Feature", "properties": {"collection_times": [{"days": "Mon-Fri", "time": "5:00pm"}, {"days": "Sat", "time": "12:00pm"}, {"days": "Sun", "time": "Closed"}], "id": "2415300052", "name": "USPS COLLECTION BOX - PO LOBBY", "address": {"city": "SALEM", "state": "VA", "street": "320 W MAIN ST", "postcode": "24153"}}},
{"geometry": {"type": "Point", "coordinates": [-80.0384275664, 37.2617687988]}, "type": "Feature", "properties": {"collection_times": [{"days": "Mon-Fri", "time": "10:00am"}, {"days": "Sat", "time": "8:00am"}, {"days": "Sun", "time": "Closed"}], "id": "2415300055", "name": "USPS COLLECTION BOX - BLUE BOX", "address": {"city": "SALEM", "state": "VA", "street": "2800 KEAGY RD", "postcode": "24153"}}},
{"geometry": {"type": "Point", "coordinates": [-80.0642142846, 37.2915827613]}, "type": "Feature", "properties": {"collection_times": [{"days": "Mon-Fri", "time": "5:00pm"}, {"days": "Sat", "time": "12:00pm"}, {"days": "Sun", "time": "Closed"}], "id": "2415300056", "name": "USPS COLLECTION BOX - APC", "address": {"city": "SALEM", "state": "VA", "street": "320 W MAIN ST", "postcode": "24153"}}},
{"geometry": {"type": "Point", "coordinates": [-80.0531361203, 37.293652596]}, "type": "Feature", "properties": {"collection_times": [{"days": "Mon-Fri", "time": "5:00pm"}, {"days": "Sat", "time": "12:00pm"}, {"days": "Sun", "time": "Closed"}], "id": "2415300058", "name": "USPS COLLECTION BOX - BLUE BOX", "address": {"city": "SALEM", "state": "VA", "street": "320 W MAIN ST", "postcode": "24153"}}},
{"geometry": {"type": "Point", "coordinates": [-80.2562047404, 37.16767215]}, "type": "Feature", "properties": {"collection_times": [{"days": "Mon-Fri", "time": "4:30pm"}, {"days": "Sat", "time": "11:00am"}, {"days": "Sun", "time": "Closed"}], "id": "2416200000", "name": "USPS COLLECTION BOX - BLUE BOX", "address": {"city": "SHAWSVILLE", "state": "VA", "street": "6914 ROANOKE RD", "postcode": "24162"}}},
{"geometry": {"type": "Point", "coordinates": [-80.2562047404, 37.16767215]}, "type": "Feature", "properties": {"collection_times": [{"days": "Mon-Fri", "time": "4:30pm"}, {"days": "Sat", "time": "11:00am"}, {"days": "Sun", "time": "Closed"}], "id": "2416200001", "name": "USPS COLLECTION BOX - PO LOBBY", "address": {"city": "SHAWSVILLE", "state": "VA", "street": "6914 ROANOKE RD", "postcode": "24162"}}},
{"geometry": {"type": "Point", "coordinates": [-80.0073895092, 36.6194917632]}, "type": "Feature", "properties": {"collection_times": [{"days": "Mon-Fri", "time": "4:00pm"}, {"days": "Sat", "time": "10:00am"}, {"days": "Sun", "time": "Closed"}], "id": "2416500000", "name": "USPS COLLECTION BOX - BLUE BOX", "address": {"city": "SPENCER", "state": "VA", "street": "33 SPENCER PENN RD", "postcode": "24165"}}},
{"geometry": {"type": "Point", "coordinates": [-80.0073895092, 36.6194917632]}, "type": "Feature", "properties": {"collection_times": [{"days": "Mon-Fri", "time": "4:00pm"}, {"days": "Sat", "time": "10:00am"}, {"days": "Sun", "time": "Closed"}], "id": "2416500001", "name": "USPS COLLECTION BOX - PO LOBBY", "address": {"city": "SPENCER", "state": "VA", "street": "33 SPENCER PENN RD", "postcode": "24165"}}},
{"geometry": {"type": "Point", "coordinates": [-80.0073895092, 36.6194917632]}, "type": "Feature", "properties": {"collection_times": [{"days": "Mon-Fri", "time": "4:00pm"}, {"days": "Sat", "time": "10:00am"}, {"days": "Sun", "time": "Closed"}], "id": "2416500002", "name": "USPS COLLECTION BOX - PO LOBBY", "address": {"city": "SPENCER", "state": "VA", "street": "33 SPENCER PENN RD", "postcode": "24165"}}},
{"geometry": {"type": "Point", "coordinates": [-80.7080800953, 37.2398310262]}, "type": "Feature", "properties": {"collection_times": [{"days": "Mon-Fri", "time": "12:45pm"}, {"days": "Sat", "time": "1:30pm"}, {"days": "Sun", "time": "Closed"}], "id": "2416700000", "name": "USPS COLLECTION BOX - BLUE BOX", "address": {"city": "STAFFORDSVILLE", "state": "VA", "street": "494 CEDAR CREST LOOP", "postcode": "24167"}}},
{"geometry": {"type": "Point", "coordinates": [-80.7080800953, 37.2398310262]}, "type": "Feature", "properties": {"collection_times": [{"days": "Mon-Fri", "time": "12:45pm"}, {"days": "Sat", "time": "1:30pm"}, {"days": "Sun", "time": "Closed"}], "id": "2416700001", "name": "USPS COLLECTION BOX - PO LOBBY", "address": {"city": "STAFFORDSVILLE", "state": "VA", "street": "494 CEDAR CREST LOOP", "postcode": "24167"}}},
{"geometry": {"type": "Point", "coordinates": [-79.953547733, 36.7345051462]}, "type": "Feature", "properties": {"collection_times": [{"days": "Mon-Fri", "time": "4:30pm"}, {"days": "Sat", "time": "12:00pm"}, {"days": "Sun", "time": "Closed"}], "id": "2416800000", "name": "USPS COLLECTION BOX - BLUE BOX", "address": {"city": "STANLEYTOWN", "state": "VA", "street": "180 FAIR OAKS DR", "postcode": "24168"}}},
{"geometry": {"type": "Point", "coordinates": [-79.953547733, 36.7345051462]}, "type": "Feature", "properties": {"collection_times": [{"days": "Mon-Fri", "time": "4:30pm"}, {"days": "Sat", "time": "12:00pm"}, {"days": "Sun", "time": "Closed"}], "id": "2416800001", "name": "USPS COLLECTION BOX - PO LOBBY", "address": {"city": "STANLEYTOWN", "state": "VA", "street": "180 FAIR OAKS DR", "postcode": "24168"}}},
{"geometry": {"type": "Point", "coordinates": [-80.2699897784, 36.6388890175]}, "type": "Feature", "properties": {"collection_times": [{"days": "Mon-Sat", "time": "12:00pm"}, {"days": "Sun", "time": "Closed"}], "id": "2417100000", "name": "USPS COLLECTION BOX - BLUE BOX", "address": {"city": "STUART", "state": "VA", "street": "301 S MAIN ST", "postcode": "24171"}}},
{"geometry": {"type": "Point", "coordinates": [-80.2703814909, 36.6411901042]}, "type": "Feature", "properties": {"collection_times": [{"days": "Mon-Fri", "time": "4:15pm"}, {"days": "Sat", "time": "12:00pm"}, {"days": "Sun", "time": "Closed"}], "id": "2417100001", "name": "USPS COLLECTION BOX - BLUE BOX", "address": {"city": "STUART", "state": "VA", "street": "101 N MAIN ST", "postcode": "24171"}}},
{"geometry": {"type": "Point", "coordinates": [-80.2703814909, 36.6411901042]}, "type": "Feature", "properties": {"collection_times": [{"days": "Mon-Fri", "time": "4:15pm"}, {"days": "Sat", "time": "12:00pm"}, {"days": "Sun", "time": "Closed"}], "id": "2417100002", "name": "USPS COLLECTION BOX - PO LOBBY", "address": {"city": "STUART", "state": "VA", "street": "101 N MAIN ST", "postcode": "24171"}}},
{"geometry": {"type": "Point", "coordinates": [-80.2804103659, 36.6789386963]}, "type": "Feature", "properties": {"collection_times": [{"days": "Mon-Sat", "time": "11:00am"}, {"days": "Sun", "time": "Closed"}], "id": "2417100003", "name": "USPS COLLECTION BOX - BLUE BOX", "address": {"city": "STUART", "state": "VA", "street": "19265 JEB STUART HWY", "postcode": "24171"}}},
{"geometry": {"type": "Point", "coordinates": [-80.2414684886, 36.6527537991]}, "type": "Feature", "properties": {"collection_times": [{"days": "Mon-Fri", "time": "4:15pm"}, {"days": "Sat", "time": "12:00pm"}, {"days": "Sun", "time": "Closed"}], "id": "2417100004", "name": "USPS COLLECTION BOX - BLUE BOX", "address": {"city": "STUART", "state": "VA", "street": "106 RYE COVE RD", "postcode": "24171"}}},
{"geometry": {"type": "Point", "coordinates": [-79.6668262135, 37.3567478879]}, "type": "Feature", "properties": {"collection_times": [{"days": "Mon-Fri", "time": "3:00pm"}, {"days": "Sat", "time": "10:00am"}, {"days": "Sun", "time": "Closed"}], "id": "2417400000", "name": "USPS COLLECTION BOX - PO LOBBY", "address": {"city": "THAXTON", "state": "VA", "street": "1162 PENICKS MILL RD", "postcode": "24174"}}},
{"geometry": {"type": "Point", "coordinates": [-79.6668262135, 37.3567478879]}, "type": "Feature", "properties": {"collection_times": [{"days": "Mon-Fri", "time": "3:00pm"}, {"days": "Sat", "time": "10:00am"}, {"days": "Sun", "time": "Closed"}], "id": "2417400001", "name": "USPS COLLECTION BOX - BLUE BOX", "address": {"city": "THAXTON", "state": "VA", "street": "1162 PENICKS MILL RD", "postcode": "24174"}}},
{"geometry": {"type": "Point", "coordinates": [-79.8811527184, 37.4127620683]}, "type": "Feature", "properties": {"collection_times": [{"days": "Mon-Fri", "time": "5:00pm"}, {"days": "Sat", "time": "11:00am"}, {"days": "Sun", "time": "Closed"}], "id": "2417500000", "name": "USPS COLLECTION BOX - BLUE BOX", "address": {"city": "TROUTVILLE", "state": "VA", "street": "4952 LEE HWY", "postcode": "24175"}}},
{"geometry": {"type": "Point", "coordinates": [-79.8811527184, 37.4127620683]}, "type": "Feature", "properties": {"collection_times": [{"days": "Mon-Fri", "time": "5:00pm"}, {"days": "Sat", "time": "11:00am"}, {"days": "Sun", "time": "Closed"}], "id": "2417500001", "name": "USPS COLLECTION BOX - PO LOBBY", "address": {"city": "TROUTVILLE", "state": "VA", "street": "4952 LEE HWY", "postcode": "24175"}}},
{"geometry": {"type": "Point", "coordinates": [-79.6914621385, 36.9977851054]}, "type": "Feature", "properties": {"collection_times": [{"days": "Mon-Fri", "time": "3:30pm"}, {"days": "Sat", "time": "10:30am"}, {"days": "Sun", "time": "Closed"}], "id": "2417600000", "name": "USPS COLLECTION BOX - BLUE BOX", "address": {"city": "UNION HALL", "state": "VA", "street": "66 BERGER LOOP", "postcode": "24176"}}},
{"geometry": {"type": "Point", "coordinates": [-79.6914621385, 36.9977851054]}, "type": "Feature", "properties": {"collection_times": [{"days": "Mon-Fri", "time": "3:30pm"}, {"days": "Sat", "time": "10:30am"}, {"days": "Sun", "time": "Closed"}], "id": "2417600001", "name": "USPS COLLECTION BOX - PO LOBBY", "address": {"city": "UNION HALL", "state": "VA", "street": "66 BERGER LOOP", "postcode": "24176"}}},
{"geometry": {"type": "Point", "coordinates": [-80.3561001713, 36.7160562528]}, "type": "Feature", "properties": {"collection_times": [{"days": "Mon-Fri", "time": "9:45am"}, {"days": "Sat", "time": "2:15pm"}, {"days": "Sun", "time": "Closed"}], "id": "2417700000", "name": "USPS COLLECTION BOX - BLUE BOX", "address": {"city": "VESTA", "state": "VA", "street": "16 COMMUNITY LN", "postcode": "24177"}}},
{"geometry": {"type": "Point", "coordinates": [-80.3561001713, 36.7160562528]}, "type": "Feature", "properties": {"collection_times": [{"days": "Mon-Fri", "time": "9:45am"}, {"days": "Sat", "time": "2:15pm"}, {"days": "Sun", "time": "Closed"}], "id": "2417700001", "name": "USPS COLLECTION BOX - PO LOBBY", "address": {"city": "VESTA", "state": "VA", "street": "16 COMMUNITY LN", "postcode": "24177"}}},
{"geometry": {"type": "Point", "coordinates": [-79.8825743691, 37.2732364871]}, "type": "Feature", "properties": {"collection_times": [{"days": "Mon-Sat", "time": "2:00pm"}, {"days": "Sun", "time": "Closed"}], "id": "2417900007", "name": "USPS COLLECTION BOX - BLUE BOX", "address": {"city": "VINTON", "state": "VA", "street": "907 HARDY RD", "postcode": "24179"}}},
{"geometry": {"type": "Point", "coordinates": [-79.8685492227, 37.278900087]}, "type": "Feature", "properties": {"collection_times": [{"days": "Mon-Sat", "time": "2:00pm"}, {"days": "Sun", "time": "Closed"}], "id": "2417900009", "name": "USPS COLLECTION BOX - BLUE BOX", "address": {"city": "VINTON", "state": "VA", "street": "1938 E WASHINGTON AVE", "postcode": "24179"}}},
{"geometry": {"type": "Point", "coordinates": [-79.8975745548, 37.2802671153]}, "type": "Feature", "properties": {"collection_times": [{"days": "Mon-Fri", "time": "5:00pm"}, {"days": "Sat", "time": "12:00pm"}, {"days": "Sun", "time": "Closed"}], "id": "2417900015", "name": "USPS COLLECTION BOX - BLUE BOX", "address": {"city": "VINTON", "state": "VA", "street": "119 S POLLARD ST", "postcode": "24179"}}},
{"geometry": {"type": "Point", "coordinates": [-79.8975745548, 37.2802671153]}, "type": "Feature", "properties": {"collection_times": [{"days": "Mon-Fri", "time": "5:00pm"}, {"days": "Sat", "time": "12:00pm"}, {"days": "Sun", "time": "Closed"}], "id": "2417900016", "name": "USPS COLLECTION BOX - PO LOBBY", "address": {"city": "VINTON", "state": "VA", "street": "119 S POLLARD ST", "postcode": "24179"}}},
{"geometry": {"type": "Point", "coordinates": [-79.8158281017, 37.1049630988]}, "type": "Feature", "properties": {"collection_times": [{"days": "Mon-Fri", "time": "4:45pm"}, {"days": "Sat", "time": "11:30am"}, {"days": "Sun", "time": "Closed"}], "id": "2418400000", "name": "USPS COLLECTION BOX - BLUE BOX", "address": {"city": "WIRTZ", "state": "VA", "street": "7198 BOOKER T WASHINGTON HWY", "postcode": "24184"}}},
{"geometry": {"type": "Point", "coordinates": [-79.8158281017, 37.1049630988]}, "type": "Feature", "properties": {"collection_times": [{"days": "Mon-Fri", "time": "5:00pm"}, {"days": "Sat", "time": "11:30am"}, {"days": "Sun", "time": "Closed"}], "id": "2418400001", "name": "USPS COLLECTION BOX - PO LOBBY", "address": {"city": "WIRTZ", "state": "VA", "street": "7198 BOOKER T WASHINGTON HWY", "postcode": "24184"}}},
{"geometry": {"type": "Point", "coordinates": [-80.2966912554, 36.8014929747]}, "type": "Feature", "properties": {"collection_times": [{"days": "Mon-Fri", "time": "3:15pm"}, {"days": "Sat", "time": "11:00am"}, {"days": "Sun", "time": "Closed"}], "id": "2418500000", "name": "USPS COLLECTION BOX - BLUE BOX", "address": {"city": "WOOLWINE", "state": "VA", "street": "9724 WOOLWINE HWY", "postcode": "24185"}}},
{"geometry": {"type": "Point", "coordinates": [-80.2966912554, 36.8014929747]}, "type": "Feature", "properties": {"collection_times": [{"days": "Mon-Fri", "time": "3:15pm"}, {"days": "Sat", "time": "11:00am"}, {"days": "Sun", "time": "Closed"}], "id": "2418500001", "name": "USPS COLLECTION BOX - PO LOBBY", "address": {"city": "WOOLWINE", "state": "VA", "street": "9724 WOOLWINE HWY", "postcode": "24185"}}}
]}
