{"type": "FeatureCollection", "features": [
{"geometry": {"type": "Point", "coordinates": [-82.1195118485, 36.6343586513]}, "type": "Feature", "properties": {"collection_times": [{"days": "Mon-Fri", "time": "11:00am"}, {"days": "Sat-Sun", "time": "Closed"}], "id": "2420100001", "name": "USPS COLLECTION BOX - BLUE BOX", "address": {"city": "BRISTOL", "state": "VA", "street": "3325 LEE HWY", "postcode": "24201"}}},
{"geometry": {"type": "Point", "coordinates": [-82.1629140408, 36.6210961399]}, "type": "Feature", "properties": {"collection_times": [{"days": "Mon-Sat", "time": "9:00am"}, {"days": "Sun", "time": "Closed"}], "id": "2420100002", "name": "USPS COLLECTION BOX - BLUE BOX", "address": {"city": "BRISTOL", "state": "VA", "street": "1875 LEE HWY", "postcode": "24201"}}},
{"geometry": {"type": "Point", "coordinates": [-82.1757076131, 36.6086489334]}, "type": "Feature", "properties": {"collection_times": [{"days": "Mon-Sat", "time": "9:00am"}, {"days": "Sun", "time": "Closed"}], "id": "2420100006", "name": "USPS COLLECTION BOX - BLUE BOX", "address": {"city": "BRISTOL", "state": "VA", "street": "5 EUCLID AVE", "postcode": "24201"}}},
{"geometry": {"type": "Point", "coordinates": [-82.1477529967, 36.6179727721]}, "type": "Feature", "properties": {"collection_times": [{"days": "Mon-Sat", "time": "9:30am"}, {"days": "Sun", "time": "Closed"}], "id": "2420100007", "name": "USPS COLLECTION BOX - BLUE BOX", "address": {"city": "BRISTOL", "state": "VA", "street": "106 OAKCREST CIR", "postcode": "24201"}}},
{"geometry": {"type": "Point", "coordinates": [-82.1941182238, 36.602065863]}, "type": "Feature", "properties": {"collection_times": [{"days": "Mon-Sat", "time": "12:00pm"}, {"days": "Sun", "time": "Closed"}], "id": "2420100009", "name": "USPS COLLECTION BOX - BLUE BOX", "address": {"city": "BRISTOL", "state": "VA", "street": "1318 EUCLID AVE", "postcode": "24201"}}},
{"geometry": {"type": "Point", "coordinates": [-82.163754002, 36.6118607012]}, "type": "Feature", "properties": {"collection_times": [{"days": "Mon-Sat", "time": "12:00pm"}, {"days": "Sun", "time": "Closed"}], "id": "2420100015", "name": "USPS COLLECTION BOX - BLUE BOX", "address": {"city": "BRISTOL", "state": "VA", "street": "405 E VALLEY DR", "postcode": "24201"}}},
{"geometry": {"type": "Point", "coordinates": [-82.1556863965, 36.6085849876]}, "type": "Feature", "properties": {"collection_times": [{"days": "Mon-Sat", "time": "9:00am"}, {"days": "Sun", "time": "Closed"}], "id": "2420100017", "name": "USPS COLLECTION BOX - BLUE BOX", "address": {"city": "BRISTOL", "state": "VA", "street": "100 PEBBLE DR", "postcode": "24201"}}},
{"geometry": {"type": "Point", "coordinates": [-82.1768143223, 36.6004202659]}, "type": "Feature", "properties": {"collection_times": [{"days": "Mon-Sat", "time": "12:00pm"}, {"days": "Sun", "time": "Closed"}], "id": "2420100018", "name": "USPS COLLECTION BOX - BLUE BOX", "address": {"city": "BRISTOL", "state": "VA", "street": "314 W MARY ST", "postcode": "24201"}}},
{"geometry": {"type": "Point", "coordinates": [-82.201458402, 36.6030334268]}, "type": "Feature", "properties": {"collection_times": [{"days": "Mon-Sat", "time": "10:00am"}, {"days": "Sun", "time": "Closed"}], "id": "2420100030", "name": "USPS COLLECTION BOX - BLUE BOX", "address": {"city": "BRISTOL", "state": "VA", "street": "603 RANDOLPH ST", "postcode": "24201"}}},
{"geometry": {"type": "Point", "coordinates": [-82.1830793196, 36.5966958437]}, "type": "Feature", "properties": {"collection_times": [{"days": "Mon-Fri", "time": "12:00pm"}, {"days": "Sat", "time": "11:15am"}, {"days": "Sun", "time": "Closed"}], "id": "2420100038", "name": "USPS COLLECTION BOX - BLUE BOX", "address": {"city": "BRISTOL", "state": "VA", "street": "100 MOORE ST", "postcode": "24201"}}},
{"geometry": {"type": "Point", "coordinates": [-82.1775445654, 36.5997476944]}, "type": "Feature", "properties": {"collection_times": [{"days": "Mon-Sat", "time": "12:00pm"}, {"days": "Sun", "time": "Closed"}], "id": "2420100039", "name": "USPS COLLECTION BOX - BLUE BOX", "address": {"city": "BRISTOL", "state": "VA", "street": "325 EDMOND ST", "postcode": "24201"}}},
{"geometry": {"type": "Point", "coordinates": [-82.1833479733, 36.5950642121]}, "type": "Feature", "properties": {"collection_times": [{"days": "Mon-Sat", "time": "12:00pm"}, {"days": "Sun", "time": "Closed"}], "id": "2420100040", "name": "USPS COLLECTION BOX - BLUE BOX", "address": {"city": "BRISTOL", "state": "VA", "street": "601 STATE ST", "postcode": "24201"}}},
{"geometry": {"type": "Point", "coordinates": [-82.1820152806, 36.5964105527]}, "type": "Feature", "properties": {"collection_times": [{"days": "Mon-Fri", "time": "12:00pm"}, {"days": "Sat-Sun", "time": "Closed"}], "id": "2420100061", "name": "USPS COLLECTION BOX - BLUE BOX", "address": {"city": "BRISTOL", "state": "VA", "street": "510 CUMBERLAND ST", "postcode": "24201"}}},
{"geometry": {"type": "Point", "coordinates": [-82.1383402354, 36.6116057711]}, "type": "Feature", "properties": {"collection_times": [{"days": "Mon-Sat", "time": "11:00am"}, {"days": "Sun", "time": "Closed"}], "id": "2420100064", "name": "USPS COLLECTION BOX - BLUE BOX", "address": {"city": "BRISTOL", "state": "VA", "street": "75 OLD AIRPORT RD", "postcode": "24201"}}},
{"geometry": {"type": "Point", "coordinates": [-82.1344068361, 36.6246145336]}, "type": "Feature", "properties": {"collection_times": [{"days": "Mon-Sat", "time": "10:00am"}, {"days": "Sun", "time": "Closed"}], "id": "2420100066", "name": "USPS COLLECTION BOX - BLUE BOX", "address": {"city": "BRISTOL", "state": "VA", "street": "17 HERITAGE DR", "postcode": "24201"}}},
{"geometry": {"type": "Point", "coordinates": [-82.2133778234, 36.5962620083]}, "type": "Feature", "properties": {"collection_times": [{"days": "Mon-Sat", "time": "11:00am"}, {"days": "Sun", "time": "Closed"}], "id": "2420100072", "name": "USPS COLLECTION BOX - BLUE BOX", "address": {"city": "BRISTOL", "state": "VA", "street": "33 MIDWAY ST", "postcode": "24201"}}},
{"geometry": {"type": "Point", "coordinates": [-82.1616402903, 36.6241922456]}, "type": "Feature", "properties": {"collection_times": [{"days": "Mon-Fri", "time": "5:00pm"}, {"days": "Sat", "time": "12:00pm"}, {"days": "Sun", "time": "Closed"}], "id": "2420100074", "name": "USPS COLLECTION BOX - BLUE BOX", "address": {"city": "BRISTOL", "state": "VA", "street": "2002 LEE HWY", "postcode": "24201"}}},
{"geometry": {"type": "Point", "coordinates": [-82.1616402903, 36.6241922456]}, "type": "Feature", "properties": {"collection_times": [{"days": "Mon-Fri", "time": "5:00pm"}, {"days": "Sat", "time": "10:00am"}, {"days": "Sun", "time": "Closed"}], "id": "2420100078", "name": "USPS COLLECTION BOX - PO LOBBY", "address": {"city": "BRISTOL", "state": "VA", "street": "2002 LEE HWY", "postcode": "24201"}}},
{"geometry": {"type": "Point", "coordinates": [-82.1616402903, 36.6241922456]}, "type": "Feature", "properties": {"collection_times": [{"days": "Mon-Fri", "time": "5:00pm"}, {"days": "Sat", "time": "10:00am"}, {"days": "Sun", "time": "Closed"}], "id": "2420100079", "name": "USPS COLLECTION BOX - PO LOBBY", "address": {"city": "BRISTOL", "state": "VA", "street": "2002 LEE HWY", "postcode": "24201"}}},
{"geometry": {"type": "Point", "coordinates": [-82.1616402903, 36.6241922456]}, "type": "Feature", "properties": {"collection_times": [{"days": "Mon-Fri", "time": "5:00pm"}, {"days": "Sat", "time": "10:00am"}, {"days": "Sun", "time": "Closed"}], "id": "2420100080", "name": "USPS COLLECTION BOX - PO LOBBY", "address": {"city": "BRISTOL", "state": "VA", "street": "2002 LEE HWY", "postcode": "24201"}}},
{"geometry": {"type": "Point", "coordinates": [-82.1309550169, 36.6309926189]}, "type": "Feature", "properties": {"collection_times": [{"days": "Mon-Fri", "time": "10:00am"}, {"days": "Sat-Sun", "time": "Closed"}], "id": "2420100085", "name": "USPS COLLECTION BOX - BLUE BOX", "address": {"city": "BRISTOL", "state": "VA", "street": "102 BONHAM RD", "postcode": "24201"}}},
{"geometry": {"type": "Point", "coordinates": [-82.1846679183, 36.6491430995]}, "type": "Feature", "properties": {"collection_times": [{"days": "Mon-Sat", "time": "11:00am"}, {"days": "Sun", "time": "Closed"}], "id": "2420200004", "name": "USPS COLLECTION BOX - BLUE BOX", "address": {"city": "BRISTOL", "state": "VA", "street": "3124 LEE HWY", "postcode": "24202"}}},
{"geometry": {"type": "Point", "coordinates": [-81.9909659118, 36.7061864241]}, "type": "Feature", "properties": {"collection_times": [{"days": "Mon-Sat", "time": "12:00pm"}, {"days": "Sun", "time": "Closed"}], "id": "2421000001", "name": "USPS COLLECTION BOX - BLUE BOX", "address": {"city": "ABINGDON", "state": "VA", "street": "600 W MAIN ST", "postcode": "24210"}}},
{"geometry": {"type": "Point", "coordinates": [-82.0049567316, 36.7019821265]}, "type": "Feature", "properties": {"collection_times": [{"days": "Mon-Sat", "time": "12:00pm"}, {"days": "Sun", "time": "Closed"}], "id": "2421000002", "name": "USPS COLLECTION BOX - BLUE BOX", "address": {"city": "ABINGDON", "state": "VA", "street": "101 CHARWOOD DR", "postcode": "24210"}}},
{"geometry": {"type": "Point", "coordinates": [-81.9742735523, 36.7019661252]}, "type": "Feature", "properties": {"collection_times": [{"days": "Mon-Sat", "time": "12:00pm"}, {"days": "Sun", "time": "Closed"}], "id": "2421000004", "name": "USPS COLLECTION BOX - BLUE BOX", "address": {"city": "ABINGDON", "state": "VA", "street": "396 TOWNE CENTER DR", "postcode": "24210"}}},
{"geometry": {"type": "Point", "coordinates": [-81.9750223959, 36.7056099773]}, "type": "Feature", "properties": {"collection_times": [{"days": "Mon-Sat", "time": "12:00pm"}, {"days": "Sun", "time": "Closed"}], "id": "2421000005", "name": "USPS COLLECTION BOX - BLUE BOX", "address": {"city": "ABINGDON", "state": "VA", "street": "398 CUMMINGS ST", "postcode": "24210"}}},
{"geometry": {"type": "Point", "coordinates": [-81.9767302228, 36.709962464]}, "type": "Feature", "properties": {"collection_times": [{"days": "Mon-Sat", "time": "12:00pm"}, {"days": "Sun", "time": "Closed"}], "id": "2421000006", "name": "USPS COLLECTION BOX - BLUE BOX", "address": {"city": "ABINGDON", "state": "VA", "street": "180 W MAIN ST", "postcode": "24210"}}},
{"geometry": {"type": "Point", "coordinates": [-81.9701065618, 36.7121722032]}, "type": "Feature", "properties": {"collection_times": [{"days": "Mon-Sat", "time": "12:00pm"}, {"days": "Sun", "time": "Closed"}], "id": "2421000007", "name": "USPS COLLECTION BOX - BLUE BOX", "address": {"city": "ABINGDON", "state": "VA", "street": "188 E MAIN ST", "postcode": "24210"}}},
{"geometry": {"type": "Point", "coordinates": [-81.9701065618, 36.7121722032]}, "type": "Feature", "properties": {"collection_times": [{"days": "Mon-Sat", "time": "12:00pm"}, {"days": "Sun", "time": "Closed"}], "id": "2421000008", "name": "USPS COLLECTION BOX - BLUE BOX", "address": {"city": "ABINGDON", "state": "VA", "street": "188 E MAIN ST", "postcode": "24210"}}},
{"geometry": {"type": "Point", "coordinates": [-81.9608595156, 36.7152299091]}, "type": "Feature", "properties": {"collection_times": [{"days": "Mon-Sat", "time": "12:00pm"}, {"days": "Sun", "time": "Closed"}], "id": "2421000010", "name": "USPS COLLECTION BOX - BLUE BOX", "address": {"city": "ABINGDON", "state": "VA", "street": "500 E MAIN ST", "postcode": "24210"}}},
{"geometry": {"type": "Point", "coordinates": [-81.9696656922, 36.7124386222]}, "type": "Feature", "properties": {"collection_times": [{"days": "Mon-Sat", "time": "12:00pm"}, {"days": "Sun", "time": "Closed"}], "id": "2421000011", "name": "USPS COLLECTION BOX - BLUE BOX", "address": {"city": "ABINGDON", "state": "VA", "street": "201 E MAIN ST", "postcode": "24210"}}},
{"geometry": {"type": "Point", "coordinates": [-81.9729805521, 36.7125629818]}, "type": "Feature", "properties": {"collection_times": [{"days": "Mon-Sat", "time": "12:00pm"}, {"days": "Sun", "time": "Closed"}], "id": "2421000013", "name": "USPS COLLECTION BOX - BLUE BOX", "address": {"city": "ABINGDON", "state": "VA", "street": "131 VALLEY ST NE", "postcode": "24210"}}},
{"geometry": {"type": "Point", "coordinates": [-81.9802419245, 36.7087748311]}, "type": "Feature", "properties": {"collection_times": [{"days": "Mon-Sat", "time": "12:00pm"}, {"days": "Sun", "time": "Closed"}], "id": "2421000014", "name": "USPS COLLECTION BOX - BLUE BOX", "address": {"city": "ABINGDON", "state": "VA", "street": "300 W MAIN ST", "postcode": "24210"}}},
{"geometry": {"type": "Point", "coordinates": [-81.9802419245, 36.7087748311]}, "type": "Feature", "properties": {"collection_times": [{"days": "Mon-Fri", "time": "6:00pm"}, {"days": "Sat", "time": "4:30pm"}, {"days": "Sun", "time": "Closed"}], "id": "2421000018", "name": "USPS COLLECTION BOX - PO LOBBY", "address": {"city": "ABINGDON", "state": "VA", "street": "300 W MAIN ST", "postcode": "24210"}}},
{"geometry": {"type": "Point", "coordinates": [-81.9802419245, 36.7087748311]}, "type": "Feature", "properties": {"collection_times": [{"days": "Mon-Fri", "time": "6:00pm"}, {"days": "Sat", "time": "4:30pm"}, {"days": "Sun", "time": "Closed"}], "id": "2421000020", "name": "USPS COLLECTION BOX - PO LOBBY", "address": {"city": "ABINGDON", "state": "VA", "street": "300 W MAIN ST", "postcode": "24210"}}},
{"geometry": {"type": "Point", "coordinates": [-82.7885375565, 36.8994723359]}, "type": "Feature", "properties": {"collection_times": [{"days": "Mon-Fri", "time": "12:00pm"}, {"days": "Sat", "time": "10:45am"}, {"days": "Sun", "time": "Closed"}], "id": "2421600000", "name": "USPS COLLECTION BOX - BLUE BOX", "address": {"city": "APPALACHIA", "state": "VA", "street": "534 W MAIN ST", "postcode": "24216"}}},
{"geometry": {"type": "Point", "coordinates": [-82.7885375565, 36.8994723359]}, "type": "Feature", "properties": {"collection_times": [{"days": "Mon-Fri", "time": "4:30pm"}, {"days": "Sat", "time": "10:45am"}, {"days": "Sun", "time": "Closed"}], "id": "2421600003", "name": "USPS COLLECTION BOX - PO LOBBY", "address": {"city": "APPALACHIA", "state": "VA", "street": "534 W MAIN ST", "postcode": "24216"}}},
{"geometry": {"type": "Point", "coordinates": [-83.0839420392, 36.7315072898]}, "type": "Feature", "properties": {"collection_times": [{"days": "Mon-Sat", "time": "11:30am"}, {"days": "Sun", "time": "Closed"}], "id": "2421800001", "name": "USPS COLLECTION BOX - PO LOBBY", "address": {"city": "BEN HUR", "state": "VA", "street": "37997 VETERANS MEMORIAL HWY", "postcode": "24218"}}},
{"geometry": {"type": "Point", "coordinates": [-82.7820302577, 36.8616102402]}, "type": "Feature", "properties": {"collection_times": [{"days": "Mon-Fri", "time": "12:00pm"}, {"days": "Sat", "time": "11:00am"}, {"days": "Sun", "time": "Closed"}], "id": "2421900007", "name": "USPS COLLECTION BOX - BLUE BOX", "address": {"city": "BIG STONE GAP", "state": "VA", "street": "19 4TH ST E", "postcode": "24219"}}},
{"geometry": {"type": "Point", "coordinates": [-82.774362931, 36.8677151199]}, "type": "Feature", "properties": {"collection_times": [{"days": "Mon-Fri", "time": "4:30pm"}, {"days": "Sat", "time": "11:00am"}, {"days": "Sun", "time": "Closed"}], "id": "2421900014", "name": "USPS COLLECTION BOX - PO LOBBY", "address": {"city": "BIG STONE GAP", "state": "VA", "street": "322 WOOD AVE E", "postcode": "24219"}}},
{"geometry": {"type": "Point", "coordinates": [-82.2374227002, 37.158380726]}, "type": "Feature", "properties": {"collection_times": [{"days": "Mon-Fri", "time": "11:00am"}, {"days": "Sat", "time": "10:45am"}, {"days": "Sun", "time": "Closed"}], "id": "2422000000", "name": "USPS COLLECTION BOX - BLUE BOX", "address": {"city": "BIRCHLEAF", "state": "VA", "street": "166 RAKES RIDGE RD", "postcode": "24220"}}},
{"geometry": {"type": "Point", "coordinates": [-82.2374227002, 37.158380726]}, "type": "Feature", "properties": {"collection_times": [{"days": "Mon-Fri", "time": "11:50am"}, {"days": "Sat", "time": "11:00am"}, {"days": "Sun", "time": "Closed"}], "id": "2422000001", "name": "USPS COLLECTION BOX - PO LOBBY", "address": {"city": "BIRCHLEAF", "state": "VA", "street": "166 RAKES RIDGE RD", "postcode": "24220"}}},
{"geometry": {"type": "Point", "coordinates": [-83.0077424975, 36.633558371]}, "type": "Feature", "properties": {"collection_times": [{"days": "Mon-Sat", "time": "12:45pm"}, {"days": "Sun", "time": "Closed"}], "id": "2422100001", "name": "USPS COLLECTION BOX - PO LOBBY", "address": {"city": "BLACKWATER", "state": "VA", "street": "8989 STATE ROUTE 70", "postcode": "24221"}}},
{"geometry": {"type": "Point", "coordinates": [-82.2625578078, 36.8572155061]}, "type": "Feature", "properties": {"collection_times": [{"days": "Mon-Fri", "time": "12:00pm"}, {"days": "Sat", "time": "10:00am"}, {"days": "Sun", "time": "Closed"}], "id": "2422400000", "name": "USPS COLLECTION BOX - BLUE BOX", "address": {"city": "CASTLEWOOD", "state": "VA", "street": "19366 US HIGHWAY 58", "postcode": "24224"}}},
{"geometry": {"type": "Point", "coordinates": [-82.2625578078, 36.8572155061]}, "type": "Feature", "properties": {"collection_times": [{"days": "Mon-Fri", "time": "4:30pm"}, {"days": "Sat", "time": "10:00am"}, {"days": "Sun", "time": "Closed"}], "id": "2422400001", "name": "USPS COLLECTION BOX - PO LOBBY", "address": {"city": "CASTLEWOOD", "state": "VA", "street": "19366 US HIGHWAY 58", "postcode": "24224"}}},
{"geometry": {"type": "Point", "coordinates": [-82.1337721711, 36.9817188968]}, "type": "Feature", "properties": {"collection_times": [{"days": "Mon-Fri", "time": "12:00pm"}, {"days": "Sat", "time": "11:00am"}, {"days": "Sun", "time": "Closed"}], "id": "2422500000", "name": "USPS COLLECTION BOX - BLUE BOX", "address": {"city": "CLEVELAND", "state": "VA", "street": "6550 CLEVELAND RD", "postcode": "24225"}}},
{"geometry": {"type": "Point", "coordinates": [-82.1337721711, 36.9817188968]}, "type": "Feature", "properties": {"collection_times": [{"days": "Mon-Fri", "time": "12:00pm"}, {"days": "Sat", "time": "11:00am"}, {"days": "Sun", "time": "Closed"}], "id": "2422500001", "name": "USPS COLLECTION BOX - PO LOBBY", "address": {"city": "CLEVELAND", "state": "VA", "street": "6550 CLEVELAND RD", "postcode": "24225"}}},
{"geometry": {"type": "Point", "coordinates": [-82.3353531487, 37.1251357775]}, "type": "Feature", "properties": {"collection_times": [{"days": "Mon-Fri", "time": "2:30pm"}, {"days": "Sat", "time": "11:00am"}, {"days": "Sun", "time": "Closed"}], "id": "2422600000", "name": "USPS COLLECTION BOX - PO LOBBY", "address": {"city": "CLINCHCO", "state": "VA", "street": "16556 DICKENSON HWY", "postcode": "24226"}}},
{"geometry": {"type": "Point", "coordinates": [-82.3353531487, 37.1251357775]}, "type": "Feature", "properties": {"collection_times": [{"days": "Mon-Sat", "time": "11:00am"}, {"days": "Sun", "time": "Closed"}], "id": "2422600001", "name": "USPS COLLECTION BOX - BLUE BOX", "address": {"city": "CLINCHCO", "state": "VA", "street": "16556 DICKENSON HWY", "postcode": "24226"}}},
{"geometry": {"type": "Point", "coordinates": [-82.3353531487, 37.1251357775]}, "type": "Feature", "properties": {"collection_times": [{"days": "Mon-Fri", "time": "2:30pm"}, {"days": "Sat", "time": "11:00am"}, {"days": "Sun", "time": "Closed"}], "id": "2422600002", "name": "USPS COLLECTION BOX - PO LOBBY", "address": {"city": "CLINCHCO", "state": "VA", "street": "1 WILLIAMS ST", "postcode": "24226"}}},
{"geometry": {"type": "Point", "coordinates": [-82.4576652571, 37.14841011]}, "type": "Feature", "properties": {"collection_times": [{"days": "Mon-Fri", "time": "11:00am"}, {"days": "Sat", "time": "10:15am"}, {"days": "Sun", "time": "Closed"}], "id": "2422800000", "name": "USPS COLLECTION BOX - BLUE BOX", "address": {"city": "CLINTWOOD", "state": "VA", "street": "454 CHASE ST", "postcode": "24228"}}},
{"geometry": {"type": "Point", "coordinates": [-82.4576652571, 37.14841011]}, "type": "Feature", "properties": {"collection_times": [{"days": "Mon-Fri", "time": "4:45pm"}, {"days": "Sat", "time": "10:15am"}, {"days": "Sun", "time": "Closed"}], "id": "2422800002", "name": "USPS COLLECTION BOX - PO LOBBY", "address": {"city": "CLINTWOOD", "state": "VA", "street": "454 CHASE ST", "postcode": "24228"}}},
{"geometry": {"type": "Point", "coordinates": [-82.464319072, 36.9435851063]}, "type": "Feature", "properties": {"collection_times": [{"days": "Mon-Fri", "time": "4:30pm"}, {"days": "Sat", "time": "11:30am"}, {"days": "Sun", "time": "Closed"}], "id": "2423000001", "name": "USPS COLLECTION BOX - PO LOBBY", "address": {"city": "COEBURN", "state": "VA", "street": "115 HIGH AVE NE", "postcode": "24230"}}},
{"geometry": {"type": "Point", "coordinates": [-82.464319072, 36.9435851063]}, "type": "Feature", "properties": {"collection_times": [{"days": "Mon-Fri", "time": "12:00pm"}, {"days": "Sat", "time": "11:30am"}, {"days": "Sun", "time": "Closed"}], "id": "2423000002", "name": "USPS COLLECTION BOX - BLUE BOX", "address": {"city": "COEBURN", "state": "VA", "street": "115 HIGH AVE NE", "postcode": "24230"}}},
{"geometry": {"type": "Point", "coordinates": [-81.7897483102, 36.6358593361]}, "type": "Feature", "properties": {"collection_times": [{"days": "Mon-Sat", "time": "11:00am"}, {"days": "Sun", "time": "Closed"}], "id": "2423600000", "name": "USPS COLLECTION BOX - BLUE BOX", "address": {"city": "DAMASCUS", "state": "VA", "street": "211 N REYNOLDS ST", "postcode": "24236"}}},
{"geometry": {"type": "Point", "coordinates": [-81.8024943938, 36.6386704766]}, "type": "Feature", "properties": {"collection_times": [{"days": "Mon-Sat", "time": "10:00am"}, {"days": "Sun", "time": "Closed"}], "id": "2423600001", "name": "USPS COLLECTION BOX - BLUE BOX", "address": {"city": "DAMASCUS", "state": "VA", "street": "32140 PLYMOUTH CT", "postcode": "24236"}}},
{"geometry": {"type": "Point", "coordinates": [-81.7897483102, 36.6358593361]}, "type": "Feature", "properties": {"collection_times": [{"days": "Mon-Fri", "time": "4:30pm"}, {"days": "Sat", "time": "11:00am"}, {"days": "Sun", "time": "Closed"}], "id": "2423600003", "name": "USPS COLLECTION BOX - PO LOBBY", "address": {"city": "DAMASCUS", "state": "VA", "street": "211 N REYNOLDS ST", "postcode": "24236"}}},
{"geometry": {"type": "Point", "coordinates": [-82.2645986395, 36.9840039834]}, "type": "Feature", "properties": {"collection_times": [{"days": "Mon-Fri", "time": "11:00am"}, {"days": "Sat", "time": "11:45am"}, {"days": "Sun", "time": "Closed"}], "id": "2423700000", "name": "USPS COLLECTION BOX - BLUE BOX", "address": {"city": "DANTE", "state": "VA", "street": "506 BUNCHTOWN RD", "postcode": "24237"}}},
{"geometry": {"type": "Point", "coordinates": [-82.2749712065, 37.0331172154]}, "type": "Feature", "properties": {"collection_times": [{"days": "Mon-Fri", "time": "2:45pm"}, {"days": "Sat", "time": "11:45am"}, {"days": "Sun", "time": "Closed"}], "id": "2423700001", "name": "USPS COLLECTION BOX - PO LOBBY", "address": {"city": "DANTE", "state": "VA", "street": "506 BUNCH TOWN RD", "postcode": "24237"}}},
{"geometry": {"type": "Point", "coordinates": [-82.1261553427, 37.0584881733]}, "type": "Feature", "properties": {"collection_times": [{"days": "Mon-Fri", "time": "11:00am"}, {"days": "Sat", "time": "11:15am"}, {"days": "Sun", "time": "Closed"}], "id": "2423900000", "name": "USPS COLLECTION BOX - BLUE BOX", "address": {"city": "DAVENPORT", "state": "VA", "street": "4038 HELEN HENDERSON HWY", "postcode": "24239"}}},
{"geometry": {"type": "Point", "coordinates": [-82.1261553427, 37.0584881733]}, "type": "Feature", "properties": {"collection_times": [{"days": "Mon-Fri", "time": "4:15pm"}, {"days": "Sat", "time": "11:15am"}, {"days": "Sun", "time": "Closed"}], "id": "2423900001", "name": "USPS COLLECTION BOX - PO LOBBY", "address": {"city": "DAVENPORT", "state": "VA", "street": "4038 HELEN HENDERSON HWY", "postcode": "24239"}}},
{"geometry": {"type": "Point", "coordinates": [-82.9141937499, 36.7974686548]}, "type": "Feature", "properties": {"collection_times": [{"days": "Mon-Fri", "time": "12:00pm"}, {"days": "Sat", "time": "11:30am"}, {"days": "Sun", "time": "Closed"}], "id": "2424300000", "name": "USPS COLLECTION BOX - BLUE BOX", "address": {"city": "DRYDEN", "state": "VA", "street": "48354 VETERANS MEMORIAL HWY", "postcode": "24243"}}},
{"geometry": {"type": "Point", "coordinates": [-82.9141937499, 36.7974686548]}, "type": "Feature", "properties": {"collection_times": [{"days": "Mon-Fri", "time": "4:15pm"}, {"days": "Sat", "time": "11:30am"}, {"days": "Sun", "time": "Closed"}], "id": "2424300001", "name": "USPS COLLECTION BOX - PO LOBBY", "address": {"city": "DRYDEN", "state": "VA", "street": "48354 VETERANS MEMORIAL HWY", "postcode": "24243"}}},
{"geometry": {"type": "Point", "coordinates": [-82.806154416, 36.7015869782]}, "type": "Feature", "properties": {"collection_times": [{"days": "Mon-Fri", "time": "4:30pm"}, {"days": "Sat", "time": "10:45am"}, {"days": "Sun", "time": "Closed"}], "id": "2424400001", "name": "USPS COLLECTION BOX - PO LOBBY", "address": {"city": "DUFFIELD", "state": "VA", "street": "466 DUFF PATT HWY", "postcode": "24244"}}},
{"geometry": {"type": "Point", "coordinates": [-82.806154416, 36.7015869782]}, "type": "Feature", "properties": {"collection_times": [{"days": "Mon-Fri", "time": "12:00pm"}, {"days": "Sat", "time": "10:45am"}, {"days": "Sun", "time": "Closed"}], "id": "2424400002", "name": "USPS COLLECTION BOX - BLUE BOX", "address": {"city": "DUFFIELD", "state": "VA", "street": "466 DUFF PATT HWY", "postcode": "24244"}}},
{"geometry": {"type": "Point", "coordinates": [-82.5773142571, 36.8226279158]}, "type": "Feature", "properties": {"collection_times": [{"days": "Mon-Fri", "time": "12:00pm"}, {"days": "Sat", "time": "10:45am"}, {"days": "Sun", "time": "Closed"}], "id": "2424500000", "name": "USPS COLLECTION BOX - BLUE BOX", "address": {"city": "DUNGANNON", "state": "VA", "street": "18948 VETERANS MEMORIAL HWY", "postcode": "24245"}}},
{"geometry": {"type": "Point", "coordinates": [-82.5773142571, 36.8226279158]}, "type": "Feature", "properties": {"collection_times": [{"days": "Mon-Fri", "time": "12:00pm"}, {"days": "Sat", "time": "10:45am"}, {"days": "Sun", "time": "Closed"}], "id": "2424500001", "name": "USPS COLLECTION BOX - PO LOBBY", "address": {"city": "DUNGANNON", "state": "VA", "street": "18948 VETERANS MEMORIAL HWY", "postcode": "24245"}}},
{"geometry": {"type": "Point", "coordinates": [-82.7439126661, 36.8670160811]}, "type": "Feature", "properties": {"collection_times": [{"days": "Mon-Fri", "time": "12:00pm"}, {"days": "Sat", "time": "10:30am"}, {"days": "Sun", "time": "Closed"}], "id": "2424600000", "name": "USPS COLLECTION BOX - BLUE BOX", "address": {"city": "EAST STONE GAP", "state": "VA", "street": "3911 E STONE GAP RD", "postcode": "24246"}}},
{"geometry": {"type": "Point", "coordinates": [-82.7439126661, 36.8670160811]}, "type": "Feature", "properties": {"collection_times": [{"days": "Mon-Fri", "time": "11:45am"}, {"days": "Sat", "time": "10:30am"}, {"days": "Sun", "time": "Closed"}], "id": "2424600001", "name": "USPS COLLECTION BOX - PO LOBBY", "address": {"city": "EAST STONE GAP", "state": "VA", "street": "3911 E STONE GAP RD", "postcode": "24246"}}},
{"geometry": {"type": "Point", "coordinates": [-83.514235305, 36.6269815572]}, "type": "Feature", "properties": {"collection_times": [{"days": "Mon-Fri", "time": "11:15am"}, {"days": "Sat", "time": "12:00pm"}, {"days": "Sun", "time": "Closed"}], "id": "2424800000", "name": "USPS COLLECTION BOX - BLUE BOX", "address": {"city": "EWING", "state": "VA", "street": "1579 DR THOMAS WALKER RD", "postcode": "24248"}}},
{"geometry": {"type": "Point", "coordinates": [-83.514235305, 36.6269815572]}, "type": "Feature", "properties": {"collection_times": [{"days": "Mon-Fri", "time": "3:45pm"}, {"days": "Sat", "time": "12:00pm"}, {"days": "Sun", "time": "Closed"}], "id": "2424800001", "name": "USPS COLLECTION BOX - PO LOBBY", "address": {"city": "EWING", "state": "VA", "street": "1579 DR THOMAS WALKER RD", "postcode": "24248"}}},
{"geometry": {"type": "Point", "coordinates": [-82.5808266359, 36.6377092729]}, "type": "Feature", "properties": {"collection_times": [{"days": "Mon-Fri", "time": "11:30am"}, {"days": "Sat", "time": "11:00am"}, {"days": "Sun", "time": "Closed"}], "id": "2425100001", "name": "USPS COLLECTION BOX - BLUE BOX", "address": {"city": "GATE CITY", "state": "VA", "street": "105 WEST JACKSON ST", "postcode": "24251"}}},
{"geometry": {"type": "Point", "coordinates": [-82.6518301687, 36.6485632815]}, "type": "Feature", "properties": {"collection_times": [{"days": "Mon-Sat", "time": "9:00am"}, {"days": "Sun", "time": "Closed"}], "id": "2425100002", "name": "USPS COLLECTION BOX - BLUE BOX", "address": {"city": "GATE CITY", "state": "VA", "street": "219 GATEWOOD CT", "postcode": "24251"}}},
{"geometry": {"type": "Point", "coordinates": [-82.6518301687, 36.6485632815]}, "type": "Feature", "properties": {"collection_times": [{"days": "Mon-Fri", "time": "12:00pm"}, {"days": "Sat", "time": "10:45am"}, {"days": "Sun", "time": "Closed"}], "id": "2425100004", "name": "USPS COLLECTION BOX - BLUE BOX", "address": {"city": "GATE CITY", "state": "VA", "street": "380 JONES ST", "postcode": "24251"}}},
{"geometry": {"type": "Point", "coordinates": [-82.6518301687, 36.6485632815]}, "type": "Feature", "properties": {"collection_times": [{"days": "Mon-Fri", "time": "4:15pm"}, {"days": "Sat", "time": "10:15am"}, {"days": "Sun", "time": "Closed"}], "id": "2425100007", "name": "USPS COLLECTION BOX - PO LOBBY", "address": {"city": "GATE CITY", "state": "VA", "street": "380 JONES ST", "postcode": "24251"}}},
{"geometry": {"type": "Point", "coordinates": [-82.6518301687, 36.6485632815]}, "type": "Feature", "properties": {"collection_times": [{"days": "Mon-Sat", "time": "11:30am"}, {"days": "Sun", "time": "Closed"}], "id": "2425100009", "name": "USPS COLLECTION BOX - BLUE BOX", "address": {"city": "GATE CITY", "state": "VA", "street": "2758 US HIGHWAY 23 NORTH", "postcode": "24251"}}},
{"geometry": {"type": "Point", "coordinates": [-82.2856484058, 37.2219807463]}, "type": "Feature", "properties": {"collection_times": [{"days": "Mon-Fri", "time": "11:00am"}, {"days": "Sat", "time": "9:45am"}, {"days": "Sun", "time": "Closed"}], "id": "2425600000", "name": "USPS COLLECTION BOX - BLUE BOX", "address": {"city": "HAYSI", "state": "VA", "street": "288 HAYSI MAIN ST", "postcode": "24256"}}},
{"geometry": {"type": "Point", "coordinates": [-82.2856484058, 37.2219807463]}, "type": "Feature", "properties": {"collection_times": [{"days": "Mon-Fri", "time": "3:45pm"}, {"days": "Sat", "time": "9:45am"}, {"days": "Sun", "time": "Closed"}], "id": "2425600001", "name": "USPS COLLECTION BOX - PO LOBBY", "address": {"city": "HAYSI", "state": "VA", "street": "288 HAYSI MAIN ST", "postcode": "24256"}}},
{"geometry": {"type": "Point", "coordinates": [-82.4149043224, 36.6440522891]}, "type": "Feature", "properties": {"collection_times": [{"days": "Mon-Fri", "time": "11:30am"}, {"days": "Sat", "time": "10:00am"}, {"days": "Sun", "time": "Closed"}], "id": "2425800000", "name": "USPS COLLECTION BOX - BLUE BOX", "address": {"city": "HILTONS", "state": "VA", "street": "90 SECOND ST", "postcode": "24258"}}},
{"geometry": {"type": "Point", "coordinates": [-82.4149043224, 36.6440522891]}, "type": "Feature", "properties": {"collection_times": [{"days": "Mon-Fri", "time": "11:15am"}, {"days": "Sat", "time": "10:00am"}, {"days": "Sun", "time": "Closed"}], "id": "2425800001", "name": "USPS COLLECTION BOX - PO LOBBY", "address": {"city": "HILTONS", "state": "VA", "street": "90 SECOND ST", "postcode": "24258"}}},
{"geometry": {"type": "Point", "coordinates": [-82.0043358149, 37.0325332727]}, "type": "Feature", "properties": {"collection_times": [{"days": "Mon-Sat", "time": "12:00pm"}, {"days": "Sun", "time": "Closed"}], "id": "2426000000", "name": "USPS COLLECTION BOX - BLUE BOX", "address": {"city": "HONAKER", "state": "VA", "street": "5528 REDBUD HWY", "postcode": "24260"}}},
{"geometry": {"type": "Point", "coordinates": [-82.0043358149, 37.0325332727]}, "type": "Feature", "properties": {"collection_times": [{"days": "Mon-Fri", "time": "4:45pm"}, {"days": "Sat", "time": "12:00pm"}, {"days": "Sun", "time": "Closed"}], "id": "2426000001", "name": "USPS COLLECTION BOX - PO LOBBY", "address": {"city": "HONAKER", "state": "VA", "street": "5528 REDBUD HWY", "postcode": "24260"}}},
{"geometry": {"type": "Point", "coordinates": [-83.1360372876, 36.6836641682]}, "type": "Feature", "properties": {"collection_times": [{"days": "Mon-Sat", "time": "12:00pm"}, {"days": "Sun", "time": "Closed"}], "id": "2426300000", "name": "USPS COLLECTION BOX - BLUE BOX", "address": {"city": "JONESVILLE", "state": "VA", "street": "169 CHURCH ST", "postcode": "24263"}}},
{"geometry": {"type": "Point", "coordinates": [-83.1647903896, 36.6760568923]}, "type": "Feature", "properties": {"collection_times": [{"days": "Mon-Fri", "time": "4:15pm"}, {"days": "Sat", "time": "1:00pm"}, {"days": "Sun", "time": "Closed"}], "id": "2426300001", "name": "USPS COLLECTION BOX - PO LOBBY", "address": {"city": "JONESVILLE", "state": "VA", "street": "1 CHURCH ST", "postcode": "24263"}}},
{"geometry": {"type": "Point", "coordinates": [-82.9673495795, 36.8317905583]}, "type": "Feature", "properties": {"collection_times": [{"days": "Mon-Fri", "time": "12:00pm"}, {"days": "Sat", "time": "11:15am"}, {"days": "Sun", "time": "Closed"}], "id": "2426500000", "name": "USPS COLLECTION BOX - BLUE BOX", "address": {"city": "KEOKEE", "state": "VA", "street": "119 POST OFFICE RD", "postcode": "24265"}}},
{"geometry": {"type": "Point", "coordinates": [-82.9673495795, 36.8317905583]}, "type": "Feature", "properties": {"collection_times": [{"days": "Mon-Fri", "time": "11:45am"}, {"days": "Sat", "time": "11:15am"}, {"days": "Sun", "time": "Closed"}], "id": "2426500001", "name": "USPS COLLECTION BOX - PO LOBBY", "address": {"city": "KEOKEE", "state": "VA", "street": "119 POST OFFICE RD", "postcode": "24265"}}},
{"geometry": {"type": "Point", "coordinates": [-82.084164611, 36.9007092387]}, "type": "Feature", "properties": {"collection_times": [{"days": "Mon-Fri", "time": "12:00pm"}, {"days": "Sat", "time": "10:00am"}, {"days": "Sun", "time": "Closed"}], "id": "2426600000", "name": "USPS COLLECTION BOX - BLUE BOX", "address": {"city": "LEBANON", "state": "VA", "street": "221 W MAIN ST", "postcode": "24266"}}},
{"geometry": {"type": "Point", "coordinates": [-82.0835804474, 36.9007197048]}, "type": "Feature", "properties": {"collection_times": [{"days": "Mon-Fri", "time": "4:30pm"}, {"days": "Sat", "time": "10:00am"}, {"days": "Sun", "time": "Closed"}], "id": "2426600004", "name": "USPS COLLECTION BOX - PO LOBBY", "address": {"city": "LEBANON", "state": "VA", "street": "221 W MAIN ST", "postcode": "24266"}}},
{"geometry": {"type": "Point", "coordinates": [-82.2986786031, 36.7135257224]}, "type": "Feature", "properties": {"collection_times": [{"days": "Mon-Fri", "time": "11:30am"}, {"days": "Sat", "time": "11:45am"}, {"days": "Sun", "time": "Closed"}], "id": "2427000000", "name": "USPS COLLECTION BOX - BLUE BOX", "address": {"city": "MENDOTA", "state": "VA", "street": "2543 MENDOTA RD", "postcode": "24270"}}},
{"geometry": {"type": "Point", "coordinates": [-82.2986786031, 36.7135257224]}, "type": "Feature", "properties": {"collection_times": [{"days": "Mon-Sat", "time": "11:45am"}, {"days": "Sun", "time": "Closed"}], "id": "2427000001", "name": "USPS COLLECTION BOX - PO LOBBY", "address": {"city": "MENDOTA", "state": "VA", "street": "2543 MENDOTA RD", "postcode": "24270"}}},
{"geometry": {"type": "Point", "coordinates": [-82.4174475275, 36.7485595515]}, "type": "Feature", "properties": {"collection_times": [{"days": "Mon-Fri", "time": "2:30pm"}, {"days": "Sat", "time": "11:00am"}, {"days": "Sun", "time": "Closed"}], "id": "2427100001", "name": "USPS COLLECTION BOX - PO LOBBY", "address": {"city": "NICKELSVILLE", "state": "VA", "street": "158 BETHEL RD", "postcode": "24271"}}},
{"geometry": {"type": "Point", "coordinates": [-82.3486772706, 37.0191580026]}, "type": "Feature", "properties": {"collection_times": [{"days": "Mon-Fri", "time": "12:00pm"}, {"days": "Sat", "time": "11:45am"}, {"days": "Sun", "time": "Closed"}], "id": "2427200000", "name": "USPS COLLECTION BOX - BLUE BOX", "address": {"city": "NORA", "state": "VA", "street": "5623 DANTE MOUNTAIN RD", "postcode": "24272"}}},
{"geometry": {"type": "Point", "coordinates": [-82.3486772706, 37.0191580026]}, "type": "Feature", "properties": {"collection_times": [{"days": "Mon-Sat", "time": "11:45am"}, {"days": "Sun", "time": "Closed"}], "id": "2427200001", "name": "USPS COLLECTION BOX - PO LOBBY", "address": {"city": "NORA", "state": "VA", "street": "5623 DANTE MOUNTAIN RD", "postcode": "24272"}}},
{"geometry": {"type": "Point", "coordinates": [-82.6284139547, 36.9343909247]}, "type": "Feature", "properties": {"collection_times": [{"days": "Mon-Fri", "time": "12:00pm"}, {"days": "Sat", "time": "11:00am"}, {"days": "Sun", "time": "Closed"}], "id": "2427300000", "name": "USPS COLLECTION BOX - BLUE BOX", "address": {"city": "NORTON", "state": "VA", "street": "39 7TH ST NW", "postcode": "24273"}}},
{"geometry": {"type": "Point", "coordinates": [-82.6284139547, 36.9343909247]}, "type": "Feature", "properties": {"collection_times": [{"days": "Mon-Fri", "time": "4:30pm"}, {"days": "Sat", "time": "11:00am"}, {"days": "Sun", "time": "Closed"}], "id": "2427300008", "name": "USPS COLLECTION BOX - PO LOBBY", "address": {"city": "NORTON", "state": "VA", "street": "39 7TH ST NW", "postcode": "24273"}}},
{"geometry": {"type": "Point", "coordinates": [-83.0299924059, 36.7568799909]}, "type": "Feature", "properties": {"collection_times": [{"days": "Mon-Fri", "time": "2:45pm"}, {"days": "Sat", "time": "11:30am"}, {"days": "Sun", "time": "Closed"}], "id": "2427700005", "name": "USPS COLLECTION BOX - BLUE BOX", "address": {"city": "PENNINGTON GAP", "state": "VA", "street": "301 W MORGAN AVE", "postcode": "24277"}}},
{"geometry": {"type": "Point", "coordinates": [-83.0299924059, 36.7568799909]}, "type": "Feature", "properties": {"collection_times": [{"days": "Mon-Fri", "time": "4:15pm"}, {"days": "Sat", "time": "11:30am"}, {"days": "Sun", "time": "Closed"}], "id": "2427700008", "name": "USPS COLLECTION BOX - PO LOBBY", "address": {"city": "PENNINGTON GAP", "state": "VA", "street": "301 W MORGAN AVE", "postcode": "24277"}}},
{"geometry": {"type": "Point", "coordinates": [-82.5996324072, 37.124399359]}, "type": "Feature", "properties": {"collection_times": [{"days": "Mon-Sat", "time": "11:00am"}, {"days": "Sun", "time": "Closed"}], "id": "2427900001", "name": "USPS COLLECTION BOX - BLUE BOX", "address": {"city": "POUND", "state": "VA", "street": "11317 HIGHLAND AVE", "postcode": "24279"}}},
{"geometry": {"type": "Point", "coordinates": [-82.5996324072, 37.124399359]}, "type": "Feature", "properties": {"collection_times": [{"days": "Mon-Fri", "time": "4:00pm"}, {"days": "Sat", "time": "11:00am"}, {"days": "Sun", "time": "Closed"}], "id": "2427900002", "name": "USPS COLLECTION BOX - PO LOBBY", "address": {"city": "POUND", "state": "VA", "street": "11317 HIGHLAND AVE", "postcode": "24279"}}},
{"geometry": {"type": "Point", "coordinates": [-81.8904570546, 36.9654509084]}, "type": "Feature", "properties": {"collection_times": [{"days": "Mon-Fri", "time": "12:00pm"}, {"days": "Sat", "time": "11:15am"}, {"days": "Sun", "time": "Closed"}], "id": "2428000000", "name": "USPS COLLECTION BOX - BLUE BOX", "address": {"city": "ROSEDALE", "state": "VA", "street": "18542 U S HIGHWAY 19", "postcode": "24280"}}},
{"geometry": {"type": "Point", "coordinates": [-81.8904570546, 36.9654509084]}, "type": "Feature", "properties": {"collection_times": [{"days": "Mon-Fri", "time": "4:45pm"}, {"days": "Sat", "time": "11:15am"}, {"days": "Sun", "time": "Closed"}], "id": "2428000001", "name": "USPS COLLECTION BOX - PO LOBBY", "address": {"city": "ROSEDALE", "state": "VA", "street": "18542 U S HIGHWAY 19", "postcode": "24280"}}},
{"geometry": {"type": "Point", "coordinates": [-83.337716975, 36.6449672747]}, "type": "Feature", "properties": {"collection_times": [{"days": "Mon-Fri", "time": "12:00pm"}, {"days": "Sat", "time": "11:15am"}, {"days": "Sun", "time": "Closed"}], "id": "2428100000", "name": "USPS COLLECTION BOX - BLUE BOX", "address": {"city": "ROSE HILL", "state": "VA", "street": "6501 DR THOMAS WALKER RD", "postcode": "24281"}}},
{"geometry": {"type": "Point", "coordinates": [-83.337716975, 36.6449672747]}, "type": "Feature", "properties": {"collection_times": [{"days": "Mon-Fri", "time": "3:15pm"}, {"days": "Sat", "time": "11:15am"}, {"days": "Sun", "time": "Closed"}], "id": "2428100001", "name": "USPS COLLECTION BOX - PO LOBBY", "address": {"city": "ROSE HILL", "state": "VA", "street": "6501 DR THOMAS WALKER RD", "postcode": "24281"}}},
{"geometry": {"type": "Point", "coordinates": [-83.052988817, 36.8354391342]}, "type": "Feature", "properties": {"collection_times": [{"days": "Mon-Fri", "time": "12:00pm"}, {"days": "Sat", "time": "11:30am"}, {"days": "Sun", "time": "Closed"}], "id": "2428200000", "name": "USPS COLLECTION BOX - BLUE BOX", "address": {"city": "SAINT CHARLES", "state": "VA", "street": "155 MONARCH RD", "postcode": "24282"}}},
{"geometry": {"type": "Point", "coordinates": [-83.052988817, 36.8354391342]}, "type": "Feature", "properties": {"collection_times": [{"days": "Mon-Fri", "time": "11:45am"}, {"days": "Sat", "time": "11:40am"}, {"days": "Sun", "time": "Closed"}], "id": "2428200001", "name": "USPS COLLECTION BOX - PO LOBBY", "address": {"city": "SAINT CHARLES", "state": "VA", "street": "155 MONARCH RD", "postcode": "24282"}}},
{"geometry": {"type": "Point", "coordinates": [-82.3118083343, 36.9043378424]}, "type": "Feature", "properties": {"collection_times": [{"days": "Mon-Fri", "time": "12:00pm"}, {"days": "Sat", "time": "11:00am"}, {"days": "Sun", "time": "Closed"}], "id": "2428300000", "name": "USPS COLLECTION BOX - BLUE BOX", "address": {"city": "SAINT PAUL", "state": "VA", "street": "16552 RUSSELL ST", "postcode": "24283"}}},
{"geometry": {"type": "Point", "coordinates": [-82.3118083343, 36.9043378424]}, "type": "Feature", "properties": {"collection_times": [{"days": "Mon-Fri", "time": "4:30pm"}, {"days": "Sat", "time": "11:00am"}, {"days": "Sun", "time": "Closed"}], "id": "2428300001", "name": "USPS COLLECTION BOX - PO LOBBY", "address": {"city": "SAINT PAUL", "state": "VA", "street": "16552 RUSSELL ST", "postcode": "24283"}}},
{"geometry": {"type": "Point", "coordinates": [-81.5806857042, 36.6112852313]}, "type": "Feature", "properties": {"collection_times": [{"days": "Mon-Fri", "time": "12:00pm"}, {"days": "Sat", "time": "11:45am"}, {"days": "Sun", "time": "Closed"}], "id": "2429200000", "name": "USPS COLLECTION BOX - BLUE BOX", "address": {"city": "WHITETOP", "state": "VA", "street": "15145 HIGHLANDS PKWY", "postcode": "24292"}}},
{"geometry": {"type": "Point", "coordinates": [-81.5806857042, 36.6112852313]}, "type": "Feature", "properties": {"collection_times": [{"days": "Mon-Fri", "time": "12:45pm"}, {"days": "Sat", "time": "11:45am"}, {"days": "Sun", "time": "Closed"}], "id": "2429200001", "name": "USPS COLLECTION BOX - PO LOBBY", "address": {"city": "WHITETOP", "state": "VA", "street": "15145 HIGHLANDS PKWY", "postcode": "24292"}}},
{"geometry": {"type": "Point", "coordinates": [-82.5805968828, 36.9779187712]}, "type": "Feature", "properties": {"collection_times": [{"days": "Mon-Fri", "time": "11:00am"}, {"days": "Sat", "time": "12:30pm"}, {"days": "Sun", "time": "Closed"}], "id": "2429300000", "name": "USPS COLLECTION BOX - BLUE BOX", "address": {"city": "WISE", "state": "VA", "street": "208 MAIN ST", "postcode": "24293"}}},
{"geometry": {"type": "Point", "coordinates": [-82.5805968828, 36.9779187712]}, "type": "Feature", "properties": {"collection_times": [{"days": "Mon-Fri", "time": "11:00am"}, {"days": "Sat", "time": "12:30pm"}, {"days": "Sun", "time": "Closed"}], "id": "2429300001", "name": "USPS COLLECTION BOX - BLUE BOX", "address": {"city": "WISE", "state": "VA", "street": "208 MAIN ST", "postcode": "24293"}}},
{"geometry": {"type": "Point", "coordinates": [-82.5805968828, 36.9779187712]}, "type": "Feature", "properties": {"collection_times": [{"days": "Mon-Fri", "time": "5:00pm"}, {"days": "Sat", "time": "12:30pm"}, {"days": "Sun", "time": "Closed"}], "id": "2429300002", "name": "USPS COLLECTION BOX - PO LOBBY", "address": {"city": "WISE", "state": "VA", "street": "208 MAIN ST", "postcode": "24293"}}},
{"geometry": {"type": "Point", "coordinates": [-82.5805968828, 36.9779187712]}, "type": "Feature", "properties": {"collection_times": [{"days": "Mon-Fri", "time": "5:00pm"}, {"days": "Sat", "time": "12:30pm"}, {"days": "Sun", "time": "Closed"}], "id": "2429300003", "name": "USPS COLLECTION BOX - PO LOBBY", "address": {"city": "WISE", "state": "VA", "street": "208 MAIN ST", "postcode": "24293"}}},
{"geometry": {"type": "Point", "coordinates": [-82.5805968828, 36.9779187712]}, "type": "Feature", "properties": {"collection_times": [{"days": "Mon-Fri", "time": "5:00pm"}, {"days": "Sat", "time": "12:30pm"}, {"days": "Sun", "time": "Closed"}], "id": "2429300004", "name": "USPS COLLECTION BOX - PO LOBBY", "address": {"city": "WISE", "state": "VA", "street": "208 MAIN ST", "postcode": "24293"}}}
]}
