{"type": "FeatureCollection", "features": [
{"geometry": {"type": "Point", "coordinates": [-80.783333466, 37.0489205354]}, "type": "Feature", "properties": {"collection_times": [{"days": "Mon-Fri", "time": "4:00pm"}, {"days": "Sat-Sun", "time": "Closed"}], "id": "2430100004", "name": "USPS COLLECTION BOX - BLUE BOX", "address": {"city": "PULASKI", "state": "VA", "street": "53 COMMERCE ST", "postcode": "24301"}}},
{"geometry": {"type": "Point", "coordinates": [-80.780174, 37.047806]}, "type": "Feature", "properties": {"collection_times": [{"days": "Mon-Fri", "time": "4:00pm"}, {"days": "Sat", "time": "2:00pm"}, {"days": "Sun", "time": "Closed"}], "id": "2430100007", "name": "USPS COLLECTION BOX - BLUE BOX", "address": {"city": "PULASKI", "state": "VA", "street": "8 MAIN ST", "postcode": "24301"}}},
{"geometry": {"type": "Point", "coordinates": [-80.7767712105, 37.0477147112]}, "type": "Feature", "properties": {"collection_times": [{"days": "Mon-Fri", "time": "4:00pm"}, {"days": "Sat", "time": "2:00pm"}, {"days": "Sun", "time": "Closed"}], "id": "2430100009", "name": "USPS COLLECTION BOX - BLUE BOX", "address": {"city": "PULASKI", "state": "VA", "street": "141 E MAIN ST", "postcode": "24301"}}},
{"geometry": {"type": "Point", "coordinates": [-80.7603823679, 37.0483320354]}, "type": "Feature", "properties": {"collection_times": [{"days": "Mon-Fri", "time": "4:00pm"}, {"days": "Sat", "time": "2:00pm"}, {"days": "Sun", "time": "Closed"}], "id": "2430100010", "name": "USPS COLLECTION BOX - BLUE BOX", "address": {"city": "PULASKI", "state": "VA", "street": "1022 E MAIN ST", "postcode": "24301"}}},
{"geometry": {"type": "Point", "coordinates": [-80.7607844286, 37.0634063932]}, "type": "Feature", "properties": {"collection_times": [{"days": "Mon-Sat", "time": "10:00am"}, {"days": "Sun", "time": "Closed"}], "id": "2430100012", "name": "USPS COLLECTION BOX - BLUE BOX", "address": {"city": "PULASKI", "state": "VA", "street": "1000 MEMORIAL DR", "postcode": "24301"}}},
{"geometry": {"type": "Point", "coordinates": [-80.7798612175, 37.0468042775]}, "type": "Feature", "properties": {"collection_times": [{"days": "Mon-Fri", "time": "4:30pm"}, {"days": "Sat", "time": "2:00pm"}, {"days": "Sun", "time": "Closed"}], "id": "2430100022", "name": "USPS COLLECTION BOX - BLUE BOX", "address": {"city": "PULASKI", "state": "VA", "street": "109 N WASHINGTON AVE", "postcode": "24301"}}},
{"geometry": {"type": "Point", "coordinates": [-80.7803831383, 37.0488608409]}, "type": "Feature", "properties": {"collection_times": [{"days": "Mon-Fri", "time": "4:00pm"}, {"days": "Sat-Sun", "time": "Closed"}], "id": "2430100024", "name": "USPS COLLECTION BOX - BLUE BOX", "address": {"city": "PULASKI", "state": "VA", "street": "45 3RD ST NW", "postcode": "24301"}}},
{"geometry": {"type": "Point", "coordinates": [-80.7609213644, 37.0672152966]}, "type": "Feature", "properties": {"collection_times": [{"days": "Mon-Fri", "time": "10:00am"}, {"days": "Sat-Sun", "time": "Closed"}], "id": "2430100025", "name": "USPS COLLECTION BOX - BLUE BOX", "address": {"city": "PULASKI", "state": "VA", "street": "2400 LEE HWY N", "postcode": "24301"}}},
{"geometry": {"type": "Point", "coordinates": [-80.778960343, 37.0510284349]}, "type": "Feature", "properties": {"collection_times": [{"days": "Mon-Fri", "time": "4:00pm"}, {"days": "Sat-Sun", "time": "Closed"}], "id": "2430100027", "name": "USPS COLLECTION BOX - BLUE BOX", "address": {"city": "PULASKI", "state": "VA", "street": "36 5TH ST NE", "postcode": "24301"}}},
{"geometry": {"type": "Point", "coordinates": [-80.7798612175, 37.0468042775]}, "type": "Feature", "properties": {"collection_times": [{"days": "Mon-Fri", "time": "5:30pm"}, {"days": "Sat", "time": "2:00pm"}, {"days": "Sun", "time": "Closed"}], "id": "2430100028", "name": "USPS COLLECTION BOX - PO LOBBY", "address": {"city": "PULASKI", "state": "VA", "street": "109 N WASHINGTON AVE", "postcode": "24301"}}},
{"geometry": {"type": "Point", "coordinates": [-80.7603975387, 37.0676574199]}, "type": "Feature", "properties": {"collection_times": [{"days": "Mon-Fri", "time": "10:00am"}, {"days": "Sat-Sun", "time": "Closed"}], "id": "2430100029", "name": "USPS COLLECTION BOX - BLUE BOX", "address": {"city": "PULASKI", "state": "VA", "street": "2460 LEE HWY N", "postcode": "24301"}}},
{"geometry": {"type": "Point", "coordinates": [-81.4079145991, 36.870322234]}, "type": "Feature", "properties": {"collection_times": [{"days": "Mon-Fri", "time": "3:15pm"}, {"days": "Sat", "time": "10:45am"}, {"days": "Sun", "time": "Closed"}], "id": "2431100000", "name": "USPS COLLECTION BOX - BLUE BOX", "address": {"city": "ATKINS", "state": "VA", "street": "5864 LEE HWY", "postcode": "24311"}}},
{"geometry": {"type": "Point", "coordinates": [-81.4114335901, 36.8692828906]}, "type": "Feature", "properties": {"collection_times": [{"days": "Mon-Fri", "time": "3:15pm"}, {"days": "Sat", "time": "10:45am"}, {"days": "Sun", "time": "Closed"}], "id": "2431100001", "name": "USPS COLLECTION BOX - PO LOBBY", "address": {"city": "ATKINS", "state": "VA", "street": "5864 LEE HWY", "postcode": "24311"}}},
{"geometry": {"type": "Point", "coordinates": [-80.9329160519, 36.8602790776]}, "type": "Feature", "properties": {"collection_times": [{"days": "Mon-Fri", "time": "4:00pm"}, {"days": "Sat", "time": "11:00am"}, {"days": "Sun", "time": "Closed"}], "id": "2431200000", "name": "USPS COLLECTION BOX - BLUE BOX", "address": {"city": "AUSTINVILLE", "state": "VA", "street": "2286 AUSTINVILLE RD", "postcode": "24312"}}},
{"geometry": {"type": "Point", "coordinates": [-80.9329160519, 36.8602790776]}, "type": "Feature", "properties": {"collection_times": [{"days": "Mon-Fri", "time": "4:00pm"}, {"days": "Sat", "time": "11:00am"}, {"days": "Sun", "time": "Closed"}], "id": "2431200001", "name": "USPS COLLECTION BOX - PO LOBBY", "address": {"city": "AUSTINVILLE", "state": "VA", "street": "2286 AUSTINVILLE RD", "postcode": "24312"}}},
{"geometry": {"type": "Point", "coordinates": [-80.9015964842, 36.8535929883]}, "type": "Feature", "properties": {"collection_times": [{"days": "Mon-Sat", "time": "11:30am"}, {"days": "Sun", "time": "Closed"}], "id": "2431200002", "name": "USPS COLLECTION BOX - BLUE BOX", "address": {"city": "AUSTINVILLE", "state": "VA", "street": "2286 AUSTINVILLE RD", "postcode": "24312"}}},
{"geometry": {"type": "Point", "coordinates": [-80.8097880831, 36.9037817349]}, "type": "Feature", "properties": {"collection_times": [{"days": "Mon-Fri", "time": "12:00pm"}, {"days": "Sat", "time": "10:45am"}, {"days": "Sun", "time": "Closed"}], "id": "2431300000", "name": "USPS COLLECTION BOX - BLUE BOX", "address": {"city": "BARREN SPRINGS", "state": "VA", "street": "1895 WYSOR HWY", "postcode": "24313"}}},
{"geometry": {"type": "Point", "coordinates": [-80.8097880831, 36.9037817349]}, "type": "Feature", "properties": {"collection_times": [{"days": "Mon-Fri", "time": "12:00pm"}, {"days": "Sat", "time": "10:45am"}, {"days": "Sun", "time": "Closed"}], "id": "2431300001", "name": "USPS COLLECTION BOX - PO LOBBY", "address": {"city": "BARREN SPRINGS", "state": "VA", "street": "1895 WYSOR HWY", "postcode": "24313"}}},
{"geometry": {"type": "Point", "coordinates": [-81.1985887434, 37.159312761]}, "type": "Feature", "properties": {"collection_times": [{"days": "Mon-Fri", "time": "11:45am"}, {"days": "Sat", "time": "11:15am"}, {"days": "Sun", "time": "Closed"}], "id": "2431400000", "name": "USPS COLLECTION BOX - BLUE BOX", "address": {"city": "BASTIAN", "state": "VA", "street": "178 WALNUT DR", "postcode": "24314"}}},
{"geometry": {"type": "Point", "coordinates": [-81.1985887434, 37.159312761]}, "type": "Feature", "properties": {"collection_times": [{"days": "Mon-Fri", "time": "11:45am"}, {"days": "Sat", "time": "11:15am"}, {"days": "Sun", "time": "Closed"}], "id": "2431400001", "name": "USPS COLLECTION BOX - PO LOBBY", "address": {"city": "BASTIAN", "state": "VA", "street": "178 WALNUT DR", "postcode": "24314"}}},
{"geometry": {"type": "Point", "coordinates": [-81.1209816612, 37.1079735544]}, "type": "Feature", "properties": {"collection_times": [{"days": "Mon-Fri", "time": "4:00pm"}, {"days": "Sat", "time": "11:00am"}, {"days": "Sun", "time": "Closed"}], "id": "2431500000", "name": "USPS COLLECTION BOX - BLUE BOX", "address": {"city": "BLAND", "state": "VA", "street": "207 JACKSON ST", "postcode": "24315"}}},
{"geometry": {"type": "Point", "coordinates": [-81.1209816612, 37.1079735544]}, "type": "Feature", "properties": {"collection_times": [{"days": "Mon-Fri", "time": "4:00pm"}, {"days": "Sat", "time": "11:00am"}, {"days": "Sun", "time": "Closed"}], "id": "2431500001", "name": "USPS COLLECTION BOX - PO LOBBY", "address": {"city": "BLAND", "state": "VA", "street": "207 JACKSON ST", "postcode": "24315"}}},
{"geometry": {"type": "Point", "coordinates": [-80.6687385311, 36.5875570434]}, "type": "Feature", "properties": {"collection_times": [{"days": "Mon-Fri", "time": "4:00pm"}, {"days": "Sat", "time": "11:00am"}, {"days": "Sun", "time": "Closed"}], "id": "2431700000", "name": "USPS COLLECTION BOX - BLUE BOX", "address": {"city": "CANA", "state": "VA", "street": "14207 FANCY GAP HWY", "postcode": "24317"}}},
{"geometry": {"type": "Point", "coordinates": [-80.6725118352, 36.5998218309]}, "type": "Feature", "properties": {"collection_times": [{"days": "Mon-Fri", "time": "4:00pm"}, {"days": "Sat", "time": "11:00am"}, {"days": "Sun", "time": "Closed"}], "id": "2431700001", "name": "USPS COLLECTION BOX - PO LOBBY", "address": {"city": "CANA", "state": "VA", "street": "14207 FANCY GAP HWY", "postcode": "24317"}}},
{"geometry": {"type": "Point", "coordinates": [-81.3631667961, 37.0108435687]}, "type": "Feature", "properties": {"collection_times": [{"days": "Mon-Fri", "time": "11:45am"}, {"days": "Sat", "time": "10:45am"}, {"days": "Sun", "time": "Closed"}], "id": "2431800000", "name": "USPS COLLECTION BOX - BLUE BOX", "address": {"city": "CERES", "state": "VA", "street": "5592 W BLUE GRASS TRL", "postcode": "24318"}}},
{"geometry": {"type": "Point", "coordinates": [-81.3631667961, 37.0108435687]}, "type": "Feature", "properties": {"collection_times": [{"days": "Mon-Fri", "time": "11:45am"}, {"days": "Sat", "time": "10:45am"}, {"days": "Sun", "time": "Closed"}], "id": "2431800001", "name": "USPS COLLECTION BOX - PO LOBBY", "address": {"city": "CERES", "state": "VA", "street": "5592 W BLUE GRASS TRL", "postcode": "24318"}}},
{"geometry": {"type": "Point", "coordinates": [-81.6862448509, 36.7987038612]}, "type": "Feature", "properties": {"collection_times": [{"days": "Mon-Fri", "time": "4:45pm"}, {"days": "Sat", "time": "11:00am"}, {"days": "Sun", "time": "Closed"}], "id": "2431900000", "name": "USPS COLLECTION BOX - BLUE BOX", "address": {"city": "CHILHOWIE", "state": "VA", "street": "195 OLD STAGE RD", "postcode": "24319"}}},
{"geometry": {"type": "Point", "coordinates": [-81.6862448509, 36.7987038612]}, "type": "Feature", "properties": {"collection_times": [{"days": "Mon-Fri", "time": "4:45pm"}, {"days": "Sat", "time": "11:00am"}, {"days": "Sun", "time": "Closed"}], "id": "2431900003", "name": "USPS COLLECTION BOX - PO LOBBY", "address": {"city": "CHILHOWIE", "state": "VA", "street": "195 OLD STAGE RD", "postcode": "24319"}}},
{"geometry": {"type": "Point", "coordinates": [-81.1981193785, 36.8933128365]}, "type": "Feature", "properties": {"collection_times": [{"days": "Mon-Fri", "time": "10:30am"}, {"days": "Sat", "time": "10:45am"}, {"days": "Sun", "time": "Closed"}], "id": "2432300000", "name": "USPS COLLECTION BOX - BLUE BOX", "address": {"city": "CROCKETT", "state": "VA", "street": "1163 CROCKETT RD", "postcode": "24323"}}},
{"geometry": {"type": "Point", "coordinates": [-81.1981193785, 36.8933128365]}, "type": "Feature", "properties": {"collection_times": [{"days": "Mon-Fri", "time": "10:30am"}, {"days": "Sat", "time": "10:45am"}, {"days": "Sun", "time": "Closed"}], "id": "2432300001", "name": "USPS COLLECTION BOX - PO LOBBY", "address": {"city": "CROCKETT", "state": "VA", "street": "1163 CROCKETT RD", "postcode": "24323"}}},
{"geometry": {"type": "Point", "coordinates": [-80.7845251048, 36.9741858946]}, "type": "Feature", "properties": {"collection_times": [{"days": "Mon-Fri", "time": "12:00pm"}, {"days": "Sat", "time": "10:30am"}, {"days": "Sun", "time": "Closed"}], "id": "2432400000", "name": "USPS COLLECTION BOX - BLUE BOX", "address": {"city": "DRAPER", "state": "VA", "street": "4390 ACADEMY ST", "postcode": "24324"}}},
{"geometry": {"type": "Point", "coordinates": [-80.7845251048, 36.9741858946]}, "type": "Feature", "properties": {"collection_times": [{"days": "Mon-Fri", "time": "12:00pm"}, {"days": "Sat", "time": "10:30am"}, {"days": "Sun", "time": "Closed"}], "id": "2432400001", "name": "USPS COLLECTION BOX - PO LOBBY", "address": {"city": "DRAPER", "state": "VA", "street": "4390 ACADEMY ST", "postcode": "24324"}}},
{"geometry": {"type": "Point", "coordinates": [-80.6155042574, 36.8269968297]}, "type": "Feature", "properties": {"collection_times": [{"days": "Mon-Fri", "time": "11:15am"}, {"days": "Sat", "time": "11:00am"}, {"days": "Sun", "time": "Closed"}], "id": "2432500000", "name": "USPS COLLECTION BOX - BLUE BOX", "address": {"city": "DUGSPUR", "state": "VA", "street": "60 DOUBLE CABIN RD", "postcode": "24325"}}},
{"geometry": {"type": "Point", "coordinates": [-80.6155042574, 36.8269968297]}, "type": "Feature", "properties": {"collection_times": [{"days": "Mon-Fri", "time": "11:15am"}, {"days": "Sat", "time": "11:00am"}, {"days": "Sun", "time": "Closed"}], "id": "2432500001", "name": "USPS COLLECTION BOX - PO LOBBY", "address": {"city": "DUGSPUR", "state": "VA", "street": "60 DOUBLE CABIN RD", "postcode": "24325"}}},
{"geometry": {"type": "Point", "coordinates": [-81.1687392393, 36.718654482]}, "type": "Feature", "properties": {"collection_times": [{"days": "Mon-Fri", "time": "2:15pm"}, {"days": "Sat", "time": "11:00am"}, {"days": "Sun", "time": "Closed"}], "id": "2432600000", "name": "USPS COLLECTION BOX - BLUE BOX", "address": {"city": "ELK CREEK", "state": "VA", "street": "62 COMERS ROCK RD", "postcode": "24326"}}},
{"geometry": {"type": "Point", "coordinates": [-81.1687392393, 36.718654482]}, "type": "Feature", "properties": {"collection_times": [{"days": "Mon-Fri", "time": "2:15pm"}, {"days": "Sat", "time": "11:00am"}, {"days": "Sun", "time": "Closed"}], "id": "2432600001", "name": "USPS COLLECTION BOX - PO LOBBY", "address": {"city": "ELK CREEK", "state": "VA", "street": "62 COMERS ROCK RD", "postcode": "24326"}}},
{"geometry": {"type": "Point", "coordinates": [-81.8343871949, 36.7737344411]}, "type": "Feature", "properties": {"collection_times": [{"days": "Mon-Fri", "time": "12:00pm"}, {"days": "Sat", "time": "11:00am"}, {"days": "Sun", "time": "Closed"}], "id": "2432700000", "name": "USPS COLLECTION BOX - BLUE BOX", "address": {"city": "EMORY", "state": "VA", "street": "31045 OXFORD AVE", "postcode": "24327"}}},
{"geometry": {"type": "Point", "coordinates": [-81.8343871949, 36.7737344411]}, "type": "Feature", "properties": {"collection_times": [{"days": "Mon-Fri", "time": "12:00pm"}, {"days": "Sat", "time": "11:00am"}, {"days": "Sun", "time": "Closed"}], "id": "2432700001", "name": "USPS COLLECTION BOX - PO LOBBY", "address": {"city": "EMORY", "state": "VA", "street": "31045 OXFORD AVE", "postcode": "24327"}}},
{"geometry": {"type": "Point", "coordinates": [-80.6942684022, 36.6720631058]}, "type": "Feature", "properties": {"collection_times": [{"days": "Mon-Fri", "time": "2:00pm"}, {"days": "Sat", "time": "10:00am"}, {"days": "Sun", "time": "Closed"}], "id": "2432800000", "name": "USPS COLLECTION BOX - BLUE BOX", "address": {"city": "FANCY GAP", "state": "VA", "street": "7608 FANCY GAP HWY", "postcode": "24328"}}},
{"geometry": {"type": "Point", "coordinates": [-80.6942684022, 36.6720631058]}, "type": "Feature", "properties": {"collection_times": [{"days": "Mon-Fri", "time": "2:00pm"}, {"days": "Sat", "time": "10:00am"}, {"days": "Sun", "time": "Closed"}], "id": "2432800001", "name": "USPS COLLECTION BOX - PO LOBBY", "address": {"city": "FANCY GAP", "state": "VA", "street": "7608 FANCY GAP HWY", "postcode": "24328"}}},
{"geometry": {"type": "Point", "coordinates": [-80.9817351626, 36.7165672565]}, "type": "Feature", "properties": {"collection_times": [{"days": "Mon-Fri", "time": "4:00pm"}, {"days": "Sat", "time": "10:45am"}, {"days": "Sun", "time": "Closed"}], "id": "2433000000", "name": "USPS COLLECTION BOX - BLUE BOX", "address": {"city": "FRIES", "state": "VA", "street": "491 W MAIN ST", "postcode": "24330"}}},
{"geometry": {"type": "Point", "coordinates": [-80.9817351626, 36.7165672565]}, "type": "Feature", "properties": {"collection_times": [{"days": "Mon-Fri", "time": "4:00pm"}, {"days": "Sat", "time": "10:45am"}, {"days": "Sun", "time": "Closed"}], "id": "2433000001", "name": "USPS COLLECTION BOX - PO LOBBY", "address": {"city": "FRIES", "state": "VA", "street": "491 W MAIN ST", "postcode": "24330"}}},
{"geometry": {"type": "Point", "coordinates": [-80.8937241265, 36.6816029689]}, "type": "Feature", "properties": {"collection_times": [{"days": "Mon-Fri", "time": "12:00pm"}, {"days": "Sat-Sun", "time": "Closed"}], "id": "2433300000", "name": "USPS COLLECTION BOX - BLUE BOX", "address": {"city": "GALAX", "state": "VA", "street": "972 E STUART DR", "postcode": "24333"}}},
{"geometry": {"type": "Point", "coordinates": [-80.9248977511, 36.6619635441]}, "type": "Feature", "properties": {"collection_times": [{"days": "Mon-Fri", "time": "3:30pm"}, {"days": "Sat-Sun", "time": "Closed"}], "id": "2433300001", "name": "USPS COLLECTION BOX - BLUE BOX", "address": {"city": "GALAX", "state": "VA", "street": "101 N MAIN ST", "postcode": "24333"}}},
{"geometry": {"type": "Point", "coordinates": [-80.918289281, 36.6638257414]}, "type": "Feature", "properties": {"collection_times": [{"days": "Mon-Fri", "time": "4:45pm"}, {"days": "Sat", "time": "3:30pm"}, {"days": "Sun", "time": "Closed"}], "id": "2433300008", "name": "USPS COLLECTION BOX - BLUE BOX", "address": {"city": "GALAX", "state": "VA", "street": "200 E GRAYSON ST", "postcode": "24333"}}},
{"geometry": {"type": "Point", "coordinates": [-80.918289281, 36.6638257414]}, "type": "Feature", "properties": {"collection_times": [{"days": "Mon-Fri", "time": "4:45pm"}, {"days": "Sat", "time": "3:30pm"}, {"days": "Sun", "time": "Closed"}], "id": "2433300009", "name": "USPS COLLECTION BOX - BLUE BOX", "address": {"city": "GALAX", "state": "VA", "street": "200 E GRAYSON ST", "postcode": "24333"}}},
{"geometry": {"type": "Point", "coordinates": [-80.9213555267, 36.6725717929]}, "type": "Feature", "properties": {"collection_times": [{"days": "Mon-Fri", "time": "10:00am"}, {"days": "Sat-Sun", "time": "Closed"}], "id": "2433300017", "name": "USPS COLLECTION BOX - BLUE BOX", "address": {"city": "GALAX", "state": "VA", "street": "199 HOSPITAL DR", "postcode": "24333"}}},
{"geometry": {"type": "Point", "coordinates": [-80.918289281, 36.6638257414]}, "type": "Feature", "properties": {"collection_times": [{"days": "Mon-Fri", "time": "4:45pm"}, {"days": "Sat", "time": "3:30pm"}, {"days": "Sun", "time": "Closed"}], "id": "2433300018", "name": "USPS COLLECTION BOX - PO LOBBY", "address": {"city": "GALAX", "state": "VA", "street": "200 E GRAYSON ST", "postcode": "24333"}}},
{"geometry": {"type": "Point", "coordinates": [-81.7700752245, 36.7904957464]}, "type": "Feature", "properties": {"collection_times": [{"days": "Mon-Fri", "time": "4:30pm"}, {"days": "Sat", "time": "11:00am"}, {"days": "Sun", "time": "Closed"}], "id": "2434000000", "name": "USPS COLLECTION BOX - BLUE BOX", "address": {"city": "GLADE SPRING", "state": "VA", "street": "205 E GLADE ST", "postcode": "24340"}}},
{"geometry": {"type": "Point", "coordinates": [-81.7700752245, 36.7904957464]}, "type": "Feature", "properties": {"collection_times": [{"days": "Mon-Fri", "time": "4:30pm"}, {"days": "Sat", "time": "11:00am"}, {"days": "Sun", "time": "Closed"}], "id": "2434000001", "name": "USPS COLLECTION BOX - PO LOBBY", "address": {"city": "GLADE SPRING", "state": "VA", "street": "205 E GLADE ST", "postcode": "24340"}}},
{"geometry": {"type": "Point", "coordinates": [-81.7784350189, 36.7806367327]}, "type": "Feature", "properties": {"collection_times": [{"days": "Mon-Sat", "time": "2:00pm"}, {"days": "Sun", "time": "Closed"}], "id": "2434000002", "name": "USPS COLLECTION BOX - BLUE BOX", "address": {"city": "GLADE SPRING", "state": "VA", "street": "656 S MONTE VISTA DR", "postcode": "24340"}}},
{"geometry": {"type": "Point", "coordinates": [-81.780901917, 36.7700135241]}, "type": "Feature", "properties": {"collection_times": [{"days": "Mon-Sat", "time": "2:00pm"}, {"days": "Sun", "time": "Closed"}], "id": "2434000003", "name": "USPS COLLECTION BOX - BLUE BOX", "address": {"city": "GLADE SPRING", "state": "VA", "street": "12433 MAPLE ST", "postcode": "24340"}}},
{"geometry": {"type": "Point", "coordinates": [-80.7335481848, 36.7577693503]}, "type": "Feature", "properties": {"collection_times": [{"days": "Mon-Fri", "time": "4:45pm"}, {"days": "Sat", "time": "11:15am"}, {"days": "Sun", "time": "Closed"}], "id": "2434300001", "name": "USPS COLLECTION BOX - BLUE BOX", "address": {"city": "HILLSVILLE", "state": "VA", "street": "404 S MAIN ST", "postcode": "24343"}}},
{"geometry": {"type": "Point", "coordinates": [-80.7335481848, 36.7577693503]}, "type": "Feature", "properties": {"collection_times": [{"days": "Mon-Fri", "time": "4:45pm"}, {"days": "Sat", "time": "11:15am"}, {"days": "Sun", "time": "Closed"}], "id": "2434300002", "name": "USPS COLLECTION BOX - BLUE BOX", "address": {"city": "HILLSVILLE", "state": "VA", "street": "404 S MAIN ST", "postcode": "24343"}}},
{"geometry": {"type": "Point", "coordinates": [-80.7335481848, 36.7577693503]}, "type": "Feature", "properties": {"collection_times": [{"days": "Mon-Fri", "time": "4:45pm"}, {"days": "Sat", "time": "11:30am"}, {"days": "Sun", "time": "Closed"}], "id": "2434300003", "name": "USPS COLLECTION BOX - PO LOBBY", "address": {"city": "HILLSVILLE", "state": "VA", "street": "404 S MAIN ST", "postcode": "24343"}}},
{"geometry": {"type": "Point", "coordinates": [-80.7128932366, 36.9711596974]}, "type": "Feature", "properties": {"collection_times": [{"days": "Mon-Fri", "time": "11:15am"}, {"days": "Sat", "time": "10:30am"}, {"days": "Sun", "time": "Closed"}], "id": "2434700000", "name": "USPS COLLECTION BOX - BLUE BOX", "address": {"city": "HIWASSEE", "state": "VA", "street": "2298 JULIA SIMPKINS RD", "postcode": "24347"}}},
{"geometry": {"type": "Point", "coordinates": [-80.7128932366, 36.9711596974]}, "type": "Feature", "properties": {"collection_times": [{"days": "Mon-Fri", "time": "11:15am"}, {"days": "Sat", "time": "10:30am"}, {"days": "Sun", "time": "Closed"}], "id": "2434700001", "name": "USPS COLLECTION BOX - PO LOBBY", "address": {"city": "HIWASSEE", "state": "VA", "street": "2298 JULIA SIMPKINS RD", "postcode": "24347"}}},
{"geometry": {"type": "Point", "coordinates": [-81.1481770429, 36.6236550332]}, "type": "Feature", "properties": {"collection_times": [{"days": "Mon-Fri", "time": "4:00pm"}, {"days": "Sat", "time": "11:15am"}, {"days": "Sun", "time": "Closed"}], "id": "2434800000", "name": "USPS COLLECTION BOX - BLUE BOX", "address": {"city": "INDEPENDENCE", "state": "VA", "street": "301 DAVIS ST", "postcode": "24348"}}},
{"geometry": {"type": "Point", "coordinates": [-81.1414067515, 36.6213790359]}, "type": "Feature", "properties": {"collection_times": [{"days": "Mon-Sat", "time": "8:00am"}, {"days": "Sun", "time": "Closed"}], "id": "2434800001", "name": "USPS COLLECTION BOX - BLUE BOX", "address": {"city": "INDEPENDENCE", "state": "VA", "street": "572 E MAIN ST", "postcode": "24348"}}},
{"geometry": {"type": "Point", "coordinates": [-81.1481770429, 36.6236550332]}, "type": "Feature", "properties": {"collection_times": [{"days": "Mon-Fri", "time": "4:00pm"}, {"days": "Sat", "time": "11:30am"}, {"days": "Sun", "time": "Closed"}], "id": "2434800002", "name": "USPS COLLECTION BOX - PO LOBBY", "address": {"city": "INDEPENDENCE", "state": "VA", "street": "301 DAVIS ST", "postcode": "24348"}}},
{"geometry": {"type": "Point", "coordinates": [-80.7764359648, 36.6167558148]}, "type": "Feature", "properties": {"collection_times": [{"days": "Mon-Fri", "time": "9:45am"}, {"days": "Sat", "time": "11:30am"}, {"days": "Sun", "time": "Closed"}], "id": "2435100000", "name": "USPS COLLECTION BOX - BLUE BOX", "address": {"city": "LAMBSBURG", "state": "VA", "street": "3291 LAMBSBURG RD", "postcode": "24351"}}},
{"geometry": {"type": "Point", "coordinates": [-80.7764359648, 36.6167558148]}, "type": "Feature", "properties": {"collection_times": [{"days": "Mon-Fri", "time": "9:45am"}, {"days": "Sat", "time": "11:30am"}, {"days": "Sun", "time": "Closed"}], "id": "2435100001", "name": "USPS COLLECTION BOX - PO LOBBY", "address": {"city": "LAMBSBURG", "state": "VA", "street": "3291 LAMBSBURG RD", "postcode": "24351"}}},
{"geometry": {"type": "Point", "coordinates": [-80.5038511554, 36.7159808724]}, "type": "Feature", "properties": {"collection_times": [{"days": "Mon-Sat", "time": "10:45am"}, {"days": "Sun", "time": "Closed"}], "id": "2435200000", "name": "USPS COLLECTION BOX - BLUE BOX", "address": {"city": "LAUREL FORK", "state": "VA", "street": "14208 DANVILLE PIKE", "postcode": "24352"}}},
{"geometry": {"type": "Point", "coordinates": [-80.5038511554, 36.7159808724]}, "type": "Feature", "properties": {"collection_times": [{"days": "Mon-Sat", "time": "10:45am"}, {"days": "Sun", "time": "Closed"}], "id": "2435200001", "name": "USPS COLLECTION BOX - PO LOBBY", "address": {"city": "LAUREL FORK", "state": "VA", "street": "14208 DANVILLE PIKE", "postcode": "24352"}}},
{"geometry": {"type": "Point", "coordinates": [-81.5009971158, 36.8445623415]}, "type": "Feature", "properties": {"collection_times": [{"days": "Mon-Fri", "time": "4:30pm"}, {"days": "Sat", "time": "10:00am"}, {"days": "Sun", "time": "Closed"}], "id": "2435400002", "name": "USPS COLLECTION BOX - BLUE BOX", "address": {"city": "MARION", "state": "VA", "street": "1183 N MAIN ST", "postcode": "24354"}}},
{"geometry": {"type": "Point", "coordinates": [-81.4912031913, 36.8475124361]}, "type": "Feature", "properties": {"collection_times": [{"days": "Mon-Fri", "time": "5:00pm"}, {"days": "Sat", "time": "10:00am"}, {"days": "Sun", "time": "Closed"}], "id": "2435400003", "name": "USPS COLLECTION BOX - BLUE BOX", "address": {"city": "MARION", "state": "VA", "street": "1581 N MAIN ST", "postcode": "24354"}}},
{"geometry": {"type": "Point", "coordinates": [-81.4960108773, 36.8455037094]}, "type": "Feature", "properties": {"collection_times": [{"days": "Mon-Fri", "time": "5:00pm"}, {"days": "Sat", "time": "10:00am"}, {"days": "Sun", "time": "Closed"}], "id": "2435400004", "name": "USPS COLLECTION BOX - BLUE BOX", "address": {"city": "MARION", "state": "VA", "street": "1409 N MAIN ST", "postcode": "24354"}}},
{"geometry": {"type": "Point", "coordinates": [-81.5087504096, 36.8521394103]}, "type": "Feature", "properties": {"collection_times": [{"days": "Mon-Fri", "time": "4:30pm"}, {"days": "Sat", "time": "10:00am"}, {"days": "Sun", "time": "Closed"}], "id": "2435400005", "name": "USPS COLLECTION BOX - BLUE BOX", "address": {"city": "MARION", "state": "VA", "street": "590 RADIO HILL RD", "postcode": "24354"}}},
{"geometry": {"type": "Point", "coordinates": [-81.5197002455, 36.8329447176]}, "type": "Feature", "properties": {"collection_times": [{"days": "Mon-Fri", "time": "5:00pm"}, {"days": "Sat", "time": "10:00am"}, {"days": "Sun", "time": "Closed"}], "id": "2435400007", "name": "USPS COLLECTION BOX - BLUE BOX", "address": {"city": "MARION", "state": "VA", "street": "102 W MAIN ST", "postcode": "24354"}}},
{"geometry": {"type": "Point", "coordinates": [-81.5197002455, 36.8329447176]}, "type": "Feature", "properties": {"collection_times": [{"days": "Mon-Fri", "time": "5:00pm"}, {"days": "Sat", "time": "10:00am"}, {"days": "Sun", "time": "Closed"}], "id": "2435400010", "name": "USPS COLLECTION BOX - BLUE BOX", "address": {"city": "MARION", "state": "VA", "street": "102 W MAIN ST", "postcode": "24354"}}},
{"geometry": {"type": "Point", "coordinates": [-81.5275361977, 36.8385522353]}, "type": "Feature", "properties": {"collection_times": [{"days": "Mon-Fri", "time": "12:00pm"}, {"days": "Sat", "time": "10:00am"}, {"days": "Sun", "time": "Closed"}], "id": "2435400014", "name": "USPS COLLECTION BOX - BLUE BOX", "address": {"city": "MARION", "state": "VA", "street": "91 MARION MANOR DR", "postcode": "24354"}}},
{"geometry": {"type": "Point", "coordinates": [-81.5068062917, 36.8382560752]}, "type": "Feature", "properties": {"collection_times": [{"days": "Mon-Fri", "time": "4:30pm"}, {"days": "Sat", "time": "10:00am"}, {"days": "Sun", "time": "Closed"}], "id": "2435400017", "name": "USPS COLLECTION BOX - BLUE BOX", "address": {"city": "MARION", "state": "VA", "street": "131 DABNY DR", "postcode": "24354"}}},
{"geometry": {"type": "Point", "coordinates": [-81.5176708436, 36.8337891071]}, "type": "Feature", "properties": {"collection_times": [{"days": "Mon-Fri", "time": "5:15pm"}, {"days": "Sat", "time": "10:00am"}, {"days": "Sun", "time": "Closed"}], "id": "2435400018", "name": "USPS COLLECTION BOX - BLUE BOX", "address": {"city": "MARION", "state": "VA", "street": "200 PEARL AVE", "postcode": "24354"}}},
{"geometry": {"type": "Point", "coordinates": [-81.5176708436, 36.8337891071]}, "type": "Feature", "properties": {"collection_times": [{"days": "Mon-Fri", "time": "5:15pm"}, {"days": "Sat", "time": "10:00am"}, {"days": "Sun", "time": "Closed"}], "id": "2435400020", "name": "USPS COLLECTION BOX - PO LOBBY", "address": {"city": "MARION", "state": "VA", "street": "200 PEARL AVE", "postcode": "24354"}}},
{"geometry": {"type": "Point", "coordinates": [-81.512842549, 36.8331286203]}, "type": "Feature", "properties": {"collection_times": [{"days": "Mon-Sat", "time": "10:00am"}, {"days": "Sun", "time": "Closed"}], "id": "2435400022", "name": "USPS COLLECTION BOX - BLUE BOX", "address": {"city": "MARION", "state": "VA", "street": "121 BAGLEY CIR", "postcode": "24354"}}},
{"geometry": {"type": "Point", "coordinates": [-81.5048154218, 36.8468007585]}, "type": "Feature", "properties": {"collection_times": [{"days": "Mon-Fri", "time": "4:30pm"}, {"days": "Sat", "time": "10:00am"}, {"days": "Sun", "time": "Closed"}], "id": "2435400023", "name": "USPS COLLECTION BOX - BLUE BOX", "address": {"city": "MARION", "state": "VA", "street": "1020 TERRACE DR", "postcode": "24354"}}},
{"geometry": {"type": "Point", "coordinates": [-80.9188025733, 36.9648742733]}, "type": "Feature", "properties": {"collection_times": [{"days": "Mon-Fri", "time": "4:30pm"}, {"days": "Sat", "time": "11:00am"}, {"days": "Sun", "time": "Closed"}], "id": "2436000000", "name": "USPS COLLECTION BOX - BLUE BOX", "address": {"city": "MAX MEADOWS", "state": "VA", "street": "1427 RAMSEY MOUNTAIN RD", "postcode": "24360"}}},
{"geometry": {"type": "Point", "coordinates": [-80.9119680996, 36.9411753756]}, "type": "Feature", "properties": {"collection_times": [{"days": "Mon-Sat", "time": "1:00pm"}, {"days": "Sun", "time": "Closed"}], "id": "2436000001", "name": "USPS COLLECTION BOX - BLUE BOX", "address": {"city": "MAX MEADOWS", "state": "VA", "street": "139 FACTORY OUTLET DR", "postcode": "24360"}}},
{"geometry": {"type": "Point", "coordinates": [-80.879133118, 36.8761063379]}, "type": "Feature", "properties": {"collection_times": [{"days": "Mon-Sat", "time": "12:30pm"}, {"days": "Sun", "time": "Closed"}], "id": "2436000003", "name": "USPS COLLECTION BOX - BLUE BOX", "address": {"city": "MAX MEADOWS", "state": "VA", "street": "787 FORT CHISWELL RD", "postcode": "24360"}}},
{"geometry": {"type": "Point", "coordinates": [-80.9188025733, 36.9648742733]}, "type": "Feature", "properties": {"collection_times": [{"days": "Mon-Fri", "time": "4:30pm"}, {"days": "Sat", "time": "11:00am"}, {"days": "Sun", "time": "Closed"}], "id": "2436000005", "name": "USPS COLLECTION BOX - PO LOBBY", "address": {"city": "MAX MEADOWS", "state": "VA", "street": "1427 RAMSEY MOUNTAIN RD", "postcode": "24360"}}},
{"geometry": {"type": "Point", "coordinates": [-81.8608959253, 36.7620770641]}, "type": "Feature", "properties": {"collection_times": [{"days": "Mon-Fri", "time": "4:30pm"}, {"days": "Sat", "time": "11:30am"}, {"days": "Sun", "time": "Closed"}], "id": "2436100001", "name": "USPS COLLECTION BOX - PO LOBBY", "address": {"city": "MEADOWVIEW", "state": "VA", "street": "29063 WALKER LN", "postcode": "24361"}}},
{"geometry": {"type": "Point", "coordinates": [-81.3319717709, 36.586045805]}, "type": "Feature", "properties": {"collection_times": [{"days": "Mon-Fri", "time": "11:15am"}, {"days": "Sat", "time": "11:00am"}, {"days": "Sun", "time": "Closed"}], "id": "2436300000", "name": "USPS COLLECTION BOX - BLUE BOX", "address": {"city": "MOUTH OF WILSON", "state": "VA", "street": "700 TROUTDALE HWY", "postcode": "24363"}}},
{"geometry": {"type": "Point", "coordinates": [-81.3319717709, 36.586045805]}, "type": "Feature", "properties": {"collection_times": [{"days": "Mon-Fri", "time": "11:15am"}, {"days": "Sat", "time": "11:00am"}, {"days": "Sun", "time": "Closed"}], "id": "2436300001", "name": "USPS COLLECTION BOX - PO LOBBY", "address": {"city": "MOUTH OF WILSON", "state": "VA", "street": "700 TROUTDALE HWY", "postcode": "24363"}}},
{"geometry": {"type": "Point", "coordinates": [-81.1933787247, 37.2292551656]}, "type": "Feature", "properties": {"collection_times": [{"days": "Mon-Fri", "time": "3:30pm"}, {"days": "Sat", "time": "11:00am"}, {"days": "Sun", "time": "Closed"}], "id": "2436600000", "name": "USPS COLLECTION BOX - BLUE BOX", "address": {"city": "ROCKY GAP", "state": "VA", "street": "12797 N SCENIC HWY", "postcode": "24366"}}},
{"geometry": {"type": "Point", "coordinates": [-81.1933787247, 37.2292551656]}, "type": "Feature", "properties": {"collection_times": [{"days": "Mon-Fri", "time": "3:15pm"}, {"days": "Sat", "time": "11:00am"}, {"days": "Sun", "time": "Closed"}], "id": "2436600001", "name": "USPS COLLECTION BOX - PO LOBBY", "address": {"city": "ROCKY GAP", "state": "VA", "street": "12797 N SCENIC HWY", "postcode": "24366"}}},
{"geometry": {"type": "Point", "coordinates": [-81.2761205167, 36.8910704676]}, "type": "Feature", "properties": {"collection_times": [{"days": "Mon-Fri", "time": "4:45pm"}, {"days": "Sat", "time": "10:45am"}, {"days": "Sun", "time": "Closed"}], "id": "2436800000", "name": "USPS COLLECTION BOX - BLUE BOX", "address": {"city": "RURAL RETREAT", "state": "VA", "street": "405 S MAIN ST", "postcode": "24368"}}},
{"geometry": {"type": "Point", "coordinates": [-81.2761205167, 36.8910704676]}, "type": "Feature", "properties": {"collection_times": [{"days": "Mon-Fri", "time": "4:45pm"}, {"days": "Sat", "time": "10:45am"}, {"days": "Sun", "time": "Closed"}], "id": "2436800001", "name": "USPS COLLECTION BOX - PO LOBBY", "address": {"city": "RURAL RETREAT", "state": "VA", "street": "405 S MAIN ST", "postcode": "24368"}}},
{"geometry": {"type": "Point", "coordinates": [-81.7646913891, 36.8793405059]}, "type": "Feature", "properties": {"collection_times": [{"days": "Mon-Fri", "time": "4:15pm"}, {"days": "Sat", "time": "11:00am"}, {"days": "Sun", "time": "Closed"}], "id": "2437000000", "name": "USPS COLLECTION BOX - BLUE BOX", "address": {"city": "SALTVILLE", "state": "VA", "street": "146 PALMER AVE", "postcode": "24370"}}},
{"geometry": {"type": "Point", "coordinates": [-81.7646913891, 36.8793405059]}, "type": "Feature", "properties": {"collection_times": [{"days": "Mon-Fri", "time": "4:30pm"}, {"days": "Sat", "time": "11:00am"}, {"days": "Sun", "time": "Closed"}], "id": "2437000001", "name": "USPS COLLECTION BOX - PO LOBBY", "address": {"city": "SALTVILLE", "state": "VA", "street": "146 PALMER AVE", "postcode": "24370"}}},
{"geometry": {"type": "Point", "coordinates": [-81.1836075853, 36.7786553536]}, "type": "Feature", "properties": {"collection_times": [{"days": "Mon-Fri", "time": "12:00pm"}, {"days": "Sat", "time": "10:30am"}, {"days": "Sun", "time": "Closed"}], "id": "2437400000", "name": "USPS COLLECTION BOX - BLUE BOX", "address": {"city": "SPEEDWELL", "state": "VA", "street": "6766 GRAYSON TPKE", "postcode": "24374"}}},
{"geometry": {"type": "Point", "coordinates": [-81.1836075853, 36.7786553536]}, "type": "Feature", "properties": {"collection_times": [{"days": "Mon-Fri", "time": "12:00pm"}, {"days": "Sat", "time": "10:30am"}, {"days": "Sun", "time": "Closed"}], "id": "2437400001", "name": "USPS COLLECTION BOX - PO LOBBY", "address": {"city": "SPEEDWELL", "state": "VA", "street": "6766 GRAYSON TPKE", "postcode": "24374"}}},
{"geometry": {"type": "Point", "coordinates": [-81.4190467016, 36.7661280283]}, "type": "Feature", "properties": {"collection_times": [{"days": "Mon-Fri", "time": "3:30pm"}, {"days": "Sat", "time": "10:30am"}, {"days": "Sun", "time": "Closed"}], "id": "2437500000", "name": "USPS COLLECTION BOX - BLUE BOX", "address": {"city": "SUGAR GROVE", "state": "VA", "street": "5444 SUGAR GROVE HWY", "postcode": "24375"}}},
{"geometry": {"type": "Point", "coordinates": [-81.4190467016, 36.7661280283]}, "type": "Feature", "properties": {"collection_times": [{"days": "Mon-Fri", "time": "3:30pm"}, {"days": "Sat", "time": "10:30am"}, {"days": "Sun", "time": "Closed"}], "id": "2437500001", "name": "USPS COLLECTION BOX - PO LOBBY", "address": {"city": "SUGAR GROVE", "state": "VA", "street": "5444 SUGAR GROVE HWY", "postcode": "24375"}}},
{"geometry": {"type": "Point", "coordinates": [-81.6516315729, 36.9567010994]}, "type": "Feature", "properties": {"collection_times": [{"days": "Mon-Fri", "time": "11:50am"}, {"days": "Sat", "time": "11:00am"}, {"days": "Sun", "time": "Closed"}], "id": "2437700000", "name": "USPS COLLECTION BOX - BLUE BOX", "address": {"city": "TANNERSVILLE", "state": "VA", "street": "1347 FREESTONE VALLEY RD", "postcode": "24377"}}},
{"geometry": {"type": "Point", "coordinates": [-81.439819278, 36.7022804764]}, "type": "Feature", "properties": {"collection_times": [{"days": "Mon-Fri", "time": "11:50am"}, {"days": "Sat", "time": "11:00am"}, {"days": "Sun", "time": "Closed"}], "id": "2437800000", "name": "USPS COLLECTION BOX - BLUE BOX", "address": {"city": "TROUT DALE", "state": "VA", "street": "93 RIPSHIN RD", "postcode": "24378"}}},
{"geometry": {"type": "Point", "coordinates": [-81.439819278, 36.7022804764]}, "type": "Feature", "properties": {"collection_times": [{"days": "Mon-Fri", "time": "11:50am"}, {"days": "Sat", "time": "11:00am"}, {"days": "Sun", "time": "Closed"}], "id": "2437800001", "name": "USPS COLLECTION BOX - PO LOBBY", "address": {"city": "TROUT DALE", "state": "VA", "street": "93 RIPSHIN RD", "postcode": "24378"}}},
{"geometry": {"type": "Point", "coordinates": [-80.4793928827, 36.8592553206]}, "type": "Feature", "properties": {"collection_times": [{"days": "Mon-Fri", "time": "1:30pm"}, {"days": "Sat", "time": "10:30am"}, {"days": "Sun", "time": "Closed"}], "id": "2438000000", "name": "USPS COLLECTION BOX - BLUE BOX", "address": {"city": "WILLIS", "state": "VA", "street": "5598 FLOYD HWY S", "postcode": "24380"}}},
{"geometry": {"type": "Point", "coordinates": [-80.495069995, 36.8603909606]}, "type": "Feature", "properties": {"collection_times": [{"days": "Mon-Fri", "time": "1:30pm"}, {"days": "Sat", "time": "10:30am"}, {"days": "Sun", "time": "Closed"}], "id": "2438000001", "name": "USPS COLLECTION BOX - PO LOBBY", "address": {"city": "WILLIS", "state": "VA", "street": "5598 FLOYD HWY S", "postcode": "24380"}}},
{"geometry": {"type": "Point", "coordinates": [-80.8221689015, 36.719747527]}, "type": "Feature", "properties": {"collection_times": [{"days": "Mon-Fri", "time": "4:00pm"}, {"days": "Sat", "time": "10:15am"}, {"days": "Sun", "time": "Closed"}], "id": "2438100000", "name": "USPS COLLECTION BOX - BLUE BOX", "address": {"city": "WOODLAWN", "state": "VA", "street": "32 COULSON CHURCH RD", "postcode": "24381"}}},
{"geometry": {"type": "Point", "coordinates": [-80.8221689015, 36.719747527]}, "type": "Feature", "properties": {"collection_times": [{"days": "Mon-Fri", "time": "3:45pm"}, {"days": "Sat", "time": "10:30am"}, {"days": "Sun", "time": "Closed"}], "id": "2438100001", "name": "USPS COLLECTION BOX - PO LOBBY", "address": {"city": "WOODLAWN", "state": "VA", "street": "32 COULSON CHURCH RD", "postcode": "24381"}}},
{"geometry": {"type": "Point", "coordinates": [-81.0239179797, 36.9426867194]}, "type": "Feature", "properties": {"collection_times": [{"days": "Mon-Sat", "time": "11:30am"}, {"days": "Sun", "time": "Closed"}], "id": "2438200001", "name": "USPS COLLECTION BOX - BLUE BOX", "address": {"city": "WYTHEVILLE", "state": "VA", "street": "1318 E LEE HWY", "postcode": "24382"}}},
{"geometry": {"type": "Point", "coordinates": [-81.0722796782, 36.9521405314]}, "type": "Feature", "properties": {"collection_times": [{"days": "Mon-Fri", "time": "9:00am"}, {"days": "Sat-Sun", "time": "Closed"}], "id": "2438200015", "name": "USPS COLLECTION BOX - BLUE BOX", "address": {"city": "WYTHEVILLE", "state": "VA", "street": "1055 E MAIN ST", "postcode": "24382"}}},
{"geometry": {"type": "Point", "coordinates": [-81.0845433701, 36.9462469458]}, "type": "Feature", "properties": {"collection_times": [{"days": "Mon-Fri", "time": "2:00pm"}, {"days": "Sat-Sun", "time": "Closed"}], "id": "2438200025", "name": "USPS COLLECTION BOX - BLUE BOX", "address": {"city": "WYTHEVILLE", "state": "VA", "street": "285 S 6TH ST", "postcode": "24382"}}},
{"geometry": {"type": "Point", "coordinates": [-81.0838948866, 36.9508866529]}, "type": "Feature", "properties": {"collection_times": [{"days": "Mon-Fri", "time": "2:00pm"}, {"days": "Sat-Sun", "time": "Closed"}], "id": "2438200026", "name": "USPS COLLECTION BOX - BLUE BOX", "address": {"city": "WYTHEVILLE", "state": "VA", "street": "150 E MONROE ST", "postcode": "24382"}}},
{"geometry": {"type": "Point", "coordinates": [-81.0860480496, 36.9480000804]}, "type": "Feature", "properties": {"collection_times": [{"days": "Mon-Fri", "time": "5:00pm"}, {"days": "Sat", "time": "4:00pm"}, {"days": "Sun", "time": "Closed"}], "id": "2438200030", "name": "USPS COLLECTION BOX - BLUE BOX", "address": {"city": "WYTHEVILLE", "state": "VA", "street": "380 W MAIN ST", "postcode": "24382"}}},
{"geometry": {"type": "Point", "coordinates": [-81.0860480496, 36.9480000804]}, "type": "Feature", "properties": {"collection_times": [{"days": "Mon-Fri", "time": "5:00pm"}, {"days": "Sat", "time": "4:00pm"}, {"days": "Sun", "time": "Closed"}], "id": "2438200032", "name": "USPS COLLECTION BOX - BLUE BOX", "address": {"city": "WYTHEVILLE", "state": "VA", "street": "380 W MAIN ST", "postcode": "24382"}}},
{"geometry": {"type": "Point", "coordinates": [-81.034959792, 36.9462011057]}, "type": "Feature", "properties": {"collection_times": [{"days": "Mon-Sat", "time": "11:00am"}, {"days": "Sun", "time": "Closed"}], "id": "2438200033", "name": "USPS COLLECTION BOX - BLUE BOX", "address": {"city": "WYTHEVILLE", "state": "VA", "street": "3249 CHAPMAN RD", "postcode": "24382"}}},
{"geometry": {"type": "Point", "coordinates": [-81.0693295429, 36.9657932881]}, "type": "Feature", "properties": {"collection_times": [{"days": "Mon-Sat", "time": "9:00am"}, {"days": "Sun", "time": "Closed"}], "id": "2438200034", "name": "USPS COLLECTION BOX - BLUE BOX", "address": {"city": "WYTHEVILLE", "state": "VA", "street": "1025 PEPPERS FERRY RD", "postcode": "24382"}}},
{"geometry": {"type": "Point", "coordinates": [-81.0860480496, 36.9480000804]}, "type": "Feature", "properties": {"collection_times": [{"days": "Mon-Fri", "time": "5:00pm"}, {"days": "Sat", "time": "4:00pm"}, {"days": "Sun", "time": "Closed"}], "id": "2438200035", "name": "USPS COLLECTION BOX - PO LOBBY", "address": {"city": "WYTHEVILLE", "state": "VA", "street": "380 W MAIN ST", "postcode": "24382"}}},
{"geometry": {"type": "Point", "coordinates": [-81.0860480496, 36.9480000804]}, "type": "Feature", "properties": {"collection_times": [{"days": "Mon-Fri", "time": "5:00pm"}, {"days": "Sat", "time": "4:00pm"}, {"days": "Sun", "time": "Closed"}], "id": "2438200039", "name": "USPS COLLECTION BOX - BLUE BOX", "address": {"city": "WYTHEVILLE", "state": "VA", "street": "380 W MAIN ST", "postcode": "24382"}}}
]}
