{"type": "FeatureCollection", "features": [
{"geometry": {"type": "Point", "coordinates": [-79.066341469, 38.139553316]}, "type": "Feature", "properties": {"collection_times": [{"days": "Mon-Fri", "time": "4:30pm"}, {"days": "Sat", "time": "4:00pm"}, {"days": "Sun", "time": "Closed"}], "id": "2440100001", "name": "USPS COLLECTION BOX - BLUE BOX", "address": {"city": "STAUNTON", "state": "VA", "street": "850 STATLER BLVD", "postcode": "24401"}}},
{"geometry": {"type": "Point", "coordinates": [-79.071772794, 38.14960826]}, "type": "Feature", "properties": {"collection_times": [{"days": "Mon-Fri", "time": "5:00pm"}, {"days": "Sat-Sun", "time": "Closed"}], "id": "2440100003", "name": "USPS COLLECTION BOX - BLUE BOX", "address": {"city": "STAUNTON", "state": "VA", "street": "23 E BEVERLEY ST", "postcode": "24401"}}},
{"geometry": {"type": "Point", "coordinates": [-79.07303039, 38.148488195]}, "type": "Feature", "properties": {"collection_times": [{"days": "Mon-Fri", "time": "5:00pm"}, {"days": "Sat-Sun", "time": "Closed"}], "id": "2440100004", "name": "USPS COLLECTION BOX - BLUE BOX", "address": {"city": "STAUNTON", "state": "VA", "street": "15 W JOHNSON ST", "postcode": "24401"}}},
{"geometry": {"type": "Point", "coordinates": [-79.073733338, 38.149469556]}, "type": "Feature", "properties": {"collection_times": [{"days": "Mon-Fri", "time": "5:00pm"}, {"days": "Sat", "time": "4:00pm"}, {"days": "Sun", "time": "Closed"}], "id": "2440100005", "name": "USPS COLLECTION BOX - BLUE BOX", "address": {"city": "STAUNTON", "state": "VA", "street": "2 N CENTRAL AVE", "postcode": "24401"}}},
{"geometry": {"type": "Point", "coordinates": [-79.07453158, 38.150407808]}, "type": "Feature", "properties": {"collection_times": [{"days": "Mon-Fri", "time": "4:30pm"}, {"days": "Sat-Sun", "time": "Closed"}], "id": "2440100007", "name": "USPS COLLECTION BOX - PO LOBBY", "address": {"city": "STAUNTON", "state": "VA", "street": "123 W FREDERICK ST", "postcode": "24401"}}},
{"geometry": {"type": "Point", "coordinates": [-79.075303095, 38.150280345]}, "type": "Feature", "properties": {"collection_times": [{"days": "Mon-Fri", "time": "5:00pm"}, {"days": "Sat", "time": "4:00pm"}, {"days": "Sun", "time": "Closed"}], "id": "2440100008", "name": "USPS COLLECTION BOX - BLUE BOX", "address": {"city": "STAUNTON", "state": "VA", "street": "210 W FREDERICK ST", "postcode": "24401"}}},
{"geometry": {"type": "Point", "coordinates": [-79.057035097, 38.167796964]}, "type": "Feature", "properties": {"collection_times": [{"days": "Mon-Fri", "time": "5:00pm"}, {"days": "Sat", "time": "4:00pm"}, {"days": "Sun", "time": "Closed"}], "id": "2440100012", "name": "USPS COLLECTION BOX - BLUE BOX", "address": {"city": "STAUNTON", "state": "VA", "street": "2209 N AUGUSTA ST", "postcode": "24401"}}},
{"geometry": {"type": "Point", "coordinates": [-79.066513966, 38.163361401]}, "type": "Feature", "properties": {"collection_times": [{"days": "Mon-Sat", "time": "5:30pm"}, {"days": "Sun", "time": "Closed"}], "id": "2440100013", "name": "USPS COLLECTION BOX - BLUE BOX", "address": {"city": "STAUNTON", "state": "VA", "street": "1430 N AUGUSTA ST", "postcode": "24401"}}},
{"geometry": {"type": "Point", "coordinates": [-79.051845892, 38.167725109]}, "type": "Feature", "properties": {"collection_times": [{"days": "Mon-Sat", "time": "9:00am"}, {"days": "Sun", "time": "Closed"}], "id": "2440100017", "name": "USPS COLLECTION BOX - BLUE BOX", "address": {"city": "STAUNTON", "state": "VA", "street": "1600 N COALTER ST", "postcode": "24401"}}},
{"geometry": {"type": "Point", "coordinates": [-79.04800084, 38.138127884]}, "type": "Feature", "properties": {"collection_times": [{"days": "Mon-Fri", "time": "4:30pm"}, {"days": "Sat", "time": "4:00pm"}, {"days": "Sun", "time": "Closed"}], "id": "2440100024", "name": "USPS COLLECTION BOX - BLUE BOX", "address": {"city": "STAUNTON", "state": "VA", "street": "101 COMMUNITY WAY", "postcode": "24401"}}},
{"geometry": {"type": "Point", "coordinates": [-79.066513966, 38.163361401]}, "type": "Feature", "properties": {"collection_times": [{"days": "Mon-Fri", "time": "5:30pm"}, {"days": "Sat-Sun", "time": "Closed"}], "id": "2440100028", "name": "USPS COLLECTION BOX - EXPRESS", "address": {"city": "STAUNTON", "state": "VA", "street": "1430 N AUGUSTA ST", "postcode": "24401"}}},
{"geometry": {"type": "Point", "coordinates": [-79.075303095, 38.150280345]}, "type": "Feature", "properties": {"collection_times": [{"days": "Mon-Fri", "time": "5:00pm"}, {"days": "Sat", "time": "4:00pm"}, {"days": "Sun", "time": "Closed"}], "id": "2440100034", "name": "USPS COLLECTION BOX - BLUE BOX", "address": {"city": "STAUNTON", "state": "VA", "street": "210 W. FREDERICK ST", "postcode": "24401"}}},
{"geometry": {"type": "Point", "coordinates": [-79.06305803, 38.129320238]}, "type": "Feature", "properties": {"collection_times": [{"days": "Mon-Fri", "time": "4:30pm"}, {"days": "Sat", "time": "4:00pm"}, {"days": "Sun", "time": "Closed"}], "id": "2440100035", "name": "USPS COLLECTION BOX - BLUE BOX", "address": {"city": "STAUNTON", "state": "VA", "street": "1331 GREENVILLE AVE", "postcode": "24401"}}},
{"geometry": {"type": "Point", "coordinates": [-79.066513966, 38.163361401]}, "type": "Feature", "properties": {"collection_times": [{"days": "Mon-Sat", "time": "5:30pm"}, {"days": "Sun", "time": "Closed"}], "id": "2440100036", "name": "USPS COLLECTION BOX - PO LOBBY", "address": {"city": "STAUNTON", "state": "VA", "street": "1430 N AUGUSTA ST", "postcode": "24401"}}},
{"geometry": {"type": "Point", "coordinates": [-79.3185392379, 38.1020618689]}, "type": "Feature", "properties": {"collection_times": [{"days": "Mon-Fri", "time": "1:30pm"}, {"days": "Sat", "time": "12:30pm"}, {"days": "Sun", "time": "Closed"}], "id": "2441100000", "name": "USPS COLLECTION BOX - BLUE BOX", "address": {"city": "AUGUSTA SPRINGS", "state": "VA", "street": "10 OLD WHITETAIL LN", "postcode": "24411"}}},
{"geometry": {"type": "Point", "coordinates": [-79.3223086451, 38.1021433537]}, "type": "Feature", "properties": {"collection_times": [{"days": "Mon-Fri", "time": "1:30pm"}, {"days": "Sat", "time": "12:30pm"}, {"days": "Sun", "time": "Closed"}], "id": "2441100001", "name": "USPS COLLECTION BOX - PO LOBBY", "address": {"city": "AUGUSTA SPRINGS", "state": "VA", "street": "10 OLD WHITETAIL LN", "postcode": "24411"}}},
{"geometry": {"type": "Point", "coordinates": [-79.8425796037, 38.0543613282]}, "type": "Feature", "properties": {"collection_times": [{"days": "Mon-Fri", "time": "2:15pm"}, {"days": "Sat", "time": "11:15am"}, {"days": "Sun", "time": "Closed"}], "id": "2441200001", "name": "USPS COLLECTION BOX - PO LOBBY", "address": {"city": "BACOVA", "state": "VA", "street": "23 POST OFFICE DR", "postcode": "24412"}}},
{"geometry": {"type": "Point", "coordinates": [-79.5587594994, 38.4975910405]}, "type": "Feature", "properties": {"collection_times": [{"days": "Mon-Fri", "time": "4:00pm"}, {"days": "Sat", "time": "11:00am"}, {"days": "Sun", "time": "Closed"}], "id": "2441300000", "name": "USPS COLLECTION BOX - BLUE BOX", "address": {"city": "BLUE GRASS", "state": "VA", "street": "2741 BLUE GRASS VALLEY RD", "postcode": "24413"}}},
{"geometry": {"type": "Point", "coordinates": [-79.5587594994, 38.4975910405]}, "type": "Feature", "properties": {"collection_times": [{"days": "Mon-Fri", "time": "4:15pm"}, {"days": "Sat", "time": "11:15am"}, {"days": "Sun", "time": "Closed"}], "id": "2441300001", "name": "USPS COLLECTION BOX - PO LOBBY", "address": {"city": "BLUE GRASS", "state": "VA", "street": "2741 BLUE GRASS VALLEY RD", "postcode": "24413"}}},
{"geometry": {"type": "Point", "coordinates": [-79.3189977509, 37.9289731595]}, "type": "Feature", "properties": {"collection_times": [{"days": "Mon-Sat", "time": "1:30pm"}, {"days": "Sun", "time": "Closed"}], "id": "2441500000", "name": "USPS COLLECTION BOX - BLUE BOX", "address": {"city": "BROWNSBURG", "state": "VA", "street": "2741 BROWNSBURG TPKE", "postcode": "24415"}}},
{"geometry": {"type": "Point", "coordinates": [-79.3189977509, 37.9289731595]}, "type": "Feature", "properties": {"collection_times": [{"days": "Mon-Sat", "time": "1:30pm"}, {"days": "Sun", "time": "Closed"}], "id": "2441500002", "name": "USPS COLLECTION BOX - PO LOBBY", "address": {"city": "BROWNSBURG", "state": "VA", "street": "2741 BROWNSBURG TPKE", "postcode": "24415"}}},
{"geometry": {"type": "Point", "coordinates": [-79.3557489376, 37.7340433681]}, "type": "Feature", "properties": {"collection_times": [{"days": "Mon-Sat", "time": "5:00pm"}, {"days": "Sun", "time": "Closed"}], "id": "2441600007", "name": "USPS COLLECTION BOX - BLUE BOX", "address": {"city": "BUENA VISTA", "state": "VA", "street": "2039 SYCAMORE AVE", "postcode": "24416"}}},
{"geometry": {"type": "Point", "coordinates": [-79.3533878866, 37.7338294953]}, "type": "Feature", "properties": {"collection_times": [{"days": "Mon-Sat", "time": "5:00pm"}, {"days": "Sun", "time": "Closed"}], "id": "2441600010", "name": "USPS COLLECTION BOX - PO LOBBY", "address": {"city": "BUENA VISTA", "state": "VA", "street": "2071 FOREST AVE", "postcode": "24416"}}},
{"geometry": {"type": "Point", "coordinates": [-79.3533878866, 37.7338294953]}, "type": "Feature", "properties": {"collection_times": [{"days": "Mon-Sat", "time": "5:00pm"}, {"days": "Sun", "time": "Closed"}], "id": "2441600012", "name": "USPS COLLECTION BOX - BLUE BOX", "address": {"city": "BUENA VISTA", "state": "VA", "street": "2071 FOREST AVE", "postcode": "24416"}}},
{"geometry": {"type": "Point", "coordinates": [-79.3533878866, 37.7338294953]}, "type": "Feature", "properties": {"collection_times": [{"days": "Mon-Sat", "time": "5:00pm"}, {"days": "Sun", "time": "Closed"}], "id": "2441600014", "name": "USPS COLLECTION BOX - PO LOBBY", "address": {"city": "BUENA VISTA", "state": "VA", "street": "2071 FOREST AVE", "postcode": "24416"}}},
{"geometry": {"type": "Point", "coordinates": [-79.1409685799, 38.2190562049]}, "type": "Feature", "properties": {"collection_times": [{"days": "Mon-Fri", "time": "4:00pm"}, {"days": "Sat", "time": "10:30am"}, {"days": "Sun", "time": "Closed"}], "id": "2442100000", "name": "USPS COLLECTION BOX - BLUE BOX", "address": {"city": "CHURCHVILLE", "state": "VA", "street": "3696 CHURCHVILLE AVE", "postcode": "24421"}}},
{"geometry": {"type": "Point", "coordinates": [-79.1409685799, 38.2190562049]}, "type": "Feature", "properties": {"collection_times": [{"days": "Mon-Fri", "time": "4:00pm"}, {"days": "Sat", "time": "10:30am"}, {"days": "Sun", "time": "Closed"}], "id": "2442100001", "name": "USPS COLLECTION BOX - PO LOBBY", "address": {"city": "CHURCHVILLE", "state": "VA", "street": "3696 CHURCHVILLE AVE", "postcode": "24421"}}},
{"geometry": {"type": "Point", "coordinates": [-79.8258193267, 37.8165187402]}, "type": "Feature", "properties": {"collection_times": [{"days": "Mon-Fri", "time": "5:00pm"}, {"days": "Sat", "time": "12:00pm"}, {"days": "Sun", "time": "Closed"}], "id": "2442200007", "name": "USPS COLLECTION BOX - BLUE BOX", "address": {"city": "CLIFTON FORGE", "state": "VA", "street": "324 COMMERCIAL AVE", "postcode": "24422"}}},
{"geometry": {"type": "Point", "coordinates": [-79.8235932525, 37.8158822168]}, "type": "Feature", "properties": {"collection_times": [{"days": "Mon-Fri", "time": "3:00pm"}, {"days": "Sat", "time": "12:00pm"}, {"days": "Sun", "time": "Closed"}], "id": "2442200011", "name": "USPS COLLECTION BOX - BLUE BOX", "address": {"city": "CLIFTON FORGE", "state": "VA", "street": "601 MAIN ST", "postcode": "24422"}}},
{"geometry": {"type": "Point", "coordinates": [-79.8094079558, 37.8158228998]}, "type": "Feature", "properties": {"collection_times": [{"days": "Mon-Sat", "time": "12:00pm"}, {"days": "Sun", "time": "Closed"}], "id": "2442200013", "name": "USPS COLLECTION BOX - BLUE BOX", "address": {"city": "CLIFTON FORGE", "state": "VA", "street": "1516 MAIN ST", "postcode": "24422"}}},
{"geometry": {"type": "Point", "coordinates": [-79.8258193267, 37.8165187402]}, "type": "Feature", "properties": {"collection_times": [{"days": "Mon-Fri", "time": "5:00pm"}, {"days": "Sat", "time": "12:00pm"}, {"days": "Sun", "time": "Closed"}], "id": "2442200016", "name": "USPS COLLECTION BOX - PO LOBBY", "address": {"city": "CLIFTON FORGE", "state": "VA", "street": "324 COMMERCIAL AVE", "postcode": "24422"}}},
{"geometry": {"type": "Point", "coordinates": [-79.9847847607, 37.7777842976]}, "type": "Feature", "properties": {"collection_times": [{"days": "Mon-Fri", "time": "4:00pm"}, {"days": "Sat", "time": "3:00pm"}, {"days": "Sun", "time": "Closed"}], "id": "2442600019", "name": "USPS COLLECTION BOX - BLUE BOX", "address": {"city": "COVINGTON", "state": "VA", "street": "229 E MADISON ST", "postcode": "24426"}}},
{"geometry": {"type": "Point", "coordinates": [-79.9907451881, 37.7901627149]}, "type": "Feature", "properties": {"collection_times": [{"days": "Mon-Fri", "time": "4:00pm"}, {"days": "Sat", "time": "3:00pm"}, {"days": "Sun", "time": "Closed"}], "id": "2442600021", "name": "USPS COLLECTION BOX - BLUE BOX", "address": {"city": "COVINGTON", "state": "VA", "street": "220 S MONROE AVE", "postcode": "24426"}}},
{"geometry": {"type": "Point", "coordinates": [-79.9949793896, 37.7895157815]}, "type": "Feature", "properties": {"collection_times": [{"days": "Mon-Fri", "time": "4:15pm"}, {"days": "Sat", "time": "3:00pm"}, {"days": "Sun", "time": "Closed"}], "id": "2442600023", "name": "USPS COLLECTION BOX - BLUE BOX", "address": {"city": "COVINGTON", "state": "VA", "street": "106 N MAPLE AVE", "postcode": "24426"}}},
{"geometry": {"type": "Point", "coordinates": [-79.9958603567, 37.7922889329]}, "type": "Feature", "properties": {"collection_times": [{"days": "Mon-Fri", "time": "4:30pm"}, {"days": "Sat", "time": "3:00pm"}, {"days": "Sun", "time": "Closed"}], "id": "2442600027", "name": "USPS COLLECTION BOX - BLUE BOX", "address": {"city": "COVINGTON", "state": "VA", "street": "304 W MAIN ST", "postcode": "24426"}}},
{"geometry": {"type": "Point", "coordinates": [-79.99461462, 37.793070046]}, "type": "Feature", "properties": {"collection_times": [{"days": "Mon-Fri", "time": "5:00pm"}, {"days": "Sat", "time": "3:00pm"}, {"days": "Sun", "time": "Closed"}], "id": "2442600029", "name": "USPS COLLECTION BOX - BLUE BOX", "address": {"city": "COVINGTON", "state": "VA", "street": "211 W MAIN ST", "postcode": "24426"}}},
{"geometry": {"type": "Point", "coordinates": [-79.99461462, 37.793070046]}, "type": "Feature", "properties": {"collection_times": [{"days": "Mon-Fri", "time": "5:00pm"}, {"days": "Sat", "time": "3:00pm"}, {"days": "Sun", "time": "Closed"}], "id": "2442600031", "name": "USPS COLLECTION BOX - PO LOBBY", "address": {"city": "COVINGTON", "state": "VA", "street": "211 W MAIN ST", "postcode": "24426"}}},
{"geometry": {"type": "Point", "coordinates": [-79.9919696047, 37.7704119474]}, "type": "Feature", "properties": {"collection_times": [{"days": "Mon-Sat", "time": "10:30am"}, {"days": "Sun", "time": "Closed"}], "id": "2442600038", "name": "USPS COLLECTION BOX - BLUE BOX", "address": {"city": "COVINGTON", "state": "VA", "street": "313 THACKER AVE", "postcode": "24426"}}},
{"geometry": {"type": "Point", "coordinates": [-79.3808583244, 38.0799719607]}, "type": "Feature", "properties": {"collection_times": [{"days": "Mon-Fri", "time": "3:45pm"}, {"days": "Sat", "time": "10:45am"}, {"days": "Sun", "time": "Closed"}], "id": "2443000000", "name": "USPS COLLECTION BOX - BLUE BOX", "address": {"city": "CRAIGSVILLE", "state": "VA", "street": "105 W CRAIG ST", "postcode": "24430"}}},
{"geometry": {"type": "Point", "coordinates": [-79.3808583244, 38.0799719607]}, "type": "Feature", "properties": {"collection_times": [{"days": "Mon-Fri", "time": "3:45pm"}, {"days": "Sat", "time": "10:45am"}, {"days": "Sun", "time": "Closed"}], "id": "2443000001", "name": "USPS COLLECTION BOX - PO LOBBY", "address": {"city": "CRAIGSVILLE", "state": "VA", "street": "105 W CRAIG ST", "postcode": "24430"}}},
{"geometry": {"type": "Point", "coordinates": [-78.84180484, 38.1445948366]}, "type": "Feature", "properties": {"collection_times": [{"days": "Mon-Fri", "time": "3:30pm"}, {"days": "Sat", "time": "10:30am"}, {"days": "Sun", "time": "Closed"}], "id": "2443100000", "name": "USPS COLLECTION BOX - BLUE BOX", "address": {"city": "CRIMORA", "state": "VA", "street": "1805 EAST SIDE HWY STE 101", "postcode": "24431"}}},
{"geometry": {"type": "Point", "coordinates": [-78.84180484, 38.1445948366]}, "type": "Feature", "properties": {"collection_times": [{"days": "Mon-Fri", "time": "3:30pm"}, {"days": "Sat", "time": "10:30am"}, {"days": "Sun", "time": "Closed"}], "id": "2443100001", "name": "USPS COLLECTION BOX - PO LOBBY", "address": {"city": "CRIMORA", "state": "VA", "street": "1805 EAST SIDE HWY STE 101", "postcode": "24431"}}},
{"geometry": {"type": "Point", "coordinates": [-79.3980735379, 38.1985174178]}, "type": "Feature", "properties": {"collection_times": [{"days": "Mon-Fri", "time": "4:45pm"}, {"days": "Sat", "time": "12:15pm"}, {"days": "Sun", "time": "Closed"}], "id": "2443200000", "name": "USPS COLLECTION BOX - PO LOBBY", "address": {"city": "DEERFIELD", "state": "VA", "street": "3079 DEERFIELD VALLEY RD", "postcode": "24432"}}},
{"geometry": {"type": "Point", "coordinates": [-79.3980735379, 38.1985174178]}, "type": "Feature", "properties": {"collection_times": [{"days": "Mon-Fri", "time": "4:45pm"}, {"days": "Sat", "time": "12:15pm"}, {"days": "Sun", "time": "Closed"}], "id": "2443200001", "name": "USPS COLLECTION BOX - BLUE BOX", "address": {"city": "DEERFIELD", "state": "VA", "street": "3079 DEERFIELD VALLEY RD", "postcode": "24432"}}},
{"geometry": {"type": "Point", "coordinates": [-79.4860114297, 38.3960776987]}, "type": "Feature", "properties": {"collection_times": [{"days": "Mon-Fri", "time": "1:00pm"}, {"days": "Sat", "time": "12:00pm"}, {"days": "Sun", "time": "Closed"}], "id": "2443300000", "name": "USPS COLLECTION BOX - BLUE BOX", "address": {"city": "DOE HILL", "state": "VA", "street": "7583 DOE HILL RD", "postcode": "24433"}}},
{"geometry": {"type": "Point", "coordinates": [-79.2872382454, 37.8803687167]}, "type": "Feature", "properties": {"collection_times": [{"days": "Mon-Fri", "time": "4:15pm"}, {"days": "Sat", "time": "11:15am"}, {"days": "Sun", "time": "Closed"}], "id": "2443500000", "name": "USPS COLLECTION BOX - BLUE BOX", "address": {"city": "FAIRFIELD", "state": "VA", "street": "5586 N LEE HWY", "postcode": "24435"}}},
{"geometry": {"type": "Point", "coordinates": [-79.2872382454, 37.8803687167]}, "type": "Feature", "properties": {"collection_times": [{"days": "Mon-Fri", "time": "4:15pm"}, {"days": "Sat", "time": "11:15am"}, {"days": "Sun", "time": "Closed"}], "id": "2443500001", "name": "USPS COLLECTION BOX - PO LOBBY", "address": {"city": "FAIRFIELD", "state": "VA", "street": "5586 N LEE HWY", "postcode": "24435"}}},
{"geometry": {"type": "Point", "coordinates": [-79.8190991942, 37.7526988711]}, "type": "Feature", "properties": {"collection_times": [{"days": "Mon-Sat", "time": "11:45am"}, {"days": "Sun", "time": "Closed"}], "id": "2443800000", "name": "USPS COLLECTION BOX - PO LOBBY", "address": {"city": "GLEN WILTON", "state": "VA", "street": "20 MAIN ST", "postcode": "24438"}}},
{"geometry": {"type": "Point", "coordinates": [-79.5030919667, 37.9685594418]}, "type": "Feature", "properties": {"collection_times": [{"days": "Mon-Fri", "time": "3:45pm"}, {"days": "Sat", "time": "10:45am"}, {"days": "Sun", "time": "Closed"}], "id": "2443900000", "name": "USPS COLLECTION BOX - BLUE BOX", "address": {"city": "GOSHEN", "state": "VA", "street": "9693 MAURY RIVER RD", "postcode": "24439"}}},
{"geometry": {"type": "Point", "coordinates": [-79.5030919667, 37.9685594418]}, "type": "Feature", "properties": {"collection_times": [{"days": "Mon-Fri", "time": "3:45pm"}, {"days": "Sat", "time": "10:45am"}, {"days": "Sun", "time": "Closed"}], "id": "2443900001", "name": "USPS COLLECTION BOX - PO LOBBY", "address": {"city": "GOSHEN", "state": "VA", "street": "9693 MAURY RIVER RD", "postcode": "24439"}}},
{"geometry": {"type": "Point", "coordinates": [-79.5030919667, 37.9685594418]}, "type": "Feature", "properties": {"collection_times": [{"days": "Mon-Fri", "time": "3:45pm"}, {"days": "Sat", "time": "10:45am"}, {"days": "Sun", "time": "Closed"}], "id": "2443900002", "name": "USPS COLLECTION BOX - PO LOBBY", "address": {"city": "GOSHEN", "state": "VA", "street": "9693 MAURY RIVER RD", "postcode": "24439"}}},
{"geometry": {"type": "Point", "coordinates": [-79.1540783292, 38.0064011537]}, "type": "Feature", "properties": {"collection_times": [{"days": "Mon-Fri", "time": "4:00pm"}, {"days": "Sat", "time": "11:00am"}, {"days": "Sun", "time": "Closed"}], "id": "2444000000", "name": "USPS COLLECTION BOX - BLUE BOX", "address": {"city": "GREENVILLE", "state": "VA", "street": "4171 LEE JACKSON HWY STE 101", "postcode": "24440"}}},
{"geometry": {"type": "Point", "coordinates": [-79.1540783292, 38.0064011537]}, "type": "Feature", "properties": {"collection_times": [{"days": "Mon-Fri", "time": "4:00pm"}, {"days": "Sat", "time": "11:00am"}, {"days": "Sun", "time": "Closed"}], "id": "2444000001", "name": "USPS COLLECTION BOX - PO LOBBY", "address": {"city": "GREENVILLE", "state": "VA", "street": "4171 LEE JACKSON HWY STE 101", "postcode": "24440"}}},
{"geometry": {"type": "Point", "coordinates": [-78.8214725723, 38.2637814235]}, "type": "Feature", "properties": {"collection_times": [{"days": "Mon-Fri", "time": "4:30pm"}, {"days": "Sat", "time": "11:15am"}, {"days": "Sun", "time": "Closed"}], "id": "2444100000", "name": "USPS COLLECTION BOX - BLUE BOX", "address": {"city": "GROTTOES", "state": "VA", "street": "110 6TH ST", "postcode": "24441"}}},
{"geometry": {"type": "Point", "coordinates": [-78.8214725723, 38.2637814235]}, "type": "Feature", "properties": {"collection_times": [{"days": "Mon-Fri", "time": "4:30pm"}, {"days": "Sat", "time": "11:15am"}, {"days": "Sun", "time": "Closed"}], "id": "2444100001", "name": "USPS COLLECTION BOX - PO LOBBY", "address": {"city": "GROTTOES", "state": "VA", "street": "110 6TH ST", "postcode": "24441"}}},
{"geometry": {"type": "Point", "coordinates": [-79.9014503881, 37.9725956763]}, "type": "Feature", "properties": {"collection_times": [{"days": "Mon-Fri", "time": "4:00pm"}, {"days": "Sat", "time": "11:00am"}, {"days": "Sun", "time": "Closed"}], "id": "2444500000", "name": "USPS COLLECTION BOX - BLUE BOX", "address": {"city": "HOT SPRINGS", "state": "VA", "street": "2793 MAIN ST", "postcode": "24445"}}},
{"geometry": {"type": "Point", "coordinates": [-79.9014503881, 37.9725956763]}, "type": "Feature", "properties": {"collection_times": [{"days": "Mon-Fri", "time": "4:00pm"}, {"days": "Sat", "time": "11:00am"}, {"days": "Sun", "time": "Closed"}], "id": "2444500001", "name": "USPS COLLECTION BOX - PO LOBBY", "address": {"city": "HOT SPRINGS", "state": "VA", "street": "2793 MAIN ST", "postcode": "24445"}}},
{"geometry": {"type": "Point", "coordinates": [-79.7920121719, 37.7986628708]}, "type": "Feature", "properties": {"collection_times": [{"days": "Mon-Fri", "time": "4:00pm"}, {"days": "Sat", "time": "11:30am"}, {"days": "Sun", "time": "Closed"}], "id": "2444800000", "name": "USPS COLLECTION BOX - BLUE BOX", "address": {"city": "IRON GATE", "state": "VA", "street": "511 MARKET ST", "postcode": "24448"}}},
{"geometry": {"type": "Point", "coordinates": [-79.7920121719, 37.7986628708]}, "type": "Feature", "properties": {"collection_times": [{"days": "Mon-Fri", "time": "4:15pm"}, {"days": "Sat", "time": "11:45am"}, {"days": "Sun", "time": "Closed"}], "id": "2444800001", "name": "USPS COLLECTION BOX - PO LOBBY", "address": {"city": "IRON GATE", "state": "VA", "street": "511 MARKET ST", "postcode": "24448"}}},
{"geometry": {"type": "Point", "coordinates": [-79.444550677, 37.7853232425]}, "type": "Feature", "properties": {"collection_times": [{"days": "Mon-Fri", "time": "5:30pm"}, {"days": "Sat", "time": "4:45pm"}, {"days": "Sun", "time": "Closed"}], "id": "2445000000", "name": "USPS COLLECTION BOX - PO LOBBY", "address": {"city": "LEXINGTON", "state": "VA", "street": "101 LEE AVE", "postcode": "24450"}}},
{"geometry": {"type": "Point", "coordinates": [-79.444550677, 37.7853232425]}, "type": "Feature", "properties": {"collection_times": [{"days": "Mon-Fri", "time": "5:15pm"}, {"days": "Sat", "time": "4:00pm"}, {"days": "Sun", "time": "Closed"}], "id": "2445000001", "name": "USPS COLLECTION BOX - BLUE BOX", "address": {"city": "LEXINGTON", "state": "VA", "street": "101 LEE AVE", "postcode": "24450"}}},
{"geometry": {"type": "Point", "coordinates": [-79.4479068194, 37.7710297888]}, "type": "Feature", "properties": {"collection_times": [{"days": "Mon-Fri", "time": "4:50pm"}, {"days": "Sat", "time": "3:30pm"}, {"days": "Sun", "time": "Closed"}], "id": "2445000005", "name": "USPS COLLECTION BOX - BLUE BOX", "address": {"city": "LEXINGTON", "state": "VA", "street": "810 S MAIN ST", "postcode": "24450"}}},
{"geometry": {"type": "Point", "coordinates": [-79.4439047874, 37.7833835325]}, "type": "Feature", "properties": {"collection_times": [{"days": "Mon-Fri", "time": "5:00pm"}, {"days": "Sat", "time": "3:30pm"}, {"days": "Sun", "time": "Closed"}], "id": "2445000006", "name": "USPS COLLECTION BOX - BLUE BOX", "address": {"city": "LEXINGTON", "state": "VA", "street": "167 S MAIN ST", "postcode": "24450"}}},
{"geometry": {"type": "Point", "coordinates": [-79.4413105149, 37.7843191258]}, "type": "Feature", "properties": {"collection_times": [{"days": "Mon-Fri", "time": "5:00pm"}, {"days": "Sat", "time": "3:30pm"}, {"days": "Sun", "time": "Closed"}], "id": "2445000009", "name": "USPS COLLECTION BOX - BLUE BOX", "address": {"city": "LEXINGTON", "state": "VA", "street": "20 S RANDOLPH ST", "postcode": "24450"}}},
{"geometry": {"type": "Point", "coordinates": [-79.4356217237, 37.7784756469]}, "type": "Feature", "properties": {"collection_times": [{"days": "Mon-Fri", "time": "5:00pm"}, {"days": "Sat", "time": "3:30pm"}, {"days": "Sun", "time": "Closed"}], "id": "2445000012", "name": "USPS COLLECTION BOX - BLUE BOX", "address": {"city": "LEXINGTON", "state": "VA", "street": "110 WALKER ST", "postcode": "24450"}}},
{"geometry": {"type": "Point", "coordinates": [-79.4225003238, 37.7964164741]}, "type": "Feature", "properties": {"collection_times": [{"days": "Mon-Sat", "time": "9:30am"}, {"days": "Sun", "time": "Closed"}], "id": "2445000015", "name": "USPS COLLECTION BOX - BLUE BOX", "address": {"city": "LEXINGTON", "state": "VA", "street": "800 N LEE HWY", "postcode": "24450"}}},
{"geometry": {"type": "Point", "coordinates": [-79.4104757038, 37.8030696477]}, "type": "Feature", "properties": {"collection_times": [{"days": "Mon-Sat", "time": "12:00pm"}, {"days": "Sun", "time": "Closed"}], "id": "2445000021", "name": "USPS COLLECTION BOX - BLUE BOX", "address": {"city": "LEXINGTON", "state": "VA", "street": "1233 N LEE HWY", "postcode": "24450"}}},
{"geometry": {"type": "Point", "coordinates": [-79.4421292435, 37.784958165]}, "type": "Feature", "properties": {"collection_times": [{"days": "Mon-Fri", "time": "5:00pm"}, {"days": "Sat", "time": "3:30pm"}, {"days": "Sun", "time": "Closed"}], "id": "2445000022", "name": "USPS COLLECTION BOX - BLUE BOX", "address": {"city": "LEXINGTON", "state": "VA", "street": "17 S MAIN ST", "postcode": "24450"}}},
{"geometry": {"type": "Point", "coordinates": [-79.8787661346, 37.7912424149]}, "type": "Feature", "properties": {"collection_times": [{"days": "Mon-Fri", "time": "4:30pm"}, {"days": "Sat", "time": "11:15am"}, {"days": "Sun", "time": "Closed"}], "id": "2445700000", "name": "USPS COLLECTION BOX - PO LOBBY", "address": {"city": "LOW MOOR", "state": "VA", "street": "105 OLD CHURCH RD", "postcode": "24457"}}},
{"geometry": {"type": "Point", "coordinates": [-79.8787661346, 37.7912424149]}, "type": "Feature", "properties": {"collection_times": [{"days": "Mon-Fri", "time": "4:15pm"}, {"days": "Sat", "time": "11:15am"}, {"days": "Sun", "time": "Closed"}], "id": "2445700001", "name": "USPS COLLECTION BOX - BLUE BOX", "address": {"city": "LOW MOOR", "state": "VA", "street": "105 OLD CHURCH RD", "postcode": "24457"}}},
{"geometry": {"type": "Point", "coordinates": [-79.5058069174, 38.3383508877]}, "type": "Feature", "properties": {"collection_times": [{"days": "Mon-Fri", "time": "4:15pm"}, {"days": "Sat", "time": "10:45am"}, {"days": "Sun", "time": "Closed"}], "id": "2445800000", "name": "USPS COLLECTION BOX - BLUE BOX", "address": {"city": "MCDOWELL", "state": "VA", "street": "8988 HIGHLAND TPKE", "postcode": "24458"}}},
{"geometry": {"type": "Point", "coordinates": [-79.5058069174, 38.3383508877]}, "type": "Feature", "properties": {"collection_times": [{"days": "Mon-Fri", "time": "4:15pm"}, {"days": "Sat", "time": "10:45am"}, {"days": "Sun", "time": "Closed"}], "id": "2445800001", "name": "USPS COLLECTION BOX - PO LOBBY", "address": {"city": "MCDOWELL", "state": "VA", "street": "8988 HIGHLAND TPKE", "postcode": "24458"}}},
{"geometry": {"type": "Point", "coordinates": [-79.2214291448, 38.0512903187]}, "type": "Feature", "properties": {"collection_times": [{"days": "Mon-Fri", "time": "4:45pm"}, {"days": "Sat", "time": "11:30am"}, {"days": "Sun", "time": "Closed"}], "id": "2445900001", "name": "USPS COLLECTION BOX - PO LOBBY", "address": {"city": "MIDDLEBROOK", "state": "VA", "street": "3696 MIDDLEBROOK VILLAGE RD", "postcode": "24459"}}},
{"geometry": {"type": "Point", "coordinates": [-79.6492084794, 38.02805744]}, "type": "Feature", "properties": {"collection_times": [{"days": "Mon-Fri", "time": "3:30pm"}, {"days": "Sat", "time": "10:30am"}, {"days": "Sun", "time": "Closed"}], "id": "2446000000", "name": "USPS COLLECTION BOX - BLUE BOX", "address": {"city": "MILLBORO", "state": "VA", "street": "1 MAIN ST", "postcode": "24460"}}},
{"geometry": {"type": "Point", "coordinates": [-79.6492084794, 38.02805744]}, "type": "Feature", "properties": {"collection_times": [{"days": "Mon-Fri", "time": "3:30pm"}, {"days": "Sat", "time": "10:30am"}, {"days": "Sun", "time": "Closed"}], "id": "2446000001", "name": "USPS COLLECTION BOX - PO LOBBY", "address": {"city": "MILLBORO", "state": "VA", "street": "1 MAIN ST", "postcode": "24460"}}},
{"geometry": {"type": "Point", "coordinates": [-79.1090297051, 38.0655236474]}, "type": "Feature", "properties": {"collection_times": [{"days": "Mon-Fri", "time": "4:30pm"}, {"days": "Sat", "time": "10:45am"}, {"days": "Sun", "time": "Closed"}], "id": "2446300000", "name": "USPS COLLECTION BOX - BLUE BOX", "address": {"city": "MINT SPRINGS", "state": "VA", "street": "2069 LEE JACKSON HWY", "postcode": "24463"}}},
{"geometry": {"type": "Point", "coordinates": [-79.1010897842, 38.0743909328]}, "type": "Feature", "properties": {"collection_times": [{"days": "Mon-Fri", "time": "4:30pm"}, {"days": "Sat", "time": "10:45am"}, {"days": "Sun", "time": "Closed"}], "id": "2446300001", "name": "USPS COLLECTION BOX - PO LOBBY", "address": {"city": "MINT SPRINGS", "state": "VA", "street": "2069 LEE JACKSON HWY", "postcode": "24463"}}},
{"geometry": {"type": "Point", "coordinates": [-79.1315676491, 37.8524006422]}, "type": "Feature", "properties": {"collection_times": [{"days": "Mon-Fri", "time": "11:45am"}, {"days": "Sat", "time": "11:15am"}, {"days": "Sun", "time": "Closed"}], "id": "2446400000", "name": "USPS COLLECTION BOX - BLUE BOX", "address": {"city": "MONTEBELLO", "state": "VA", "street": "15048 CRABTREE FALLS HWY", "postcode": "24464"}}},
{"geometry": {"type": "Point", "coordinates": [-79.13221214, 37.8554582933]}, "type": "Feature", "properties": {"collection_times": [{"days": "Mon-Fri", "time": "11:45am"}, {"days": "Sat", "time": "11:15am"}, {"days": "Sun", "time": "Closed"}], "id": "2446400001", "name": "USPS COLLECTION BOX - PO LOBBY", "address": {"city": "MONTEBELLO", "state": "VA", "street": "15048 CRABTREE FALLS HWY", "postcode": "24464"}}},
{"geometry": {"type": "Point", "coordinates": [-79.6166089026, 38.3738017876]}, "type": "Feature", "properties": {"collection_times": [{"days": "Mon-Fri", "time": "4:45pm"}, {"days": "Sat", "time": "11:45am"}, {"days": "Sun", "time": "Closed"}], "id": "2446500000", "name": "USPS COLLECTION BOX - BLUE BOX", "address": {"city": "MONTEREY", "state": "VA", "street": "66 E MAIN ST", "postcode": "24465"}}},
{"geometry": {"type": "Point", "coordinates": [-79.6166089026, 38.3738017876]}, "type": "Feature", "properties": {"collection_times": [{"days": "Mon-Fri", "time": "4:45pm"}, {"days": "Sat", "time": "11:45am"}, {"days": "Sun", "time": "Closed"}], "id": "2446500001", "name": "USPS COLLECTION BOX - PO LOBBY", "address": {"city": "MONTEREY", "state": "VA", "street": "66 E MAIN ST", "postcode": "24465"}}},
{"geometry": {"type": "Point", "coordinates": [-78.9628196907, 38.2518005613]}, "type": "Feature", "properties": {"collection_times": [{"days": "Mon-Fri", "time": "4:20pm"}, {"days": "Sat", "time": "10:00am"}, {"days": "Sun", "time": "Closed"}], "id": "2446700000", "name": "USPS COLLECTION BOX - BLUE BOX", "address": {"city": "MOUNT SIDNEY", "state": "VA", "street": "2349 LEE HWY", "postcode": "24467"}}},
{"geometry": {"type": "Point", "coordinates": [-78.9628196907, 38.2518005613]}, "type": "Feature", "properties": {"collection_times": [{"days": "Mon-Fri", "time": "4:20pm"}, {"days": "Sat", "time": "10:00am"}, {"days": "Sun", "time": "Closed"}], "id": "2446700001", "name": "USPS COLLECTION BOX - PO LOBBY", "address": {"city": "MOUNT SIDNEY", "state": "VA", "street": "2349 LEE HWY", "postcode": "24467"}}},
{"geometry": {"type": "Point", "coordinates": [-78.9054459955, 38.1983442069]}, "type": "Feature", "properties": {"collection_times": [{"days": "Mon-Fri", "time": "4:15pm"}, {"days": "Sat", "time": "10:45am"}, {"days": "Sun", "time": "Closed"}], "id": "2446900000", "name": "USPS COLLECTION BOX - BLUE BOX", "address": {"city": "NEW HOPE", "state": "VA", "street": "610 BATTLEFIELD RD", "postcode": "24469"}}},
{"geometry": {"type": "Point", "coordinates": [-78.9054459955, 38.1983442069]}, "type": "Feature", "properties": {"collection_times": [{"days": "Mon-Fri", "time": "4:15pm"}, {"days": "Sat", "time": "10:45am"}, {"days": "Sun", "time": "Closed"}], "id": "2446900001", "name": "USPS COLLECTION BOX - PO LOBBY", "address": {"city": "NEW HOPE", "state": "VA", "street": "610 BATTLEFIELD RD", "postcode": "24469"}}},
{"geometry": {"type": "Point", "coordinates": [-78.811962466, 38.2960195625]}, "type": "Feature", "properties": {"collection_times": [{"days": "Mon-Fri", "time": "4:00pm"}, {"days": "Sat", "time": "11:00am"}, {"days": "Sun", "time": "Closed"}], "id": "2447100000", "name": "USPS COLLECTION BOX - BLUE BOX", "address": {"city": "PORT REPUBLIC", "state": "VA", "street": "8595 MAIN ST", "postcode": "24471"}}},
{"geometry": {"type": "Point", "coordinates": [-78.811962466, 38.2960195625]}, "type": "Feature", "properties": {"collection_times": [{"days": "Mon-Fri", "time": "4:00pm"}, {"days": "Sat", "time": "11:00am"}, {"days": "Sun", "time": "Closed"}], "id": "2447100001", "name": "USPS COLLECTION BOX - PO LOBBY", "address": {"city": "PORT REPUBLIC", "state": "VA", "street": "8595 MAIN ST", "postcode": "24471"}}},
{"geometry": {"type": "Point", "coordinates": [-79.2108048134, 37.9296338838]}, "type": "Feature", "properties": {"collection_times": [{"days": "Mon-Fri", "time": "3:30pm"}, {"days": "Sat", "time": "10:45am"}, {"days": "Sun", "time": "Closed"}], "id": "2447200000", "name": "USPS COLLECTION BOX - BLUE BOX", "address": {"city": "RAPHINE", "state": "VA", "street": "2139 RAPHINE RD", "postcode": "24472"}}},
{"geometry": {"type": "Point", "coordinates": [-79.2108048134, 37.9296338838]}, "type": "Feature", "properties": {"collection_times": [{"days": "Mon-Fri", "time": "3:30pm"}, {"days": "Sat", "time": "10:45am"}, {"days": "Sun", "time": "Closed"}], "id": "2447200001", "name": "USPS COLLECTION BOX - PO LOBBY", "address": {"city": "RAPHINE", "state": "VA", "street": "2139 RAPHINE RD", "postcode": "24472"}}},
{"geometry": {"type": "Point", "coordinates": [-79.3904955038, 37.8853044544]}, "type": "Feature", "properties": {"collection_times": [{"days": "Mon-Fri", "time": "3:30pm"}, {"days": "Sat", "time": "10:30am"}, {"days": "Sun", "time": "Closed"}], "id": "2447300000", "name": "USPS COLLECTION BOX - BLUE BOX", "address": {"city": "ROCKBDGE BATH", "state": "VA", "street": "4781 MAURY RIVER RD", "postcode": "24473"}}},
{"geometry": {"type": "Point", "coordinates": [-79.3904955038, 37.8853044544]}, "type": "Feature", "properties": {"collection_times": [{"days": "Mon-Fri", "time": "3:30pm"}, {"days": "Sat", "time": "10:30am"}, {"days": "Sun", "time": "Closed"}], "id": "2447300001", "name": "USPS COLLECTION BOX - PO LOBBY", "address": {"city": "ROCKBDGE BATH", "state": "VA", "street": "4781 MAURY RIVER RD", "postcode": "24473"}}},
{"geometry": {"type": "Point", "coordinates": [-79.8483733026, 37.80643202]}, "type": "Feature", "properties": {"collection_times": [{"days": "Mon-Fri", "time": "4:45pm"}, {"days": "Sat", "time": "11:30am"}, {"days": "Sun", "time": "Closed"}], "id": "2447400000", "name": "USPS COLLECTION BOX - BLUE BOX", "address": {"city": "SELMA", "state": "VA", "street": "1119 RICHMOND ST", "postcode": "24474"}}},
{"geometry": {"type": "Point", "coordinates": [-79.8483733026, 37.80643202]}, "type": "Feature", "properties": {"collection_times": [{"days": "Mon-Fri", "time": "4:45pm"}, {"days": "Sat", "time": "11:30am"}, {"days": "Sun", "time": "Closed"}], "id": "2447400001", "name": "USPS COLLECTION BOX - PO LOBBY", "address": {"city": "SELMA", "state": "VA", "street": "1119 RICHMOND ST", "postcode": "24474"}}},
{"geometry": {"type": "Point", "coordinates": [-79.2031288713, 37.9250448435]}, "type": "Feature", "properties": {"collection_times": [{"days": "Mon-Fri", "time": "3:00pm"}, {"days": "Sat", "time": "11:00am"}, {"days": "Sun", "time": "Closed"}], "id": "2447600000", "name": "USPS COLLECTION BOX - BLUE BOX", "address": {"city": "STEELES TAVERN", "state": "VA", "street": "6554 LEE JACKSON HWY", "postcode": "24476"}}},
{"geometry": {"type": "Point", "coordinates": [-79.2031288713, 37.9250448435]}, "type": "Feature", "properties": {"collection_times": [{"days": "Mon-Fri", "time": "3:00pm"}, {"days": "Sat", "time": "11:00am"}, {"days": "Sun", "time": "Closed"}], "id": "2447600001", "name": "USPS COLLECTION BOX - PO LOBBY", "address": {"city": "STEELES TAVERN", "state": "VA", "street": "6554 LEE JACKSON HWY", "postcode": "24476"}}},
{"geometry": {"type": "Point", "coordinates": [-79.0078432461, 38.0430321443]}, "type": "Feature", "properties": {"collection_times": [{"days": "Mon-Fri", "time": "4:45pm"}, {"days": "Sat", "time": "10:00am"}, {"days": "Sun", "time": "Closed"}], "id": "2447700000", "name": "USPS COLLECTION BOX - BLUE BOX", "address": {"city": "STUARTS DRAFT", "state": "VA", "street": "2857 STUARTS DRAFT HWY", "postcode": "24477"}}},
{"geometry": {"type": "Point", "coordinates": [-79.0109828445, 38.0423691702]}, "type": "Feature", "properties": {"collection_times": [{"days": "Mon-Sat", "time": "12:00pm"}, {"days": "Sun", "time": "Closed"}], "id": "2447700002", "name": "USPS COLLECTION BOX - BLUE BOX", "address": {"city": "STUARTS DRAFT", "state": "VA", "street": "2576 STUARTS DRAFT HWY", "postcode": "24477"}}},
{"geometry": {"type": "Point", "coordinates": [-79.0078432461, 38.0430321443]}, "type": "Feature", "properties": {"collection_times": [{"days": "Mon-Fri", "time": "5:00pm"}, {"days": "Sat", "time": "10:00am"}, {"days": "Sun", "time": "Closed"}], "id": "2447700006", "name": "USPS COLLECTION BOX - PO LOBBY", "address": {"city": "STUARTS DRAFT", "state": "VA", "street": "2857 STUARTS DRAFT HWY", "postcode": "24477"}}},
{"geometry": {"type": "Point", "coordinates": [-79.2036706697, 38.1561618487]}, "type": "Feature", "properties": {"collection_times": [{"days": "Mon-Fri", "time": "4:15pm"}, {"days": "Sat", "time": "10:45am"}, {"days": "Sun", "time": "Closed"}], "id": "2447900000", "name": "USPS COLLECTION BOX - BLUE BOX", "address": {"city": "SWOOPE", "state": "VA", "street": "1351 HEWITT RD", "postcode": "24479"}}},
{"geometry": {"type": "Point", "coordinates": [-79.2036706697, 38.1561618487]}, "type": "Feature", "properties": {"collection_times": [{"days": "Mon-Fri", "time": "4:15pm"}, {"days": "Sat", "time": "10:45am"}, {"days": "Sun", "time": "Closed"}], "id": "2447900001", "name": "USPS COLLECTION BOX - PO LOBBY", "address": {"city": "SWOOPE", "state": "VA", "street": "1351 HEWITT RD", "postcode": "24479"}}},
{"geometry": {"type": "Point", "coordinates": [-79.2094471271, 38.1598711425]}, "type": "Feature", "properties": {"collection_times": [{"days": "Mon-Sat", "time": "11:00am"}, {"days": "Sun", "time": "Closed"}], "id": "2447900003", "name": "USPS COLLECTION BOX - BLUE BOX", "address": {"city": "SWOOPE", "state": "VA", "street": "2968 PARKERSBURG TPKE", "postcode": "24479"}}},
{"geometry": {"type": "Point", "coordinates": [-79.0216835765, 38.1910267342]}, "type": "Feature", "properties": {"collection_times": [{"days": "Mon-Fri", "time": "5:00pm"}, {"days": "Sat", "time": "11:00am"}, {"days": "Sun", "time": "Closed"}], "id": "2448200001", "name": "USPS COLLECTION BOX - BLUE BOX", "address": {"city": "VERONA", "state": "VA", "street": "485 LEE HWY", "postcode": "24482"}}},
{"geometry": {"type": "Point", "coordinates": [-79.0216835765, 38.1910267342]}, "type": "Feature", "properties": {"collection_times": [{"days": "Mon-Fri", "time": "5:15pm"}, {"days": "Sat", "time": "11:00am"}, {"days": "Sun", "time": "Closed"}], "id": "2448200003", "name": "USPS COLLECTION BOX - PO LOBBY", "address": {"city": "VERONA", "state": "VA", "street": "485 LEE HWY", "postcode": "24482"}}},
{"geometry": {"type": "Point", "coordinates": [-79.1984063043, 37.90530034]}, "type": "Feature", "properties": {"collection_times": [{"days": "Mon-Fri", "time": "4:00pm"}, {"days": "Sat", "time": "10:45am"}, {"days": "Sun", "time": "Closed"}], "id": "2448300000", "name": "USPS COLLECTION BOX - BLUE BOX", "address": {"city": "VESUVIUS", "state": "VA", "street": "7255 S RIVER RD", "postcode": "24483"}}},
{"geometry": {"type": "Point", "coordinates": [-79.1984063043, 37.90530034]}, "type": "Feature", "properties": {"collection_times": [{"days": "Mon-Fri", "time": "4:00pm"}, {"days": "Sat", "time": "10:45am"}, {"days": "Sun", "time": "Closed"}], "id": "2448300001", "name": "USPS COLLECTION BOX - PO LOBBY", "address": {"city": "VESUVIUS", "state": "VA", "street": "7255 S RIVER RD", "postcode": "24483"}}},
{"geometry": {"type": "Point", "coordinates": [-78.6979451561, 37.5128225857]}, "type": "Feature", "properties": {"collection_times": [{"days": "Mon-Fri", "time": "4:00pm"}, {"days": "Sat", "time": "11:30am"}, {"days": "Sun", "time": "Closed"}], "id": "2448400000", "name": "USPS COLLECTION BOX - PO LOBBY", "address": {"city": "WARM SPRINGS", "state": "VA", "street": "97 OLD MILL RD", "postcode": "24484"}}},
{"geometry": {"type": "Point", "coordinates": [-78.6979451561, 37.5128225857]}, "type": "Feature", "properties": {"collection_times": [{"days": "Mon-Fri", "time": "4:00pm"}, {"days": "Sat", "time": "11:30am"}, {"days": "Sun", "time": "Closed"}], "id": "2448400001", "name": "USPS COLLECTION BOX - BLUE BOX", "address": {"city": "WARM SPRINGS", "state": "VA", "street": "97 OLD MILL RD", "postcode": "24484"}}},
{"geometry": {"type": "Point", "coordinates": [-79.3076835537, 38.2704738345]}, "type": "Feature", "properties": {"collection_times": [{"days": "Mon-Sat", "time": "1:00pm"}, {"days": "Sun", "time": "Closed"}], "id": "2448500002", "name": "USPS COLLECTION BOX - BLUE BOX", "address": {"city": "WEST AUGUSTA", "state": "VA", "street": "162 SHENANDOAH MOUNTAIN DR", "postcode": "24485"}}},
{"geometry": {"type": "Point", "coordinates": [-78.9132198565, 38.2885390428]}, "type": "Feature", "properties": {"collection_times": [{"days": "Mon-Fri", "time": "4:30pm"}, {"days": "Sat", "time": "11:00am"}, {"days": "Sun", "time": "Closed"}], "id": "2448600000", "name": "USPS COLLECTION BOX - BLUE BOX", "address": {"city": "WEYERS CAVE", "state": "VA", "street": "27 DEPOT RD", "postcode": "24486"}}},
{"geometry": {"type": "Point", "coordinates": [-78.9132198565, 38.2885390428]}, "type": "Feature", "properties": {"collection_times": [{"days": "Mon-Fri", "time": "4:45pm"}, {"days": "Sat", "time": "11:00am"}, {"days": "Sun", "time": "Closed"}], "id": "2448600001", "name": "USPS COLLECTION BOX - PO LOBBY", "address": {"city": "WEYERS CAVE", "state": "VA", "street": "27 DEPOT RD", "postcode": "24486"}}},
{"geometry": {"type": "Point", "coordinates": [-79.5649826505, 38.1996865397]}, "type": "Feature", "properties": {"collection_times": [{"days": "Mon-Sat", "time": "11:00am"}, {"days": "Sun", "time": "Closed"}], "id": "2448700002", "name": "USPS COLLECTION BOX - PO LOBBY", "address": {"city": "WILLIAMSVILLE", "state": "VA", "street": "12258 COWPASTURE RIVER RD S", "postcode": "24487"}}}
]}
