{"type": "FeatureCollection", "features": [
{"geometry": {"type": "Point", "coordinates": [-79.1339827861, 37.3799191815]}, "type": "Feature", "properties": {"collection_times": [{"days": "Mon-Sat", "time": "10:00am"}, {"days": "Sun", "time": "Closed"}], "id": "2450100002", "name": "USPS COLLECTION BOX - BLUE BOX", "address": {"city": "LYNCHBURG", "state": "VA", "street": "3900 CAMPBELL AVE", "postcode": "24501"}}},
{"geometry": {"type": "Point", "coordinates": [-79.1678071693, 37.4105144463]}, "type": "Feature", "properties": {"collection_times": [{"days": "Mon-Sat", "time": "12:20pm"}, {"days": "Sun", "time": "Closed"}], "id": "2450100012", "name": "USPS COLLECTION BOX - BLUE BOX", "address": {"city": "LYNCHBURG", "state": "VA", "street": "2500 LANGHORNE RD", "postcode": "24501"}}},
{"geometry": {"type": "Point", "coordinates": [-79.1670263889, 37.4041228478]}, "type": "Feature", "properties": {"collection_times": [{"days": "Mon-Sat", "time": "11:30am"}, {"days": "Sun", "time": "Closed"}], "id": "2450100027", "name": "USPS COLLECTION BOX - BLUE BOX", "address": {"city": "LYNCHBURG", "state": "VA", "street": "2323 MEMORIAL AVE", "postcode": "24501"}}},
{"geometry": {"type": "Point", "coordinates": [-79.1670263889, 37.4041228478]}, "type": "Feature", "properties": {"collection_times": [{"days": "Mon-Sat", "time": "11:30am"}, {"days": "Sun", "time": "Closed"}], "id": "2450100028", "name": "USPS COLLECTION BOX - BLUE BOX", "address": {"city": "LYNCHBURG", "state": "VA", "street": "2323 MEMORIAL AVE", "postcode": "24501"}}},
{"geometry": {"type": "Point", "coordinates": [-79.1722740223, 37.4142336692]}, "type": "Feature", "properties": {"collection_times": [{"days": "Mon-Sat", "time": "12:15pm"}, {"days": "Sun", "time": "Closed"}], "id": "2450100031", "name": "USPS COLLECTION BOX - BLUE BOX", "address": {"city": "LYNCHBURG", "state": "VA", "street": "2007 TATE SPRINGS RD", "postcode": "24501"}}},
{"geometry": {"type": "Point", "coordinates": [-79.1722740223, 37.4142336692]}, "type": "Feature", "properties": {"collection_times": [{"days": "Mon-Sat", "time": "12:15pm"}, {"days": "Sun", "time": "Closed"}], "id": "2450100032", "name": "USPS COLLECTION BOX - BLUE BOX", "address": {"city": "LYNCHBURG", "state": "VA", "street": "2007 TATE SPRINGS RD", "postcode": "24501"}}},
{"geometry": {"type": "Point", "coordinates": [-79.202251849, 37.3997261885]}, "type": "Feature", "properties": {"collection_times": [{"days": "Mon-Sat", "time": "10:00am"}, {"days": "Sun", "time": "Closed"}], "id": "2450100033", "name": "USPS COLLECTION BOX - BLUE BOX", "address": {"city": "LYNCHBURG", "state": "VA", "street": "300 WEEPING WILLOW DR", "postcode": "24501"}}},
{"geometry": {"type": "Point", "coordinates": [-79.2864842779, 37.3049482987]}, "type": "Feature", "properties": {"collection_times": [{"days": "Mon-Fri", "time": "4:30pm"}, {"days": "Sat", "time": "12:00pm"}, {"days": "Sun", "time": "Closed"}], "id": "2450200001", "name": "USPS COLLECTION BOX - BLUE BOX", "address": {"city": "LYNCHBURG", "state": "VA", "street": "21430 TIMBERLAKE RD", "postcode": "24502"}}},
{"geometry": {"type": "Point", "coordinates": [-79.1963614328, 37.3705777516]}, "type": "Feature", "properties": {"collection_times": [{"days": "Mon-Fri", "time": "5:00pm"}, {"days": "Sat", "time": "4:30pm"}, {"days": "Sun", "time": "Closed"}], "id": "2450200005", "name": "USPS COLLECTION BOX - BLUE BOX", "address": {"city": "LYNCHBURG", "state": "VA", "street": "6020 FORT AVE", "postcode": "24502"}}},
{"geometry": {"type": "Point", "coordinates": [-79.1963614328, 37.3705777516]}, "type": "Feature", "properties": {"collection_times": [{"days": "Mon-Fri", "time": "5:00pm"}, {"days": "Sat", "time": "4:30pm"}, {"days": "Sun", "time": "Closed"}], "id": "2450200006", "name": "USPS COLLECTION BOX - BLUE BOX", "address": {"city": "LYNCHBURG", "state": "VA", "street": "6020 FORT AVE", "postcode": "24502"}}},
{"geometry": {"type": "Point", "coordinates": [-79.1963614328, 37.3705777516]}, "type": "Feature", "properties": {"collection_times": [{"days": "Mon-Fri", "time": "5:00pm"}, {"days": "Sat", "time": "4:30pm"}, {"days": "Sun", "time": "Closed"}], "id": "2450200007", "name": "USPS COLLECTION BOX - BLUE BOX", "address": {"city": "LYNCHBURG", "state": "VA", "street": "6020 FORT AVE", "postcode": "24502"}}},
{"geometry": {"type": "Point", "coordinates": [-79.1959781541, 37.3710379226]}, "type": "Feature", "properties": {"collection_times": [{"days": "Mon-Fri", "time": "5:00pm"}, {"days": "Sat", "time": "4:30pm"}, {"days": "Sun", "time": "Closed"}], "id": "2450200009", "name": "USPS COLLECTION BOX - BLUE BOX", "address": {"city": "LYNCHBURG", "state": "VA", "street": "6015 FORT AVE", "postcode": "24502"}}},
{"geometry": {"type": "Point", "coordinates": [-79.2848252174, 37.3049913233]}, "type": "Feature", "properties": {"collection_times": [{"days": "Mon-Sat", "time": "11:00am"}, {"days": "Sun", "time": "Closed"}], "id": "2450200026", "name": "USPS COLLECTION BOX - BLUE BOX", "address": {"city": "LYNCHBURG", "state": "VA", "street": "20722 TIMBERLAKE RD", "postcode": "24502"}}},
{"geometry": {"type": "Point", "coordinates": [-79.2484541203, 37.329770915]}, "type": "Feature", "properties": {"collection_times": [{"days": "Mon-Sat", "time": "10:30am"}, {"days": "Sun", "time": "Closed"}], "id": "2450200027", "name": "USPS COLLECTION BOX - BLUE BOX", "address": {"city": "LYNCHBURG", "state": "VA", "street": "3412 WATERLICK RD", "postcode": "24502"}}},
{"geometry": {"type": "Point", "coordinates": [-79.2484541203, 37.329770915]}, "type": "Feature", "properties": {"collection_times": [{"days": "Mon-Sat", "time": "10:30am"}, {"days": "Sun", "time": "Closed"}], "id": "2450200028", "name": "USPS COLLECTION BOX - BLUE BOX", "address": {"city": "LYNCHBURG", "state": "VA", "street": "3412 WATERLICK RD", "postcode": "24502"}}},
{"geometry": {"type": "Point", "coordinates": [-79.2210806295, 37.3559920585]}, "type": "Feature", "properties": {"collection_times": [{"days": "Mon-Sat", "time": "10:15am"}, {"days": "Sun", "time": "Closed"}], "id": "2450200030", "name": "USPS COLLECTION BOX - BLUE BOX", "address": {"city": "LYNCHBURG", "state": "VA", "street": "7335 TIMBERLAKE RD", "postcode": "24502"}}},
{"geometry": {"type": "Point", "coordinates": [-79.1963614328, 37.3705777516]}, "type": "Feature", "properties": {"collection_times": [{"days": "Mon-Fri", "time": "5:00pm"}, {"days": "Sat", "time": "4:30pm"}, {"days": "Sun", "time": "Closed"}], "id": "2450200032", "name": "USPS COLLECTION BOX - BLUE BOX", "address": {"city": "LYNCHBURG", "state": "VA", "street": "6020 FORT AVE", "postcode": "24502"}}},
{"geometry": {"type": "Point", "coordinates": [-79.2864842779, 37.3049482987]}, "type": "Feature", "properties": {"collection_times": [{"days": "Mon-Fri", "time": "4:30pm"}, {"days": "Sat", "time": "12:00pm"}, {"days": "Sun", "time": "Closed"}], "id": "2450200033", "name": "USPS COLLECTION BOX - BLUE BOX", "address": {"city": "LYNCHBURG", "state": "VA", "street": "21430 TIMBERLAKE RD", "postcode": "24502"}}},
{"geometry": {"type": "Point", "coordinates": [-79.1715995156, 37.3643442173]}, "type": "Feature", "properties": {"collection_times": [{"days": "Mon-Sat", "time": "2:45pm"}, {"days": "Sun", "time": "Closed"}], "id": "2450200036", "name": "USPS COLLECTION BOX - BLUE BOX", "address": {"city": "LYNCHBURG", "state": "VA", "street": "3700 CANDLERS MOUNTAIN RD", "postcode": "24502"}}},
{"geometry": {"type": "Point", "coordinates": [-79.1959781541, 37.3710379226]}, "type": "Feature", "properties": {"collection_times": [{"days": "Mon-Fri", "time": "5:00pm"}, {"days": "Sat", "time": "4:30pm"}, {"days": "Sun", "time": "Closed"}], "id": "2450200038", "name": "USPS COLLECTION BOX - BLUE BOX", "address": {"city": "LYNCHBURG", "state": "VA", "street": "6015 FORT AVE", "postcode": "24502"}}},
{"geometry": {"type": "Point", "coordinates": [-79.2855037617, 37.3052394144]}, "type": "Feature", "properties": {"collection_times": [{"days": "Mon-Sat", "time": "10:00am"}, {"days": "Sun", "time": "Closed"}], "id": "2450200040", "name": "USPS COLLECTION BOX - BLUE BOX", "address": {"city": "LYNCHBURG", "state": "VA", "street": "21039 TIMBERLAKE RD", "postcode": "24502"}}},
{"geometry": {"type": "Point", "coordinates": [-79.1963614328, 37.3705777516]}, "type": "Feature", "properties": {"collection_times": [{"days": "Mon-Fri", "time": "5:00pm"}, {"days": "Sat", "time": "10:00am"}, {"days": "Sun", "time": "Closed"}], "id": "2450200041", "name": "USPS COLLECTION BOX - PO LOBBY", "address": {"city": "LYNCHBURG", "state": "VA", "street": "6020 FORT AVE", "postcode": "24502"}}},
{"geometry": {"type": "Point", "coordinates": [-79.1898022086, 37.3427274921]}, "type": "Feature", "properties": {"collection_times": [{"days": "Mon-Sat", "time": "9:30am"}, {"days": "Sun", "time": "Closed"}], "id": "2450200044", "name": "USPS COLLECTION BOX - BLUE BOX", "address": {"city": "LYNCHBURG", "state": "VA", "street": "14074 WARDS RD", "postcode": "24502"}}},
{"geometry": {"type": "Point", "coordinates": [-79.2188790567, 37.4477539945]}, "type": "Feature", "properties": {"collection_times": [{"days": "Mon-Fri", "time": "4:30pm"}, {"days": "Sat", "time": "1:00pm"}, {"days": "Sun", "time": "Closed"}], "id": "2450300001", "name": "USPS COLLECTION BOX - BLUE BOX", "address": {"city": "LYNCHBURG", "state": "VA", "street": "4925 BOONSBORO RD", "postcode": "24503"}}},
{"geometry": {"type": "Point", "coordinates": [-79.2019886611, 37.4432508464]}, "type": "Feature", "properties": {"collection_times": [{"days": "Mon-Sat", "time": "12:00pm"}, {"days": "Sun", "time": "Closed"}], "id": "2450300003", "name": "USPS COLLECTION BOX - BLUE BOX", "address": {"city": "LYNCHBURG", "state": "VA", "street": "4119 BOONSBORO RD", "postcode": "24503"}}},
{"geometry": {"type": "Point", "coordinates": [-79.2010279859, 37.4163337038]}, "type": "Feature", "properties": {"collection_times": [{"days": "Mon-Sat", "time": "10:00am"}, {"days": "Sun", "time": "Closed"}], "id": "2450300005", "name": "USPS COLLECTION BOX - BLUE BOX", "address": {"city": "LYNCHBURG", "state": "VA", "street": "2840 LINKHORNE DR", "postcode": "24503"}}},
{"geometry": {"type": "Point", "coordinates": [-79.1705338897, 37.4348692054]}, "type": "Feature", "properties": {"collection_times": [{"days": "Mon-Fri", "time": "5:00pm"}, {"days": "Sat", "time": "3:30pm"}, {"days": "Sun", "time": "Closed"}], "id": "2450300015", "name": "USPS COLLECTION BOX - BLUE BOX", "address": {"city": "LYNCHBURG", "state": "VA", "street": "2485 RIVERMONT AVE", "postcode": "24503"}}},
{"geometry": {"type": "Point", "coordinates": [-79.1705338897, 37.4348692054]}, "type": "Feature", "properties": {"collection_times": [{"days": "Mon-Fri", "time": "5:00pm"}, {"days": "Sat-Sun", "time": "Closed"}], "id": "2450300017", "name": "USPS COLLECTION BOX - PO LOBBY", "address": {"city": "LYNCHBURG", "state": "VA", "street": "2485 RIVERMONT AVE", "postcode": "24503"}}},
{"geometry": {"type": "Point", "coordinates": [-79.1452777158, 37.413577127]}, "type": "Feature", "properties": {"collection_times": [{"days": "Mon-Fri", "time": "4:30pm"}, {"days": "Sat", "time": "4:00pm"}, {"days": "Sun", "time": "Closed"}], "id": "2450400007", "name": "USPS COLLECTION BOX - BLUE BOX", "address": {"city": "LYNCHBURG", "state": "VA", "street": "823 CLAY ST", "postcode": "24504"}}},
{"geometry": {"type": "Point", "coordinates": [-79.1437375032, 37.4133925854]}, "type": "Feature", "properties": {"collection_times": [{"days": "Mon-Fri", "time": "4:30pm"}, {"days": "Sat", "time": "4:00pm"}, {"days": "Sun", "time": "Closed"}], "id": "2450400009", "name": "USPS COLLECTION BOX - BLUE BOX", "address": {"city": "LYNCHBURG", "state": "VA", "street": "900 COURT ST", "postcode": "24504"}}},
{"geometry": {"type": "Point", "coordinates": [-79.1416211896, 37.4140928971]}, "type": "Feature", "properties": {"collection_times": [{"days": "Mon-Fri", "time": "4:30pm"}, {"days": "Sat", "time": "4:00pm"}, {"days": "Sun", "time": "Closed"}], "id": "2450400018", "name": "USPS COLLECTION BOX - BLUE BOX", "address": {"city": "LYNCHBURG", "state": "VA", "street": "924 MAIN ST", "postcode": "24504"}}},
{"geometry": {"type": "Point", "coordinates": [-79.1416211896, 37.4140928971]}, "type": "Feature", "properties": {"collection_times": [{"days": "Mon-Fri", "time": "4:30pm"}, {"days": "Sat", "time": "4:00pm"}, {"days": "Sun", "time": "Closed"}], "id": "2450400019", "name": "USPS COLLECTION BOX - BLUE BOX", "address": {"city": "LYNCHBURG", "state": "VA", "street": "924 MAIN ST", "postcode": "24504"}}},
{"geometry": {"type": "Point", "coordinates": [-79.1432359286, 37.4113093947]}, "type": "Feature", "properties": {"collection_times": [{"days": "Mon-Fri", "time": "5:00pm"}, {"days": "Sat", "time": "2:00pm"}, {"days": "Sun", "time": "Closed"}], "id": "2450500001", "name": "USPS COLLECTION BOX - BLUE BOX", "address": {"city": "LYNCHBURG", "state": "VA", "street": "1100 CLAY ST", "postcode": "24505"}}},
{"geometry": {"type": "Point", "coordinates": [-79.1432359286, 37.4113093947]}, "type": "Feature", "properties": {"collection_times": [{"days": "Mon-Fri", "time": "5:00pm"}, {"days": "Sat", "time": "10:00am"}, {"days": "Sun", "time": "Closed"}], "id": "2450500003", "name": "USPS COLLECTION BOX - PO LOBBY", "address": {"city": "LYNCHBURG", "state": "VA", "street": "1100 CLAY ST", "postcode": "24505"}}},
{"geometry": {"type": "Point", "coordinates": [-79.1585323399, 37.3799107863]}, "type": "Feature", "properties": {"collection_times": [{"days": "Mon-Sat", "time": "6:00pm"}, {"days": "Sun", "time": "Closed"}], "id": "2450600001", "name": "USPS COLLECTION BOX - BLUE BOX", "address": {"city": "LYNCHBURG", "state": "VA", "street": "3300 ODD FELLOWS RD", "postcode": "24506"}}},
{"geometry": {"type": "Point", "coordinates": [-79.1585323399, 37.3799107863]}, "type": "Feature", "properties": {"collection_times": [{"days": "Mon-Sat", "time": "6:00pm"}, {"days": "Sun", "time": "Closed"}], "id": "2450600002", "name": "USPS COLLECTION BOX - BLUE BOX", "address": {"city": "LYNCHBURG", "state": "VA", "street": "3300 ODD FELLOWS RD", "postcode": "24506"}}},
{"geometry": {"type": "Point", "coordinates": [-79.1585323399, 37.3799107863]}, "type": "Feature", "properties": {"collection_times": [{"days": "Mon-Sat", "time": "6:00pm"}, {"days": "Sun", "time": "Closed"}], "id": "2450600004", "name": "USPS COLLECTION BOX - PO LOBBY", "address": {"city": "LYNCHBURG", "state": "VA", "street": "3300 ODD FELLOWS RD", "postcode": "24506"}}},
{"geometry": {"type": "Point", "coordinates": [-79.1585323399, 37.3799107863]}, "type": "Feature", "properties": {"collection_times": [{"days": "Mon-Sat", "time": "6:00pm"}, {"days": "Sun", "time": "Closed"}], "id": "2450600006", "name": "USPS COLLECTION BOX - PO LOBBY", "address": {"city": "LYNCHBURG", "state": "VA", "street": "3300 ODD FELLOWS RD", "postcode": "24506"}}},
{"geometry": {"type": "Point", "coordinates": [-79.1585323399, 37.3799107863]}, "type": "Feature", "properties": {"collection_times": [{"days": "Mon-Sat", "time": "6:00pm"}, {"days": "Sun", "time": "Closed"}], "id": "2450600009", "name": "USPS COLLECTION BOX - APC", "address": {"city": "LYNCHBURG", "state": "VA", "street": "3300 ODD FELLOWS RD", "postcode": "24506"}}},
{"geometry": {"type": "Point", "coordinates": [-79.2875349112, 37.1115827175]}, "type": "Feature", "properties": {"collection_times": [{"days": "Mon-Fri", "time": "2:30pm"}, {"days": "Sat-Sun", "time": "Closed"}], "id": "2451700002", "name": "USPS COLLECTION BOX - BLUE BOX", "address": {"city": "ALTAVISTA", "state": "VA", "street": "717 7TH ST", "postcode": "24517"}}},
{"geometry": {"type": "Point", "coordinates": [-79.2910411255, 37.1095714261]}, "type": "Feature", "properties": {"collection_times": [{"days": "Mon-Fri", "time": "5:00pm"}, {"days": "Sat", "time": "12:00pm"}, {"days": "Sun", "time": "Closed"}], "id": "2451700004", "name": "USPS COLLECTION BOX - BLUE BOX", "address": {"city": "ALTAVISTA", "state": "VA", "street": "700 BROAD ST", "postcode": "24517"}}},
{"geometry": {"type": "Point", "coordinates": [-79.2740992709, 37.1209251345]}, "type": "Feature", "properties": {"collection_times": [{"days": "Mon-Fri", "time": "10:00am"}, {"days": "Sat-Sun", "time": "Closed"}], "id": "2451700007", "name": "USPS COLLECTION BOX - BLUE BOX", "address": {"city": "ALTAVISTA", "state": "VA", "street": "1301 MAIN ST", "postcode": "24517"}}},
{"geometry": {"type": "Point", "coordinates": [-79.2910411255, 37.1095714261]}, "type": "Feature", "properties": {"collection_times": [{"days": "Mon-Fri", "time": "5:00pm"}, {"days": "Sat", "time": "12:00pm"}, {"days": "Sun", "time": "Closed"}], "id": "2451700009", "name": "USPS COLLECTION BOX - PO LOBBY", "address": {"city": "ALTAVISTA", "state": "VA", "street": "700 BROAD ST", "postcode": "24517"}}},
{"geometry": {"type": "Point", "coordinates": [-79.038422948, 36.5830579885]}, "type": "Feature", "properties": {"collection_times": [{"days": "Mon-Fri", "time": "11:45am"}, {"days": "Sat", "time": "10:45am"}, {"days": "Sun", "time": "Closed"}], "id": "2452000000", "name": "USPS COLLECTION BOX - BLUE BOX", "address": {"city": "ALTON", "state": "VA", "street": "2041 BLANE RD", "postcode": "24520"}}},
{"geometry": {"type": "Point", "coordinates": [-79.038422948, 36.5830579885]}, "type": "Feature", "properties": {"collection_times": [{"days": "Mon-Fri", "time": "11:45am"}, {"days": "Sat", "time": "10:45am"}, {"days": "Sun", "time": "Closed"}], "id": "2452000001", "name": "USPS COLLECTION BOX - PO LOBBY", "address": {"city": "ALTON", "state": "VA", "street": "2041 BLANE RD", "postcode": "24520"}}},
{"geometry": {"type": "Point", "coordinates": [-78.977713478, 36.599807995]}, "type": "Feature", "properties": {"collection_times": [{"days": "Mon-Sat", "time": "11:00am"}, {"days": "Sun", "time": "Closed"}], "id": "2452000003", "name": "USPS COLLECTION BOX - BLUE BOX", "address": {"city": "ALTON", "state": "VA", "street": "5013 CLUSTER SPRINGS RD", "postcode": "24520"}}},
{"geometry": {"type": "Point", "coordinates": [-79.050958797, 37.5876655532]}, "type": "Feature", "properties": {"collection_times": [{"days": "Mon-Fri", "time": "4:15pm"}, {"days": "Sat", "time": "11:45am"}, {"days": "Sun", "time": "Closed"}], "id": "2452100000", "name": "USPS COLLECTION BOX - BLUE BOX", "address": {"city": "AMHERST", "state": "VA", "street": "120 S MAIN ST", "postcode": "24521"}}},
{"geometry": {"type": "Point", "coordinates": [-79.050958797, 37.5876655532]}, "type": "Feature", "properties": {"collection_times": [{"days": "Mon-Fri", "time": "4:15pm"}, {"days": "Sat", "time": "11:45am"}, {"days": "Sun", "time": "Closed"}], "id": "2452100001", "name": "USPS COLLECTION BOX - PO LOBBY", "address": {"city": "AMHERST", "state": "VA", "street": "120 S MAIN ST", "postcode": "24521"}}},
{"geometry": {"type": "Point", "coordinates": [-78.7816615221, 37.3665825617]}, "type": "Feature", "properties": {"collection_times": [{"days": "Mon-Sat", "time": "9:00am"}, {"days": "Sun", "time": "Closed"}], "id": "2452200000", "name": "USPS COLLECTION BOX - BLUE BOX", "address": {"city": "APPOMATTOX", "state": "VA", "street": "7789 RICHMOND HWY", "postcode": "24522"}}},
{"geometry": {"type": "Point", "coordinates": [-78.8327021687, 37.3620368593]}, "type": "Feature", "properties": {"collection_times": [{"days": "Mon-Fri", "time": "4:30pm"}, {"days": "Sat", "time": "11:00am"}, {"days": "Sun", "time": "Closed"}], "id": "2452200001", "name": "USPS COLLECTION BOX - BLUE BOX", "address": {"city": "APPOMATTOX", "state": "VA", "street": "791 COURT ST", "postcode": "24522"}}},
{"geometry": {"type": "Point", "coordinates": [-78.8325115264, 37.3614928569]}, "type": "Feature", "properties": {"collection_times": [{"days": "Mon-Fri", "time": "4:30pm"}, {"days": "Sat", "time": "11:00am"}, {"days": "Sun", "time": "Closed"}], "id": "2452200002", "name": "USPS COLLECTION BOX - BLUE BOX", "address": {"city": "APPOMATTOX", "state": "VA", "street": "791 COURT ST", "postcode": "24522"}}},
{"geometry": {"type": "Point", "coordinates": [-78.8327021687, 37.3620368593]}, "type": "Feature", "properties": {"collection_times": [{"days": "Mon-Fri", "time": "4:30pm"}, {"days": "Sat", "time": "11:00am"}, {"days": "Sun", "time": "Closed"}], "id": "2452200003", "name": "USPS COLLECTION BOX - PO LOBBY", "address": {"city": "APPOMATTOX", "state": "VA", "street": "791 COURT ST", "postcode": "24522"}}},
{"geometry": {"type": "Point", "coordinates": [-78.8325115264, 37.3614928569]}, "type": "Feature", "properties": {"collection_times": [{"days": "Mon-Fri", "time": "4:30pm"}, {"days": "Sat", "time": "11:00am"}, {"days": "Sun", "time": "Closed"}], "id": "2452200004", "name": "USPS COLLECTION BOX - PO LOBBY", "address": {"city": "APPOMATTOX", "state": "VA", "street": "791 COURT ST", "postcode": "24522"}}},
{"geometry": {"type": "Point", "coordinates": [-79.4979049129, 37.3240753639]}, "type": "Feature", "properties": {"collection_times": [{"days": "Mon-Sat", "time": "11:30am"}, {"days": "Sun", "time": "Closed"}], "id": "2452300000", "name": "USPS COLLECTION BOX - BLUE BOX", "address": {"city": "BEDFORD", "state": "VA", "street": "1128 E LYNCHBURG SALEM TPKE", "postcode": "24523"}}},
{"geometry": {"type": "Point", "coordinates": [-79.5035403112, 37.3481337032]}, "type": "Feature", "properties": {"collection_times": [{"days": "Mon-Sat", "time": "1:30pm"}, {"days": "Sun", "time": "Closed"}], "id": "2452300003", "name": "USPS COLLECTION BOX - BLUE BOX", "address": {"city": "BEDFORD", "state": "VA", "street": "1621 FOREST RD", "postcode": "24523"}}},
{"geometry": {"type": "Point", "coordinates": [-79.5166061293, 37.35082264]}, "type": "Feature", "properties": {"collection_times": [{"days": "Mon-Sat", "time": "12:00pm"}, {"days": "Sun", "time": "Closed"}], "id": "2452300004", "name": "USPS COLLECTION BOX - BLUE BOX", "address": {"city": "BEDFORD", "state": "VA", "street": "1613 OAKWOOD ST", "postcode": "24523"}}},
{"geometry": {"type": "Point", "coordinates": [-79.5335628421, 37.3394162887]}, "type": "Feature", "properties": {"collection_times": [{"days": "Mon-Sat", "time": "10:15am"}, {"days": "Sun", "time": "Closed"}], "id": "2452300010", "name": "USPS COLLECTION BOX - BLUE BOX", "address": {"city": "BEDFORD", "state": "VA", "street": "906 ASHLAND AVE", "postcode": "24523"}}},
{"geometry": {"type": "Point", "coordinates": [-79.5313132722, 37.335492166]}, "type": "Feature", "properties": {"collection_times": [{"days": "Mon-Sat", "time": "3:30pm"}, {"days": "Sun", "time": "Closed"}], "id": "2452300011", "name": "USPS COLLECTION BOX - BLUE BOX", "address": {"city": "BEDFORD", "state": "VA", "street": "510 BLUE RIDGE AVE", "postcode": "24523"}}},
{"geometry": {"type": "Point", "coordinates": [-79.51904518, 37.3330817474]}, "type": "Feature", "properties": {"collection_times": [{"days": "Mon-Fri", "time": "5:00pm"}, {"days": "Sat", "time": "3:30pm"}, {"days": "Sun", "time": "Closed"}], "id": "2452300015", "name": "USPS COLLECTION BOX - BLUE BOX", "address": {"city": "BEDFORD", "state": "VA", "street": "500 E MAIN ST", "postcode": "24523"}}},
{"geometry": {"type": "Point", "coordinates": [-79.522932912, 37.334327919]}, "type": "Feature", "properties": {"collection_times": [{"days": "Mon-Fri", "time": "3:30pm"}, {"days": "Sat", "time": "10:00am"}, {"days": "Sun", "time": "Closed"}], "id": "2452300016", "name": "USPS COLLECTION BOX - BLUE BOX", "address": {"city": "BEDFORD", "state": "VA", "street": "119 E MAIN ST", "postcode": "24523"}}},
{"geometry": {"type": "Point", "coordinates": [-79.51904518, 37.3330817474]}, "type": "Feature", "properties": {"collection_times": [{"days": "Mon-Fri", "time": "5:00pm"}, {"days": "Sat", "time": "3:30pm"}, {"days": "Sun", "time": "Closed"}], "id": "2452300017", "name": "USPS COLLECTION BOX - PO LOBBY", "address": {"city": "BEDFORD", "state": "VA", "street": "500 E MAIN ST", "postcode": "24523"}}},
{"geometry": {"type": "Point", "coordinates": [-79.3608305836, 37.535290592]}, "type": "Feature", "properties": {"collection_times": [{"days": "Mon-Fri", "time": "3:30pm"}, {"days": "Sat", "time": "10:00am"}, {"days": "Sun", "time": "Closed"}], "id": "2452600000", "name": "USPS COLLECTION BOX - BLUE BOX", "address": {"city": "BIG ISLAND", "state": "VA", "street": "10830 LEE JACKSON HWY", "postcode": "24526"}}},
{"geometry": {"type": "Point", "coordinates": [-79.3608305836, 37.535290592]}, "type": "Feature", "properties": {"collection_times": [{"days": "Mon-Fri", "time": "3:30pm"}, {"days": "Sat", "time": "10:00am"}, {"days": "Sun", "time": "Closed"}], "id": "2452600001", "name": "USPS COLLECTION BOX - PO LOBBY", "address": {"city": "BIG ISLAND", "state": "VA", "street": "10830 LEE JACKSON HWY", "postcode": "24526"}}},
{"geometry": {"type": "Point", "coordinates": [-79.366881842, 36.6952481954]}, "type": "Feature", "properties": {"collection_times": [{"days": "Mon-Fri", "time": "4:15pm"}, {"days": "Sat", "time": "10:45am"}, {"days": "Sun", "time": "Closed"}], "id": "2452700000", "name": "USPS COLLECTION BOX - BLUE BOX", "address": {"city": "BLAIRS", "state": "VA", "street": "5601 U S HIGHWAY 29", "postcode": "24527"}}},
{"geometry": {"type": "Point", "coordinates": [-79.366881842, 36.6952481954]}, "type": "Feature", "properties": {"collection_times": [{"days": "Mon-Fri", "time": "4:30pm"}, {"days": "Sat", "time": "11:00am"}, {"days": "Sun", "time": "Closed"}], "id": "2452700001", "name": "USPS COLLECTION BOX - PO LOBBY", "address": {"city": "BLAIRS", "state": "VA", "street": "5601 U S HIGHWAY 29", "postcode": "24527"}}},
{"geometry": {"type": "Point", "coordinates": [-78.9425690872, 37.044688548]}, "type": "Feature", "properties": {"collection_times": [{"days": "Mon-Fri", "time": "4:30pm"}, {"days": "Sat", "time": "11:00am"}, {"days": "Sun", "time": "Closed"}], "id": "2452800000", "name": "USPS COLLECTION BOX - BLUE BOX", "address": {"city": "BROOKNEAL", "state": "VA", "street": "101 TODD ST", "postcode": "24528"}}},
{"geometry": {"type": "Point", "coordinates": [-78.9425690872, 37.044688548]}, "type": "Feature", "properties": {"collection_times": [{"days": "Mon-Fri", "time": "4:30pm"}, {"days": "Sat", "time": "11:00am"}, {"days": "Sun", "time": "Closed"}], "id": "2452800001", "name": "USPS COLLECTION BOX - PO LOBBY", "address": {"city": "BROOKNEAL", "state": "VA", "street": "101 TODD ST", "postcode": "24528"}}},
{"geometry": {"type": "Point", "coordinates": [-78.9425690872, 37.044688548]}, "type": "Feature", "properties": {"collection_times": [{"days": "Mon-Fri", "time": "4:30pm"}, {"days": "Sat", "time": "11:00am"}, {"days": "Sun", "time": "Closed"}], "id": "2452800002", "name": "USPS COLLECTION BOX - PO LOBBY", "address": {"city": "BROOKNEAL", "state": "VA", "street": "101 TODD ST", "postcode": "24528"}}},
{"geometry": {"type": "Point", "coordinates": [-78.6785366835, 36.6548857748]}, "type": "Feature", "properties": {"collection_times": [{"days": "Mon-Fri", "time": "3:45pm"}, {"days": "Sat", "time": "10:00am"}, {"days": "Sun", "time": "Closed"}], "id": "2452900000", "name": "USPS COLLECTION BOX - BLUE BOX", "address": {"city": "BUFFALO JUNCTION", "state": "VA", "street": "7199 HIGHWAY 49", "postcode": "24529"}}},
{"geometry": {"type": "Point", "coordinates": [-78.6785366835, 36.6548857748]}, "type": "Feature", "properties": {"collection_times": [{"days": "Mon-Fri", "time": "3:45pm"}, {"days": "Sat", "time": "10:00am"}, {"days": "Sun", "time": "Closed"}], "id": "2452900001", "name": "USPS COLLECTION BOX - PO LOBBY", "address": {"city": "BUFFALO JUNCTION", "state": "VA", "street": "7199 HIGHWAY 49", "postcode": "24529"}}},
{"geometry": {"type": "Point", "coordinates": [-79.6045103971, 36.8084100842]}, "type": "Feature", "properties": {"collection_times": [{"days": "Mon-Fri", "time": "11:45am"}, {"days": "Sat", "time": "11:15am"}, {"days": "Sun", "time": "Closed"}], "id": "2453000000", "name": "USPS COLLECTION BOX - BLUE BOX", "address": {"city": "CALLANDS", "state": "VA", "street": "12001 CALLANDS RD", "postcode": "24530"}}},
{"geometry": {"type": "Point", "coordinates": [-79.6045103971, 36.8084100842]}, "type": "Feature", "properties": {"collection_times": [{"days": "Mon-Fri", "time": "11:45am"}, {"days": "Sat", "time": "11:15am"}, {"days": "Sun", "time": "Closed"}], "id": "2453000001", "name": "USPS COLLECTION BOX - PO LOBBY", "address": {"city": "CALLANDS", "state": "VA", "street": "12001 CALLANDS RD", "postcode": "24530"}}},
{"geometry": {"type": "Point", "coordinates": [-79.3979221743, 36.8245203669]}, "type": "Feature", "properties": {"collection_times": [{"days": "Mon-Fri", "time": "4:30pm"}, {"days": "Sat", "time": "11:30am"}, {"days": "Sun", "time": "Closed"}], "id": "2453100000", "name": "USPS COLLECTION BOX - BLUE BOX", "address": {"city": "CHATHAM", "state": "VA", "street": "31 S MAIN ST", "postcode": "24531"}}},
{"geometry": {"type": "Point", "coordinates": [-79.39830203, 36.8250613698]}, "type": "Feature", "properties": {"collection_times": [{"days": "Mon-Fri", "time": "4:30pm"}, {"days": "Sat", "time": "11:30am"}, {"days": "Sun", "time": "Closed"}], "id": "2453100001", "name": "USPS COLLECTION BOX - BLUE BOX", "address": {"city": "CHATHAM", "state": "VA", "street": "12 N MAIN ST", "postcode": "24531"}}},
{"geometry": {"type": "Point", "coordinates": [-79.4506040464, 36.8381087893]}, "type": "Feature", "properties": {"collection_times": [{"days": "Mon-Sat", "time": "4:00pm"}, {"days": "Sun", "time": "Closed"}], "id": "2453100002", "name": "USPS COLLECTION BOX - BLUE BOX", "address": {"city": "CHATHAM", "state": "VA", "street": "13701 US HIGHWAY 29", "postcode": "24531"}}},
{"geometry": {"type": "Point", "coordinates": [-79.3979221743, 36.8245203669]}, "type": "Feature", "properties": {"collection_times": [{"days": "Mon-Fri", "time": "5:00pm"}, {"days": "Sat", "time": "2:15pm"}, {"days": "Sun", "time": "Closed"}], "id": "2453100003", "name": "USPS COLLECTION BOX - PO LOBBY", "address": {"city": "CHATHAM", "state": "VA", "street": "31 S MAIN ST", "postcode": "24531"}}},
{"geometry": {"type": "Point", "coordinates": [-79.0512924186, 37.5868170257]}, "type": "Feature", "properties": {"collection_times": [{"days": "Mon-Fri", "time": "11:45am"}, {"days": "Sat", "time": "11:00am"}, {"days": "Sun", "time": "Closed"}], "id": "2453300000", "name": "USPS COLLECTION BOX - BLUE BOX", "address": {"city": "CLIFFORD", "state": "VA", "street": "120 TURKEY MOUNTAIN RD", "postcode": "24533"}}},
{"geometry": {"type": "Point", "coordinates": [-79.0512924186, 37.5868170257]}, "type": "Feature", "properties": {"collection_times": [{"days": "Mon-Fri", "time": "11:45am"}, {"days": "Sat", "time": "11:00am"}, {"days": "Sun", "time": "Closed"}], "id": "2453300001", "name": "USPS COLLECTION BOX - PO LOBBY", "address": {"city": "CLIFFORD", "state": "VA", "street": "120 TURKEY MOUNTAIN RD", "postcode": "24533"}}},
{"geometry": {"type": "Point", "coordinates": [-78.7334201767, 36.8330837272]}, "type": "Feature", "properties": {"collection_times": [{"days": "Mon-Fri", "time": "12:00pm"}, {"days": "Sat", "time": "11:00am"}, {"days": "Sun", "time": "Closed"}], "id": "2453400000", "name": "USPS COLLECTION BOX - BLUE BOX", "address": {"city": "CLOVER", "state": "VA", "street": "101 S MAIN ST", "postcode": "24534"}}},
{"geometry": {"type": "Point", "coordinates": [-78.7334201767, 36.8330837272]}, "type": "Feature", "properties": {"collection_times": [{"days": "Mon-Fri", "time": "12:00pm"}, {"days": "Sat", "time": "11:00am"}, {"days": "Sun", "time": "Closed"}], "id": "2453400001", "name": "USPS COLLECTION BOX - PO LOBBY", "address": {"city": "CLOVER", "state": "VA", "street": "101 S MAIN ST", "postcode": "24534"}}},
{"geometry": {"type": "Point", "coordinates": [-78.9255017968, 36.6165700446]}, "type": "Feature", "properties": {"collection_times": [{"days": "Mon-Fri", "time": "2:45pm"}, {"days": "Sat", "time": "1:45pm"}, {"days": "Sun", "time": "Closed"}], "id": "2453500000", "name": "USPS COLLECTION BOX - BLUE BOX", "address": {"city": "CLUSTER SPRINGS", "state": "VA", "street": "6225 HUELL MATTHEWS HWY", "postcode": "24535"}}},
{"geometry": {"type": "Point", "coordinates": [-78.9255017968, 36.6165700446]}, "type": "Feature", "properties": {"collection_times": [{"days": "Mon-Fri", "time": "2:45pm"}, {"days": "Sat", "time": "1:45pm"}, {"days": "Sun", "time": "Closed"}], "id": "2453500001", "name": "USPS COLLECTION BOX - PO LOBBY", "address": {"city": "CLUSTER SPRINGS", "state": "VA", "street": "6225 HUELL MATTHEWS HWY", "postcode": "24535"}}},
{"geometry": {"type": "Point", "coordinates": [-79.3164762581, 37.4875155196]}, "type": "Feature", "properties": {"collection_times": [{"days": "Mon-Sat", "time": "2:00pm"}, {"days": "Sun", "time": "Closed"}], "id": "2453600000", "name": "USPS COLLECTION BOX - PO LOBBY", "address": {"city": "COLEMAN FALLS", "state": "VA", "street": "6285 LEE JACKSON HWY", "postcode": "24536"}}},
{"geometry": {"type": "Point", "coordinates": [-78.9758362472, 37.3491540664]}, "type": "Feature", "properties": {"collection_times": [{"days": "Mon-Fri", "time": "5:00pm"}, {"days": "Sat", "time": "10:00am"}, {"days": "Sun", "time": "Closed"}], "id": "2453800000", "name": "USPS COLLECTION BOX - BLUE BOX", "address": {"city": "CONCORD", "state": "VA", "street": "10275 VILLAGE HWY", "postcode": "24538"}}},
{"geometry": {"type": "Point", "coordinates": [-78.9758362472, 37.3491540664]}, "type": "Feature", "properties": {"collection_times": [{"days": "Mon-Fri", "time": "5:00pm"}, {"days": "Sat", "time": "10:00am"}, {"days": "Sun", "time": "Closed"}], "id": "2453800001", "name": "USPS COLLECTION BOX - PO LOBBY", "address": {"city": "CONCORD", "state": "VA", "street": "10275 VILLAGE HWY", "postcode": "24538"}}},
{"geometry": {"type": "Point", "coordinates": [-78.8865012482, 36.8671382686]}, "type": "Feature", "properties": {"collection_times": [{"days": "Mon-Sat", "time": "11:45am"}, {"days": "Sun", "time": "Closed"}], "id": "2453900000", "name": "USPS COLLECTION BOX - BLUE BOX", "address": {"city": "CRYSTAL HILL", "state": "VA", "street": "6200 HOWARD P ANDERSON RD", "postcode": "24539"}}},
{"geometry": {"type": "Point", "coordinates": [-79.4072882627, 36.6253541944]}, "type": "Feature", "properties": {"collection_times": [{"days": "Mon-Sat", "time": "1:00pm"}, {"days": "Sun", "time": "Closed"}], "id": "2454000012", "name": "USPS COLLECTION BOX - BLUE BOX", "address": {"city": "DANVILLE", "state": "VA", "street": "3303 U S HIGHWAY 29", "postcode": "24540"}}},
{"geometry": {"type": "Point", "coordinates": [-79.39803918, 36.6275070701]}, "type": "Feature", "properties": {"collection_times": [{"days": "Mon-Sat", "time": "3:00pm"}, {"days": "Sun", "time": "Closed"}], "id": "2454000013", "name": "USPS COLLECTION BOX - BLUE BOX", "address": {"city": "DANVILLE", "state": "VA", "street": "259 NOR DAN DR", "postcode": "24540"}}},
{"geometry": {"type": "Point", "coordinates": [-79.3989692543, 36.5988125237]}, "type": "Feature", "properties": {"collection_times": [{"days": "Mon-Sat", "time": "11:00am"}, {"days": "Sun", "time": "Closed"}], "id": "2454000025", "name": "USPS COLLECTION BOX - BLUE BOX", "address": {"city": "DANVILLE", "state": "VA", "street": "144 ARNETT BLVD", "postcode": "24540"}}},
{"geometry": {"type": "Point", "coordinates": [-79.3537665485, 36.5830291859]}, "type": "Feature", "properties": {"collection_times": [{"days": "Mon-Sat", "time": "11:00am"}, {"days": "Sun", "time": "Closed"}], "id": "2454000026", "name": "USPS COLLECTION BOX - BLUE BOX", "address": {"city": "DANVILLE", "state": "VA", "street": "1251 S BOSTON RD", "postcode": "24540"}}},
{"geometry": {"type": "Point", "coordinates": [-79.3971453335, 36.6127495591]}, "type": "Feature", "properties": {"collection_times": [{"days": "Mon-Sat", "time": "9:00am"}, {"days": "Sun", "time": "Closed"}], "id": "2454000033", "name": "USPS COLLECTION BOX - BLUE BOX", "address": {"city": "DANVILLE", "state": "VA", "street": "602 ARNETT BLVD", "postcode": "24540"}}},
{"geometry": {"type": "Point", "coordinates": [-79.3804668872, 36.6002668866]}, "type": "Feature", "properties": {"collection_times": [{"days": "Mon-Sat", "time": "1:00pm"}, {"days": "Sun", "time": "Closed"}], "id": "2454000043", "name": "USPS COLLECTION BOX - BLUE BOX", "address": {"city": "DANVILLE", "state": "VA", "street": "1210 N MAIN ST", "postcode": "24540"}}},
{"geometry": {"type": "Point", "coordinates": [-79.4281301491, 36.5950692804]}, "type": "Feature", "properties": {"collection_times": [{"days": "Mon-Sat", "time": "11:00am"}, {"days": "Sun", "time": "Closed"}], "id": "2454000056", "name": "USPS COLLECTION BOX - BLUE BOX", "address": {"city": "DANVILLE", "state": "VA", "street": "515 MOUNT CROSS RD", "postcode": "24540"}}},
{"geometry": {"type": "Point", "coordinates": [-79.4113643133, 36.6582293021]}, "type": "Feature", "properties": {"collection_times": [{"days": "Mon-Sat", "time": "1:00pm"}, {"days": "Sun", "time": "Closed"}], "id": "2454000059", "name": "USPS COLLECTION BOX - BLUE BOX", "address": {"city": "DANVILLE", "state": "VA", "street": "2725 FRANKLIN TPKE", "postcode": "24540"}}},
{"geometry": {"type": "Point", "coordinates": [-79.4300232153, 36.5923465199]}, "type": "Feature", "properties": {"collection_times": [{"days": "Mon-Sat", "time": "9:00am"}, {"days": "Sun", "time": "Closed"}], "id": "2454100023", "name": "USPS COLLECTION BOX - BLUE BOX", "address": {"city": "DANVILLE", "state": "VA", "street": "125 EXECUTIVE DR", "postcode": "24541"}}},
{"geometry": {"type": "Point", "coordinates": [-79.3954073514, 36.586117682]}, "type": "Feature", "properties": {"collection_times": [{"days": "Mon-Fri", "time": "4:30pm"}, {"days": "Sat", "time": "1:00pm"}, {"days": "Sun", "time": "Closed"}], "id": "2454100038", "name": "USPS COLLECTION BOX - BLUE BOX", "address": {"city": "DANVILLE", "state": "VA", "street": "700 MAIN ST", "postcode": "24541"}}},
{"geometry": {"type": "Point", "coordinates": [-79.4029038108, 36.5542925418]}, "type": "Feature", "properties": {"collection_times": [{"days": "Mon-Sat", "time": "10:00am"}, {"days": "Sun", "time": "Closed"}], "id": "2454100064", "name": "USPS COLLECTION BOX - BLUE BOX", "address": {"city": "DANVILLE", "state": "VA", "street": "1449 S MAIN ST", "postcode": "24541"}}},
{"geometry": {"type": "Point", "coordinates": [-79.4167842305, 36.5730231924]}, "type": "Feature", "properties": {"collection_times": [{"days": "Mon-Sat", "time": "1:00pm"}, {"days": "Sun", "time": "Closed"}], "id": "2454100070", "name": "USPS COLLECTION BOX - BLUE BOX", "address": {"city": "DANVILLE", "state": "VA", "street": "568 W MAIN ST", "postcode": "24541"}}},
{"geometry": {"type": "Point", "coordinates": [-79.4570792542, 36.5595054373]}, "type": "Feature", "properties": {"collection_times": [{"days": "Mon-Sat", "time": "9:00am"}, {"days": "Sun", "time": "Closed"}], "id": "2454100074", "name": "USPS COLLECTION BOX - BLUE BOX", "address": {"city": "DANVILLE", "state": "VA", "street": "2306 W MAIN ST", "postcode": "24541"}}},
{"geometry": {"type": "Point", "coordinates": [-79.4389748035, 36.5854856004]}, "type": "Feature", "properties": {"collection_times": [{"days": "Mon-Sat", "time": "9:00am"}, {"days": "Sun", "time": "Closed"}], "id": "2454100076", "name": "USPS COLLECTION BOX - BLUE BOX", "address": {"city": "DANVILLE", "state": "VA", "street": "778 WESTOVER DR", "postcode": "24541"}}},
{"geometry": {"type": "Point", "coordinates": [-79.3921503874, 36.5866148195]}, "type": "Feature", "properties": {"collection_times": [{"days": "Mon-Fri", "time": "4:30pm"}, {"days": "Sat-Sun", "time": "Closed"}], "id": "2454100079", "name": "USPS COLLECTION BOX - BLUE BOX", "address": {"city": "DANVILLE", "state": "VA", "street": "427 PATTON ST", "postcode": "24541"}}},
{"geometry": {"type": "Point", "coordinates": [-79.3909207733, 36.5871905913]}, "type": "Feature", "properties": {"collection_times": [{"days": "Mon-Fri", "time": "4:30pm"}, {"days": "Sat-Sun", "time": "Closed"}], "id": "2454100080", "name": "USPS COLLECTION BOX - BLUE BOX", "address": {"city": "DANVILLE", "state": "VA", "street": "319 PATTON ST", "postcode": "24541"}}},
{"geometry": {"type": "Point", "coordinates": [-79.4190981383, 36.5724561065]}, "type": "Feature", "properties": {"collection_times": [{"days": "Mon-Fri", "time": "3:00pm"}, {"days": "Sat", "time": "1:00pm"}, {"days": "Sun", "time": "Closed"}], "id": "2454100084", "name": "USPS COLLECTION BOX - BLUE BOX", "address": {"city": "DANVILLE", "state": "VA", "street": "643 W MAIN ST", "postcode": "24541"}}},
{"geometry": {"type": "Point", "coordinates": [-79.4528586804, 36.5825515452]}, "type": "Feature", "properties": {"collection_times": [{"days": "Mon-Sat", "time": "9:00am"}, {"days": "Sun", "time": "Closed"}], "id": "2454100087", "name": "USPS COLLECTION BOX - BLUE BOX", "address": {"city": "DANVILLE", "state": "VA", "street": "159 EXECUTIVE DR", "postcode": "24541"}}},
{"geometry": {"type": "Point", "coordinates": [-79.3954073514, 36.586117682]}, "type": "Feature", "properties": {"collection_times": [{"days": "Mon-Fri", "time": "4:30pm"}, {"days": "Sat", "time": "1:00pm"}, {"days": "Sun", "time": "Closed"}], "id": "2454100095", "name": "USPS COLLECTION BOX - BLUE BOX", "address": {"city": "DANVILLE", "state": "VA", "street": "700 MAIN ST", "postcode": "24541"}}},
{"geometry": {"type": "Point", "coordinates": [-79.4007420012, 36.5812895483]}, "type": "Feature", "properties": {"collection_times": [{"days": "Mon-Sat", "time": "11:00am"}, {"days": "Sun", "time": "Closed"}], "id": "2454100096", "name": "USPS COLLECTION BOX - BLUE BOX", "address": {"city": "DANVILLE", "state": "VA", "street": "990 MAIN ST", "postcode": "24541"}}},
{"geometry": {"type": "Point", "coordinates": [-79.404470375, 36.577613492]}, "type": "Feature", "properties": {"collection_times": [{"days": "Mon-Sat", "time": "11:00am"}, {"days": "Sun", "time": "Closed"}], "id": "2454100097", "name": "USPS COLLECTION BOX - BLUE BOX", "address": {"city": "DANVILLE", "state": "VA", "street": "155 S MAIN ST", "postcode": "24541"}}},
{"geometry": {"type": "Point", "coordinates": [-79.4133068337, 36.5767896431]}, "type": "Feature", "properties": {"collection_times": [{"days": "Mon-Sat", "time": "1:00pm"}, {"days": "Sun", "time": "Closed"}], "id": "2454100098", "name": "USPS COLLECTION BOX - BLUE BOX", "address": {"city": "DANVILLE", "state": "VA", "street": "420 W MAIN ST", "postcode": "24541"}}},
{"geometry": {"type": "Point", "coordinates": [-79.4301444477, 36.5881977489]}, "type": "Feature", "properties": {"collection_times": [{"days": "Mon-Fri", "time": "5:00pm"}, {"days": "Sat", "time": "3:00pm"}, {"days": "Sun", "time": "Closed"}], "id": "2454100104", "name": "USPS COLLECTION BOX - BLUE BOX", "address": {"city": "DANVILLE", "state": "VA", "street": "105 TEAL CT", "postcode": "24541"}}},
{"geometry": {"type": "Point", "coordinates": [-79.4301444477, 36.5881977489]}, "type": "Feature", "properties": {"collection_times": [{"days": "Mon-Fri", "time": "5:00pm"}, {"days": "Sat", "time": "3:00pm"}, {"days": "Sun", "time": "Closed"}], "id": "2454100105", "name": "USPS COLLECTION BOX - BLUE BOX", "address": {"city": "DANVILLE", "state": "VA", "street": "105 TEAL CT", "postcode": "24541"}}},
{"geometry": {"type": "Point", "coordinates": [-79.4301444477, 36.5881977489]}, "type": "Feature", "properties": {"collection_times": [{"days": "Mon-Fri", "time": "5:00pm"}, {"days": "Sat", "time": "3:00pm"}, {"days": "Sun", "time": "Closed"}], "id": "2454100111", "name": "USPS COLLECTION BOX - PO LOBBY", "address": {"city": "DANVILLE", "state": "VA", "street": "105 TEAL CT", "postcode": "24541"}}},
{"geometry": {"type": "Point", "coordinates": [-79.3962700118, 36.7556013276]}, "type": "Feature", "properties": {"collection_times": [{"days": "Mon-Fri", "time": "2:15pm"}, {"days": "Sat", "time": "10:30am"}, {"days": "Sun", "time": "Closed"}], "id": "2454900000", "name": "USPS COLLECTION BOX - BLUE BOX", "address": {"city": "DRY FORK", "state": "VA", "street": "656 DRY FORK RD", "postcode": "24549"}}},
{"geometry": {"type": "Point", "coordinates": [-79.3962700118, 36.7556013276]}, "type": "Feature", "properties": {"collection_times": [{"days": "Mon-Fri", "time": "2:15pm"}, {"days": "Sat", "time": "10:45am"}, {"days": "Sun", "time": "Closed"}], "id": "2454900001", "name": "USPS COLLECTION BOX - PO LOBBY", "address": {"city": "DRY FORK", "state": "VA", "street": "656 DRY FORK RD", "postcode": "24549"}}},
{"geometry": {"type": "Point", "coordinates": [-79.2812939491, 37.2327047526]}, "type": "Feature", "properties": {"collection_times": [{"days": "Mon-Fri", "time": "4:45pm"}, {"days": "Sat", "time": "9:45am"}, {"days": "Sun", "time": "Closed"}], "id": "2455000000", "name": "USPS COLLECTION BOX - BLUE BOX", "address": {"city": "EVINGTON", "state": "VA", "street": "11496 LEESVILLE RD", "postcode": "24550"}}},
{"geometry": {"type": "Point", "coordinates": [-79.2812939491, 37.2327047526]}, "type": "Feature", "properties": {"collection_times": [{"days": "Mon-Fri", "time": "4:45pm"}, {"days": "Sat", "time": "9:45am"}, {"days": "Sun", "time": "Closed"}], "id": "2455000001", "name": "USPS COLLECTION BOX - PO LOBBY", "address": {"city": "EVINGTON", "state": "VA", "street": "11496 LEESVILLE RD", "postcode": "24550"}}},
{"geometry": {"type": "Point", "coordinates": [-79.2965840823, 37.3668384187]}, "type": "Feature", "properties": {"collection_times": [{"days": "Mon-Fri", "time": "5:00pm"}, {"days": "Sat", "time": "11:30am"}, {"days": "Sun", "time": "Closed"}], "id": "2455100000", "name": "USPS COLLECTION BOX - BLUE BOX", "address": {"city": "FOREST", "state": "VA", "street": "14805 FOREST RD", "postcode": "24551"}}},
{"geometry": {"type": "Point", "coordinates": [-79.2476054616, 37.3712292563]}, "type": "Feature", "properties": {"collection_times": [{"days": "Mon-Sat", "time": "10:00am"}, {"days": "Sun", "time": "Closed"}], "id": "2455100001", "name": "USPS COLLECTION BOX - BLUE BOX", "address": {"city": "FOREST", "state": "VA", "street": "200 GRAVES DR", "postcode": "24551"}}},
{"geometry": {"type": "Point", "coordinates": [-79.2492337837, 37.3754716528]}, "type": "Feature", "properties": {"collection_times": [{"days": "Mon-Sat", "time": "11:00am"}, {"days": "Sun", "time": "Closed"}], "id": "2455100003", "name": "USPS COLLECTION BOX - BLUE BOX", "address": {"city": "FOREST", "state": "VA", "street": "17860 FOREST RD", "postcode": "24551"}}},
{"geometry": {"type": "Point", "coordinates": [-79.2492491622, 37.3754231515]}, "type": "Feature", "properties": {"collection_times": [{"days": "Mon-Fri", "time": "4:00pm"}, {"days": "Sat", "time": "9:00am"}, {"days": "Sun", "time": "Closed"}], "id": "2455100005", "name": "USPS COLLECTION BOX - BLUE BOX", "address": {"city": "FOREST", "state": "VA", "street": "17867 FOREST RD", "postcode": "24551"}}},
{"geometry": {"type": "Point", "coordinates": [-79.2965840822, 37.3668384183]}, "type": "Feature", "properties": {"collection_times": [{"days": "Mon-Fri", "time": "5:00pm"}, {"days": "Sat", "time": "12:00pm"}, {"days": "Sun", "time": "Closed"}], "id": "2455100006", "name": "USPS COLLECTION BOX - PO LOBBY", "address": {"city": "FOREST", "state": "VA", "street": "14803 FOREST RD", "postcode": "24551"}}},
{"geometry": {"type": "Point", "coordinates": [-79.2965840822, 37.3668384183]}, "type": "Feature", "properties": {"collection_times": [{"days": "Mon-Fri", "time": "5:00pm"}, {"days": "Sat", "time": "12:00pm"}, {"days": "Sun", "time": "Closed"}], "id": "2455100007", "name": "USPS COLLECTION BOX - PO LOBBY", "address": {"city": "FOREST", "state": "VA", "street": "14803 FOREST RD", "postcode": "24551"}}},
{"geometry": {"type": "Point", "coordinates": [-79.3101230476, 37.3059254953]}, "type": "Feature", "properties": {"collection_times": [{"days": "Mon-Sat", "time": "10:00am"}, {"days": "Sun", "time": "Closed"}], "id": "2455100008", "name": "USPS COLLECTION BOX - BLUE BOX", "address": {"city": "FOREST", "state": "VA", "street": "12130 E LYNCHBURG SALEM TPKE", "postcode": "24551"}}},
{"geometry": {"type": "Point", "coordinates": [-78.9037543889, 37.5710182233]}, "type": "Feature", "properties": {"collection_times": [{"days": "Mon-Fri", "time": "2:45pm"}, {"days": "Sat", "time": "10:00am"}, {"days": "Sun", "time": "Closed"}], "id": "2455300000", "name": "USPS COLLECTION BOX - BLUE BOX", "address": {"city": "GLADSTONE", "state": "VA", "street": "2418 PIEDMONT RD", "postcode": "24553"}}},
{"geometry": {"type": "Point", "coordinates": [-78.9037543889, 37.5710182233]}, "type": "Feature", "properties": {"collection_times": [{"days": "Mon-Fri", "time": "2:45pm"}, {"days": "Sat", "time": "10:00am"}, {"days": "Sun", "time": "Closed"}], "id": "2455300001", "name": "USPS COLLECTION BOX - PO LOBBY", "address": {"city": "GLADSTONE", "state": "VA", "street": "2418 PIEDMONT RD", "postcode": "24553"}}},
{"geometry": {"type": "Point", "coordinates": [-79.0727187496, 37.1630298624]}, "type": "Feature", "properties": {"collection_times": [{"days": "Mon-Fri", "time": "4:30pm"}, {"days": "Sat", "time": "10:00am"}, {"days": "Sun", "time": "Closed"}], "id": "2455400000", "name": "USPS COLLECTION BOX - BLUE BOX", "address": {"city": "GLADYS", "state": "VA", "street": "62 PIGEON RUN RD", "postcode": "24554"}}},
{"geometry": {"type": "Point", "coordinates": [-79.0727187496, 37.1630298624]}, "type": "Feature", "properties": {"collection_times": [{"days": "Mon-Fri", "time": "4:30pm"}, {"days": "Sat", "time": "10:00am"}, {"days": "Sun", "time": "Closed"}], "id": "2455400001", "name": "USPS COLLECTION BOX - PO LOBBY", "address": {"city": "GLADYS", "state": "VA", "street": "62 PIGEON RUN RD", "postcode": "24554"}}},
{"geometry": {"type": "Point", "coordinates": [-79.4581936445, 37.6418346719]}, "type": "Feature", "properties": {"collection_times": [{"days": "Mon-Fri", "time": "4:30pm"}, {"days": "Sat", "time": "10:30am"}, {"days": "Sun", "time": "Closed"}], "id": "2455500000", "name": "USPS COLLECTION BOX - BLUE BOX", "address": {"city": "GLASGOW", "state": "VA", "street": "805 BLUE RIDGE RD", "postcode": "24555"}}},
{"geometry": {"type": "Point", "coordinates": [-79.4581936445, 37.6418346719]}, "type": "Feature", "properties": {"collection_times": [{"days": "Mon-Fri", "time": "4:30pm"}, {"days": "Sat", "time": "10:30am"}, {"days": "Sun", "time": "Closed"}], "id": "2455500001", "name": "USPS COLLECTION BOX - PO LOBBY", "address": {"city": "GLASGOW", "state": "VA", "street": "805 BLUE RIDGE RD", "postcode": "24555"}}},
{"geometry": {"type": "Point", "coordinates": [-79.3917022637, 37.3673991409]}, "type": "Feature", "properties": {"collection_times": [{"days": "Mon-Fri", "time": "4:00pm"}, {"days": "Sat", "time": "10:30am"}, {"days": "Sun", "time": "Closed"}], "id": "2455600000", "name": "USPS COLLECTION BOX - BLUE BOX", "address": {"city": "GOODE", "state": "VA", "street": "9161 FOREST RD", "postcode": "24556"}}},
{"geometry": {"type": "Point", "coordinates": [-79.3917022637, 37.3673991409]}, "type": "Feature", "properties": {"collection_times": [{"days": "Mon-Fri", "time": "4:00pm"}, {"days": "Sat", "time": "10:30am"}, {"days": "Sun", "time": "Closed"}], "id": "2455600002", "name": "USPS COLLECTION BOX - PO LOBBY", "address": {"city": "GOODE", "state": "VA", "street": "9161 FOREST RD", "postcode": "24556"}}},
{"geometry": {"type": "Point", "coordinates": [-79.3621803632, 36.9524548211]}, "type": "Feature", "properties": {"collection_times": [{"days": "Mon-Fri", "time": "5:00pm"}, {"days": "Sat", "time": "11:00am"}, {"days": "Sun", "time": "Closed"}], "id": "2455700000", "name": "USPS COLLECTION BOX - BLUE BOX", "address": {"city": "GRETNA", "state": "VA", "street": "101 WATTS ST", "postcode": "24557"}}},
{"geometry": {"type": "Point", "coordinates": [-79.3621803632, 36.9524548211]}, "type": "Feature", "properties": {"collection_times": [{"days": "Mon-Fri", "time": "5:00pm"}, {"days": "Sat", "time": "11:00am"}, {"days": "Sun", "time": "Closed"}], "id": "2455700001", "name": "USPS COLLECTION BOX - PO LOBBY", "address": {"city": "GRETNA", "state": "VA", "street": "101 WATTS ST", "postcode": "24557"}}},
{"geometry": {"type": "Point", "coordinates": [-78.9282095694, 36.7628302614]}, "type": "Feature", "properties": {"collection_times": [{"days": "Mon-Fri", "time": "4:15pm"}, {"days": "Sat", "time": "11:15am"}, {"days": "Sun", "time": "Closed"}], "id": "2455800000", "name": "USPS COLLECTION BOX - BLUE BOX", "address": {"city": "HALIFAX", "state": "VA", "street": "231 S MAIN ST", "postcode": "24558"}}},
{"geometry": {"type": "Point", "coordinates": [-78.9282095694, 36.7628302614]}, "type": "Feature", "properties": {"collection_times": [{"days": "Mon-Fri", "time": "4:15pm"}, {"days": "Sat", "time": "11:15am"}, {"days": "Sun", "time": "Closed"}], "id": "2455800001", "name": "USPS COLLECTION BOX - BLUE BOX", "address": {"city": "HALIFAX", "state": "VA", "street": "231 S MAIN ST", "postcode": "24558"}}},
{"geometry": {"type": "Point", "coordinates": [-78.9282095694, 36.7628302614]}, "type": "Feature", "properties": {"collection_times": [{"days": "Mon-Fri", "time": "4:15pm"}, {"days": "Sat", "time": "11:15am"}, {"days": "Sun", "time": "Closed"}], "id": "2455800002", "name": "USPS COLLECTION BOX - PO LOBBY", "address": {"city": "HALIFAX", "state": "VA", "street": "231 S MAIN ST", "postcode": "24558"}}},
{"geometry": {"type": "Point", "coordinates": [-79.2989724855, 37.1032482609]}, "type": "Feature", "properties": {"collection_times": [{"days": "Mon-Fri", "time": "4:30pm"}, {"days": "Sat", "time": "11:30am"}, {"days": "Sun", "time": "Closed"}], "id": "2456300000", "name": "USPS COLLECTION BOX - BLUE BOX", "address": {"city": "HURT", "state": "VA", "street": "201 MAIN ST", "postcode": "24563"}}},
{"geometry": {"type": "Point", "coordinates": [-79.2989724855, 37.1032482609]}, "type": "Feature", "properties": {"collection_times": [{"days": "Mon-Fri", "time": "4:30pm"}, {"days": "Sat", "time": "11:30am"}, {"days": "Sun", "time": "Closed"}], "id": "2456300001", "name": "USPS COLLECTION BOX - PO LOBBY", "address": {"city": "HURT", "state": "VA", "street": "201 MAIN ST", "postcode": "24563"}}},
{"geometry": {"type": "Point", "coordinates": [-79.226505962, 36.8374235746]}, "type": "Feature", "properties": {"collection_times": [{"days": "Mon-Fri", "time": "11:45am"}, {"days": "Sat", "time": "12:00pm"}, {"days": "Sun", "time": "Closed"}], "id": "2456500000", "name": "USPS COLLECTION BOX - BLUE BOX", "address": {"city": "JAVA", "state": "VA", "street": "3093 JAVA RD", "postcode": "24565"}}},
{"geometry": {"type": "Point", "coordinates": [-79.226505962, 36.8374235746]}, "type": "Feature", "properties": {"collection_times": [{"days": "Mon-Fri", "time": "11:45am"}, {"days": "Sat", "time": "12:00pm"}, {"days": "Sun", "time": "Closed"}], "id": "2456500001", "name": "USPS COLLECTION BOX - PO LOBBY", "address": {"city": "JAVA", "state": "VA", "street": "3093 JAVA RD", "postcode": "24565"}}},
{"geometry": {"type": "Point", "coordinates": [-79.2806338201, 36.7210311213]}, "type": "Feature", "properties": {"collection_times": [{"days": "Mon-Fri", "time": "12:30pm"}, {"days": "Sat", "time": "10:30am"}, {"days": "Sun", "time": "Closed"}], "id": "2456600000", "name": "USPS COLLECTION BOX - BLUE BOX", "address": {"city": "KEELING", "state": "VA", "street": "12096 OLD RICHMOND RD", "postcode": "24566"}}},
{"geometry": {"type": "Point", "coordinates": [-79.2806338201, 36.7210311213]}, "type": "Feature", "properties": {"collection_times": [{"days": "Mon-Fri", "time": "12:30pm"}, {"days": "Sat", "time": "10:30am"}, {"days": "Sun", "time": "Closed"}], "id": "2456600001", "name": "USPS COLLECTION BOX - PO LOBBY", "address": {"city": "KEELING", "state": "VA", "street": "12096 OLD RICHMOND RD", "postcode": "24566"}}},
{"geometry": {"type": "Point", "coordinates": [-79.0955348981, 37.078211124]}, "type": "Feature", "properties": {"collection_times": [{"days": "Mon-Sat", "time": "1:45pm"}, {"days": "Sun", "time": "Closed"}], "id": "2456900000", "name": "USPS COLLECTION BOX - BLUE BOX", "address": {"city": "LONG ISLAND", "state": "VA", "street": "102 PEAK PL", "postcode": "24569"}}},
{"geometry": {"type": "Point", "coordinates": [-79.0955348981, 37.078211124]}, "type": "Feature", "properties": {"collection_times": [{"days": "Mon-Fri", "time": "1:30pm"}, {"days": "Sat", "time": "1:45pm"}, {"days": "Sun", "time": "Closed"}], "id": "2456900001", "name": "USPS COLLECTION BOX - PO LOBBY", "address": {"city": "LONG ISLAND", "state": "VA", "street": "102 PEAK PL", "postcode": "24569"}}},
{"geometry": {"type": "Point", "coordinates": [-79.4317049991, 37.3504718826]}, "type": "Feature", "properties": {"collection_times": [{"days": "Mon-Sat", "time": "11:25am"}, {"days": "Sun", "time": "Closed"}], "id": "2457000000", "name": "USPS COLLECTION BOX - BLUE BOX", "address": {"city": "LOWRY", "state": "VA", "street": "3516 LOWRY RD", "postcode": "24570"}}},
{"geometry": {"type": "Point", "coordinates": [-79.4317049991, 37.3504718826]}, "type": "Feature", "properties": {"collection_times": [{"days": "Mon-Sat", "time": "11:25am"}, {"days": "Sun", "time": "Closed"}], "id": "2457000001", "name": "USPS COLLECTION BOX - PO LOBBY", "address": {"city": "LOWRY", "state": "VA", "street": "3516 LOWRY RD", "postcode": "24570"}}},
{"geometry": {"type": "Point", "coordinates": [-79.3015378355, 37.1491863548]}, "type": "Feature", "properties": {"collection_times": [{"days": "Mon-Fri", "time": "2:45pm"}, {"days": "Sat", "time": "10:15am"}, {"days": "Sun", "time": "Closed"}], "id": "2457100000", "name": "USPS COLLECTION BOX - BLUE BOX", "address": {"city": "LYNCH STATION", "state": "VA", "street": "969 POWELL RD", "postcode": "24571"}}},
{"geometry": {"type": "Point", "coordinates": [-79.3015378355, 37.1491863548]}, "type": "Feature", "properties": {"collection_times": [{"days": "Mon-Fri", "time": "2:45pm"}, {"days": "Sat", "time": "10:30am"}, {"days": "Sun", "time": "Closed"}], "id": "2457100002", "name": "USPS COLLECTION BOX - PO LOBBY", "address": {"city": "LYNCH STATION", "state": "VA", "street": "969 POWELL RD", "postcode": "24571"}}},
{"geometry": {"type": "Point", "coordinates": [-79.1196073501, 37.4416339087]}, "type": "Feature", "properties": {"collection_times": [{"days": "Mon-Fri", "time": "5:00pm"}, {"days": "Sat", "time": "4:00pm"}, {"days": "Sun", "time": "Closed"}], "id": "2457200001", "name": "USPS COLLECTION BOX - PO LOBBY", "address": {"city": "MADISON HEIGHTS", "state": "VA", "street": "158 LAKEVIEW DR", "postcode": "24572"}}},
{"geometry": {"type": "Point", "coordinates": [-79.123726941, 37.5034144651]}, "type": "Feature", "properties": {"collection_times": [{"days": "Mon-Fri", "time": "4:45pm"}, {"days": "Sat", "time": "10:45am"}, {"days": "Sun", "time": "Closed"}], "id": "2457400000", "name": "USPS COLLECTION BOX - BLUE BOX", "address": {"city": "MONROE", "state": "VA", "street": "3378 S AMHERST HWY", "postcode": "24574"}}},
{"geometry": {"type": "Point", "coordinates": [-79.123726941, 37.5034144651]}, "type": "Feature", "properties": {"collection_times": [{"days": "Mon-Fri", "time": "4:45pm"}, {"days": "Sat", "time": "10:45am"}, {"days": "Sun", "time": "Closed"}], "id": "2457400001", "name": "USPS COLLECTION BOX - PO LOBBY", "address": {"city": "MONROE", "state": "VA", "street": "3378 S AMHERST HWY", "postcode": "24574"}}},
{"geometry": {"type": "Point", "coordinates": [-79.123726941, 37.5034144651]}, "type": "Feature", "properties": {"collection_times": [{"days": "Mon-Fri", "time": "4:45pm"}, {"days": "Sat", "time": "10:45am"}, {"days": "Sun", "time": "Closed"}], "id": "2457400002", "name": "USPS COLLECTION BOX - PO LOBBY", "address": {"city": "MONROE", "state": "VA", "street": "3378 S AMHERST HWY", "postcode": "24574"}}},
{"geometry": {"type": "Point", "coordinates": [-78.9424006137, 37.048247155]}, "type": "Feature", "properties": {"collection_times": [{"days": "Mon-Fri", "time": "11:45am"}, {"days": "Sat", "time": "10:15am"}, {"days": "Sun", "time": "Closed"}], "id": "2457600000", "name": "USPS COLLECTION BOX - BLUE BOX", "address": {"city": "NARUNA", "state": "VA", "street": "438 WHIPPING CREEK RD", "postcode": "24576"}}},
{"geometry": {"type": "Point", "coordinates": [-78.9424006137, 37.048247155]}, "type": "Feature", "properties": {"collection_times": [{"days": "Mon-Fri", "time": "11:45am"}, {"days": "Sat", "time": "10:15am"}, {"days": "Sun", "time": "Closed"}], "id": "2457600001", "name": "USPS COLLECTION BOX - PO LOBBY", "address": {"city": "NARUNA", "state": "VA", "street": "438 WHIPPING CREEK RD", "postcode": "24576"}}},
{"geometry": {"type": "Point", "coordinates": [-78.9510310427, 36.9219571799]}, "type": "Feature", "properties": {"collection_times": [{"days": "Mon-Fri", "time": "4:30pm"}, {"days": "Sat", "time": "10:00am"}, {"days": "Sun", "time": "Closed"}], "id": "2457700002", "name": "USPS COLLECTION BOX - PO LOBBY", "address": {"city": "NATHALIE", "state": "VA", "street": "1031 VOLENS RD", "postcode": "24577"}}},
{"geometry": {"type": "Point", "coordinates": [-78.9510310427, 36.9219571799]}, "type": "Feature", "properties": {"collection_times": [{"days": "Mon-Fri", "time": "4:30pm"}, {"days": "Sat", "time": "10:00am"}, {"days": "Sun", "time": "Closed"}], "id": "2457700003", "name": "USPS COLLECTION BOX - PO LOBBY", "address": {"city": "NATHALIE", "state": "VA", "street": "1031 VOLENS RD", "postcode": "24577"}}},
{"geometry": {"type": "Point", "coordinates": [-78.9510310427, 36.9219571799]}, "type": "Feature", "properties": {"collection_times": [{"days": "Mon-Fri", "time": "4:30pm"}, {"days": "Sat", "time": "10:00am"}, {"days": "Sun", "time": "Closed"}], "id": "2457700004", "name": "USPS COLLECTION BOX - BLUE BOX", "address": {"city": "NATHALIE", "state": "VA", "street": "1031 VOLENS RD", "postcode": "24577"}}},
{"geometry": {"type": "Point", "coordinates": [-79.5459104746, 37.6274172667]}, "type": "Feature", "properties": {"collection_times": [{"days": "Mon-Fri", "time": "11:45am"}, {"days": "Sat", "time": "11:00am"}, {"days": "Sun", "time": "Closed"}], "id": "2457800000", "name": "USPS COLLECTION BOX - BLUE BOX", "address": {"city": "NATURAL BRIDGE", "state": "VA", "street": "6477 S LEE HWY", "postcode": "24578"}}},
{"geometry": {"type": "Point", "coordinates": [-79.5552917485, 37.6667390243]}, "type": "Feature", "properties": {"collection_times": [{"days": "Mon-Fri", "time": "11:45am"}, {"days": "Sat", "time": "11:00am"}, {"days": "Sun", "time": "Closed"}], "id": "2457800001", "name": "USPS COLLECTION BOX - BLUE BOX", "address": {"city": "NATURAL BRIDGE", "state": "VA", "street": "15 APPLEDORE LN", "postcode": "24578"}}},
{"geometry": {"type": "Point", "coordinates": [-79.5459104746, 37.6274172667]}, "type": "Feature", "properties": {"collection_times": [{"days": "Mon-Fri", "time": "11:45am"}, {"days": "Sat", "time": "11:00am"}, {"days": "Sun", "time": "Closed"}], "id": "2457800002", "name": "USPS COLLECTION BOX - PO LOBBY", "address": {"city": "NATURAL BRIDGE", "state": "VA", "street": "6477 S LEE HWY", "postcode": "24578"}}},
{"geometry": {"type": "Point", "coordinates": [-79.4747212999, 37.6265866363]}, "type": "Feature", "properties": {"collection_times": [{"days": "Mon-Fri", "time": "2:45pm"}, {"days": "Sat", "time": "10:00am"}, {"days": "Sun", "time": "Closed"}], "id": "2457900000", "name": "USPS COLLECTION BOX - BLUE BOX", "address": {"city": "NAT. BRDG. STAT.", "state": "VA", "street": "1482 WERT FULKNER HWY", "postcode": "24579"}}},
{"geometry": {"type": "Point", "coordinates": [-79.498654154, 37.6222238482]}, "type": "Feature", "properties": {"collection_times": [{"days": "Mon-Fri", "time": "2:45pm"}, {"days": "Sat", "time": "10:00am"}, {"days": "Sun", "time": "Closed"}], "id": "2457900001", "name": "USPS COLLECTION BOX - PO LOBBY", "address": {"city": "NAT. BRDG. STAT.", "state": "VA", "street": "1482 WERT FULKNER HWY", "postcode": "24579"}}},
{"geometry": {"type": "Point", "coordinates": [-78.6991185462, 36.5657198002]}, "type": "Feature", "properties": {"collection_times": [{"days": "Mon-Fri", "time": "11:45am"}, {"days": "Sat", "time": "10:15am"}, {"days": "Sun", "time": "Closed"}], "id": "2458000000", "name": "USPS COLLECTION BOX - BLUE BOX", "address": {"city": "NELSON", "state": "VA", "street": "1868 HIGHWAY 49", "postcode": "24580"}}},
{"geometry": {"type": "Point", "coordinates": [-78.6991185462, 36.5657198002]}, "type": "Feature", "properties": {"collection_times": [{"days": "Mon-Fri", "time": "11:45am"}, {"days": "Sat", "time": "10:15am"}, {"days": "Sun", "time": "Closed"}], "id": "2458000001", "name": "USPS COLLECTION BOX - PO LOBBY", "address": {"city": "NELSON", "state": "VA", "street": "1868 HIGHWAY 49", "postcode": "24580"}}},
{"geometry": {"type": "Point", "coordinates": [-79.2989807757, 36.6541860473]}, "type": "Feature", "properties": {"collection_times": [{"days": "Mon-Fri", "time": "4:00pm"}, {"days": "Sat", "time": "11:00am"}, {"days": "Sun", "time": "Closed"}], "id": "2458600000", "name": "USPS COLLECTION BOX - BLUE BOX", "address": {"city": "RINGGOLD", "state": "VA", "street": "4745 RINGGOLD CHURCH RD", "postcode": "24586"}}},
{"geometry": {"type": "Point", "coordinates": [-79.2989807757, 36.6541860473]}, "type": "Feature", "properties": {"collection_times": [{"days": "Mon-Fri", "time": "4:00pm"}, {"days": "Sat", "time": "11:00am"}, {"days": "Sun", "time": "Closed"}], "id": "2458600001", "name": "USPS COLLECTION BOX - PO LOBBY", "address": {"city": "RINGGOLD", "state": "VA", "street": "4745 RINGGOLD CHURCH RD", "postcode": "24586"}}},
{"geometry": {"type": "Point", "coordinates": [-79.0878735434, 37.2765562234]}, "type": "Feature", "properties": {"collection_times": [{"days": "Mon-Fri", "time": "4:30pm"}, {"days": "Sat", "time": "10:45am"}, {"days": "Sun", "time": "Closed"}], "id": "2458800000", "name": "USPS COLLECTION BOX - BLUE BOX", "address": {"city": "RUSTBURG", "state": "VA", "street": "1103 VILLAGE HWY", "postcode": "24588"}}},
{"geometry": {"type": "Point", "coordinates": [-79.0878735434, 37.2765562234]}, "type": "Feature", "properties": {"collection_times": [{"days": "Mon-Fri", "time": "4:30pm"}, {"days": "Sat", "time": "10:45am"}, {"days": "Sun", "time": "Closed"}], "id": "2458800001", "name": "USPS COLLECTION BOX - BLUE BOX", "address": {"city": "RUSTBURG", "state": "VA", "street": "1103 VILLAGE HWY", "postcode": "24588"}}},
{"geometry": {"type": "Point", "coordinates": [-79.0878735434, 37.2765562234]}, "type": "Feature", "properties": {"collection_times": [{"days": "Mon-Fri", "time": "4:30pm"}, {"days": "Sat", "time": "11:00am"}, {"days": "Sun", "time": "Closed"}], "id": "2458800002", "name": "USPS COLLECTION BOX - PO LOBBY", "address": {"city": "RUSTBURG", "state": "VA", "street": "1103 VILLAGE HWY", "postcode": "24588"}}},
{"geometry": {"type": "Point", "coordinates": [-79.1802648068, 37.2621583286]}, "type": "Feature", "properties": {"collection_times": [{"days": "Mon-Sat", "time": "11:30am"}, {"days": "Sun", "time": "Closed"}], "id": "2458800003", "name": "USPS COLLECTION BOX - BLUE BOX", "address": {"city": "RUSTBURG", "state": "VA", "street": "7335 WARDS RD", "postcode": "24588"}}},
{"geometry": {"type": "Point", "coordinates": [-78.7990613021, 36.7679290506]}, "type": "Feature", "properties": {"collection_times": [{"days": "Mon-Fri", "time": "12:00pm"}, {"days": "Sat", "time": "11:00am"}, {"days": "Sun", "time": "Closed"}], "id": "2458900000", "name": "USPS COLLECTION BOX - BLUE BOX", "address": {"city": "SCOTTSBURG", "state": "VA", "street": "2221 SCOTTSBURG RD", "postcode": "24589"}}},
{"geometry": {"type": "Point", "coordinates": [-78.7990613021, 36.7679290506]}, "type": "Feature", "properties": {"collection_times": [{"days": "Mon-Fri", "time": "12:00pm"}, {"days": "Sat", "time": "11:00am"}, {"days": "Sun", "time": "Closed"}], "id": "2458900001", "name": "USPS COLLECTION BOX - PO LOBBY", "address": {"city": "SCOTTSBURG", "state": "VA", "street": "2221 SCOTTSBURG RD", "postcode": "24589"}}},
{"geometry": {"type": "Point", "coordinates": [-78.7990613021, 36.7679290506]}, "type": "Feature", "properties": {"collection_times": [{"days": "Mon-Fri", "time": "12:00pm"}, {"days": "Sat", "time": "11:00am"}, {"days": "Sun", "time": "Closed"}], "id": "2458900002", "name": "USPS COLLECTION BOX - PO LOBBY", "address": {"city": "SCOTTSBURG", "state": "VA", "street": "2221 SCOTTSBURG RD", "postcode": "24589"}}},
{"geometry": {"type": "Point", "coordinates": [-78.502781945, 37.8084807694]}, "type": "Feature", "properties": {"collection_times": [{"days": "Mon-Fri", "time": "4:30pm"}, {"days": "Sat", "time": "12:00pm"}, {"days": "Sun", "time": "Closed"}], "id": "2459000000", "name": "USPS COLLECTION BOX - BLUE BOX", "address": {"city": "SCOTTSVILLE", "state": "VA", "street": "110 SCOTTSVILLE CTR", "postcode": "24590"}}},
{"geometry": {"type": "Point", "coordinates": [-78.502781945, 37.8084807694]}, "type": "Feature", "properties": {"collection_times": [{"days": "Mon-Fri", "time": "4:30pm"}, {"days": "Sat", "time": "3:00pm"}, {"days": "Sun", "time": "Closed"}], "id": "2459000002", "name": "USPS COLLECTION BOX - PO LOBBY", "address": {"city": "SCOTTSVILLE", "state": "VA", "street": "110 SCOTTSVILLE CTR", "postcode": "24590"}}},
{"geometry": {"type": "Point", "coordinates": [-78.8937072903, 36.6967513737]}, "type": "Feature", "properties": {"collection_times": [{"days": "Mon-Sat", "time": "10:30am"}, {"days": "Sun", "time": "Closed"}], "id": "2459200000", "name": "USPS COLLECTION BOX - BLUE BOX", "address": {"city": "SOUTH BOSTON", "state": "VA", "street": "1600 SEYMOUR DR", "postcode": "24592"}}},
{"geometry": {"type": "Point", "coordinates": [-78.8996370267, 36.687414624]}, "type": "Feature", "properties": {"collection_times": [{"days": "Mon-Sat", "time": "9:30am"}, {"days": "Sun", "time": "Closed"}], "id": "2459200003", "name": "USPS COLLECTION BOX - BLUE BOX", "address": {"city": "SOUTH BOSTON", "state": "VA", "street": "1020 BILL TUCK HWY", "postcode": "24592"}}},
{"geometry": {"type": "Point", "coordinates": [-78.9100543948, 36.7064547176]}, "type": "Feature", "properties": {"collection_times": [{"days": "Mon-Sat", "time": "10:00am"}, {"days": "Sun", "time": "Closed"}], "id": "2459200004", "name": "USPS COLLECTION BOX - BLUE BOX", "address": {"city": "SOUTH BOSTON", "state": "VA", "street": "1602 WILBORN AVE", "postcode": "24592"}}},
{"geometry": {"type": "Point", "coordinates": [-78.9017430384, 36.6986571105]}, "type": "Feature", "properties": {"collection_times": [{"days": "Mon-Sat", "time": "9:00am"}, {"days": "Sun", "time": "Closed"}], "id": "2459200008", "name": "USPS COLLECTION BOX - BLUE BOX", "address": {"city": "SOUTH BOSTON", "state": "VA", "street": "500 WILBORN AVE", "postcode": "24592"}}},
{"geometry": {"type": "Point", "coordinates": [-78.9013033187, 36.6969029422]}, "type": "Feature", "properties": {"collection_times": [{"days": "Mon-Sat", "time": "9:00am"}, {"days": "Sun", "time": "Closed"}], "id": "2459200009", "name": "USPS COLLECTION BOX - BLUE BOX", "address": {"city": "SOUTH BOSTON", "state": "VA", "street": "300 MAIN ST", "postcode": "24592"}}},
{"geometry": {"type": "Point", "coordinates": [-78.9131817464, 36.7133616986]}, "type": "Feature", "properties": {"collection_times": [{"days": "Mon-Sat", "time": "1:00pm"}, {"days": "Sun", "time": "Closed"}], "id": "2459200011", "name": "USPS COLLECTION BOX - BLUE BOX", "address": {"city": "SOUTH BOSTON", "state": "VA", "street": "2204 WILBORN AVE", "postcode": "24592"}}},
{"geometry": {"type": "Point", "coordinates": [-78.9123595694, 36.7117201621]}, "type": "Feature", "properties": {"collection_times": [{"days": "Mon-Sat", "time": "10:00am"}, {"days": "Sun", "time": "Closed"}], "id": "2459200012", "name": "USPS COLLECTION BOX - BLUE BOX", "address": {"city": "SOUTH BOSTON", "state": "VA", "street": "2111 WILBORN AVE", "postcode": "24592"}}},
{"geometry": {"type": "Point", "coordinates": [-78.9184833837, 36.7294285454]}, "type": "Feature", "properties": {"collection_times": [{"days": "Mon-Sat", "time": "1:00pm"}, {"days": "Sun", "time": "Closed"}], "id": "2459200014", "name": "USPS COLLECTION BOX - BLUE BOX", "address": {"city": "SOUTH BOSTON", "state": "VA", "street": "3300 HALIFAX RD", "postcode": "24592"}}},
{"geometry": {"type": "Point", "coordinates": [-78.9007062536, 36.6992300547]}, "type": "Feature", "properties": {"collection_times": [{"days": "Mon-Fri", "time": "5:15pm"}, {"days": "Sat", "time": "3:00pm"}, {"days": "Sun", "time": "Closed"}], "id": "2459200016", "name": "USPS COLLECTION BOX - BLUE BOX", "address": {"city": "SOUTH BOSTON", "state": "VA", "street": "600 N MAIN ST", "postcode": "24592"}}},
{"geometry": {"type": "Point", "coordinates": [-78.9003061562, 36.6995730138]}, "type": "Feature", "properties": {"collection_times": [{"days": "Mon-Fri", "time": "5:15pm"}, {"days": "Sat", "time": "3:00pm"}, {"days": "Sun", "time": "Closed"}], "id": "2459200017", "name": "USPS COLLECTION BOX - BLUE BOX", "address": {"city": "SOUTH BOSTON", "state": "VA", "street": "600 BROAD ST", "postcode": "24592"}}},
{"geometry": {"type": "Point", "coordinates": [-78.9007942556, 36.6993139811]}, "type": "Feature", "properties": {"collection_times": [{"days": "Mon-Fri", "time": "5:15pm"}, {"days": "Sat", "time": "3:00pm"}, {"days": "Sun", "time": "Closed"}], "id": "2459200018", "name": "USPS COLLECTION BOX - BLUE BOX", "address": {"city": "SOUTH BOSTON", "state": "VA", "street": "601 N MAIN ST", "postcode": "24592"}}},
{"geometry": {"type": "Point", "coordinates": [-78.9096290921, 36.7335999707]}, "type": "Feature", "properties": {"collection_times": [{"days": "Mon-Sat", "time": "12:00pm"}, {"days": "Sun", "time": "Closed"}], "id": "2459200021", "name": "USPS COLLECTION BOX - BLUE BOX", "address": {"city": "SOUTH BOSTON", "state": "VA", "street": "3459 OLD HALIFAX RD", "postcode": "24592"}}},
{"geometry": {"type": "Point", "coordinates": [-78.9007942556, 36.6993139811]}, "type": "Feature", "properties": {"collection_times": [{"days": "Mon-Fri", "time": "5:45pm"}, {"days": "Sat", "time": "5:00pm"}, {"days": "Sun", "time": "Closed"}], "id": "2459200022", "name": "USPS COLLECTION BOX - PO LOBBY", "address": {"city": "SOUTH BOSTON", "state": "VA", "street": "601 N MAIN ST", "postcode": "24592"}}},
{"geometry": {"type": "Point", "coordinates": [-78.9761130005, 36.6797395671]}, "type": "Feature", "properties": {"collection_times": [{"days": "Mon-Sat", "time": "10:00am"}, {"days": "Sun", "time": "Closed"}], "id": "2459200023", "name": "USPS COLLECTION BOX - BLUE BOX", "address": {"city": "SOUTH BOSTON", "state": "VA", "street": "2500 HOUGTON AVE", "postcode": "24592"}}},
{"geometry": {"type": "Point", "coordinates": [-78.9196524249, 37.3404358551]}, "type": "Feature", "properties": {"collection_times": [{"days": "Mon-Fri", "time": "1:30pm"}, {"days": "Sat", "time": "9:00am"}, {"days": "Sun", "time": "Closed"}], "id": "2459300000", "name": "USPS COLLECTION BOX - BLUE BOX", "address": {"city": "SPOUT SPRING", "state": "VA", "street": "837 SPOUT SPRING RD", "postcode": "24593"}}},
{"geometry": {"type": "Point", "coordinates": [-78.9196524249, 37.3404358551]}, "type": "Feature", "properties": {"collection_times": [{"days": "Mon-Fri", "time": "1:30pm"}, {"days": "Sat", "time": "9:00am"}, {"days": "Sun", "time": "Closed"}], "id": "2459300001", "name": "USPS COLLECTION BOX - PO LOBBY", "address": {"city": "SPOUT SPRING", "state": "VA", "street": "837 SPOUT SPRING RD", "postcode": "24593"}}},
{"geometry": {"type": "Point", "coordinates": [-79.2040001176, 36.679376572]}, "type": "Feature", "properties": {"collection_times": [{"days": "Mon-Fri", "time": "2:30pm"}, {"days": "Sat", "time": "10:30am"}, {"days": "Sun", "time": "Closed"}], "id": "2459400000", "name": "USPS COLLECTION BOX - BLUE BOX", "address": {"city": "SUTHERLIN", "state": "VA", "street": "2061 LAUREL GROVE RD", "postcode": "24594"}}},
{"geometry": {"type": "Point", "coordinates": [-79.2040001176, 36.679376572]}, "type": "Feature", "properties": {"collection_times": [{"days": "Mon-Fri", "time": "11:45am"}, {"days": "Sat", "time": "10:30am"}, {"days": "Sun", "time": "Closed"}], "id": "2459400001", "name": "USPS COLLECTION BOX - PO LOBBY", "address": {"city": "SUTHERLIN", "state": "VA", "street": "2061 LAUREL GROVE RD", "postcode": "24594"}}},
{"geometry": {"type": "Point", "coordinates": [-79.0974367359, 36.7526631037]}, "type": "Feature", "properties": {"collection_times": [{"days": "Mon-Fri", "time": "11:45am"}, {"days": "Sat", "time": "10:15am"}, {"days": "Sun", "time": "Closed"}], "id": "2459700000", "name": "USPS COLLECTION BOX - BLUE BOX", "address": {"city": "VERNON HILL", "state": "VA", "street": "10164 MOUNTAIN RD", "postcode": "24597"}}},
{"geometry": {"type": "Point", "coordinates": [-79.0974367359, 36.7526631037]}, "type": "Feature", "properties": {"collection_times": [{"days": "Mon-Fri", "time": "11:45am"}, {"days": "Sat", "time": "10:15am"}, {"days": "Sun", "time": "Closed"}], "id": "2459700001", "name": "USPS COLLECTION BOX - PO LOBBY", "address": {"city": "VERNON HILL", "state": "VA", "street": "10164 MOUNTAIN RD", "postcode": "24597"}}},
{"geometry": {"type": "Point", "coordinates": [-78.7855288989, 36.6072440118]}, "type": "Feature", "properties": {"collection_times": [{"days": "Mon-Fri", "time": "4:15pm"}, {"days": "Sat", "time": "9:45am"}, {"days": "Sun", "time": "Closed"}], "id": "2459800000", "name": "USPS COLLECTION BOX - BLUE BOX", "address": {"city": "VIRGILINA", "state": "VA", "street": "1142 7TH ST", "postcode": "24598"}}},
{"geometry": {"type": "Point", "coordinates": [-78.7855288989, 36.6072440118]}, "type": "Feature", "properties": {"collection_times": [{"days": "Mon-Fri", "time": "4:15pm"}, {"days": "Sat", "time": "9:45am"}, {"days": "Sun", "time": "Closed"}], "id": "2459800001", "name": "USPS COLLECTION BOX - PO LOBBY", "address": {"city": "VIRGILINA", "state": "VA", "street": "1142 7TH ST", "postcode": "24598"}}},
{"geometry": {"type": "Point", "coordinates": [-78.7245275546, 37.6393575618]}, "type": "Feature", "properties": {"collection_times": [{"days": "Mon-Fri", "time": "11:45am"}, {"days": "Sat", "time": "9:15am"}, {"days": "Sun", "time": "Closed"}], "id": "2459900000", "name": "USPS COLLECTION BOX - BLUE BOX", "address": {"city": "WINGINA", "state": "VA", "street": "13711 NORWOOD RD", "postcode": "24599"}}}
]}
