{"type": "FeatureCollection", "features": [
{"geometry": {"type": "Point", "coordinates": [-81.6334257606, 37.1932637933]}, "type": "Feature", "properties": {"collection_times": [{"days": "Mon-Fri", "time": "11:00am"}, {"days": "Sat", "time": "9:00am"}, {"days": "Sun", "time": "Closed"}], "id": "2460100000", "name": "USPS COLLECTION BOX - BLUE BOX", "address": {"city": "AMONATE", "state": "VA", "street": "5185 AMONATE RD", "postcode": "24601"}}},
{"geometry": {"type": "Point", "coordinates": [-81.6334100509, 37.1931729094]}, "type": "Feature", "properties": {"collection_times": [{"days": "Mon-Fri", "time": "11:00am"}, {"days": "Sat", "time": "9:00am"}, {"days": "Sun", "time": "Closed"}], "id": "2460100001", "name": "USPS COLLECTION BOX - PO LOBBY", "address": {"city": "AMONATE", "state": "VA", "street": "5485 AMONATE RD", "postcode": "24601"}}},
{"geometry": {"type": "Point", "coordinates": [-81.6681624523, 37.1763522356]}, "type": "Feature", "properties": {"collection_times": [{"days": "Mon-Fri", "time": "12:30pm"}, {"days": "Sat", "time": "10:30am"}, {"days": "Sun", "time": "Closed"}], "id": "2460200000", "name": "USPS COLLECTION BOX - BLUE BOX", "address": {"city": "BANDY", "state": "VA", "street": "4284 RAVENS NEST BRANCH RD", "postcode": "24602"}}},
{"geometry": {"type": "Point", "coordinates": [-81.6681624523, 37.1763522356]}, "type": "Feature", "properties": {"collection_times": [{"days": "Mon-Fri", "time": "12:30pm"}, {"days": "Sat", "time": "10:30am"}, {"days": "Sun", "time": "Closed"}], "id": "2460200001", "name": "USPS COLLECTION BOX - PO LOBBY", "address": {"city": "BANDY", "state": "VA", "street": "4284 RAVENS NEST BRANCH RD", "postcode": "24602"}}},
{"geometry": {"type": "Point", "coordinates": [-82.2272768744, 37.3176180478]}, "type": "Feature", "properties": {"collection_times": [{"days": "Mon-Fri", "time": "3:00pm"}, {"days": "Sat", "time": "11:00am"}, {"days": "Sun", "time": "Closed"}], "id": "2460300000", "name": "USPS COLLECTION BOX - BLUE BOX", "address": {"city": "BIG ROCK", "state": "VA", "street": "32148 RIVERSIDE DR", "postcode": "24603"}}},
{"geometry": {"type": "Point", "coordinates": [-82.2272768744, 37.3176180478]}, "type": "Feature", "properties": {"collection_times": [{"days": "Mon-Fri", "time": "3:00pm"}, {"days": "Sat", "time": "11:00am"}, {"days": "Sun", "time": "Closed"}], "id": "2460300001", "name": "USPS COLLECTION BOX - PO LOBBY", "address": {"city": "BIG ROCK", "state": "VA", "street": "32148 RIVERSIDE DR", "postcode": "24603"}}},
{"geometry": {"type": "Point", "coordinates": [-81.5567118136, 37.2037151342]}, "type": "Feature", "properties": {"collection_times": [{"days": "Mon-Fri", "time": "11:45am"}, {"days": "Sat", "time": "10:45am"}, {"days": "Sun", "time": "Closed"}], "id": "2460400001", "name": "USPS COLLECTION BOX - BLUE BOX", "address": {"city": "BISHOP", "state": "VA", "street": "3978 STONEY RIDGE RD", "postcode": "24604"}}},
{"geometry": {"type": "Point", "coordinates": [-81.5567118136, 37.2037151342]}, "type": "Feature", "properties": {"collection_times": [{"days": "Mon-Fri", "time": "11:45am"}, {"days": "Sat", "time": "10:45am"}, {"days": "Sun", "time": "Closed"}], "id": "2460400002", "name": "USPS COLLECTION BOX - PO LOBBY", "address": {"city": "BISHOP", "state": "VA", "street": "3978 STONEY RIDGE RD", "postcode": "24604"}}},
{"geometry": {"type": "Point", "coordinates": [-81.2697058163, 37.2531323249]}, "type": "Feature", "properties": {"collection_times": [{"days": "Mon-Fri", "time": "4:30pm"}, {"days": "Sat", "time": "11:30am"}, {"days": "Sun", "time": "Closed"}], "id": "2460500014", "name": "USPS COLLECTION BOX - BLUE BOX", "address": {"city": "BLUEFIELD", "state": "VA", "street": "507 VIRGINIA AVE", "postcode": "24605"}}},
{"geometry": {"type": "Point", "coordinates": [-81.2697058163, 37.2531323249]}, "type": "Feature", "properties": {"collection_times": [{"days": "Mon-Fri", "time": "4:30pm"}, {"days": "Sat", "time": "11:30am"}, {"days": "Sun", "time": "Closed"}], "id": "2460500019", "name": "USPS COLLECTION BOX - PO LOBBY", "address": {"city": "BLUEFIELD", "state": "VA", "street": "507 VIRGINIA AVE", "postcode": "24605"}}},
{"geometry": {"type": "Point", "coordinates": [-81.2674371435, 37.2536543066]}, "type": "Feature", "properties": {"collection_times": [{"days": "Mon-Fri", "time": "11:45am"}, {"days": "Sat", "time": "9:30am"}, {"days": "Sun", "time": "Closed"}], "id": "2460600000", "name": "USPS COLLECTION BOX - BLUE BOX", "address": {"city": "BOISSEVAIN", "state": "VA", "street": "102 CREEKVIEW RD", "postcode": "24606"}}},
{"geometry": {"type": "Point", "coordinates": [-81.2674371435, 37.2536543066]}, "type": "Feature", "properties": {"collection_times": [{"days": "Mon-Fri", "time": "11:45am"}, {"days": "Sat", "time": "9:30am"}, {"days": "Sun", "time": "Closed"}], "id": "2460600001", "name": "USPS COLLECTION BOX - PO LOBBY", "address": {"city": "BOISSEVAIN", "state": "VA", "street": "102 CREEKVIEW RD", "postcode": "24606"}}},
{"geometry": {"type": "Point", "coordinates": [-82.2803971844, 37.2949153241]}, "type": "Feature", "properties": {"collection_times": [{"days": "Mon-Fri", "time": "1:00pm"}, {"days": "Sat", "time": "11:15am"}, {"days": "Sun", "time": "Closed"}], "id": "2460700000", "name": "USPS COLLECTION BOX - BLUE BOX", "address": {"city": "BREAKS", "state": "VA", "street": "579 KING SOLOMON COLLEY RD", "postcode": "24607"}}},
{"geometry": {"type": "Point", "coordinates": [-82.2803971844, 37.2949153241]}, "type": "Feature", "properties": {"collection_times": [{"days": "Mon-Fri", "time": "1:00pm"}, {"days": "Sat", "time": "11:15am"}, {"days": "Sun", "time": "Closed"}], "id": "2460700001", "name": "USPS COLLECTION BOX - PO LOBBY", "address": {"city": "BREAKS", "state": "VA", "street": "579 KING SOLOMON COLLEY RD", "postcode": "24607"}}},
{"geometry": {"type": "Point", "coordinates": [-81.7850305443, 37.0550427697]}, "type": "Feature", "properties": {"collection_times": [{"days": "Mon-Fri", "time": "4:30pm"}, {"days": "Sat", "time": "12:00pm"}, {"days": "Sun", "time": "Closed"}], "id": "2460900003", "name": "USPS COLLECTION BOX - BLUE BOX", "address": {"city": "CEDAR BLUFF", "state": "VA", "street": "1126 CEDAR VALLEY DR", "postcode": "24609"}}},
{"geometry": {"type": "Point", "coordinates": [-81.7850305443, 37.0550427697]}, "type": "Feature", "properties": {"collection_times": [{"days": "Mon-Fri", "time": "4:30pm"}, {"days": "Sat", "time": "12:00pm"}, {"days": "Sun", "time": "Closed"}], "id": "2460900004", "name": "USPS COLLECTION BOX - PO LOBBY", "address": {"city": "CEDAR BLUFF", "state": "VA", "street": "1126 CEDAR VALLEY DR", "postcode": "24609"}}},
{"geometry": {"type": "Point", "coordinates": [-81.7961851275, 37.0930104076]}, "type": "Feature", "properties": {"collection_times": [{"days": "Mon-Fri", "time": "4:00pm"}, {"days": "Sat", "time": "10:00am"}, {"days": "Sun", "time": "Closed"}], "id": "2461200000", "name": "USPS COLLECTION BOX - BLUE BOX", "address": {"city": "DORAN", "state": "VA", "street": "5947 GOVERNOR G C PEERY HWY", "postcode": "24612"}}},
{"geometry": {"type": "Point", "coordinates": [-81.7961851275, 37.0930104076]}, "type": "Feature", "properties": {"collection_times": [{"days": "Mon-Fri", "time": "4:00pm"}, {"days": "Sat", "time": "10:00am"}, {"days": "Sun", "time": "Closed"}], "id": "2461200001", "name": "USPS COLLECTION BOX - PO LOBBY", "address": {"city": "DORAN", "state": "VA", "street": "5947 GOVERNOR G C PEERY HWY", "postcode": "24612"}}},
{"geometry": {"type": "Point", "coordinates": [-81.3066833208, 37.2752214808]}, "type": "Feature", "properties": {"collection_times": [{"days": "Mon-Fri", "time": "11:45am"}, {"days": "Sat", "time": "11:15am"}, {"days": "Sun", "time": "Closed"}], "id": "2461300000", "name": "USPS COLLECTION BOX - BLUE BOX", "address": {"city": "FALLS MILLS", "state": "VA", "street": "401 BRUSHFORK RD", "postcode": "24613"}}},
{"geometry": {"type": "Point", "coordinates": [-81.3066833208, 37.2752214808]}, "type": "Feature", "properties": {"collection_times": [{"days": "Mon-Fri", "time": "11:45am"}, {"days": "Sat", "time": "11:15am"}, {"days": "Sun", "time": "Closed"}], "id": "2461300001", "name": "USPS COLLECTION BOX - PO LOBBY", "address": {"city": "FALLS MILLS", "state": "VA", "street": "401 BRUSHFORK RD", "postcode": "24613"}}},
{"geometry": {"type": "Point", "coordinates": [-82.0971281847, 37.2773566739]}, "type": "Feature", "properties": {"collection_times": [{"days": "Mon-Fri", "time": "4:25pm"}, {"days": "Sat", "time": "12:00pm"}, {"days": "Sun", "time": "Closed"}], "id": "2461400000", "name": "USPS COLLECTION BOX - BLUE BOX", "address": {"city": "GRUNDY", "state": "VA", "street": "123 WALNUT ST", "postcode": "24614"}}},
{"geometry": {"type": "Point", "coordinates": [-82.0971281847, 37.2773566739]}, "type": "Feature", "properties": {"collection_times": [{"days": "Mon-Fri", "time": "4:25pm"}, {"days": "Sat", "time": "12:00pm"}, {"days": "Sun", "time": "Closed"}], "id": "2461400001", "name": "USPS COLLECTION BOX - BLUE BOX", "address": {"city": "GRUNDY", "state": "VA", "street": "123 WALNUT ST", "postcode": "24614"}}},
{"geometry": {"type": "Point", "coordinates": [-82.0971281847, 37.2773566739]}, "type": "Feature", "properties": {"collection_times": [{"days": "Mon-Fri", "time": "4:25pm"}, {"days": "Sat", "time": "12:00pm"}, {"days": "Sun", "time": "Closed"}], "id": "2461400002", "name": "USPS COLLECTION BOX - PO LOBBY", "address": {"city": "GRUNDY", "state": "VA", "street": "123 WALNUT ST", "postcode": "24614"}}},
{"geometry": {"type": "Point", "coordinates": [-81.5187427549, 37.2223899324]}, "type": "Feature", "properties": {"collection_times": [{"days": "Mon-Sat", "time": "11:00am"}, {"days": "Sun", "time": "Closed"}], "id": "2461900001", "name": "USPS COLLECTION BOX - PO LOBBY", "address": {"city": "HORSEPEN", "state": "VA", "street": "2354 HORSEPEN RD", "postcode": "24619"}}},
{"geometry": {"type": "Point", "coordinates": [-82.0160544497, 37.4150512216]}, "type": "Feature", "properties": {"collection_times": [{"days": "Mon-Fri", "time": "3:15pm"}, {"days": "Sat", "time": "10:30am"}, {"days": "Sun", "time": "Closed"}], "id": "2462000000", "name": "USPS COLLECTION BOX - BLUE BOX", "address": {"city": "HURLEY", "state": "VA", "street": "7505 LESTERS FORK RD", "postcode": "24620"}}},
{"geometry": {"type": "Point", "coordinates": [-82.0160544497, 37.4150512216]}, "type": "Feature", "properties": {"collection_times": [{"days": "Mon-Fri", "time": "3:15pm"}, {"days": "Sat", "time": "10:45am"}, {"days": "Sun", "time": "Closed"}], "id": "2462000001", "name": "USPS COLLECTION BOX - PO LOBBY", "address": {"city": "HURLEY", "state": "VA", "street": "7505 LESTERS FORK RD", "postcode": "24620"}}},
{"geometry": {"type": "Point", "coordinates": [-82.0160544497, 37.4150512216]}, "type": "Feature", "properties": {"collection_times": [{"days": "Mon-Fri", "time": "3:15pm"}, {"days": "Sat", "time": "10:45am"}, {"days": "Sun", "time": "Closed"}], "id": "2462000002", "name": "USPS COLLECTION BOX - PO LOBBY", "address": {"city": "HURLEY", "state": "VA", "street": "7505 LESTERS FORK RD", "postcode": "24620"}}},
{"geometry": {"type": "Point", "coordinates": [-81.8121092859, 37.2273129525]}, "type": "Feature", "properties": {"collection_times": [{"days": "Mon-Fri", "time": "12:15pm"}, {"days": "Sat", "time": "11:00am"}, {"days": "Sun", "time": "Closed"}], "id": "2462200000", "name": "USPS COLLECTION BOX - BLUE BOX", "address": {"city": "JEWELL RIDGE", "state": "VA", "street": "978 JEWELL MAIN RD", "postcode": "24622"}}},
{"geometry": {"type": "Point", "coordinates": [-81.8121092859, 37.2273129525]}, "type": "Feature", "properties": {"collection_times": [{"days": "Mon-Fri", "time": "12:15pm"}, {"days": "Sat", "time": "11:15am"}, {"days": "Sun", "time": "Closed"}], "id": "2462200001", "name": "USPS COLLECTION BOX - PO LOBBY", "address": {"city": "JEWELL RIDGE", "state": "VA", "street": "978 JEWELL MAIN RD", "postcode": "24622"}}},
{"geometry": {"type": "Point", "coordinates": [-81.9860474703, 37.2021110679]}, "type": "Feature", "properties": {"collection_times": [{"days": "Mon-Fri", "time": "12:00pm"}, {"days": "Sat", "time": "9:00am"}, {"days": "Sun", "time": "Closed"}], "id": "2462400000", "name": "USPS COLLECTION BOX - BLUE BOX", "address": {"city": "KEEN MOUNTAIN", "state": "VA", "street": "1063 KEEN MOUNTAIN CAMP RD", "postcode": "24624"}}},
{"geometry": {"type": "Point", "coordinates": [-81.9860474703, 37.2021110679]}, "type": "Feature", "properties": {"collection_times": [{"days": "Mon-Fri", "time": "12:00pm"}, {"days": "Sat", "time": "9:15am"}, {"days": "Sun", "time": "Closed"}], "id": "2462400001", "name": "USPS COLLECTION BOX - PO LOBBY", "address": {"city": "KEEN MOUNTAIN", "state": "VA", "street": "1063 KEEN MOUNTAIN CAMP RD", "postcode": "24624"}}},
{"geometry": {"type": "Point", "coordinates": [-82.2198348025, 37.198178335]}, "type": "Feature", "properties": {"collection_times": [{"days": "Mon-Fri", "time": "12:45pm"}, {"days": "Sat", "time": "10:30am"}, {"days": "Sun", "time": "Closed"}], "id": "2462700000", "name": "USPS COLLECTION BOX - BLUE BOX", "address": {"city": "MAVISDALE", "state": "VA", "street": "9170 GARDEN CREEK RD", "postcode": "24627"}}},
{"geometry": {"type": "Point", "coordinates": [-82.2198348025, 37.198178335]}, "type": "Feature", "properties": {"collection_times": [{"days": "Mon-Fri", "time": "12:45pm"}, {"days": "Sat", "time": "10:45am"}, {"days": "Sun", "time": "Closed"}], "id": "2462700001", "name": "USPS COLLECTION BOX - PO LOBBY", "address": {"city": "MAVISDALE", "state": "VA", "street": "9170 GARDEN CREEK RD", "postcode": "24627"}}},
{"geometry": {"type": "Point", "coordinates": [-82.1749081596, 37.3018146562]}, "type": "Feature", "properties": {"collection_times": [{"days": "Mon-Fri", "time": "3:30pm"}, {"days": "Sat", "time": "11:00am"}, {"days": "Sun", "time": "Closed"}], "id": "2462800000", "name": "USPS COLLECTION BOX - BLUE BOX", "address": {"city": "MAXIE", "state": "VA", "street": "1793 BULL CREEK RD", "postcode": "24628"}}},
{"geometry": {"type": "Point", "coordinates": [-82.1749081596, 37.3018146562]}, "type": "Feature", "properties": {"collection_times": [{"days": "Mon-Fri", "time": "12:30pm"}, {"days": "Sat", "time": "11:00am"}, {"days": "Sun", "time": "Closed"}], "id": "2462800001", "name": "USPS COLLECTION BOX - PO LOBBY", "address": {"city": "MAXIE", "state": "VA", "street": "1793 BULL CREEK RD", "postcode": "24628"}}},
{"geometry": {"type": "Point", "coordinates": [-82.1749081596, 37.3018146562]}, "type": "Feature", "properties": {"collection_times": [{"days": "Mon-Fri", "time": "12:30pm"}, {"days": "Sat", "time": "11:00am"}, {"days": "Sun", "time": "Closed"}], "id": "2462800002", "name": "USPS COLLECTION BOX - PO LOBBY", "address": {"city": "MAXIE", "state": "VA", "street": "1793 BULL CREEK RD", "postcode": "24628"}}},
{"geometry": {"type": "Point", "coordinates": [-81.5006939889, 37.1340464898]}, "type": "Feature", "properties": {"collection_times": [{"days": "Mon-Fri", "time": "4:30pm"}, {"days": "Sat", "time": "10:00am"}, {"days": "Sun", "time": "Closed"}], "id": "2463000000", "name": "USPS COLLECTION BOX - BLUE BOX", "address": {"city": "NORTH TAZEWELL", "state": "VA", "street": "101 E RIVERSIDE DR", "postcode": "24630"}}},
{"geometry": {"type": "Point", "coordinates": [-81.5006939889, 37.1340464898]}, "type": "Feature", "properties": {"collection_times": [{"days": "Mon-Fri", "time": "4:30pm"}, {"days": "Sat", "time": "10:00am"}, {"days": "Sun", "time": "Closed"}], "id": "2463000002", "name": "USPS COLLECTION BOX - PO LOBBY", "address": {"city": "NORTH TAZEWELL", "state": "VA", "street": "101 E RIVERSIDE DR", "postcode": "24630"}}},
{"geometry": {"type": "Point", "coordinates": [-81.9844249338, 37.2189047467]}, "type": "Feature", "properties": {"collection_times": [{"days": "Mon-Fri", "time": "4:00pm"}, {"days": "Sat", "time": "10:15am"}, {"days": "Sun", "time": "Closed"}], "id": "2463100000", "name": "USPS COLLECTION BOX - BLUE BOX", "address": {"city": "OAKWOOD", "state": "VA", "street": "10735 RIVERSIDE DR", "postcode": "24631"}}},
{"geometry": {"type": "Point", "coordinates": [-81.9844249338, 37.2189047467]}, "type": "Feature", "properties": {"collection_times": [{"days": "Mon-Fri", "time": "4:00pm"}, {"days": "Sat", "time": "10:15am"}, {"days": "Sun", "time": "Closed"}], "id": "2463100001", "name": "USPS COLLECTION BOX - PO LOBBY", "address": {"city": "OAKWOOD", "state": "VA", "street": "10735 RIVERSIDE DR", "postcode": "24631"}}},
{"geometry": {"type": "Point", "coordinates": [-81.9032526444, 37.3157767105]}, "type": "Feature", "properties": {"collection_times": [{"days": "Mon-Fri", "time": "2:20pm"}, {"days": "Sat", "time": "12:45pm"}, {"days": "Sun", "time": "Closed"}], "id": "2463400000", "name": "USPS COLLECTION BOX - BLUE BOX", "address": {"city": "PILGRAMS KNOB", "state": "VA", "street": "14006 DISMAL RIVER RD", "postcode": "24634"}}},
{"geometry": {"type": "Point", "coordinates": [-81.9032526444, 37.3157767105]}, "type": "Feature", "properties": {"collection_times": [{"days": "Mon-Fri", "time": "2:20pm"}, {"days": "Sat", "time": "12:45pm"}, {"days": "Sun", "time": "Closed"}], "id": "2463400001", "name": "USPS COLLECTION BOX - PO LOBBY", "address": {"city": "PILGRAMS KNOB", "state": "VA", "street": "14006 DISMAL RIVER RD", "postcode": "24634"}}},
{"geometry": {"type": "Point", "coordinates": [-81.3451938657, 37.3053552524]}, "type": "Feature", "properties": {"collection_times": [{"days": "Mon-Fri", "time": "11:45am"}, {"days": "Sat", "time": "11:30am"}, {"days": "Sun", "time": "Closed"}], "id": "2463500000", "name": "USPS COLLECTION BOX - BLUE BOX", "address": {"city": "POCAHONTAS", "state": "VA", "street": "241 CENTRE ST", "postcode": "24635"}}},
{"geometry": {"type": "Point", "coordinates": [-81.3451938657, 37.3053552524]}, "type": "Feature", "properties": {"collection_times": [{"days": "Mon-Fri", "time": "11:45am"}, {"days": "Sat", "time": "11:30am"}, {"days": "Sun", "time": "Closed"}], "id": "2463500001", "name": "USPS COLLECTION BOX - PO LOBBY", "address": {"city": "POCAHONTAS", "state": "VA", "street": "241 CENTRE ST", "postcode": "24635"}}},
{"geometry": {"type": "Point", "coordinates": [-81.7234863999, 37.0464356541]}, "type": "Feature", "properties": {"collection_times": [{"days": "Mon-Fri", "time": "4:30pm"}, {"days": "Sat", "time": "10:30am"}, {"days": "Sun", "time": "Closed"}], "id": "2463700000", "name": "USPS COLLECTION BOX - BLUE BOX", "address": {"city": "POUNDING MILL", "state": "VA", "street": "4355 INDIAN PAINT RD", "postcode": "24637"}}},
{"geometry": {"type": "Point", "coordinates": [-81.7234863999, 37.0464356541]}, "type": "Feature", "properties": {"collection_times": [{"days": "Mon-Fri", "time": "5:00pm"}, {"days": "Sat", "time": "10:30am"}, {"days": "Sun", "time": "Closed"}], "id": "2463700003", "name": "USPS COLLECTION BOX - PO LOBBY", "address": {"city": "POUNDING MILL", "state": "VA", "street": "4355 INDIAN PAINT RD", "postcode": "24637"}}},
{"geometry": {"type": "Point", "coordinates": [-81.8390529554, 37.0910670642]}, "type": "Feature", "properties": {"collection_times": [{"days": "Mon-Fri", "time": "4:00pm"}, {"days": "Sat", "time": "11:00am"}, {"days": "Sun", "time": "Closed"}], "id": "2463900000", "name": "USPS COLLECTION BOX - BLUE BOX", "address": {"city": "RAVEN", "state": "VA", "street": "561 RAVEN RD", "postcode": "24639"}}},
{"geometry": {"type": "Point", "coordinates": [-81.8390529554, 37.0910670642]}, "type": "Feature", "properties": {"collection_times": [{"days": "Mon-Fri", "time": "4:00pm"}, {"days": "Sat", "time": "11:00am"}, {"days": "Sun", "time": "Closed"}], "id": "2463900001", "name": "USPS COLLECTION BOX - PO LOBBY", "address": {"city": "RAVEN", "state": "VA", "street": "561 RAVEN RD", "postcode": "24639"}}},
{"geometry": {"type": "Point", "coordinates": [-81.7987044308, 37.0934628083]}, "type": "Feature", "properties": {"collection_times": [{"days": "Mon-Fri", "time": "4:30pm"}, {"days": "Sat", "time": "2:00pm"}, {"days": "Sun", "time": "Closed"}], "id": "2464100000", "name": "USPS COLLECTION BOX - BLUE BOX", "address": {"city": "RICHLANDS", "state": "VA", "street": "1430 FRONT ST", "postcode": "24641"}}},
{"geometry": {"type": "Point", "coordinates": [-81.8055287807, 37.0943397398]}, "type": "Feature", "properties": {"collection_times": [{"days": "Mon-Fri", "time": "3:00pm"}, {"days": "Sat", "time": "2:00pm"}, {"days": "Sun", "time": "Closed"}], "id": "2464100010", "name": "USPS COLLECTION BOX - BLUE BOX", "address": {"city": "RICHLANDS", "state": "VA", "street": "2401 FRONT ST", "postcode": "24641"}}},
{"geometry": {"type": "Point", "coordinates": [-81.7987044308, 37.0934628083]}, "type": "Feature", "properties": {"collection_times": [{"days": "Mon-Fri", "time": "4:30pm"}, {"days": "Sat", "time": "2:00pm"}, {"days": "Sun", "time": "Closed"}], "id": "2464100012", "name": "USPS COLLECTION BOX - PO LOBBY", "address": {"city": "RICHLANDS", "state": "VA", "street": "1430 FRONT ST", "postcode": "24641"}}},
{"geometry": {"type": "Point", "coordinates": [-82.035522046, 37.1237604576]}, "type": "Feature", "properties": {"collection_times": [{"days": "Mon-Fri", "time": "12:00pm"}, {"days": "Sat", "time": "10:00am"}, {"days": "Sun", "time": "Closed"}], "id": "2464600000", "name": "USPS COLLECTION BOX - BLUE BOX", "address": {"city": "ROWE", "state": "VA", "street": "2772 ROBINSON FORK RD", "postcode": "24646"}}},
{"geometry": {"type": "Point", "coordinates": [-82.035522046, 37.1237604576]}, "type": "Feature", "properties": {"collection_times": [{"days": "Mon-Fri", "time": "12:00pm"}, {"days": "Sat", "time": "10:00am"}, {"days": "Sun", "time": "Closed"}], "id": "2464600001", "name": "USPS COLLECTION BOX - PO LOBBY", "address": {"city": "ROWE", "state": "VA", "street": "2772 ROBINSON FORK RD", "postcode": "24646"}}},
{"geometry": {"type": "Point", "coordinates": [-81.9202850152, 37.0812804065]}, "type": "Feature", "properties": {"collection_times": [{"days": "Mon-Fri", "time": "4:15pm"}, {"days": "Sat", "time": "11:15am"}, {"days": "Sun", "time": "Closed"}], "id": "2464900000", "name": "USPS COLLECTION BOX - BLUE BOX", "address": {"city": "SWORDS CREEK", "state": "VA", "street": "4209 SWORDS CREEK RD", "postcode": "24649"}}},
{"geometry": {"type": "Point", "coordinates": [-81.9202850152, 37.0812804065]}, "type": "Feature", "properties": {"collection_times": [{"days": "Mon-Fri", "time": "4:15pm"}, {"days": "Sat", "time": "11:15am"}, {"days": "Sun", "time": "Closed"}], "id": "2464900001", "name": "USPS COLLECTION BOX - PO LOBBY", "address": {"city": "SWORDS CREEK", "state": "VA", "street": "4209 SWORDS CREEK RD", "postcode": "24649"}}},
{"geometry": {"type": "Point", "coordinates": [-81.5228079841, 37.1154934958]}, "type": "Feature", "properties": {"collection_times": [{"days": "Mon-Fri", "time": "4:30pm"}, {"days": "Sat", "time": "10:00am"}, {"days": "Sun", "time": "Closed"}], "id": "2465100004", "name": "USPS COLLECTION BOX - BLUE BOX", "address": {"city": "TAZEWELL", "state": "VA", "street": "200 W MAIN ST", "postcode": "24651"}}},
{"geometry": {"type": "Point", "coordinates": [-81.5228079841, 37.1154934958]}, "type": "Feature", "properties": {"collection_times": [{"days": "Mon-Fri", "time": "4:30pm"}, {"days": "Sat", "time": "10:00am"}, {"days": "Sun", "time": "Closed"}], "id": "2465100005", "name": "USPS COLLECTION BOX - PO LOBBY", "address": {"city": "TAZEWELL", "state": "VA", "street": "200 W MAIN ST", "postcode": "24651"}}},
{"geometry": {"type": "Point", "coordinates": [-82.1264664946, 37.1623276668]}, "type": "Feature", "properties": {"collection_times": [{"days": "Mon-Fri", "time": "3:45pm"}, {"days": "Sat", "time": "12:00pm"}, {"days": "Sun", "time": "Closed"}], "id": "2465600000", "name": "USPS COLLECTION BOX - BLUE BOX", "address": {"city": "VANSANT", "state": "VA", "street": "1903 LOVERS GAP RD", "postcode": "24656"}}},
{"geometry": {"type": "Point", "coordinates": [-82.1264664946, 37.1623276668]}, "type": "Feature", "properties": {"collection_times": [{"days": "Mon-Fri", "time": "3:45pm"}, {"days": "Sat", "time": "12:00pm"}, {"days": "Sun", "time": "Closed"}], "id": "2465600001", "name": "USPS COLLECTION BOX - PO LOBBY", "address": {"city": "VANSANT", "state": "VA", "street": "1903 LOVERS GAP RD", "postcode": "24656"}}},
{"geometry": {"type": "Point", "coordinates": [-81.8889467601, 37.2643656048]}, "type": "Feature", "properties": {"collection_times": [{"days": "Mon-Fri", "time": "3:30pm"}, {"days": "Sat", "time": "12:15pm"}, {"days": "Sun", "time": "Closed"}], "id": "2465700000", "name": "USPS COLLECTION BOX - BLUE BOX", "address": {"city": "WHITEWOOD", "state": "VA", "street": "1510 BROWN MOUNTAIN RD", "postcode": "24657"}}},
{"geometry": {"type": "Point", "coordinates": [-81.8889467601, 37.2643656048]}, "type": "Feature", "properties": {"collection_times": [{"days": "Mon-Fri", "time": "3:30pm"}, {"days": "Sat", "time": "12:15pm"}, {"days": "Sun", "time": "Closed"}], "id": "2465700001", "name": "USPS COLLECTION BOX - PO LOBBY", "address": {"city": "WHITEWOOD", "state": "VA", "street": "1510 BROWN MOUNTAIN RD", "postcode": "24657"}}},
{"geometry": {"type": "Point", "coordinates": [-81.9887881645, 37.3537386652]}, "type": "Feature", "properties": {"collection_times": [{"days": "Mon-Fri", "time": "11:45am"}, {"days": "Sat", "time": "9:45am"}, {"days": "Sun", "time": "Closed"}], "id": "2465800000", "name": "USPS COLLECTION BOX - BLUE BOX", "address": {"city": "WOLFORD", "state": "VA", "street": "5145 HURLEY RD", "postcode": "24658"}}},
{"geometry": {"type": "Point", "coordinates": [-81.9887881645, 37.3537386652]}, "type": "Feature", "properties": {"collection_times": [{"days": "Mon-Fri", "time": "11:45am"}, {"days": "Sat", "time": "9:45am"}, {"days": "Sun", "time": "Closed"}], "id": "2465800001", "name": "USPS COLLECTION BOX - PO LOBBY", "address": {"city": "WOLFORD", "state": "VA", "street": "5145 HURLEY RD", "postcode": "24658"}}}
]}
