{"type": "FeatureCollection", "features": [
{"geometry": {"type": "Point", "coordinates": [-82.2037738938, 36.5955056387]}, "type": "Feature", "properties": {"collection_times": [{"days": "Mon-Sat", "time": "12:00pm"}, {"days": "Sun", "time": "Closed"}], "id": "3762000009", "name": "USPS COLLECTION BOX - BLUE BOX", "address": {"city": "BRISTOL", "state": "VA", "street": "1936 W STATE ST", "postcode": "37620"}}},
{"geometry": {"type": "Point", "coordinates": [-82.1858890007, 36.5928458769]}, "type": "Feature", "properties": {"collection_times": [{"days": "Mon-Sat", "time": "12:00pm"}, {"days": "Sun", "time": "Closed"}], "id": "3762000025", "name": "USPS COLLECTION BOX - BLUE BOX", "address": {"city": "BRISTOL", "state": "VA", "street": "801 BROAD ST", "postcode": "37620"}}},
{"geometry": {"type": "Point", "coordinates": [-82.2043681195, 36.5648638931]}, "type": "Feature", "properties": {"collection_times": [{"days": "Mon-Fri", "time": "11:00am"}, {"days": "Sat-Sun", "time": "Closed"}], "id": "3762000028", "name": "USPS COLLECTION BOX - BLUE BOX", "address": {"city": "BRISTOL", "state": "VA", "street": "1241 VOLUNTEER PKWY", "postcode": "37620"}}},
{"geometry": {"type": "Point", "coordinates": [-82.1546814506, 36.5876591059]}, "type": "Feature", "properties": {"collection_times": [{"days": "Mon-Fri", "time": "12:00pm"}, {"days": "Sat-Sun", "time": "Closed"}], "id": "3762000043", "name": "USPS COLLECTION BOX - BLUE BOX", "address": {"city": "BRISTOL", "state": "VA", "street": "1350 KING COLLEGE RD", "postcode": "37620"}}},
{"geometry": {"type": "Point", "coordinates": [-82.23422608, 36.5386725061]}, "type": "Feature", "properties": {"collection_times": [{"days": "Mon-Sat", "time": "11:00am"}, {"days": "Sun", "time": "Closed"}], "id": "3762000053", "name": "USPS COLLECTION BOX - BLUE BOX", "address": {"city": "BRISTOL", "state": "VA", "street": "3357 AVOCA RD", "postcode": "37620"}}},
{"geometry": {"type": "Point", "coordinates": [-82.2172307005, 36.5875245947]}, "type": "Feature", "properties": {"collection_times": [{"days": "Mon-Sat", "time": "10:00am"}, {"days": "Sun", "time": "Closed"}], "id": "3762000054", "name": "USPS COLLECTION BOX - BLUE BOX", "address": {"city": "BRISTOL", "state": "VA", "street": "3004 SHELBY ST", "postcode": "37620"}}},
{"geometry": {"type": "Point", "coordinates": [-82.2052120265, 36.5917574316]}, "type": "Feature", "properties": {"collection_times": [{"days": "Mon-Sat", "time": "9:30am"}, {"days": "Sun", "time": "Closed"}], "id": "3762000055", "name": "USPS COLLECTION BOX - BLUE BOX", "address": {"city": "BRISTOL", "state": "VA", "street": "200 LINDEN SQUARE DR", "postcode": "37620"}}},
{"geometry": {"type": "Point", "coordinates": [-82.221166112, 36.5915038763]}, "type": "Feature", "properties": {"collection_times": [{"days": "Mon-Sat", "time": "11:00am"}, {"days": "Sun", "time": "Closed"}], "id": "3762000057", "name": "USPS COLLECTION BOX - BLUE BOX", "address": {"city": "BRISTOL", "state": "VA", "street": "104 STAFFORD", "postcode": "37620"}}},
{"geometry": {"type": "Point", "coordinates": [-82.1832853674, 36.5936420214]}, "type": "Feature", "properties": {"collection_times": [{"days": "Mon-Sat", "time": "5:00pm"}, {"days": "Sun", "time": "Closed"}], "id": "3762000064", "name": "USPS COLLECTION BOX - BLUE BOX", "address": {"city": "BRISTOL", "state": "VA", "street": "111 6TH ST", "postcode": "37620"}}},
{"geometry": {"type": "Point", "coordinates": [-82.1832853674, 36.5936420214]}, "type": "Feature", "properties": {"collection_times": [{"days": "Mon-Sat", "time": "5:00pm"}, {"days": "Sun", "time": "Closed"}], "id": "3762000066", "name": "USPS COLLECTION BOX - BLUE BOX", "address": {"city": "BRISTOL", "state": "VA", "street": "111 6TH ST", "postcode": "37620"}}},
{"geometry": {"type": "Point", "coordinates": [-82.2115707001, 36.5592706495]}, "type": "Feature", "properties": {"collection_times": [{"days": "Mon-Fri", "time": "10:45am"}, {"days": "Sat", "time": "9:15am"}, {"days": "Sun", "time": "Closed"}], "id": "3762000069", "name": "USPS COLLECTION BOX - BLUE BOX", "address": {"city": "BRISTOL", "state": "VA", "street": "1393 VOLUNTEER PKWY", "postcode": "37620"}}},
{"geometry": {"type": "Point", "coordinates": [-82.2127582082, 36.5583986134]}, "type": "Feature", "properties": {"collection_times": [{"days": "Mon-Fri", "time": "4:45pm"}, {"days": "Sat", "time": "12:00pm"}, {"days": "Sun", "time": "Closed"}], "id": "3762000070", "name": "USPS COLLECTION BOX - BLUE BOX", "address": {"city": "BRISTOL", "state": "VA", "street": "1430 VOLUNTEER PKWY", "postcode": "37620"}}},
{"geometry": {"type": "Point", "coordinates": [-82.1948820478, 36.5713801385]}, "type": "Feature", "properties": {"collection_times": [{"days": "Mon-Sat", "time": "12:00pm"}, {"days": "Sun", "time": "Closed"}], "id": "3762000074", "name": "USPS COLLECTION BOX - BLUE BOX", "address": {"city": "BRISTOL", "state": "VA", "street": "1143 VOLUNTEER PKWY", "postcode": "37620"}}},
{"geometry": {"type": "Point", "coordinates": [-82.2127582082, 36.5583986134]}, "type": "Feature", "properties": {"collection_times": [{"days": "Mon-Fri", "time": "4:45pm"}, {"days": "Sat-Sun", "time": "Closed"}], "id": "3762000076", "name": "USPS COLLECTION BOX - PO LOBBY", "address": {"city": "BRISTOL", "state": "VA", "street": "1430 VOLUNTEER PKWY", "postcode": "37620"}}},
{"geometry": {"type": "Point", "coordinates": [-82.1832853674, 36.5936420214]}, "type": "Feature", "properties": {"collection_times": [{"days": "Mon-Sat", "time": "5:00pm"}, {"days": "Sun", "time": "Closed"}], "id": "3762000080", "name": "USPS COLLECTION BOX - PO LOBBY", "address": {"city": "BRISTOL", "state": "VA", "street": "111 6TH ST", "postcode": "37620"}}},
{"geometry": {"type": "Point", "coordinates": [-82.1832853674, 36.5936420214]}, "type": "Feature", "properties": {"collection_times": [{"days": "Mon-Sat", "time": "5:00pm"}, {"days": "Sun", "time": "Closed"}], "id": "3762000084", "name": "USPS COLLECTION BOX - BLUE BOX", "address": {"city": "BRISTOL", "state": "VA", "street": "111 6TH ST", "postcode": "37620"}}},
{"geometry": {"type": "Point", "coordinates": [-82.1800796823, 36.5900957323]}, "type": "Feature", "properties": {"collection_times": [{"days": "Mon-Fri", "time": "12:00pm"}, {"days": "Sat-Sun", "time": "Closed"}], "id": "3762000086", "name": "USPS COLLECTION BOX - BLUE BOX", "address": {"city": "BRISTOL", "state": "VA", "street": "501 5 TH ST", "postcode": "37620"}}},
{"geometry": {"type": "Point", "coordinates": [-82.1841744592, 36.5970142475]}, "type": "Feature", "properties": {"collection_times": [{"days": "Mon-Fri", "time": "12:00pm"}, {"days": "Sat-Sun", "time": "Closed"}], "id": "3762000089", "name": "USPS COLLECTION BOX - BLUE BOX", "address": {"city": "BRISTOL", "state": "VA", "street": "110 PIEDMONT AVE", "postcode": "37620"}}},
{"geometry": {"type": "Point", "coordinates": [-82.1832853674, 36.5936420214]}, "type": "Feature", "properties": {"collection_times": [{"days": "Mon-Sat", "time": "5:00pm"}, {"days": "Sun", "time": "Closed"}], "id": "3762000090", "name": "USPS COLLECTION BOX - BLUE BOX", "address": {"city": "BRISTOL", "state": "VA", "street": "111 6TH ST", "postcode": "37620"}}},
{"geometry": {"type": "Point", "coordinates": [-82.1764167529, 36.5684824174]}, "type": "Feature", "properties": {"collection_times": [{"days": "Mon-Fri", "time": "10:30am"}, {"days": "Sat-Sun", "time": "Closed"}], "id": "3762000091", "name": "USPS COLLECTION BOX - BLUE BOX", "address": {"city": "BRISTOL", "state": "VA", "street": "350 BLOUNTVILLE HWY", "postcode": "37620"}}}
]}
