{"type": "FeatureCollection", "features": [
{"geometry": {"type": "Point", "coordinates": [-87.6853566156, 42.0485367945]}, "type": "Feature", "properties": {"collection_times": [{"days": "Mon-Fri", "time": "1:30pm"}, {"days": "Sat-Sun", "time": "Closed"}], "id": "6020400004", "name": "USPS COLLECTION BOX - BLUE BOX", "address": {"city": "EVANSTON", "state": "IL", "street": "1007 CHURCH ST", "postcode": "60204"}}},
{"geometry": {"type": "Point", "coordinates": [-87.685873812, 42.051080493]}, "type": "Feature", "properties": {"collection_times": [{"days": "Mon-Fri", "time": "1:30pm"}, {"days": "Sat-Sun", "time": "Closed"}], "id": "6020400007", "name": "USPS COLLECTION BOX - BLUE BOX", "address": {"city": "EVANSTON", "state": "IL", "street": "1033 UNIVERSITY PL", "postcode": "60204"}}},
{"geometry": {"type": "Point", "coordinates": [-87.6868939893, 42.04713431]}, "type": "Feature", "properties": {"collection_times": [{"days": "Mon-Fri", "time": "5:30pm"}, {"days": "Sat", "time": "5:00pm"}, {"days": "Sun", "time": "Closed"}], "id": "6020400011", "name": "USPS COLLECTION BOX - BLUE BOX", "address": {"city": "EVANSTON", "state": "IL", "street": "1101 DAVIS ST", "postcode": "60204"}}},
{"geometry": {"type": "Point", "coordinates": [-87.6868939893, 42.04713431]}, "type": "Feature", "properties": {"collection_times": [{"days": "Mon-Fri", "time": "5:30pm"}, {"days": "Sat", "time": "5:00pm"}, {"days": "Sun", "time": "Closed"}], "id": "6020400013", "name": "USPS COLLECTION BOX - BLUE BOX", "address": {"city": "EVANSTON", "state": "IL", "street": "1101 DAVIS ST", "postcode": "60204"}}},
{"geometry": {"type": "Point", "coordinates": [-87.6864459856, 42.0570222786]}, "type": "Feature", "properties": {"collection_times": [{"days": "Mon-Fri", "time": "5:30pm"}, {"days": "Sat", "time": "5:00pm"}, {"days": "Sun", "time": "Closed"}], "id": "6020400015", "name": "USPS COLLECTION BOX - BLUE BOX", "address": {"city": "EVANSTON", "state": "IL", "street": "1118 DAVIS ST", "postcode": "60204"}}},
{"geometry": {"type": "Point", "coordinates": [-87.6864459856, 42.0570222786]}, "type": "Feature", "properties": {"collection_times": [{"days": "Mon-Fri", "time": "5:30pm"}, {"days": "Sat", "time": "5:00pm"}, {"days": "Sun", "time": "Closed"}], "id": "6020400017", "name": "USPS COLLECTION BOX - BLUE BOX", "address": {"city": "EVANSTON", "state": "IL", "street": "1118 DAVIS ST", "postcode": "60204"}}},
{"geometry": {"type": "Point", "coordinates": [-87.6802778733, 42.0380629319]}, "type": "Feature", "properties": {"collection_times": [{"days": "Mon-Fri", "time": "12:15pm"}, {"days": "Sat", "time": "11:00am"}, {"days": "Sun", "time": "Closed"}], "id": "6020400018", "name": "USPS COLLECTION BOX - BLUE BOX", "address": {"city": "EVANSTON", "state": "IL", "street": "1128 CHICAGO AVE", "postcode": "60204"}}},
{"geometry": {"type": "Point", "coordinates": [-87.6907015963, 42.0196000671]}, "type": "Feature", "properties": {"collection_times": [{"days": "Mon-Fri", "time": "12:45pm"}, {"days": "Sat", "time": "11:00am"}, {"days": "Sun", "time": "Closed"}], "id": "6020400019", "name": "USPS COLLECTION BOX - BLUE BOX", "address": {"city": "EVANSTON", "state": "IL", "street": "1325 HOWARD ST", "postcode": "60204"}}},
{"geometry": {"type": "Point", "coordinates": [-87.6819067385, 42.0458275789]}, "type": "Feature", "properties": {"collection_times": [{"days": "Mon-Fri", "time": "2:00pm"}, {"days": "Sat-Sun", "time": "Closed"}], "id": "6020400023", "name": "USPS COLLECTION BOX - BLUE BOX", "address": {"city": "EVANSTON", "state": "IL", "street": "1560 SHERMAN AVE", "postcode": "60204"}}},
{"geometry": {"type": "Point", "coordinates": [-87.6811783787, 42.0474971076]}, "type": "Feature", "properties": {"collection_times": [{"days": "Mon-Fri", "time": "1:30pm"}, {"days": "Sat", "time": "11:00am"}, {"days": "Sun", "time": "Closed"}], "id": "6020400030", "name": "USPS COLLECTION BOX - BLUE BOX", "address": {"city": "EVANSTON", "state": "IL", "street": "1618 ORRINGTON AVE", "postcode": "60204"}}},
{"geometry": {"type": "Point", "coordinates": [-87.6819597587, 42.0513292668]}, "type": "Feature", "properties": {"collection_times": [{"days": "Mon-Fri", "time": "11:30am"}, {"days": "Sat", "time": "11:00am"}, {"days": "Sun", "time": "Closed"}], "id": "6020400038", "name": "USPS COLLECTION BOX - BLUE BOX", "address": {"city": "EVANSTON", "state": "IL", "street": "1856 SHERMAN AVE", "postcode": "60204"}}},
{"geometry": {"type": "Point", "coordinates": [-87.7003257881, 42.0643820624]}, "type": "Feature", "properties": {"collection_times": [{"days": "Mon-Fri", "time": "5:00pm"}, {"days": "Sat", "time": "4:30pm"}, {"days": "Sun", "time": "Closed"}], "id": "6020400042", "name": "USPS COLLECTION BOX - BLUE BOX", "address": {"city": "EVANSTON", "state": "IL", "street": "1929 CENTRAL ST", "postcode": "60204"}}},
{"geometry": {"type": "Point", "coordinates": [-87.6917149949, 42.0557688237]}, "type": "Feature", "properties": {"collection_times": [{"days": "Mon-Fri", "time": "10:00am"}, {"days": "Sat", "time": "11:00am"}, {"days": "Sun", "time": "Closed"}], "id": "6020400050", "name": "USPS COLLECTION BOX - BLUE BOX", "address": {"city": "EVANSTON", "state": "IL", "street": "2100 GREEN BAY RD", "postcode": "60204"}}},
{"geometry": {"type": "Point", "coordinates": [-87.6869986367, 42.0557643463]}, "type": "Feature", "properties": {"collection_times": [{"days": "Mon-Fri", "time": "12:30pm"}, {"days": "Sat", "time": "11:00am"}, {"days": "Sun", "time": "Closed"}], "id": "6020400051", "name": "USPS COLLECTION BOX - BLUE BOX", "address": {"city": "EVANSTON", "state": "IL", "street": "2100 RIDGE AVE", "postcode": "60204"}}},
{"geometry": {"type": "Point", "coordinates": [-87.7274379891, 42.0638349538]}, "type": "Feature", "properties": {"collection_times": [{"days": "Mon-Fri", "time": "10:45am"}, {"days": "Sat", "time": "11:00am"}, {"days": "Sun", "time": "Closed"}], "id": "6020400054", "name": "USPS COLLECTION BOX - BLUE BOX", "address": {"city": "EVANSTON", "state": "IL", "street": "2530 CRAWFORD AVE", "postcode": "60204"}}},
{"geometry": {"type": "Point", "coordinates": [-87.7018834442, 42.0679098256]}, "type": "Feature", "properties": {"collection_times": [{"days": "Mon-Sat", "time": "11:00am"}, {"days": "Sun", "time": "Closed"}], "id": "6020400056", "name": "USPS COLLECTION BOX - BLUE BOX", "address": {"city": "EVANSTON", "state": "IL", "street": "2748 GREEN BAY RD", "postcode": "60204"}}},
{"geometry": {"type": "Point", "coordinates": [-87.7131557237, 42.064486852]}, "type": "Feature", "properties": {"collection_times": [{"days": "Mon-Sat", "time": "11:00am"}, {"days": "Sun", "time": "Closed"}], "id": "6020400057", "name": "USPS COLLECTION BOX - BLUE BOX", "address": {"city": "EVANSTON", "state": "IL", "street": "2829 CENTRAL ST", "postcode": "60204"}}},
{"geometry": {"type": "Point", "coordinates": [-87.717120221, 42.0644607391]}, "type": "Feature", "properties": {"collection_times": [{"days": "Mon-Sat", "time": "11:00am"}, {"days": "Sun", "time": "Closed"}], "id": "6020400059", "name": "USPS COLLECTION BOX - BLUE BOX", "address": {"city": "EVANSTON", "state": "IL", "street": "2949 CENTRAL ST", "postcode": "60204"}}},
{"geometry": {"type": "Point", "coordinates": [-87.7263713015, 42.0553080259]}, "type": "Feature", "properties": {"collection_times": [{"days": "Mon-Fri", "time": "10:15am"}, {"days": "Sat", "time": "11:00am"}, {"days": "Sun", "time": "Closed"}], "id": "6020400061", "name": "USPS COLLECTION BOX - BLUE BOX", "address": {"city": "EVANSTON", "state": "IL", "street": "3315 GOLF RD", "postcode": "60204"}}},
{"geometry": {"type": "Point", "coordinates": [-87.6806364875, 42.033978903]}, "type": "Feature", "properties": {"collection_times": [{"days": "Mon-Fri", "time": "5:00pm"}, {"days": "Sat", "time": "4:30pm"}, {"days": "Sun", "time": "Closed"}], "id": "6020400068", "name": "USPS COLLECTION BOX - BLUE BOX", "address": {"city": "EVANSTON", "state": "IL", "street": "701 MAIN ST", "postcode": "60204"}}},
{"geometry": {"type": "Point", "coordinates": [-87.6808424184, 42.0339628741]}, "type": "Feature", "properties": {"collection_times": [{"days": "Mon-Fri", "time": "5:00pm"}, {"days": "Sat", "time": "4:30pm"}, {"days": "Sun", "time": "Closed"}], "id": "6020400069", "name": "USPS COLLECTION BOX - BLUE BOX", "address": {"city": "EVANSTON", "state": "IL", "street": "701 MAIN ST", "postcode": "60204"}}},
{"geometry": {"type": "Point", "coordinates": [-87.699299779, 42.0309966583]}, "type": "Feature", "properties": {"collection_times": [{"days": "Mon-Fri", "time": "1:00pm"}, {"days": "Sat", "time": "11:00am"}, {"days": "Sun", "time": "Closed"}], "id": "6020400071", "name": "USPS COLLECTION BOX - BLUE BOX", "address": {"city": "EVANSTON", "state": "IL", "street": "723 DODGE AVE", "postcode": "60204"}}},
{"geometry": {"type": "Point", "coordinates": [-87.68188975, 42.0254674052]}, "type": "Feature", "properties": {"collection_times": [{"days": "Mon-Fri", "time": "12:30pm"}, {"days": "Sat", "time": "11:00am"}, {"days": "Sun", "time": "Closed"}], "id": "6020400072", "name": "USPS COLLECTION BOX - BLUE BOX", "address": {"city": "EVANSTON", "state": "IL", "street": "800 AUSTIN ST", "postcode": "60204"}}},
{"geometry": {"type": "Point", "coordinates": [-87.6819938037, 42.0468397461]}, "type": "Feature", "properties": {"collection_times": [{"days": "Mon-Fri", "time": "12:30pm"}, {"days": "Sat", "time": "11:00am"}, {"days": "Sun", "time": "Closed"}], "id": "6020400074", "name": "USPS COLLECTION BOX - BLUE BOX", "address": {"city": "EVANSTON", "state": "IL", "street": "800 DAVIS ST", "postcode": "60204"}}},
{"geometry": {"type": "Point", "coordinates": [-87.6901594032, 42.0340385834]}, "type": "Feature", "properties": {"collection_times": [{"days": "Mon-Fri", "time": "1:15pm"}, {"days": "Sat", "time": "11:00am"}, {"days": "Sun", "time": "Closed"}], "id": "6020400080", "name": "USPS COLLECTION BOX - BLUE BOX", "address": {"city": "EVANSTON", "state": "IL", "street": "1300 MAIN ST", "postcode": "60204"}}},
{"geometry": {"type": "Point", "coordinates": [-87.7125835733, 42.0644217015]}, "type": "Feature", "properties": {"collection_times": [{"days": "Mon-Sat", "time": "11:00am"}, {"days": "Sun", "time": "Closed"}], "id": "6020400083", "name": "USPS COLLECTION BOX - BLUE BOX", "address": {"city": "EVANSTON", "state": "IL", "street": "2746 CENTRAL ST", "postcode": "60204"}}},
{"geometry": {"type": "Point", "coordinates": [-87.7031707689, 42.064348358]}, "type": "Feature", "properties": {"collection_times": [{"days": "Mon-Sat", "time": "11:00am"}, {"days": "Sun", "time": "Closed"}], "id": "6020400084", "name": "USPS COLLECTION BOX - BLUE BOX", "address": {"city": "EVANSTON", "state": "IL", "street": "2126 CENTRAL ST", "postcode": "60204"}}},
{"geometry": {"type": "Point", "coordinates": [-87.7227877774, 42.0645293508]}, "type": "Feature", "properties": {"collection_times": [{"days": "Mon-Fri", "time": "10:45am"}, {"days": "Sat", "time": "11:00am"}, {"days": "Sun", "time": "Closed"}], "id": "6020400085", "name": "USPS COLLECTION BOX - BLUE BOX", "address": {"city": "EVANSTON", "state": "IL", "street": "3200 CENTRAL ST", "postcode": "60204"}}},
{"geometry": {"type": "Point", "coordinates": [-87.7152002175, 42.0643835282]}, "type": "Feature", "properties": {"collection_times": [{"days": "Mon-Sat", "time": "11:00am"}, {"days": "Sun", "time": "Closed"}], "id": "6020400086", "name": "USPS COLLECTION BOX - BLUE BOX", "address": {"city": "EVANSTON", "state": "IL", "street": "2916 CENTRAL ST", "postcode": "60204"}}},
{"geometry": {"type": "Point", "coordinates": [-87.6793323795, 42.0411328287]}, "type": "Feature", "properties": {"collection_times": [{"days": "Mon-Fri", "time": "12:15pm"}, {"days": "Sat", "time": "11:00am"}, {"days": "Sun", "time": "Closed"}], "id": "6020400090", "name": "USPS COLLECTION BOX - BLUE BOX", "address": {"city": "EVANSTON", "state": "IL", "street": "528 DEMPSTER ST", "postcode": "60204"}}},
{"geometry": {"type": "Point", "coordinates": [-87.6780319772, 42.0273493256]}, "type": "Feature", "properties": {"collection_times": [{"days": "Mon-Fri", "time": "12:30pm"}, {"days": "Sat", "time": "11:00am"}, {"days": "Sun", "time": "Closed"}], "id": "6020400092", "name": "USPS COLLECTION BOX - BLUE BOX", "address": {"city": "EVANSTON", "state": "IL", "street": "527 SOUTH BLVD", "postcode": "60204"}}},
{"geometry": {"type": "Point", "coordinates": [-87.7203958343, 42.0482482865]}, "type": "Feature", "properties": {"collection_times": [{"days": "Mon-Fri", "time": "10:15am"}, {"days": "Sat", "time": "11:00am"}, {"days": "Sun", "time": "Closed"}], "id": "6020400096", "name": "USPS COLLECTION BOX - BLUE BOX", "address": {"city": "EVANSTON", "state": "IL", "street": "9200 LAWNDALE AVE", "postcode": "60204"}}},
{"geometry": {"type": "Point", "coordinates": [-87.6800107982, 42.0265942227]}, "type": "Feature", "properties": {"collection_times": [{"days": "Mon-Fri", "time": "12:30pm"}, {"days": "Sat", "time": "11:00am"}, {"days": "Sun", "time": "Closed"}], "id": "6020400103", "name": "USPS COLLECTION BOX - BLUE BOX", "address": {"city": "EVANSTON", "state": "IL", "street": "625 OAKTON ST", "postcode": "60204"}}},
{"geometry": {"type": "Point", "coordinates": [-87.6780225628, 42.0458142996]}, "type": "Feature", "properties": {"collection_times": [{"days": "Mon-Sat", "time": "11:00am"}, {"days": "Sun", "time": "Closed"}], "id": "6020400104", "name": "USPS COLLECTION BOX - BLUE BOX", "address": {"city": "EVANSTON", "state": "IL", "street": "501 DAVIS ST", "postcode": "60204"}}},
{"geometry": {"type": "Point", "coordinates": [-87.6992486648, 42.0331925488]}, "type": "Feature", "properties": {"collection_times": [{"days": "Mon-Fri", "time": "1:15pm"}, {"days": "Sat", "time": "11:00am"}, {"days": "Sun", "time": "Closed"}], "id": "6020400112", "name": "USPS COLLECTION BOX - BLUE BOX", "address": {"city": "EVANSTON", "state": "IL", "street": "847 DODGE AVE", "postcode": "60204"}}},
{"geometry": {"type": "Point", "coordinates": [-87.6942500753, 42.0374892747]}, "type": "Feature", "properties": {"collection_times": [{"days": "Mon-Fri", "time": "1:15pm"}, {"days": "Sat", "time": "11:00am"}, {"days": "Sun", "time": "Closed"}], "id": "6020400114", "name": "USPS COLLECTION BOX - BLUE BOX", "address": {"city": "EVANSTON", "state": "IL", "street": "1529 GREENLEAF ST", "postcode": "60204"}}},
{"geometry": {"type": "Point", "coordinates": [-87.7210795846, 42.0535077221]}, "type": "Feature", "properties": {"collection_times": [{"days": "Mon-Fri", "time": "10:15am"}, {"days": "Sat", "time": "11:00am"}, {"days": "Sun", "time": "Closed"}], "id": "6020400117", "name": "USPS COLLECTION BOX - BLUE BOX", "address": {"city": "EVANSTON", "state": "IL", "street": "3720 FOSTER ST", "postcode": "60204"}}},
{"geometry": {"type": "Point", "coordinates": [-87.6773161986, 42.0538830067]}, "type": "Feature", "properties": {"collection_times": [{"days": "Mon-Fri", "time": "2:30pm"}, {"days": "Sat", "time": "11:00am"}, {"days": "Sun", "time": "Closed"}], "id": "6020400118", "name": "USPS COLLECTION BOX - BLUE BOX", "address": {"city": "EVANSTON", "state": "IL", "street": "2000 SHERIDAN RD", "postcode": "60204"}}},
{"geometry": {"type": "Point", "coordinates": [-87.6705579487, 42.0292641682]}, "type": "Feature", "properties": {"collection_times": [{"days": "Mon-Fri", "time": "12:30pm"}, {"days": "Sat", "time": "11:00am"}, {"days": "Sun", "time": "Closed"}], "id": "6020400123", "name": "USPS COLLECTION BOX - BLUE BOX", "address": {"city": "EVANSTON", "state": "IL", "street": "623 SHERIDAN RD", "postcode": "60204"}}},
{"geometry": {"type": "Point", "coordinates": [-87.6837016522, 42.0583344326]}, "type": "Feature", "properties": {"collection_times": [{"days": "Mon-Fri", "time": "11:30am"}, {"days": "Sat", "time": "11:00am"}, {"days": "Sun", "time": "Closed"}], "id": "6020400126", "name": "USPS COLLECTION BOX - BLUE BOX", "address": {"city": "EVANSTON", "state": "IL", "street": "928 NOYES ST", "postcode": "60204"}}},
{"geometry": {"type": "Point", "coordinates": [-87.6797254689, 42.0462513797]}, "type": "Feature", "properties": {"collection_times": [{"days": "Mon-Fri", "time": "2:00pm"}, {"days": "Sat", "time": "11:00am"}, {"days": "Sun", "time": "Closed"}], "id": "6020400130", "name": "USPS COLLECTION BOX - BLUE BOX", "address": {"city": "EVANSTON", "state": "IL", "street": "1600 CHICAGO AVE", "postcode": "60204"}}},
{"geometry": {"type": "Point", "coordinates": [-87.7084866947, 42.0192255051]}, "type": "Feature", "properties": {"collection_times": [{"days": "Mon-Fri", "time": "1:00pm"}, {"days": "Sat", "time": "11:00am"}, {"days": "Sun", "time": "Closed"}], "id": "6020400135", "name": "USPS COLLECTION BOX - BLUE BOX", "address": {"city": "EVANSTON", "state": "IL", "street": "2485 HOWARD ST", "postcode": "60204"}}},
{"geometry": {"type": "Point", "coordinates": [-87.7003257881, 42.0643820624]}, "type": "Feature", "properties": {"collection_times": [{"days": "Mon-Fri", "time": "5:00pm"}, {"days": "Sat", "time": "4:30pm"}, {"days": "Sun", "time": "Closed"}], "id": "6020400138", "name": "USPS COLLECTION BOX - BLUE BOX", "address": {"city": "EVANSTON", "state": "IL", "street": "1929 CENTRAL ST", "postcode": "60204"}}},
{"geometry": {"type": "Point", "coordinates": [-87.6868939893, 42.04713431]}, "type": "Feature", "properties": {"collection_times": [{"days": "Mon-Fri", "time": "5:30pm"}, {"days": "Sat", "time": "5:00pm"}, {"days": "Sun", "time": "Closed"}], "id": "6020400140", "name": "USPS COLLECTION BOX - BLUE BOX", "address": {"city": "EVANSTON", "state": "IL", "street": "1101 DAVIS ST", "postcode": "60204"}}},
{"geometry": {"type": "Point", "coordinates": [-87.6868939893, 42.04713431]}, "type": "Feature", "properties": {"collection_times": [{"days": "Mon-Fri", "time": "5:30pm"}, {"days": "Sat", "time": "5:00pm"}, {"days": "Sun", "time": "Closed"}], "id": "6020400141", "name": "USPS COLLECTION BOX - BLUE BOX", "address": {"city": "EVANSTON", "state": "IL", "street": "1101 DAVIS ST", "postcode": "60204"}}},
{"geometry": {"type": "Point", "coordinates": [-87.679354563, 42.0478069679]}, "type": "Feature", "properties": {"collection_times": [{"days": "Mon-Fri", "time": "1:55pm"}, {"days": "Sat", "time": "11:00am"}, {"days": "Sun", "time": "Closed"}], "id": "6020400144", "name": "USPS COLLECTION BOX - BLUE BOX", "address": {"city": "EVANSTON", "state": "IL", "street": "618 CHURCH ST", "postcode": "60204"}}},
{"geometry": {"type": "Point", "coordinates": [-87.6869308074, 42.0471180206]}, "type": "Feature", "properties": {"collection_times": [{"days": "Mon-Fri", "time": "6:00pm"}, {"days": "Sat", "time": "5:00pm"}, {"days": "Sun", "time": "Closed"}], "id": "6020400148", "name": "USPS COLLECTION BOX - PO LOBBY", "address": {"city": "EVANSTON", "state": "IL", "street": "1101 DAVIS ST", "postcode": "60204"}}},
{"geometry": {"type": "Point", "coordinates": [-87.6868939893, 42.04713431]}, "type": "Feature", "properties": {"collection_times": [{"days": "Mon-Fri", "time": "6:00pm"}, {"days": "Sat", "time": "5:00pm"}, {"days": "Sun", "time": "Closed"}], "id": "6020400149", "name": "USPS COLLECTION BOX - PO LOBBY", "address": {"city": "EVANSTON", "state": "IL", "street": "1101 DAVIS ST", "postcode": "60204"}}},
{"geometry": {"type": "Point", "coordinates": [-87.6771970029, 42.0613882658]}, "type": "Feature", "properties": {"collection_times": [{"days": "Mon-Fri", "time": "11:15am"}, {"days": "Sat", "time": "11:00am"}, {"days": "Sun", "time": "Closed"}], "id": "6020400153", "name": "USPS COLLECTION BOX - BLUE BOX", "address": {"city": "EVANSTON", "state": "IL", "street": "2400 SHERIDAN RD", "postcode": "60204"}}},
{"geometry": {"type": "Point", "coordinates": [-87.6760712242, 42.0495443873]}, "type": "Feature", "properties": {"collection_times": [{"days": "Mon-Fri", "time": "11:30am"}, {"days": "Sat", "time": "11:00am"}, {"days": "Sun", "time": "Closed"}], "id": "6020400154", "name": "USPS COLLECTION BOX - BLUE BOX", "address": {"city": "EVANSTON", "state": "IL", "street": "1835 HINMAN AVE", "postcode": "60204"}}},
{"geometry": {"type": "Point", "coordinates": [-87.680636487, 42.033978903]}, "type": "Feature", "properties": {"collection_times": [{"days": "Mon-Fri", "time": "5:00pm"}, {"days": "Sat", "time": "12:30pm"}, {"days": "Sun", "time": "Closed"}], "id": "6020400156", "name": "USPS COLLECTION BOX - PO LOBBY", "address": {"city": "EVANSTON", "state": "IL", "street": "701 MAIN ST", "postcode": "60204"}}},
{"geometry": {"type": "Point", "coordinates": [-87.680636487, 42.033978903]}, "type": "Feature", "properties": {"collection_times": [{"days": "Mon-Fri", "time": "5:00pm"}, {"days": "Sat", "time": "12:30pm"}, {"days": "Sun", "time": "Closed"}], "id": "6020400157", "name": "USPS COLLECTION BOX - PO LOBBY", "address": {"city": "EVANSTON", "state": "IL", "street": "701 MAIN ST", "postcode": "60204"}}},
{"geometry": {"type": "Point", "coordinates": [-87.6868939893, 42.04713431]}, "type": "Feature", "properties": {"collection_times": [{"days": "Mon-Fri", "time": "6:00pm"}, {"days": "Sat", "time": "5:00pm"}, {"days": "Sun", "time": "Closed"}], "id": "6020400158", "name": "USPS COLLECTION BOX - APC", "address": {"city": "EVANSTON", "state": "IL", "street": "1101 DAVIS ST", "postcode": "60204"}}},
{"geometry": {"type": "Point", "coordinates": [-87.68693, 42.04712]}, "type": "Feature", "properties": {"collection_times": [{"days": "Mon-Fri", "time": "6:00pm"}, {"days": "Sat", "time": "5:00pm"}, {"days": "Sun", "time": "Closed"}], "id": "6020400160", "name": "USPS COLLECTION BOX - PO LOBBY", "address": {"city": "EVANSTON", "state": "IL", "street": "1101 DAVIS ST", "postcode": "60204"}}}
]}
