{"type": "FeatureCollection", "features": [
{"geometry": {"type": "Point", "coordinates": [-87.7975236319, 41.8886393777]}, "type": "Feature", "properties": {"collection_times": [{"days": "Mon-Sat", "time": "5:30pm"}, {"days": "Sun", "time": "Closed"}], "id": "6030100001", "name": "USPS COLLECTION BOX - BLUE BOX", "address": {"city": "OAK PARK", "state": "IL", "street": "901 LAKE ST", "postcode": "60301"}}},
{"geometry": {"type": "Point", "coordinates": [-87.8001527623, 41.8886302021]}, "type": "Feature", "properties": {"collection_times": [{"days": "Mon-Fri", "time": "4:00pm"}, {"days": "Sat", "time": "12:00pm"}, {"days": "Sun", "time": "Closed"}], "id": "6030100004", "name": "USPS COLLECTION BOX - BLUE BOX", "address": {"city": "OAK PARK", "state": "IL", "street": "1001 LAKE ST", "postcode": "60301"}}},
{"geometry": {"type": "Point", "coordinates": [-87.8030752023, 41.8886316334]}, "type": "Feature", "properties": {"collection_times": [{"days": "Mon-Fri", "time": "4:00pm"}, {"days": "Sat", "time": "12:00pm"}, {"days": "Sun", "time": "Closed"}], "id": "6030100006", "name": "USPS COLLECTION BOX - BLUE BOX", "address": {"city": "OAK PARK", "state": "IL", "street": "1100 LAKE ST", "postcode": "60301"}}},
{"geometry": {"type": "Point", "coordinates": [-87.794542214, 41.888551687]}, "type": "Feature", "properties": {"collection_times": [{"days": "Mon-Fri", "time": "3:00pm"}, {"days": "Sat", "time": "12:00pm"}, {"days": "Sun", "time": "Closed"}], "id": "6030100009", "name": "USPS COLLECTION BOX - BLUE BOX", "address": {"city": "OAK PARK", "state": "IL", "street": "151 N OAK PARK AVE", "postcode": "60301"}}},
{"geometry": {"type": "Point", "coordinates": [-87.7935228087, 41.888613889]}, "type": "Feature", "properties": {"collection_times": [{"days": "Mon-Fri", "time": "4:00pm"}, {"days": "Sat", "time": "12:00pm"}, {"days": "Sun", "time": "Closed"}], "id": "6030100011", "name": "USPS COLLECTION BOX - BLUE BOX", "address": {"city": "OAK PARK", "state": "IL", "street": "715 LAKE ST", "postcode": "60301"}}},
{"geometry": {"type": "Point", "coordinates": [-87.7943742957, 41.8875094277]}, "type": "Feature", "properties": {"collection_times": [{"days": "Mon-Fri", "time": "3:00pm"}, {"days": "Sat", "time": "12:00pm"}, {"days": "Sun", "time": "Closed"}], "id": "6030100014", "name": "USPS COLLECTION BOX - BLUE BOX", "address": {"city": "OAK PARK", "state": "IL", "street": "104 N OAK PARK AVE", "postcode": "60301"}}},
{"geometry": {"type": "Point", "coordinates": [-87.7943742957, 41.8875094277]}, "type": "Feature", "properties": {"collection_times": [{"days": "Mon-Fri", "time": "3:00pm"}, {"days": "Sat", "time": "12:00pm"}, {"days": "Sun", "time": "Closed"}], "id": "6030100015", "name": "USPS COLLECTION BOX - BLUE BOX", "address": {"city": "OAK PARK", "state": "IL", "street": "104 N OAK PARK AVE", "postcode": "60301"}}},
{"geometry": {"type": "Point", "coordinates": [-87.8024074058, 41.8874006519]}, "type": "Feature", "properties": {"collection_times": [{"days": "Mon-Fri", "time": "4:00pm"}, {"days": "Sat", "time": "12:00pm"}, {"days": "Sun", "time": "Closed"}], "id": "6030100017", "name": "USPS COLLECTION BOX - BLUE BOX", "address": {"city": "OAK PARK", "state": "IL", "street": "105 N MARION ST", "postcode": "60301"}}},
{"geometry": {"type": "Point", "coordinates": [-87.8000799905, 41.8890108284]}, "type": "Feature", "properties": {"collection_times": [{"days": "Mon-Fri", "time": "3:00pm"}, {"days": "Sat", "time": "12:00pm"}, {"days": "Sun", "time": "Closed"}], "id": "6030100019", "name": "USPS COLLECTION BOX - BLUE BOX", "address": {"city": "OAK PARK", "state": "IL", "street": "158 FOREST AVE", "postcode": "60301"}}},
{"geometry": {"type": "Point", "coordinates": [-87.8038118075, 41.8878290701]}, "type": "Feature", "properties": {"collection_times": [{"days": "Mon-Fri", "time": "3:00pm"}, {"days": "Sat", "time": "12:00pm"}, {"days": "Sun", "time": "Closed"}], "id": "6030100020", "name": "USPS COLLECTION BOX - BLUE BOX", "address": {"city": "OAK PARK", "state": "IL", "street": "1145 WESTGATE ST", "postcode": "60301"}}},
{"geometry": {"type": "Point", "coordinates": [-87.7975236319, 41.8886393777]}, "type": "Feature", "properties": {"collection_times": [{"days": "Mon-Sat", "time": "5:30pm"}, {"days": "Sun", "time": "Closed"}], "id": "6030100022", "name": "USPS COLLECTION BOX - BLUE BOX", "address": {"city": "OAK PARK", "state": "IL", "street": "901 LAKE ST", "postcode": "60301"}}},
{"geometry": {"type": "Point", "coordinates": [-87.7975236319, 41.8886393777]}, "type": "Feature", "properties": {"collection_times": [{"days": "Mon-Sat", "time": "5:30pm"}, {"days": "Sun", "time": "Closed"}], "id": "6030100023", "name": "USPS COLLECTION BOX - BLUE BOX", "address": {"city": "OAK PARK", "state": "IL", "street": "901 LAKE ST", "postcode": "60301"}}},
{"geometry": {"type": "Point", "coordinates": [-87.7995273458, 41.8886201217]}, "type": "Feature", "properties": {"collection_times": [{"days": "Mon-Sat", "time": "5:30pm"}, {"days": "Sun", "time": "Closed"}], "id": "6030100028", "name": "USPS COLLECTION BOX - EXPRESS", "address": {"city": "OAK PARK", "state": "IL", "street": "901 LAKE ST", "postcode": "60301"}}},
{"geometry": {"type": "Point", "coordinates": [-87.7848672272, 41.8946436106]}, "type": "Feature", "properties": {"collection_times": [{"days": "Mon-Fri", "time": "3:00pm"}, {"days": "Sat", "time": "12:00pm"}, {"days": "Sun", "time": "Closed"}], "id": "6030100034", "name": "USPS COLLECTION BOX - BLUE BOX", "address": {"city": "OAK PARK", "state": "IL", "street": "400 CHICAGO AVE", "postcode": "60301"}}},
{"geometry": {"type": "Point", "coordinates": [-87.8050140721, 41.8942376759]}, "type": "Feature", "properties": {"collection_times": [{"days": "Mon-Fri", "time": "3:00pm"}, {"days": "Sat", "time": "12:00pm"}, {"days": "Sun", "time": "Closed"}], "id": "6030100036", "name": "USPS COLLECTION BOX - BLUE BOX", "address": {"city": "OAK PARK", "state": "IL", "street": "1142 CHICAGO AVE", "postcode": "60301"}}},
{"geometry": {"type": "Point", "coordinates": [-87.8028073044, 41.8942133815]}, "type": "Feature", "properties": {"collection_times": [{"days": "Mon-Fri", "time": "3:00pm"}, {"days": "Sat", "time": "12:00pm"}, {"days": "Sun", "time": "Closed"}], "id": "6030100037", "name": "USPS COLLECTION BOX - BLUE BOX", "address": {"city": "OAK PARK", "state": "IL", "street": "1101 CHICAGO AVE", "postcode": "60301"}}},
{"geometry": {"type": "Point", "coordinates": [-87.7752614711, 41.8947297868]}, "type": "Feature", "properties": {"collection_times": [{"days": "Mon-Fri", "time": "1:00pm"}, {"days": "Sat", "time": "12:00pm"}, {"days": "Sun", "time": "Closed"}], "id": "6030100038", "name": "USPS COLLECTION BOX - BLUE BOX", "address": {"city": "OAK PARK", "state": "IL", "street": "1 CHICAGO AVE", "postcode": "60301"}}},
{"geometry": {"type": "Point", "coordinates": [-87.7841808725, 41.8709813952]}, "type": "Feature", "properties": {"collection_times": [{"days": "Mon-Fri", "time": "1:00pm"}, {"days": "Sat", "time": "12:00pm"}, {"days": "Sun", "time": "Closed"}], "id": "6030100046", "name": "USPS COLLECTION BOX - BLUE BOX", "address": {"city": "OAK PARK", "state": "IL", "street": "947 S RIDGELAND AVE", "postcode": "60301"}}},
{"geometry": {"type": "Point", "coordinates": [-87.8056177569, 41.9070959178]}, "type": "Feature", "properties": {"collection_times": [{"days": "Mon-Fri", "time": "4:00pm"}, {"days": "Sat", "time": "12:00pm"}, {"days": "Sun", "time": "Closed"}], "id": "6030100051", "name": "USPS COLLECTION BOX - BLUE BOX", "address": {"city": "OAK PARK", "state": "IL", "street": "1515 N HARLEM AVE", "postcode": "60301"}}},
{"geometry": {"type": "Point", "coordinates": [-87.7796620785, 41.8727030909]}, "type": "Feature", "properties": {"collection_times": [{"days": "Mon-Fri", "time": "1:15pm"}, {"days": "Sat", "time": "12:00pm"}, {"days": "Sun", "time": "Closed"}], "id": "6030100054", "name": "USPS COLLECTION BOX - BLUE BOX", "address": {"city": "OAK PARK", "state": "IL", "street": "200 HARRISON ST", "postcode": "60301"}}},
{"geometry": {"type": "Point", "coordinates": [-87.7938981698, 41.8727434262]}, "type": "Feature", "properties": {"collection_times": [{"days": "Mon-Fri", "time": "3:00pm"}, {"days": "Sat", "time": "12:00pm"}, {"days": "Sun", "time": "Closed"}], "id": "6030100055", "name": "USPS COLLECTION BOX - BLUE BOX", "address": {"city": "OAK PARK", "state": "IL", "street": "840 S OAK PARK AVE", "postcode": "60301"}}},
{"geometry": {"type": "Point", "coordinates": [-87.7839278285, 41.8726332963]}, "type": "Feature", "properties": {"collection_times": [{"days": "Mon-Fri", "time": "1:15pm"}, {"days": "Sat", "time": "12:00pm"}, {"days": "Sun", "time": "Closed"}], "id": "6030100057", "name": "USPS COLLECTION BOX - BLUE BOX", "address": {"city": "OAK PARK", "state": "IL", "street": "350 HARRISON ST", "postcode": "60301"}}},
{"geometry": {"type": "Point", "coordinates": [-87.7750881353, 41.8918299043]}, "type": "Feature", "properties": {"collection_times": [{"days": "Mon-Fri", "time": "3:00pm"}, {"days": "Sat", "time": "12:00pm"}, {"days": "Sun", "time": "Closed"}], "id": "6030100059", "name": "USPS COLLECTION BOX - BLUE BOX", "address": {"city": "OAK PARK", "state": "IL", "street": "1 ERIE CT", "postcode": "60301"}}},
{"geometry": {"type": "Point", "coordinates": [-87.8037410262, 41.8793036904]}, "type": "Feature", "properties": {"collection_times": [{"days": "Mon-Fri", "time": "3:00pm"}, {"days": "Sat", "time": "12:00pm"}, {"days": "Sun", "time": "Closed"}], "id": "6030100060", "name": "USPS COLLECTION BOX - BLUE BOX", "address": {"city": "OAK PARK", "state": "IL", "street": "520 S MAPLE AVE", "postcode": "60301"}}},
{"geometry": {"type": "Point", "coordinates": [-87.7782096862, 41.8799312749]}, "type": "Feature", "properties": {"collection_times": [{"days": "Mon-Fri", "time": "4:00pm"}, {"days": "Sat", "time": "12:00pm"}, {"days": "Sun", "time": "Closed"}], "id": "6030100072", "name": "USPS COLLECTION BOX - BLUE BOX", "address": {"city": "OAK PARK", "state": "IL", "street": "123 MADISON ST", "postcode": "60301"}}},
{"geometry": {"type": "Point", "coordinates": [-87.7890287476, 41.8797972958]}, "type": "Feature", "properties": {"collection_times": [{"days": "Mon-Fri", "time": "3:00pm"}, {"days": "Sat", "time": "12:00pm"}, {"days": "Sun", "time": "Closed"}], "id": "6030100073", "name": "USPS COLLECTION BOX - BLUE BOX", "address": {"city": "OAK PARK", "state": "IL", "street": "549 MADISON ST", "postcode": "60301"}}},
{"geometry": {"type": "Point", "coordinates": [-87.7999983261, 41.8796707192]}, "type": "Feature", "properties": {"collection_times": [{"days": "Mon-Fri", "time": "3:00pm"}, {"days": "Sat", "time": "12:00pm"}, {"days": "Sun", "time": "Closed"}], "id": "6030100077", "name": "USPS COLLECTION BOX - BLUE BOX", "address": {"city": "OAK PARK", "state": "IL", "street": "1000 MADISON ST", "postcode": "60301"}}},
{"geometry": {"type": "Point", "coordinates": [-87.7750456003, 41.8799793732]}, "type": "Feature", "properties": {"collection_times": [{"days": "Mon-Fri", "time": "4:00pm"}, {"days": "Sat", "time": "12:00pm"}, {"days": "Sun", "time": "Closed"}], "id": "6030100078", "name": "USPS COLLECTION BOX - BLUE BOX", "address": {"city": "OAK PARK", "state": "IL", "street": "11 MADISON ST", "postcode": "60301"}}},
{"geometry": {"type": "Point", "coordinates": [-87.7924360386, 41.9090310522]}, "type": "Feature", "properties": {"collection_times": [{"days": "Mon-Fri", "time": "3:00pm"}, {"days": "Sat", "time": "12:00pm"}, {"days": "Sun", "time": "Closed"}], "id": "6030100081", "name": "USPS COLLECTION BOX - BLUE BOX", "address": {"city": "OAK PARK", "state": "IL", "street": "6645 NORTH AVE", "postcode": "60301"}}},
{"geometry": {"type": "Point", "coordinates": [-87.7961123059, 41.9089631491]}, "type": "Feature", "properties": {"collection_times": [{"days": "Mon-Fri", "time": "3:00pm"}, {"days": "Sat", "time": "12:00pm"}, {"days": "Sun", "time": "Closed"}], "id": "6030100085", "name": "USPS COLLECTION BOX - BLUE BOX", "address": {"city": "OAK PARK", "state": "IL", "street": "6821 NORTH AVE", "postcode": "60301"}}},
{"geometry": {"type": "Point", "coordinates": [-87.8025251916, 41.8724100817]}, "type": "Feature", "properties": {"collection_times": [{"days": "Mon-Fri", "time": "5:15pm"}, {"days": "Sat", "time": "2:15pm"}, {"days": "Sun", "time": "Closed"}], "id": "6030100091", "name": "USPS COLLECTION BOX - BLUE BOX", "address": {"city": "OAK PARK", "state": "IL", "street": "1116 GARFIELD ST", "postcode": "60301"}}},
{"geometry": {"type": "Point", "coordinates": [-87.7995273458, 41.8886201217]}, "type": "Feature", "properties": {"collection_times": [{"days": "Mon-Fri", "time": "5:15pm"}, {"days": "Sat", "time": "2:15pm"}, {"days": "Sun", "time": "Closed"}], "id": "6030100095", "name": "USPS COLLECTION BOX - EXPRESS", "address": {"city": "OAK PARK", "state": "IL", "street": "1116 GARFIELD ST", "postcode": "60301"}}},
{"geometry": {"type": "Point", "coordinates": [-87.7941888146, 41.8808028109]}, "type": "Feature", "properties": {"collection_times": [{"days": "Mon-Fri", "time": "3:00pm"}, {"days": "Sat", "time": "12:00pm"}, {"days": "Sun", "time": "Closed"}], "id": "6030100096", "name": "USPS COLLECTION BOX - BLUE BOX", "address": {"city": "OAK PARK", "state": "IL", "street": "408 S OAK PARK AVE", "postcode": "60301"}}},
{"geometry": {"type": "Point", "coordinates": [-87.8003934344, 41.8856825167]}, "type": "Feature", "properties": {"collection_times": [{"days": "Mon-Fri", "time": "2:00pm"}, {"days": "Sat", "time": "1:00pm"}, {"days": "Sun", "time": "Closed"}], "id": "6030100097", "name": "USPS COLLECTION BOX - BLUE BOX", "address": {"city": "OAK PARK", "state": "IL", "street": "1000 PLEASANT ST", "postcode": "60301"}}},
{"geometry": {"type": "Point", "coordinates": [-87.7995273458, 41.8886201217]}, "type": "Feature", "properties": {"collection_times": [{"days": "Mon-Fri", "time": "3:00pm"}, {"days": "Sat", "time": "12:00pm"}, {"days": "Sun", "time": "Closed"}], "id": "6030100098", "name": "USPS COLLECTION BOX - BLUE BOX", "address": {"city": "OAK PARK", "state": "IL", "street": "1048 PLEASANT ST", "postcode": "60301"}}},
{"geometry": {"type": "Point", "coordinates": [-87.7944383612, 41.8899127852]}, "type": "Feature", "properties": {"collection_times": [{"days": "Mon-Fri", "time": "3:00pm"}, {"days": "Sat", "time": "12:00pm"}, {"days": "Sun", "time": "Closed"}], "id": "6030100099", "name": "USPS COLLECTION BOX - BLUE BOX", "address": {"city": "OAK PARK", "state": "IL", "street": "188 S OAK PARK AVE", "postcode": "60301"}}},
{"geometry": {"type": "Point", "coordinates": [-87.8024128864, 41.8842550728]}, "type": "Feature", "properties": {"collection_times": [{"days": "Mon-Sat", "time": "9:30am"}, {"days": "Sun", "time": "Closed"}], "id": "6030100101", "name": "USPS COLLECTION BOX - BLUE BOX", "address": {"city": "OAK PARK", "state": "IL", "street": "255 S MARION ST", "postcode": "60301"}}},
{"geometry": {"type": "Point", "coordinates": [-87.7834049607, 41.8653427202]}, "type": "Feature", "properties": {"collection_times": [{"days": "Mon-Fri", "time": "1:00pm"}, {"days": "Sat", "time": "12:00pm"}, {"days": "Sun", "time": "Closed"}], "id": "6030100106", "name": "USPS COLLECTION BOX - BLUE BOX", "address": {"city": "OAK PARK", "state": "IL", "street": "6340 ROOSEVELT RD", "postcode": "60301"}}},
{"geometry": {"type": "Point", "coordinates": [-87.7924487048, 41.8652447722]}, "type": "Feature", "properties": {"collection_times": [{"days": "Mon-Fri", "time": "1:00pm"}, {"days": "Sat", "time": "12:00pm"}, {"days": "Sun", "time": "Closed"}], "id": "6030100107", "name": "USPS COLLECTION BOX - BLUE BOX", "address": {"city": "OAK PARK", "state": "IL", "street": "6720 ROOSEVELT RD", "postcode": "60301"}}},
{"geometry": {"type": "Point", "coordinates": [-87.7751147365, 41.8655135916]}, "type": "Feature", "properties": {"collection_times": [{"days": "Mon-Fri", "time": "1:00pm"}, {"days": "Sat", "time": "12:00pm"}, {"days": "Sun", "time": "Closed"}], "id": "6030100108", "name": "USPS COLLECTION BOX - BLUE BOX", "address": {"city": "OAK PARK", "state": "IL", "street": "6020 ROOSEVELT RD", "postcode": "60301"}}},
{"geometry": {"type": "Point", "coordinates": [-87.7995273458, 41.8886201217]}, "type": "Feature", "properties": {"collection_times": [{"days": "Mon-Sat", "time": "10:00am"}, {"days": "Sun", "time": "Closed"}], "id": "6030100110", "name": "USPS COLLECTION BOX - BLUE BOX", "address": {"city": "OAK PARK", "state": "IL", "street": "401 SOUTH BLVD", "postcode": "60301"}}},
{"geometry": {"type": "Point", "coordinates": [-87.8016761063, 41.8815079371]}, "type": "Feature", "properties": {"collection_times": [{"days": "Mon-Sat", "time": "9:30am"}, {"days": "Sun", "time": "Closed"}], "id": "6030100111", "name": "USPS COLLECTION BOX - BLUE BOX", "address": {"city": "OAK PARK", "state": "IL", "street": "1046 WASHINGTON BLVD", "postcode": "60301"}}},
{"geometry": {"type": "Point", "coordinates": [-87.7776747074, 41.8820650282]}, "type": "Feature", "properties": {"collection_times": [{"days": "Mon-Sat", "time": "11:00am"}, {"days": "Sun", "time": "Closed"}], "id": "6030100112", "name": "USPS COLLECTION BOX - BLUE BOX", "address": {"city": "OAK PARK", "state": "IL", "street": "64 WASHINGTON BLVD", "postcode": "60301"}}},
{"geometry": {"type": "Point", "coordinates": [-87.7868799824, 41.881728603]}, "type": "Feature", "properties": {"collection_times": [{"days": "Mon-Sat", "time": "9:30am"}, {"days": "Sun", "time": "Closed"}], "id": "6030100113", "name": "USPS COLLECTION BOX - BLUE BOX", "address": {"city": "OAK PARK", "state": "IL", "street": "466 WASHINGTON BLVD", "postcode": "60301"}}},
{"geometry": {"type": "Point", "coordinates": [-87.7833607668, 41.8817958178]}, "type": "Feature", "properties": {"collection_times": [{"days": "Mon-Sat", "time": "11:00am"}, {"days": "Sun", "time": "Closed"}], "id": "6030100114", "name": "USPS COLLECTION BOX - BLUE BOX", "address": {"city": "OAK PARK", "state": "IL", "street": "330 WASHINGTON BLVD", "postcode": "60301"}}},
{"geometry": {"type": "Point", "coordinates": [-87.7988881425, 41.8885661693]}, "type": "Feature", "properties": {"collection_times": [{"days": "Mon-Fri", "time": "5:15pm"}, {"days": "Sat", "time": "2:15pm"}, {"days": "Sun", "time": "Closed"}], "id": "6030100118", "name": "USPS COLLECTION BOX - BLUE BOX", "address": {"city": "OAK PARK", "state": "IL", "street": "7360 W CENTRAL AVE", "postcode": "60301"}}},
{"geometry": {"type": "Point", "coordinates": [-87.7988881425, 41.8885661693]}, "type": "Feature", "properties": {"collection_times": [{"days": "Mon-Fri", "time": "1:00pm"}, {"days": "Sat", "time": "12:00pm"}, {"days": "Sun", "time": "Closed"}], "id": "6030100121", "name": "USPS COLLECTION BOX - BLUE BOX", "address": {"city": "OAK PARK", "state": "IL", "street": "7400 AUGUSTA ST", "postcode": "60301"}}},
{"geometry": {"type": "Point", "coordinates": [-87.7988881425, 41.8885661693]}, "type": "Feature", "properties": {"collection_times": [{"days": "Mon-Fri", "time": "1:00pm"}, {"days": "Sat", "time": "12:00pm"}, {"days": "Sun", "time": "Closed"}], "id": "6030100126", "name": "USPS COLLECTION BOX - BLUE BOX", "address": {"city": "OAK PARK", "state": "IL", "street": "7523 LAKE ST", "postcode": "60301"}}},
{"geometry": {"type": "Point", "coordinates": [-87.7988881425, 41.8885661693]}, "type": "Feature", "properties": {"collection_times": [{"days": "Mon-Fri", "time": "10:00am"}, {"days": "Sat", "time": "10:30am"}, {"days": "Sun", "time": "Closed"}], "id": "6030100127", "name": "USPS COLLECTION BOX - BLUE BOX", "address": {"city": "OAK PARK", "state": "IL", "street": "7629 LAKE ST", "postcode": "60301"}}},
{"geometry": {"type": "Point", "coordinates": [-87.7988881425, 41.8885661693]}, "type": "Feature", "properties": {"collection_times": [{"days": "Mon-Fri", "time": "1:00pm"}, {"days": "Sat", "time": "12:00pm"}, {"days": "Sun", "time": "Closed"}], "id": "6030100129", "name": "USPS COLLECTION BOX - BLUE BOX", "address": {"city": "OAK PARK", "state": "IL", "street": "7985 LAKE ST", "postcode": "60301"}}},
{"geometry": {"type": "Point", "coordinates": [-87.7988881425, 41.8885661693]}, "type": "Feature", "properties": {"collection_times": [{"days": "Mon-Fri", "time": "1:00pm"}, {"days": "Sat", "time": "12:00pm"}, {"days": "Sun", "time": "Closed"}], "id": "6030100130", "name": "USPS COLLECTION BOX - BLUE BOX", "address": {"city": "OAK PARK", "state": "IL", "street": "735 LATHROP AVE", "postcode": "60301"}}},
{"geometry": {"type": "Point", "coordinates": [-87.7988881425, 41.8885661693]}, "type": "Feature", "properties": {"collection_times": [{"days": "Mon-Fri", "time": "1:00pm"}, {"days": "Sat", "time": "12:00pm"}, {"days": "Sun", "time": "Closed"}], "id": "6030100131", "name": "USPS COLLECTION BOX - BLUE BOX", "address": {"city": "OAK PARK", "state": "IL", "street": "7620 W MADISON ST", "postcode": "60301"}}},
{"geometry": {"type": "Point", "coordinates": [-87.7988881425, 41.8885661693]}, "type": "Feature", "properties": {"collection_times": [{"days": "Mon-Fri", "time": "1:00pm"}, {"days": "Sat", "time": "12:00pm"}, {"days": "Sun", "time": "Closed"}], "id": "6030100132", "name": "USPS COLLECTION BOX - BLUE BOX", "address": {"city": "OAK PARK", "state": "IL", "street": "7327 NORTH AVE", "postcode": "60301"}}},
{"geometry": {"type": "Point", "coordinates": [-87.7988881425, 41.8885661693]}, "type": "Feature", "properties": {"collection_times": [{"days": "Mon-Fri", "time": "1:00pm"}, {"days": "Sat", "time": "12:00pm"}, {"days": "Sun", "time": "Closed"}], "id": "6030100136", "name": "USPS COLLECTION BOX - BLUE BOX", "address": {"city": "OAK PARK", "state": "IL", "street": "400 PARK AVE", "postcode": "60301"}}},
{"geometry": {"type": "Point", "coordinates": [-87.7861871361, 41.8800093515]}, "type": "Feature", "properties": {"collection_times": [{"days": "Mon-Sat", "time": "11:00am"}, {"days": "Sun", "time": "Closed"}], "id": "6030100140", "name": "USPS COLLECTION BOX - BLUE BOX", "address": {"city": "OAK PARK", "state": "IL", "street": "438 MADISON ST", "postcode": "60301"}}},
{"geometry": {"type": "Point", "coordinates": [-87.7975236319, 41.8886393777]}, "type": "Feature", "properties": {"collection_times": [{"days": "Mon-Sat", "time": "5:30pm"}, {"days": "Sun", "time": "Closed"}], "id": "6030100142", "name": "USPS COLLECTION BOX - PO LOBBY", "address": {"city": "OAK PARK", "state": "IL", "street": "901 LAKE ST", "postcode": "60301"}}},
{"geometry": {"type": "Point", "coordinates": [-87.8025251916, 41.8724100817]}, "type": "Feature", "properties": {"collection_times": [{"days": "Mon-Fri", "time": "5:15pm"}, {"days": "Sat", "time": "12:45pm"}, {"days": "Sun", "time": "Closed"}], "id": "6030100143", "name": "USPS COLLECTION BOX - PO LOBBY", "address": {"city": "OAK PARK", "state": "IL", "street": "1116 GARFIELD ST", "postcode": "60301"}}},
{"geometry": {"type": "Point", "coordinates": [-87.7988881425, 41.8885661693]}, "type": "Feature", "properties": {"collection_times": [{"days": "Mon-Fri", "time": "5:15pm"}, {"days": "Sat", "time": "12:30pm"}, {"days": "Sun", "time": "Closed"}], "id": "6030100144", "name": "USPS COLLECTION BOX - PO LOBBY", "address": {"city": "OAK PARK", "state": "IL", "street": "401 WILLIAM ST", "postcode": "60301"}}},
{"geometry": {"type": "Point", "coordinates": [-87.7975236319, 41.8886393777]}, "type": "Feature", "properties": {"collection_times": [{"days": "Mon-Sat", "time": "5:30pm"}, {"days": "Sun", "time": "Closed"}], "id": "6030100147", "name": "USPS COLLECTION BOX - BLUE BOX", "address": {"city": "OAK PARK", "state": "IL", "street": "901 LAKE ST", "postcode": "60301"}}},
{"geometry": {"type": "Point", "coordinates": [-87.8025251916, 41.8724100817]}, "type": "Feature", "properties": {"collection_times": [{"days": "Mon-Fri", "time": "5:15pm"}, {"days": "Sat", "time": "12:45pm"}, {"days": "Sun", "time": "Closed"}], "id": "6030100148", "name": "USPS COLLECTION BOX - PO LOBBY", "address": {"city": "OAK PARK", "state": "IL", "street": "1116 GARFIELD ST", "postcode": "60301"}}},
{"geometry": {"type": "Point", "coordinates": [-87.8025251916, 41.8724100817]}, "type": "Feature", "properties": {"collection_times": [{"days": "Mon-Fri", "time": "5:15pm"}, {"days": "Sat", "time": "2:15pm"}, {"days": "Sun", "time": "Closed"}], "id": "6030100149", "name": "USPS COLLECTION BOX - BLUE BOX", "address": {"city": "OAK PARK", "state": "IL", "street": "1116 GARFIELD ST", "postcode": "60301"}}},
{"geometry": {"type": "Point", "coordinates": [-87.7995273458, 41.8886201217]}, "type": "Feature", "properties": {"collection_times": [{"days": "Mon-Fri", "time": "4:00pm"}, {"days": "Sat", "time": "12:00pm"}, {"days": "Sun", "time": "Closed"}], "id": "6030100151", "name": "USPS COLLECTION BOX - EXPRESS", "address": {"city": "OAK PARK", "state": "IL", "street": "1100 LAKE ST", "postcode": "60301"}}},
{"geometry": {"type": "Point", "coordinates": [-87.7975236319, 41.8886393777]}, "type": "Feature", "properties": {"collection_times": [{"days": "Mon-Sat", "time": "5:30pm"}, {"days": "Sun", "time": "Closed"}], "id": "6030100153", "name": "USPS COLLECTION BOX - APC", "address": {"city": "OAK PARK", "state": "IL", "street": "901 LAKE ST", "postcode": "60301"}}},
{"geometry": {"type": "Point", "coordinates": [-87.8134270183, 41.8948421696]}, "type": "Feature", "properties": {"collection_times": [{"days": "Mon-Fri", "time": "1:00pm"}, {"days": "Sat", "time": "12:00pm"}, {"days": "Sun", "time": "Closed"}], "id": "6030500001", "name": "USPS COLLECTION BOX - BLUE BOX", "address": {"city": "RIVER FOREST", "state": "IL", "street": "1515 LATHROP AVE", "postcode": "60305"}}}
]}
