{"type": "FeatureCollection", "features": [
{"geometry": {"type": "Point", "coordinates": [-87.8146789534, 41.9526638664]}, "type": "Feature", "properties": {"collection_times": [{"days": "Mon-Fri", "time": "3:00pm"}, {"days": "Sat", "time": "10:00am"}, {"days": "Sun", "time": "Closed"}], "id": "6070600000", "name": "USPS COLLECTION BOX - BLUE BOX", "address": {"city": "NORRIDGE", "state": "IL", "street": "4000 N OLCOTT AVE", "postcode": "60706"}}},
{"geometry": {"type": "Point", "coordinates": [-87.8073869393, 41.9568562386]}, "type": "Feature", "properties": {"collection_times": [{"days": "Mon-Fri", "time": "3:00pm"}, {"days": "Sat", "time": "10:00am"}, {"days": "Sun", "time": "Closed"}], "id": "6070600002", "name": "USPS COLLECTION BOX - BLUE BOX", "address": {"city": "NORRIDGE", "state": "IL", "street": "4190 N HARLEM AVE", "postcode": "60706"}}},
{"geometry": {"type": "Point", "coordinates": [-87.8073944402, 41.9566052148]}, "type": "Feature", "properties": {"collection_times": [{"days": "Mon-Fri", "time": "3:00pm"}, {"days": "Sat", "time": "10:00am"}, {"days": "Sun", "time": "Closed"}], "id": "6070600003", "name": "USPS COLLECTION BOX - BLUE BOX", "address": {"city": "NORRIDGE", "state": "IL", "street": "4167 N HARLEM AVE", "postcode": "60706"}}},
{"geometry": {"type": "Point", "coordinates": [-87.8110065563, 41.9600314847]}, "type": "Feature", "properties": {"collection_times": [{"days": "Mon-Sat", "time": "10:00am"}, {"days": "Sun", "time": "Closed"}], "id": "6070600006", "name": "USPS COLLECTION BOX - BLUE BOX", "address": {"city": "NORRIDGE", "state": "IL", "street": "7330 W MONTROSE AVE", "postcode": "60706"}}},
{"geometry": {"type": "Point", "coordinates": [-87.8159759663, 41.9526244458]}, "type": "Feature", "properties": {"collection_times": [{"days": "Mon-Sat", "time": "10:00am"}, {"days": "Sun", "time": "Closed"}], "id": "6070600008", "name": "USPS COLLECTION BOX - BLUE BOX", "address": {"city": "NORRIDGE", "state": "IL", "street": "7558 W IRVING PARK RD", "postcode": "60706"}}},
{"geometry": {"type": "Point", "coordinates": [-87.8222415035, 41.952410866]}, "type": "Feature", "properties": {"collection_times": [{"days": "Mon-Sat", "time": "10:00am"}, {"days": "Sun", "time": "Closed"}], "id": "6070600009", "name": "USPS COLLECTION BOX - BLUE BOX", "address": {"city": "NORRIDGE", "state": "IL", "street": "7800 W IRVING PARK RD", "postcode": "60706"}}},
{"geometry": {"type": "Point", "coordinates": [-87.8046568185, 41.9610417346]}, "type": "Feature", "properties": {"collection_times": [{"days": "Mon-Sat", "time": "10:00am"}, {"days": "Sun", "time": "Closed"}], "id": "6070600011", "name": "USPS COLLECTION BOX - BLUE BOX", "address": {"city": "NORRIDGE", "state": "IL", "street": "7044 W MONTROSE AVE", "postcode": "60706"}}},
{"geometry": {"type": "Point", "coordinates": [-87.8162687131, 41.9597755064]}, "type": "Feature", "properties": {"collection_times": [{"days": "Mon-Fri", "time": "3:00pm"}, {"days": "Sat", "time": "10:00am"}, {"days": "Sun", "time": "Closed"}], "id": "6070600012", "name": "USPS COLLECTION BOX - BLUE BOX", "address": {"city": "NORRIDGE", "state": "IL", "street": "7549 W MONTROSE AVE", "postcode": "60706"}}},
{"geometry": {"type": "Point", "coordinates": [-87.8218455094, 41.9596953449]}, "type": "Feature", "properties": {"collection_times": [{"days": "Mon-Sat", "time": "10:00am"}, {"days": "Sun", "time": "Closed"}], "id": "6070600013", "name": "USPS COLLECTION BOX - BLUE BOX", "address": {"city": "NORRIDGE", "state": "IL", "street": "4401 N OZANAM AVE", "postcode": "60706"}}},
{"geometry": {"type": "Point", "coordinates": [-87.8171835911, 41.9640098535]}, "type": "Feature", "properties": {"collection_times": [{"days": "Mon-Sat", "time": "10:00am"}, {"days": "Sun", "time": "Closed"}], "id": "6070600014", "name": "USPS COLLECTION BOX - BLUE BOX", "address": {"city": "NORRIDGE", "state": "IL", "street": "6739 W MONTROSE AVE", "postcode": "60706"}}},
{"geometry": {"type": "Point", "coordinates": [-87.8098062388, 41.9124150234]}, "type": "Feature", "properties": {"collection_times": [{"days": "Mon-Sat", "time": "10:00am"}, {"days": "Sun", "time": "Closed"}], "id": "6070700012", "name": "USPS COLLECTION BOX - BLUE BOX", "address": {"city": "CHICAGO", "state": "IL", "street": "7350 W BLOOMINGDALE AVE", "postcode": "60707"}}},
{"geometry": {"type": "Point", "coordinates": [-87.8228661058, 41.911934742]}, "type": "Feature", "properties": {"collection_times": [{"days": "Mon-Sat", "time": "10:00am"}, {"days": "Sun", "time": "Closed"}], "id": "6070700013", "name": "USPS COLLECTION BOX - BLUE BOX", "address": {"city": "CHICAGO", "state": "IL", "street": "1747 N 79TH AVE", "postcode": "60707"}}},
{"geometry": {"type": "Point", "coordinates": [-87.8152383864, 41.9141338627]}, "type": "Feature", "properties": {"collection_times": [{"days": "Mon-Sat", "time": "10:00am"}, {"days": "Sun", "time": "Closed"}], "id": "6070700015", "name": "USPS COLLECTION BOX - BLUE BOX", "address": {"city": "CHICAGO", "state": "IL", "street": "7540 W CORTLAND ST", "postcode": "60707"}}},
{"geometry": {"type": "Point", "coordinates": [-87.8220697195, 41.9301467452]}, "type": "Feature", "properties": {"collection_times": [{"days": "Mon-Sat", "time": "10:00am"}, {"days": "Sun", "time": "Closed"}], "id": "6070700016", "name": "USPS COLLECTION BOX - BLUE BOX", "address": {"city": "CHICAGO", "state": "IL", "street": "7827 W DIVERSEY AVE", "postcode": "60707"}}},
{"geometry": {"type": "Point", "coordinates": [-87.8108377791, 41.9176815567]}, "type": "Feature", "properties": {"collection_times": [{"days": "Mon-Sat", "time": "10:00am"}, {"days": "Sun", "time": "Closed"}], "id": "6070700017", "name": "USPS COLLECTION BOX - BLUE BOX", "address": {"city": "CHICAGO", "state": "IL", "street": "2047 N 74TH AVE", "postcode": "60707"}}},
{"geometry": {"type": "Point", "coordinates": [-87.8081682343, 41.9308443649]}, "type": "Feature", "properties": {"collection_times": [{"days": "Mon-Sat", "time": "10:00am"}, {"days": "Sun", "time": "Closed"}], "id": "6070700018", "name": "USPS COLLECTION BOX - BLUE BOX", "address": {"city": "CHICAGO", "state": "IL", "street": "7257 W DIVERSEY AVE", "postcode": "60707"}}},
{"geometry": {"type": "Point", "coordinates": [-87.815009159, 41.9307780729]}, "type": "Feature", "properties": {"collection_times": [{"days": "Mon-Sat", "time": "10:00am"}, {"days": "Sun", "time": "Closed"}], "id": "6070700019", "name": "USPS COLLECTION BOX - BLUE BOX", "address": {"city": "CHICAGO", "state": "IL", "street": "7528 W DIVERSEY AVE", "postcode": "60707"}}},
{"geometry": {"type": "Point", "coordinates": [-87.8092027624, 41.9235485453]}, "type": "Feature", "properties": {"collection_times": [{"days": "Mon-Fri", "time": "5:00pm"}, {"days": "Sat", "time": "3:00pm"}, {"days": "Sun", "time": "Closed"}], "id": "6070700021", "name": "USPS COLLECTION BOX - BLUE BOX", "address": {"city": "CHICAGO", "state": "IL", "street": "7300 W FULLERTON AVE", "postcode": "60707"}}},
{"geometry": {"type": "Point", "coordinates": [-87.8157943771, 41.9233656745]}, "type": "Feature", "properties": {"collection_times": [{"days": "Mon-Sat", "time": "10:00am"}, {"days": "Sun", "time": "Closed"}], "id": "6070700022", "name": "USPS COLLECTION BOX - BLUE BOX", "address": {"city": "CHICAGO", "state": "IL", "street": "7547 W FULLERTON AVE", "postcode": "60707"}}},
{"geometry": {"type": "Point", "coordinates": [-87.809264559, 41.9244118326]}, "type": "Feature", "properties": {"collection_times": [{"days": "Mon-Sat", "time": "10:00am"}, {"days": "Sun", "time": "Closed"}], "id": "6070700023", "name": "USPS COLLECTION BOX - BLUE BOX", "address": {"city": "CHICAGO", "state": "IL", "street": "7315 W GRAND AVE", "postcode": "60707"}}},
{"geometry": {"type": "Point", "coordinates": [-87.8058646196, 41.9127557155]}, "type": "Feature", "properties": {"collection_times": [{"days": "Mon-Sat", "time": "10:00am"}, {"days": "Sun", "time": "Closed"}], "id": "6070700026", "name": "USPS COLLECTION BOX - BLUE BOX", "address": {"city": "CHICAGO", "state": "IL", "street": "1801 N HARLEM AVE", "postcode": "60707"}}},
{"geometry": {"type": "Point", "coordinates": [-87.8059237675, 41.9146011315]}, "type": "Feature", "properties": {"collection_times": [{"days": "Mon-Sat", "time": "10:00am"}, {"days": "Sun", "time": "Closed"}], "id": "6070700027", "name": "USPS COLLECTION BOX - BLUE BOX", "address": {"city": "CHICAGO", "state": "IL", "street": "1901 N HARLEM AVE", "postcode": "60707"}}},
{"geometry": {"type": "Point", "coordinates": [-87.8058762046, 41.9153844837]}, "type": "Feature", "properties": {"collection_times": [{"days": "Mon-Sat", "time": "10:00am"}, {"days": "Sun", "time": "Closed"}], "id": "6070700030", "name": "USPS COLLECTION BOX - BLUE BOX", "address": {"city": "CHICAGO", "state": "IL", "street": "1959 N HARLEM AVE", "postcode": "60707"}}},
{"geometry": {"type": "Point", "coordinates": [-87.8063620357, 41.9300780324]}, "type": "Feature", "properties": {"collection_times": [{"days": "Mon-Sat", "time": "10:00am"}, {"days": "Sun", "time": "Closed"}], "id": "6070700031", "name": "USPS COLLECTION BOX - BLUE BOX", "address": {"city": "CHICAGO", "state": "IL", "street": "2759 N HARLEM AVE", "postcode": "60707"}}},
{"geometry": {"type": "Point", "coordinates": [-87.8064372736, 41.9322018737]}, "type": "Feature", "properties": {"collection_times": [{"days": "Mon-Sat", "time": "10:00am"}, {"days": "Sun", "time": "Closed"}], "id": "6070700032", "name": "USPS COLLECTION BOX - BLUE BOX", "address": {"city": "CHICAGO", "state": "IL", "street": "2859 N HARLEM AVE", "postcode": "60707"}}},
{"geometry": {"type": "Point", "coordinates": [-87.8061537815, 41.9198878155]}, "type": "Feature", "properties": {"collection_times": [{"days": "Mon-Sat", "time": "10:00am"}, {"days": "Sun", "time": "Closed"}], "id": "6070700034", "name": "USPS COLLECTION BOX - BLUE BOX", "address": {"city": "CHICAGO", "state": "IL", "street": "2200 N HARLEM AVE", "postcode": "60707"}}},
{"geometry": {"type": "Point", "coordinates": [-87.7913899337, 41.9309531733]}, "type": "Feature", "properties": {"collection_times": [{"days": "Mon-Sat", "time": "10:00am"}, {"days": "Sun", "time": "Closed"}], "id": "6070700039", "name": "USPS COLLECTION BOX - BLUE BOX", "address": {"city": "CHICAGO", "state": "IL", "street": "6625 W DIVERSEY AVE", "postcode": "60707"}}},
{"geometry": {"type": "Point", "coordinates": [-87.8037376594, 41.9236424869]}, "type": "Feature", "properties": {"collection_times": [{"days": "Mon-Sat", "time": "10:00am"}, {"days": "Sun", "time": "Closed"}], "id": "6070700040", "name": "USPS COLLECTION BOX - BLUE BOX", "address": {"city": "CHICAGO", "state": "IL", "street": "7139 W GRAND AVE", "postcode": "60707"}}},
{"geometry": {"type": "Point", "coordinates": [-87.7988366724, 41.9235379779]}, "type": "Feature", "properties": {"collection_times": [{"days": "Mon-Sat", "time": "10:00am"}, {"days": "Sun", "time": "Closed"}], "id": "6070700043", "name": "USPS COLLECTION BOX - BLUE BOX", "address": {"city": "CHICAGO", "state": "IL", "street": "6919 W GRAND AVE", "postcode": "60707"}}},
{"geometry": {"type": "Point", "coordinates": [-87.7984385016, 41.909105415]}, "type": "Feature", "properties": {"collection_times": [{"days": "Mon-Sat", "time": "10:00am"}, {"days": "Sun", "time": "Closed"}], "id": "6070700044", "name": "USPS COLLECTION BOX - BLUE BOX", "address": {"city": "CHICAGO", "state": "IL", "street": "6930 W NORTH AVE NW", "postcode": "60707"}}},
{"geometry": {"type": "Point", "coordinates": [-87.8028114025, 41.9235632286]}, "type": "Feature", "properties": {"collection_times": [{"days": "Mon-Sat", "time": "10:00am"}, {"days": "Sun", "time": "Closed"}], "id": "6070700045", "name": "USPS COLLECTION BOX - BLUE BOX", "address": {"city": "CHICAGO", "state": "IL", "street": "7100 W GRAND AVE", "postcode": "60707"}}},
{"geometry": {"type": "Point", "coordinates": [-87.8122573298, 41.9218337426]}, "type": "Feature", "properties": {"collection_times": [{"days": "Mon-Sat", "time": "10:00am"}, {"days": "Sun", "time": "Closed"}], "id": "6070700047", "name": "USPS COLLECTION BOX - BLUE BOX", "address": {"city": "CHICAGO", "state": "IL", "street": "2301 N 74TH CT", "postcode": "60707"}}},
{"geometry": {"type": "Point", "coordinates": [-87.8138720688, 41.908764412]}, "type": "Feature", "properties": {"collection_times": [{"days": "Mon-Sat", "time": "10:00am"}, {"days": "Sun", "time": "Closed"}], "id": "6070700048", "name": "USPS COLLECTION BOX - BLUE BOX", "address": {"city": "CHICAGO", "state": "IL", "street": "7516 W NORTH AVE", "postcode": "60707"}}},
{"geometry": {"type": "Point", "coordinates": [-87.8179484043, 41.9087396256]}, "type": "Feature", "properties": {"collection_times": [{"days": "Mon-Sat", "time": "10:00am"}, {"days": "Sun", "time": "Closed"}], "id": "6070700049", "name": "USPS COLLECTION BOX - BLUE BOX", "address": {"city": "CHICAGO", "state": "IL", "street": "7700 W NORTH AVE NW", "postcode": "60707"}}},
{"geometry": {"type": "Point", "coordinates": [-87.8209935267, 41.9086930606]}, "type": "Feature", "properties": {"collection_times": [{"days": "Mon-Sat", "time": "10:00am"}, {"days": "Sun", "time": "Closed"}], "id": "6070700050", "name": "USPS COLLECTION BOX - BLUE BOX", "address": {"city": "CHICAGO", "state": "IL", "street": "7840 W NORTH AVE", "postcode": "60707"}}},
{"geometry": {"type": "Point", "coordinates": [-87.7950034348, 41.9162689716]}, "type": "Feature", "properties": {"collection_times": [{"days": "Mon-Sat", "time": "10:00am"}, {"days": "Sun", "time": "Closed"}], "id": "6070700053", "name": "USPS COLLECTION BOX - BLUE BOX", "address": {"city": "CHICAGO", "state": "IL", "street": "6801 W ARMITAGE AVE", "postcode": "60707"}}},
{"geometry": {"type": "Point", "coordinates": [-87.7951399136, 41.9213510954]}, "type": "Feature", "properties": {"collection_times": [{"days": "Mon-Sat", "time": "10:00am"}, {"days": "Sun", "time": "Closed"}], "id": "6070700054", "name": "USPS COLLECTION BOX - BLUE BOX", "address": {"city": "CHICAGO", "state": "IL", "street": "2300 N OAK PARK AVE", "postcode": "60707"}}},
{"geometry": {"type": "Point", "coordinates": [-87.7948548205, 41.9124315848]}, "type": "Feature", "properties": {"collection_times": [{"days": "Mon-Sat", "time": "10:00am"}, {"days": "Sun", "time": "Closed"}], "id": "6070700055", "name": "USPS COLLECTION BOX - BLUE BOX", "address": {"city": "CHICAGO", "state": "IL", "street": "1757 N OAK PARK AVE", "postcode": "60707"}}},
{"geometry": {"type": "Point", "coordinates": [-87.7946668069, 41.9308535064]}, "type": "Feature", "properties": {"collection_times": [{"days": "Mon-Sat", "time": "10:00am"}, {"days": "Sun", "time": "Closed"}], "id": "6070700056", "name": "USPS COLLECTION BOX - BLUE BOX", "address": {"city": "CHICAGO", "state": "IL", "street": "6755 W DIVERSEY AVE", "postcode": "60707"}}},
{"geometry": {"type": "Point", "coordinates": [-87.81642542, 41.9343830059]}, "type": "Feature", "properties": {"collection_times": [{"days": "Mon-Sat", "time": "10:00am"}, {"days": "Sun", "time": "Closed"}], "id": "6070700059", "name": "USPS COLLECTION BOX - BLUE BOX", "address": {"city": "CHICAGO", "state": "IL", "street": "3000 N ORIOLE AVE", "postcode": "60707"}}},
{"geometry": {"type": "Point", "coordinates": [-87.8180124252, 41.9192241352]}, "type": "Feature", "properties": {"collection_times": [{"days": "Mon-Sat", "time": "10:00am"}, {"days": "Sun", "time": "Closed"}], "id": "6070700060", "name": "USPS COLLECTION BOX - BLUE BOX", "address": {"city": "CHICAGO", "state": "IL", "street": "2147 N 77TH AVE", "postcode": "60707"}}},
{"geometry": {"type": "Point", "coordinates": [-87.7926191805, 41.9091810944]}, "type": "Feature", "properties": {"collection_times": [{"days": "Mon-Sat", "time": "10:00am"}, {"days": "Sun", "time": "Closed"}], "id": "6070700061", "name": "USPS COLLECTION BOX - BLUE BOX", "address": {"city": "CHICAGO", "state": "IL", "street": "6714 W NORTH AVE NE", "postcode": "60707"}}},
{"geometry": {"type": "Point", "coordinates": [-87.8005436701, 41.9207797262]}, "type": "Feature", "properties": {"collection_times": [{"days": "Mon-Sat", "time": "10:00am"}, {"days": "Sun", "time": "Closed"}], "id": "6070700062", "name": "USPS COLLECTION BOX - BLUE BOX", "address": {"city": "CHICAGO", "state": "IL", "street": "2102 N SAYRE AVE", "postcode": "60707"}}},
{"geometry": {"type": "Point", "coordinates": [-87.8011481622, 41.9308443411]}, "type": "Feature", "properties": {"collection_times": [{"days": "Mon-Sat", "time": "10:00am"}, {"days": "Sun", "time": "Closed"}], "id": "6070700063", "name": "USPS COLLECTION BOX - BLUE BOX", "address": {"city": "CHICAGO", "state": "IL", "street": "7000 W DIVERSEY AVE", "postcode": "60707"}}},
{"geometry": {"type": "Point", "coordinates": [-87.8007819108, 41.923536909]}, "type": "Feature", "properties": {"collection_times": [{"days": "Mon-Sat", "time": "10:00am"}, {"days": "Sun", "time": "Closed"}], "id": "6070700064", "name": "USPS COLLECTION BOX - BLUE BOX", "address": {"city": "CHICAGO", "state": "IL", "street": "7001 W GRAND AVE", "postcode": "60707"}}},
{"geometry": {"type": "Point", "coordinates": [-87.8002322576, 41.9090828515]}, "type": "Feature", "properties": {"collection_times": [{"days": "Mon-Sat", "time": "10:00am"}, {"days": "Sun", "time": "Closed"}], "id": "6070700065", "name": "USPS COLLECTION BOX - BLUE BOX", "address": {"city": "CHICAGO", "state": "IL", "street": "7000 W NORTH AVE NW", "postcode": "60707"}}},
{"geometry": {"type": "Point", "coordinates": [-87.8236906282, 41.934047794]}, "type": "Feature", "properties": {"collection_times": [{"days": "Mon-Sat", "time": "10:00am"}, {"days": "Sun", "time": "Closed"}], "id": "6070700066", "name": "USPS COLLECTION BOX - BLUE BOX", "address": {"city": "CHICAGO", "state": "IL", "street": "2947 N 79TH AVE", "postcode": "60707"}}},
{"geometry": {"type": "Point", "coordinates": [-87.8006566346, 41.9271348997]}, "type": "Feature", "properties": {"collection_times": [{"days": "Mon-Sat", "time": "10:00am"}, {"days": "Sun", "time": "Closed"}], "id": "6070700070", "name": "USPS COLLECTION BOX - BLUE BOX", "address": {"city": "CHICAGO", "state": "IL", "street": "2601 N SAYRE AVE", "postcode": "60707"}}},
{"geometry": {"type": "Point", "coordinates": [-87.8062540737, 41.9089730614]}, "type": "Feature", "properties": {"collection_times": [{"days": "Mon-Sat", "time": "10:00am"}, {"days": "Sun", "time": "Closed"}], "id": "6070700083", "name": "USPS COLLECTION BOX - BLUE BOX", "address": {"city": "CHICAGO", "state": "IL", "street": "7234 W NORTH AVE", "postcode": "60707"}}},
{"geometry": {"type": "Point", "coordinates": [-87.80536, 41.923862]}, "type": "Feature", "properties": {"collection_times": [{"days": "Mon-Sat", "time": "10:00am"}, {"days": "Sun", "time": "Closed"}], "id": "6070700085", "name": "USPS COLLECTION BOX - BLUE BOX", "address": {"city": "CHICAGO", "state": "IL", "street": "7172 W GRAND AVE", "postcode": "60707"}}},
{"geometry": {"type": "Point", "coordinates": [-87.8092027624, 41.9235485453]}, "type": "Feature", "properties": {"collection_times": [{"days": "Mon-Fri", "time": "5:00pm"}, {"days": "Sat", "time": "3:00pm"}, {"days": "Sun", "time": "Closed"}], "id": "6070700087", "name": "USPS COLLECTION BOX - BLUE BOX", "address": {"city": "CHICAGO", "state": "IL", "street": "7300 W FULLERTON AVE", "postcode": "60707"}}},
{"geometry": {"type": "Point", "coordinates": [-87.7919853907, 41.9237051864]}, "type": "Feature", "properties": {"collection_times": [{"days": "Mon-Sat", "time": "10:00am"}, {"days": "Sun", "time": "Closed"}], "id": "6070700088", "name": "USPS COLLECTION BOX - BLUE BOX", "address": {"city": "CHICAGO", "state": "IL", "street": "6560 W FULLERTON AVE", "postcode": "60707"}}},
{"geometry": {"type": "Point", "coordinates": [-87.8063224247, 41.9266235435]}, "type": "Feature", "properties": {"collection_times": [{"days": "Mon-Sat", "time": "10:00am"}, {"days": "Sun", "time": "Closed"}], "id": "6070700091", "name": "USPS COLLECTION BOX - BLUE BOX", "address": {"city": "CHICAGO", "state": "IL", "street": "2539 N HARLEM AVE", "postcode": "60707"}}},
{"geometry": {"type": "Point", "coordinates": [-87.8136362514, 41.9253017508]}, "type": "Feature", "properties": {"collection_times": [{"days": "Mon-Sat", "time": "10:00am"}, {"days": "Sun", "time": "Closed"}], "id": "6070700092", "name": "USPS COLLECTION BOX - BLUE BOX", "address": {"city": "CHICAGO", "state": "IL", "street": "7500 W GRAND AVE", "postcode": "60707"}}},
{"geometry": {"type": "Point", "coordinates": [-87.7952366117, 41.9235733789]}, "type": "Feature", "properties": {"collection_times": [{"days": "Mon-Sat", "time": "10:00am"}, {"days": "Sun", "time": "Closed"}], "id": "6070700101", "name": "USPS COLLECTION BOX - BLUE BOX", "address": {"city": "CHICAGO", "state": "IL", "street": "6801 W GRAND AVE", "postcode": "60707"}}},
{"geometry": {"type": "Point", "coordinates": [-87.8180883642, 41.9264222143]}, "type": "Feature", "properties": {"collection_times": [{"days": "Mon-Sat", "time": "10:00am"}, {"days": "Sun", "time": "Closed"}], "id": "6070700102", "name": "USPS COLLECTION BOX - BLUE BOX", "address": {"city": "CHICAGO", "state": "IL", "street": "13 W CONTI PKWY", "postcode": "60707"}}},
{"geometry": {"type": "Point", "coordinates": [-87.733425473, 42.0053390687]}, "type": "Feature", "properties": {"collection_times": [{"days": "Mon-Fri", "time": "3:00pm"}, {"days": "Sat", "time": "10:00am"}, {"days": "Sun", "time": "Closed"}], "id": "6071200000", "name": "USPS COLLECTION BOX - BLUE BOX", "address": {"city": "CHICAGO", "state": "IL", "street": "3320 W DEVON NE", "postcode": "60712"}}},
{"geometry": {"type": "Point", "coordinates": [-87.7123807759, 42.011778024]}, "type": "Feature", "properties": {"collection_times": [{"days": "Mon-Fri", "time": "5:00pm"}, {"days": "Sat", "time": "10:00am"}, {"days": "Sun", "time": "Closed"}], "id": "6071200002", "name": "USPS COLLECTION BOX - BLUE BOX", "address": {"city": "CHICAGO", "state": "IL", "street": "3333 W TOUHY", "postcode": "60712"}}},
{"geometry": {"type": "Point", "coordinates": [-87.7132303143, 41.997342675]}, "type": "Feature", "properties": {"collection_times": [{"days": "Mon-Fri", "time": "5:00pm"}, {"days": "Sat", "time": "10:00am"}, {"days": "Sun", "time": "Closed"}], "id": "6071200004", "name": "USPS COLLECTION BOX - BLUE BOX", "address": {"city": "CHICAGO", "state": "IL", "street": "3402 W DEVON", "postcode": "60712"}}},
{"geometry": {"type": "Point", "coordinates": [-87.733425473, 42.0053390687]}, "type": "Feature", "properties": {"collection_times": [{"days": "Mon-Fri", "time": "3:00pm"}, {"days": "Sat", "time": "10:00am"}, {"days": "Sun", "time": "Closed"}], "id": "6071200005", "name": "USPS COLLECTION BOX - BLUE BOX", "address": {"city": "CHICAGO", "state": "IL", "street": "6600 N LINCOLN SW", "postcode": "60712"}}},
{"geometry": {"type": "Point", "coordinates": [-87.7292148034, 42.0036661057]}, "type": "Feature", "properties": {"collection_times": [{"days": "Mon-Fri", "time": "3:00pm"}, {"days": "Sat", "time": "10:00am"}, {"days": "Sun", "time": "Closed"}], "id": "6071200006", "name": "USPS COLLECTION BOX - BLUE BOX", "address": {"city": "CHICAGO", "state": "IL", "street": "6770 N LINCOLN", "postcode": "60712"}}},
{"geometry": {"type": "Point", "coordinates": [-87.7262400899, 42.0135739843]}, "type": "Feature", "properties": {"collection_times": [{"days": "Mon-Sat", "time": "10:00am"}, {"days": "Sun", "time": "Closed"}], "id": "6071200007", "name": "USPS COLLECTION BOX - BLUE BOX", "address": {"city": "CHICAGO", "state": "IL", "street": "7301 N EAST PRAIRIE RD SW", "postcode": "60712"}}},
{"geometry": {"type": "Point", "coordinates": [-87.733425473, 42.0053390687]}, "type": "Feature", "properties": {"collection_times": [{"days": "Mon-Fri", "time": "3:00pm"}, {"days": "Sat", "time": "10:00am"}, {"days": "Sun", "time": "Closed"}], "id": "6071200008", "name": "USPS COLLECTION BOX - BLUE BOX", "address": {"city": "CHICAGO", "state": "IL", "street": "6401 N LINCOLN NW", "postcode": "60712"}}},
{"geometry": {"type": "Point", "coordinates": [-87.7260628786, 42.001683373]}, "type": "Feature", "properties": {"collection_times": [{"days": "Mon-Fri", "time": "3:00pm"}, {"days": "Sat", "time": "10:00am"}, {"days": "Sun", "time": "Closed"}], "id": "6071200011", "name": "USPS COLLECTION BOX - BLUE BOX", "address": {"city": "CHICAGO", "state": "IL", "street": "6670 N LINCOLN AVE SW", "postcode": "60712"}}},
{"geometry": {"type": "Point", "coordinates": [-87.7260483483, 42.0081335584]}, "type": "Feature", "properties": {"collection_times": [{"days": "Mon-Fri", "time": "3:00pm"}, {"days": "Sat", "time": "10:00am"}, {"days": "Sun", "time": "Closed"}], "id": "6071200012", "name": "USPS COLLECTION BOX - BLUE BOX", "address": {"city": "CHICAGO", "state": "IL", "street": "7001 N EAST PRAIRIE RD SE", "postcode": "60712"}}},
{"geometry": {"type": "Point", "coordinates": [-87.733425473, 42.0053390687]}, "type": "Feature", "properties": {"collection_times": [{"days": "Mon-Sat", "time": "10:00am"}, {"days": "Sun", "time": "Closed"}], "id": "6071200013", "name": "USPS COLLECTION BOX - BLUE BOX", "address": {"city": "CHICAGO", "state": "IL", "street": "3531 W PRATT SW", "postcode": "60712"}}},
{"geometry": {"type": "Point", "coordinates": [-87.733425473, 42.0053390687]}, "type": "Feature", "properties": {"collection_times": [{"days": "Mon-Fri", "time": "3:00pm"}, {"days": "Sat", "time": "10:00am"}, {"days": "Sun", "time": "Closed"}], "id": "6071200014", "name": "USPS COLLECTION BOX - BLUE BOX", "address": {"city": "CHICAGO", "state": "IL", "street": "6801 N HAMLIN NE", "postcode": "60712"}}},
{"geometry": {"type": "Point", "coordinates": [-87.733425473, 42.0053390687]}, "type": "Feature", "properties": {"collection_times": [{"days": "Mon-Fri", "time": "3:00pm"}, {"days": "Sat", "time": "10:00am"}, {"days": "Sun", "time": "Closed"}], "id": "6071200016", "name": "USPS COLLECTION BOX - BLUE BOX", "address": {"city": "CHICAGO", "state": "IL", "street": "3735 W TOUHY SE", "postcode": "60712"}}},
{"geometry": {"type": "Point", "coordinates": [-87.7100957619, 41.7623356292]}, "type": "Feature", "properties": {"collection_times": [{"days": "Mon-Fri", "time": "3:00pm"}, {"days": "Sat", "time": "10:00am"}, {"days": "Sun", "time": "Closed"}], "id": "6071200017", "name": "USPS COLLECTION BOX - BLUE BOX", "address": {"city": "CHICAGO", "state": "IL", "street": "7200 N SAINT LOUIS AVE NW", "postcode": "60712"}}},
{"geometry": {"type": "Point", "coordinates": [-87.7692195438, 42.011834738]}, "type": "Feature", "properties": {"collection_times": [{"days": "Mon-Sat", "time": "10:00am"}, {"days": "Sun", "time": "Closed"}], "id": "6071400001", "name": "USPS COLLECTION BOX - BLUE BOX", "address": {"city": "NILES", "state": "IL", "street": "5665 W TOUHY AVE", "postcode": "60714"}}},
{"geometry": {"type": "Point", "coordinates": [-87.7759646071, 42.0120476466]}, "type": "Feature", "properties": {"collection_times": [{"days": "Mon-Fri", "time": "3:00pm"}, {"days": "Sat", "time": "10:00am"}, {"days": "Sun", "time": "Closed"}], "id": "6071400002", "name": "USPS COLLECTION BOX - BLUE BOX", "address": {"city": "NILES", "state": "IL", "street": "5940 W TOUHY AVE", "postcode": "60714"}}},
{"geometry": {"type": "Point", "coordinates": [-87.7831431396, 42.0191174146]}, "type": "Feature", "properties": {"collection_times": [{"days": "Mon-Fri", "time": "3:00pm"}, {"days": "Sat", "time": "10:00am"}, {"days": "Sun", "time": "Closed"}], "id": "6071400007", "name": "USPS COLLECTION BOX - BLUE BOX", "address": {"city": "NILES", "state": "IL", "street": "6211 W HOWARD ST", "postcode": "60714"}}},
{"geometry": {"type": "Point", "coordinates": [-87.7844262497, 42.01208778]}, "type": "Feature", "properties": {"collection_times": [{"days": "Mon-Sat", "time": "10:00am"}, {"days": "Sun", "time": "Closed"}], "id": "6071400008", "name": "USPS COLLECTION BOX - BLUE BOX", "address": {"city": "NILES", "state": "IL", "street": "6300 W TOUHY AVE", "postcode": "60714"}}},
{"geometry": {"type": "Point", "coordinates": [-87.8014598958, 42.0262606778]}, "type": "Feature", "properties": {"collection_times": [{"days": "Mon-Fri", "time": "5:00pm"}, {"days": "Sat", "time": "3:00pm"}, {"days": "Sun", "time": "Closed"}], "id": "6071400013", "name": "USPS COLLECTION BOX - BLUE BOX", "address": {"city": "NILES", "state": "IL", "street": "6977 W OAKTON ST", "postcode": "60714"}}},
{"geometry": {"type": "Point", "coordinates": [-87.8014598958, 42.0262606778]}, "type": "Feature", "properties": {"collection_times": [{"days": "Mon-Fri", "time": "5:00pm"}, {"days": "Sat", "time": "3:00pm"}, {"days": "Sun", "time": "Closed"}], "id": "6071400015", "name": "USPS COLLECTION BOX - BLUE BOX", "address": {"city": "NILES", "state": "IL", "street": "6977 W OAKTON ST", "postcode": "60714"}}},
{"geometry": {"type": "Point", "coordinates": [-87.8014598958, 42.0262606778]}, "type": "Feature", "properties": {"collection_times": [{"days": "Mon-Fri", "time": "5:00pm"}, {"days": "Sat", "time": "3:00pm"}, {"days": "Sun", "time": "Closed"}], "id": "6071400017", "name": "USPS COLLECTION BOX - BLUE BOX", "address": {"city": "NILES", "state": "IL", "street": "6977 W OAKTON ST", "postcode": "60714"}}},
{"geometry": {"type": "Point", "coordinates": [-87.8014598958, 42.0262606778]}, "type": "Feature", "properties": {"collection_times": [{"days": "Mon-Fri", "time": "5:00pm"}, {"days": "Sat", "time": "3:00pm"}, {"days": "Sun", "time": "Closed"}], "id": "6071400018", "name": "USPS COLLECTION BOX - BLUE BOX", "address": {"city": "NILES", "state": "IL", "street": "6977 W OAKTON ST", "postcode": "60714"}}},
{"geometry": {"type": "Point", "coordinates": [-87.8025901399, 42.0406690329]}, "type": "Feature", "properties": {"collection_times": [{"days": "Mon-Fri", "time": "3:00pm"}, {"days": "Sat", "time": "10:00am"}, {"days": "Sun", "time": "Closed"}], "id": "6071400021", "name": "USPS COLLECTION BOX - BLUE BOX", "address": {"city": "NILES", "state": "IL", "street": "7077 W DEMPSTER ST", "postcode": "60714"}}},
{"geometry": {"type": "Point", "coordinates": [-87.8042404169, 42.0263978515]}, "type": "Feature", "properties": {"collection_times": [{"days": "Mon-Sat", "time": "10:00am"}, {"days": "Sun", "time": "Closed"}], "id": "6071400023", "name": "USPS COLLECTION BOX - BLUE BOX", "address": {"city": "NILES", "state": "IL", "street": "7100 W OAKTON ST", "postcode": "60714"}}},
{"geometry": {"type": "Point", "coordinates": [-87.8025310899, 42.0152028656]}, "type": "Feature", "properties": {"collection_times": [{"days": "Mon-Fri", "time": "3:00pm"}, {"days": "Sat", "time": "10:00am"}, {"days": "Sun", "time": "Closed"}], "id": "6071400025", "name": "USPS COLLECTION BOX - BLUE BOX", "address": {"city": "NILES", "state": "IL", "street": "7400 N WAUKEGAN RD", "postcode": "60714"}}},
{"geometry": {"type": "Point", "coordinates": [-87.768402485, 42.0120404179]}, "type": "Feature", "properties": {"collection_times": [{"days": "Mon-Sat", "time": "10:00am"}, {"days": "Sun", "time": "Closed"}], "id": "6071400027", "name": "USPS COLLECTION BOX - BLUE BOX", "address": {"city": "NILES", "state": "IL", "street": "5630 W TOUHY AVE", "postcode": "60714"}}},
{"geometry": {"type": "Point", "coordinates": [-87.8131319032, 42.024895459]}, "type": "Feature", "properties": {"collection_times": [{"days": "Mon-Fri", "time": "3:00pm"}, {"days": "Sat", "time": "10:00am"}, {"days": "Sun", "time": "Closed"}], "id": "6071400037", "name": "USPS COLLECTION BOX - BLUE BOX", "address": {"city": "NILES", "state": "IL", "street": "7900 N MILWAUKEE AVE", "postcode": "60714"}}},
{"geometry": {"type": "Point", "coordinates": [-87.8005541581, 42.026488959]}, "type": "Feature", "properties": {"collection_times": [{"days": "Mon-Sat", "time": "10:00am"}, {"days": "Sun", "time": "Closed"}], "id": "6071400039", "name": "USPS COLLECTION BOX - BLUE BOX", "address": {"city": "NILES", "state": "IL", "street": "6960 W OAKTON ST", "postcode": "60714"}}},
{"geometry": {"type": "Point", "coordinates": [-87.8429654304, 42.0400431893]}, "type": "Feature", "properties": {"collection_times": [{"days": "Mon-Sat", "time": "10:00am"}, {"days": "Sun", "time": "Closed"}], "id": "6071400046", "name": "USPS COLLECTION BOX - BLUE BOX", "address": {"city": "NILES", "state": "IL", "street": "8722 W DEMPSTER ST", "postcode": "60714"}}},
{"geometry": {"type": "Point", "coordinates": [-87.8308537771, 42.045754657]}, "type": "Feature", "properties": {"collection_times": [{"days": "Mon-Sat", "time": "10:00am"}, {"days": "Sun", "time": "Closed"}], "id": "6071400052", "name": "USPS COLLECTION BOX - BLUE BOX", "address": {"city": "NILES", "state": "IL", "street": "9101 N MILWAUKEE AVE", "postcode": "60714"}}},
{"geometry": {"type": "Point", "coordinates": [-87.8325747303, 42.0481352753]}, "type": "Feature", "properties": {"collection_times": [{"days": "Mon-Sat", "time": "10:00am"}, {"days": "Sun", "time": "Closed"}], "id": "6071400053", "name": "USPS COLLECTION BOX - BLUE BOX", "address": {"city": "NILES", "state": "IL", "street": "9201 N MARYLAND ST", "postcode": "60714"}}},
{"geometry": {"type": "Point", "coordinates": [-87.7834546449, 42.0053932321]}, "type": "Feature", "properties": {"collection_times": [{"days": "Mon-Sat", "time": "10:00am"}, {"days": "Sun", "time": "Closed"}], "id": "6071400064", "name": "USPS COLLECTION BOX - BLUE BOX", "address": {"city": "NILES", "state": "IL", "street": "6782 N LEXINGTON LN", "postcode": "60714"}}},
{"geometry": {"type": "Point", "coordinates": [-87.8391114768, 42.0583639375]}, "type": "Feature", "properties": {"collection_times": [{"days": "Mon-Sat", "time": "10:00am"}, {"days": "Sun", "time": "Closed"}], "id": "6071400065", "name": "USPS COLLECTION BOX - BLUE BOX", "address": {"city": "NILES", "state": "IL", "street": "8555 W MAYNARD SE", "postcode": "60714"}}},
{"geometry": {"type": "Point", "coordinates": [-87.787113537, 42.0191687892]}, "type": "Feature", "properties": {"collection_times": [{"days": "Mon-Sat", "time": "10:00am"}, {"days": "Sun", "time": "Closed"}], "id": "6071400071", "name": "USPS COLLECTION BOX - BLUE BOX", "address": {"city": "NILES", "state": "IL", "street": "6457 W HOWARD ST", "postcode": "60714"}}},
{"geometry": {"type": "Point", "coordinates": [-87.8359531808, 42.0300117911]}, "type": "Feature", "properties": {"collection_times": [{"days": "Mon-Sat", "time": "10:00am"}, {"days": "Sun", "time": "Closed"}], "id": "6071400072", "name": "USPS COLLECTION BOX - BLUE BOX", "address": {"city": "NILES", "state": "IL", "street": "8402 W MADISON DR", "postcode": "60714"}}},
{"geometry": {"type": "Point", "coordinates": [-87.830066777, 42.0286229973]}, "type": "Feature", "properties": {"collection_times": [{"days": "Mon-Sat", "time": "10:00am"}, {"days": "Sun", "time": "Closed"}], "id": "6071400073", "name": "USPS COLLECTION BOX - BLUE BOX", "address": {"city": "NILES", "state": "IL", "street": "8157 N FIELD DR", "postcode": "60714"}}},
{"geometry": {"type": "Point", "coordinates": [-87.8323579716, 42.0402414057]}, "type": "Feature", "properties": {"collection_times": [{"days": "Mon-Sat", "time": "10:00am"}, {"days": "Sun", "time": "Closed"}], "id": "6071400074", "name": "USPS COLLECTION BOX - BLUE BOX", "address": {"city": "NILES", "state": "IL", "street": "8250 W DEMPSTER ST", "postcode": "60714"}}},
{"geometry": {"type": "Point", "coordinates": [-87.839693876, 42.0323221662]}, "type": "Feature", "properties": {"collection_times": [{"days": "Mon-Sat", "time": "10:00am"}, {"days": "Sun", "time": "Closed"}], "id": "6071400075", "name": "USPS COLLECTION BOX - BLUE BOX", "address": {"city": "NILES", "state": "IL", "street": "8561 W BRUCE DR", "postcode": "60714"}}},
{"geometry": {"type": "Point", "coordinates": [-87.8054294205, 42.0335500584]}, "type": "Feature", "properties": {"collection_times": [{"days": "Mon-Sat", "time": "10:00am"}, {"days": "Sun", "time": "Closed"}], "id": "6071400080", "name": "USPS COLLECTION BOX - BLUE BOX", "address": {"city": "NILES", "state": "IL", "street": "7157 W MAIN ST", "postcode": "60714"}}},
{"geometry": {"type": "Point", "coordinates": [-87.8065696631, 42.0227259468]}, "type": "Feature", "properties": {"collection_times": [{"days": "Mon-Sat", "time": "10:00am"}, {"days": "Sun", "time": "Closed"}], "id": "6071400081", "name": "USPS COLLECTION BOX - BLUE BOX", "address": {"city": "NILES", "state": "IL", "street": "7800 N HARLEM AVE", "postcode": "60714"}}},
{"geometry": {"type": "Point", "coordinates": [-87.8420723721, 42.0307428578]}, "type": "Feature", "properties": {"collection_times": [{"days": "Mon-Sat", "time": "10:00am"}, {"days": "Sun", "time": "Closed"}], "id": "6071400082", "name": "USPS COLLECTION BOX - BLUE BOX", "address": {"city": "NILES", "state": "IL", "street": "8658 W NORMAL NE", "postcode": "60714"}}},
{"geometry": {"type": "Point", "coordinates": [-87.780513473, 42.0120788615]}, "type": "Feature", "properties": {"collection_times": [{"days": "Mon-Sat", "time": "10:00am"}, {"days": "Sun", "time": "Closed"}], "id": "6071400083", "name": "USPS COLLECTION BOX - BLUE BOX", "address": {"city": "NILES", "state": "IL", "street": "6150 W TOUHY AVE", "postcode": "60714"}}},
{"geometry": {"type": "Point", "coordinates": [-87.8223645312, 42.0293481511]}, "type": "Feature", "properties": {"collection_times": [{"days": "Mon-Sat", "time": "10:00am"}, {"days": "Sun", "time": "Closed"}], "id": "6071400084", "name": "USPS COLLECTION BOX - BLUE BOX", "address": {"city": "NILES", "state": "IL", "street": "8155 N MERRILL ST SE", "postcode": "60714"}}},
{"geometry": {"type": "Point", "coordinates": [-87.8225214627, 42.0358029396]}, "type": "Feature", "properties": {"collection_times": [{"days": "Mon-Sat", "time": "10:00am"}, {"days": "Sun", "time": "Closed"}], "id": "6071400087", "name": "USPS COLLECTION BOX - BLUE BOX", "address": {"city": "NILES", "state": "IL", "street": "8553 N MILWAUKEE AVE", "postcode": "60714"}}},
{"geometry": {"type": "Point", "coordinates": [-87.8144722238, 42.0267029533]}, "type": "Feature", "properties": {"collection_times": [{"days": "Mon-Sat", "time": "10:00am"}, {"days": "Sun", "time": "Closed"}], "id": "6071400089", "name": "USPS COLLECTION BOX - BLUE BOX", "address": {"city": "NILES", "state": "IL", "street": "8035 N MILWAUKEE AVE", "postcode": "60714"}}},
{"geometry": {"type": "Point", "coordinates": [-87.803949409, 42.0242117433]}, "type": "Feature", "properties": {"collection_times": [{"days": "Mon-Sat", "time": "10:00am"}, {"days": "Sun", "time": "Closed"}], "id": "6071400090", "name": "USPS COLLECTION BOX - BLUE BOX", "address": {"city": "NILES", "state": "IL", "street": "7856 N NEVA AVE", "postcode": "60714"}}},
{"geometry": {"type": "Point", "coordinates": [-87.8036796944, 42.0145966528]}, "type": "Feature", "properties": {"collection_times": [{"days": "Mon-Sat", "time": "10:00am"}, {"days": "Sun", "time": "Closed"}], "id": "6071400092", "name": "USPS COLLECTION BOX - BLUE BOX", "address": {"city": "NILES", "state": "IL", "street": "7320 N MILWAUKEE AVE", "postcode": "60714"}}},
{"geometry": {"type": "Point", "coordinates": [-87.8095420841, 42.0212267186]}, "type": "Feature", "properties": {"collection_times": [{"days": "Mon-Sat", "time": "9:00am"}, {"days": "Sun", "time": "Closed"}], "id": "6071400094", "name": "USPS COLLECTION BOX - BLUE BOX", "address": {"city": "NILES", "state": "IL", "street": "7727 N MILWAUKEE AVE", "postcode": "60714"}}},
{"geometry": {"type": "Point", "coordinates": [-87.8102104207, 42.0260231027]}, "type": "Feature", "properties": {"collection_times": [{"days": "Mon-Sat", "time": "10:00am"}, {"days": "Sun", "time": "Closed"}], "id": "6071400095", "name": "USPS COLLECTION BOX - BLUE BOX", "address": {"city": "NILES", "state": "IL", "street": "7347 W OAKTON ST", "postcode": "60714"}}},
{"geometry": {"type": "Point", "coordinates": [-87.8115156145, 42.0333725775]}, "type": "Feature", "properties": {"collection_times": [{"days": "Mon-Sat", "time": "10:00am"}, {"days": "Sun", "time": "Closed"}], "id": "6071400096", "name": "USPS COLLECTION BOX - BLUE BOX", "address": {"city": "NILES", "state": "IL", "street": "7401 W MAIN ST", "postcode": "60714"}}},
{"geometry": {"type": "Point", "coordinates": [-87.8148657543, 42.0403473036]}, "type": "Feature", "properties": {"collection_times": [{"days": "Mon-Sat", "time": "10:00am"}, {"days": "Sun", "time": "Closed"}], "id": "6071400097", "name": "USPS COLLECTION BOX - BLUE BOX", "address": {"city": "NILES", "state": "IL", "street": "8761 N OLEANDER AVE", "postcode": "60714"}}},
{"geometry": {"type": "Point", "coordinates": [-87.815032836, 42.0188365667]}, "type": "Feature", "properties": {"collection_times": [{"days": "Mon-Sat", "time": "10:00am"}, {"days": "Sun", "time": "Closed"}], "id": "6071400099", "name": "USPS COLLECTION BOX - BLUE BOX", "address": {"city": "NILES", "state": "IL", "street": "7520 W HOWARD ST", "postcode": "60714"}}},
{"geometry": {"type": "Point", "coordinates": [-87.8142754578, 42.0225023676]}, "type": "Feature", "properties": {"collection_times": [{"days": "Mon-Sat", "time": "10:00am"}, {"days": "Sun", "time": "Closed"}], "id": "6071400101", "name": "USPS COLLECTION BOX - BLUE BOX", "address": {"city": "NILES", "state": "IL", "street": "7800 N OLEANDER AVE", "postcode": "60714"}}},
{"geometry": {"type": "Point", "coordinates": [-87.8209118878, 42.0419722159]}, "type": "Feature", "properties": {"collection_times": [{"days": "Mon-Sat", "time": "10:00am"}, {"days": "Sun", "time": "Closed"}], "id": "6071400104", "name": "USPS COLLECTION BOX - BLUE BOX", "address": {"city": "NILES", "state": "IL", "street": "8901 N OZANAM AVE", "postcode": "60714"}}},
{"geometry": {"type": "Point", "coordinates": [-87.8196697507, 42.0332069633]}, "type": "Feature", "properties": {"collection_times": [{"days": "Mon-Sat", "time": "10:00am"}, {"days": "Sun", "time": "Closed"}], "id": "6071400105", "name": "USPS COLLECTION BOX - BLUE BOX", "address": {"city": "NILES", "state": "IL", "street": "7722 W MAIN ST", "postcode": "60714"}}},
{"geometry": {"type": "Point", "coordinates": [-87.8260092386, 42.0438437227]}, "type": "Feature", "properties": {"collection_times": [{"days": "Mon-Sat", "time": "10:00am"}, {"days": "Sun", "time": "Closed"}], "id": "6071400109", "name": "USPS COLLECTION BOX - BLUE BOX", "address": {"city": "NILES", "state": "IL", "street": "8001 W BALLARD RD", "postcode": "60714"}}},
{"geometry": {"type": "Point", "coordinates": [-87.825801027, 42.0500877877]}, "type": "Feature", "properties": {"collection_times": [{"days": "Mon-Sat", "time": "10:00am"}, {"days": "Sun", "time": "Closed"}], "id": "6071400111", "name": "USPS COLLECTION BOX - BLUE BOX", "address": {"city": "NILES", "state": "IL", "street": "8000 W LYONS ST", "postcode": "60714"}}},
{"geometry": {"type": "Point", "coordinates": [-87.8248132563, 42.0295610837]}, "type": "Feature", "properties": {"collection_times": [{"days": "Mon-Sat", "time": "10:00am"}, {"days": "Sun", "time": "Closed"}], "id": "6071400115", "name": "USPS COLLECTION BOX - BLUE BOX", "address": {"city": "NILES", "state": "IL", "street": "8200 N WISNER ST", "postcode": "60714"}}},
{"geometry": {"type": "Point", "coordinates": [-87.8250179082, 42.0258548733]}, "type": "Feature", "properties": {"collection_times": [{"days": "Mon-Sat", "time": "10:00am"}, {"days": "Sun", "time": "Closed"}], "id": "6071400116", "name": "USPS COLLECTION BOX - BLUE BOX", "address": {"city": "NILES", "state": "IL", "street": "7934 W OAKTON ST", "postcode": "60714"}}},
{"geometry": {"type": "Point", "coordinates": [-87.7964080456, 42.0066495345]}, "type": "Feature", "properties": {"collection_times": [{"days": "Mon-Sat", "time": "10:00am"}, {"days": "Sun", "time": "Closed"}], "id": "6071400117", "name": "USPS COLLECTION BOX - BLUE BOX", "address": {"city": "NILES", "state": "IL", "street": "6881 N MILWAUKEE AVE", "postcode": "60714"}}},
{"geometry": {"type": "Point", "coordinates": [-87.8040842663, 42.030967622]}, "type": "Feature", "properties": {"collection_times": [{"days": "Mon-Sat", "time": "10:00am"}, {"days": "Sun", "time": "Closed"}], "id": "6071400118", "name": "USPS COLLECTION BOX - BLUE BOX", "address": {"city": "NILES", "state": "IL", "street": "7103 W MADISON ST", "postcode": "60714"}}},
{"geometry": {"type": "Point", "coordinates": [-87.8013528141, 42.0299881319]}, "type": "Feature", "properties": {"collection_times": [{"days": "Mon-Sat", "time": "10:00am"}, {"days": "Sun", "time": "Closed"}], "id": "6071400119", "name": "USPS COLLECTION BOX - BLUE BOX", "address": {"city": "NILES", "state": "IL", "street": "6978 W CLEVELAND ST", "postcode": "60714"}}},
{"geometry": {"type": "Point", "coordinates": [-87.7684121387, 42.0191699722]}, "type": "Feature", "properties": {"collection_times": [{"days": "Mon-Fri", "time": "3:00pm"}, {"days": "Sat", "time": "10:00am"}, {"days": "Sun", "time": "Closed"}], "id": "6071400123", "name": "USPS COLLECTION BOX - BLUE BOX", "address": {"city": "NILES", "state": "IL", "street": "5601 W HOWARD ST", "postcode": "60714"}}}
]}
