{"type": "FeatureCollection", "features": [
{"geometry": {"type": "Point", "coordinates": [-87.7360567669, 41.6720257463]}, "type": "Feature", "properties": {"collection_times": [{"days": "Mon-Fri", "time": "12:00pm"}, {"days": "Sat", "time": "10:00am"}, {"days": "Sun", "time": "Closed"}], "id": "6080300001", "name": "USPS COLLECTION BOX - BLUE BOX", "address": {"city": "CHICAGO", "state": "IL", "street": "11520 S KEDZIE SW", "postcode": "60803"}}},
{"geometry": {"type": "Point", "coordinates": [-87.6973281345, 41.6801221032]}, "type": "Feature", "properties": {"collection_times": [{"days": "Mon-Fri", "time": "12:00pm"}, {"days": "Sat", "time": "10:00am"}, {"days": "Sun", "time": "Closed"}], "id": "6080300002", "name": "USPS COLLECTION BOX - BLUE BOX", "address": {"city": "CHICAGO", "state": "IL", "street": "11720 S MEADOW LANE DR NW", "postcode": "60803"}}},
{"geometry": {"type": "Point", "coordinates": [-87.7396426677, 41.6864960724]}, "type": "Feature", "properties": {"collection_times": [{"days": "Mon-Fri", "time": "12:00pm"}, {"days": "Sat", "time": "10:00am"}, {"days": "Sun", "time": "Closed"}], "id": "6080300003", "name": "USPS COLLECTION BOX - BLUE BOX", "address": {"city": "CHICAGO", "state": "IL", "street": "11346 S CICERO AVE", "postcode": "60803"}}},
{"geometry": {"type": "Point", "coordinates": [-87.7363172791, 41.6830582074]}, "type": "Feature", "properties": {"collection_times": [{"days": "Mon-Fri", "time": "12:00pm"}, {"days": "Sat", "time": "10:00am"}, {"days": "Sun", "time": "Closed"}], "id": "6080300005", "name": "USPS COLLECTION BOX - BLUE BOX", "address": {"city": "CHICAGO", "state": "IL", "street": "4735 W 115TH PL", "postcode": "60803"}}},
{"geometry": {"type": "Point", "coordinates": [-87.7261461979, 41.6801362987]}, "type": "Feature", "properties": {"collection_times": [{"days": "Mon-Fri", "time": "12:00pm"}, {"days": "Sat", "time": "10:00am"}, {"days": "Sun", "time": "Closed"}], "id": "6080300006", "name": "USPS COLLECTION BOX - BLUE BOX", "address": {"city": "CHICAGO", "state": "IL", "street": "4301 W 117TH ST", "postcode": "60803"}}},
{"geometry": {"type": "Point", "coordinates": [-87.7135906594, 41.6767168157]}, "type": "Feature", "properties": {"collection_times": [{"days": "Mon-Fri", "time": "12:00pm"}, {"days": "Sat", "time": "10:00am"}, {"days": "Sun", "time": "Closed"}], "id": "6080300009", "name": "USPS COLLECTION BOX - BLUE BOX", "address": {"city": "CHICAGO", "state": "IL", "street": "11901 S RIDGEWAY AVE", "postcode": "60803"}}},
{"geometry": {"type": "Point", "coordinates": [-87.7133101742, 41.6694216376]}, "type": "Feature", "properties": {"collection_times": [{"days": "Mon-Fri", "time": "12:00pm"}, {"days": "Sat", "time": "10:00am"}, {"days": "Sun", "time": "Closed"}], "id": "6080300010", "name": "USPS COLLECTION BOX - BLUE BOX", "address": {"city": "CHICAGO", "state": "IL", "street": "12300 S BENCK DR", "postcode": "60803"}}},
{"geometry": {"type": "Point", "coordinates": [-87.7065244575, 41.6678926735]}, "type": "Feature", "properties": {"collection_times": [{"days": "Mon-Fri", "time": "12:00pm"}, {"days": "Sat", "time": "10:00am"}, {"days": "Sun", "time": "Closed"}], "id": "6080300011", "name": "USPS COLLECTION BOX - BLUE BOX", "address": {"city": "CHICAGO", "state": "IL", "street": "3433 W 124TH ST", "postcode": "60803"}}},
{"geometry": {"type": "Point", "coordinates": [-87.7460772519, 41.6630925884]}, "type": "Feature", "properties": {"collection_times": [{"days": "Mon-Fri", "time": "12:00pm"}, {"days": "Sat", "time": "10:00am"}, {"days": "Sun", "time": "Closed"}], "id": "6080300012", "name": "USPS COLLECTION BOX - BLUE BOX", "address": {"city": "CHICAGO", "state": "IL", "street": "12540 S HOLIDAY DR", "postcode": "60803"}}},
{"geometry": {"type": "Point", "coordinates": [-87.7216805278, 41.6636186427]}, "type": "Feature", "properties": {"collection_times": [{"days": "Mon-Fri", "time": "12:00pm"}, {"days": "Sat", "time": "10:00am"}, {"days": "Sun", "time": "Closed"}], "id": "6080300013", "name": "USPS COLLECTION BOX - BLUE BOX", "address": {"city": "CHICAGO", "state": "IL", "street": "4101 W 126TH ST", "postcode": "60803"}}},
{"geometry": {"type": "Point", "coordinates": [-87.7246225467, 41.6621316633]}, "type": "Feature", "properties": {"collection_times": [{"days": "Mon-Fri", "time": "12:00pm"}, {"days": "Sat", "time": "10:00am"}, {"days": "Sun", "time": "Closed"}], "id": "6080300015", "name": "USPS COLLECTION BOX - BLUE BOX", "address": {"city": "CHICAGO", "state": "IL", "street": "12649 S KEELER AVE", "postcode": "60803"}}},
{"geometry": {"type": "Point", "coordinates": [-87.7392146139, 41.6585571892]}, "type": "Feature", "properties": {"collection_times": [{"days": "Mon-Fri", "time": "12:00pm"}, {"days": "Sat", "time": "10:00am"}, {"days": "Sun", "time": "Closed"}], "id": "6080300018", "name": "USPS COLLECTION BOX - BLUE BOX", "address": {"city": "CHICAGO", "state": "IL", "street": "4838 W 128TH PL", "postcode": "60803"}}},
{"geometry": {"type": "Point", "coordinates": [-87.7268670292, 41.6838058568]}, "type": "Feature", "properties": {"collection_times": [{"days": "Mon-Fri", "time": "12:00pm"}, {"days": "Sat", "time": "10:00am"}, {"days": "Sun", "time": "Closed"}], "id": "6080300020", "name": "USPS COLLECTION BOX - BLUE BOX", "address": {"city": "CHICAGO", "state": "IL", "street": "4209 W 115TH ST", "postcode": "60803"}}},
{"geometry": {"type": "Point", "coordinates": [-87.725132402, 41.669029497]}, "type": "Feature", "properties": {"collection_times": [{"days": "Mon-Fri", "time": "12:00pm"}, {"days": "Sat", "time": "10:00am"}, {"days": "Sun", "time": "Closed"}], "id": "6080300021", "name": "USPS COLLECTION BOX - BLUE BOX", "address": {"city": "CHICAGO", "state": "IL", "street": "12300 S KEELER AVE", "postcode": "60803"}}},
{"geometry": {"type": "Point", "coordinates": [-87.7196677307, 41.6780441508]}, "type": "Feature", "properties": {"collection_times": [{"days": "Mon-Fri", "time": "12:00pm"}, {"days": "Sat", "time": "10:00am"}, {"days": "Sun", "time": "Closed"}], "id": "6080300026", "name": "USPS COLLECTION BOX - BLUE BOX", "address": {"city": "CHICAGO", "state": "IL", "street": "11825 S PULASKI RD", "postcode": "60803"}}},
{"geometry": {"type": "Point", "coordinates": [-87.7327133173, 41.670121109]}, "type": "Feature", "properties": {"collection_times": [{"days": "Mon-Fri", "time": "5:00pm"}, {"days": "Sat", "time": "10:00am"}, {"days": "Sun", "time": "Closed"}], "id": "6080300027", "name": "USPS COLLECTION BOX - BLUE BOX", "address": {"city": "CHICAGO", "state": "IL", "street": "12259 S ORCHARD ST E", "postcode": "60803"}}},
{"geometry": {"type": "Point", "coordinates": [-87.7147046188, 41.6622121045]}, "type": "Feature", "properties": {"collection_times": [{"days": "Mon-Fri", "time": "12:00pm"}, {"days": "Sat", "time": "10:00am"}, {"days": "Sun", "time": "Closed"}], "id": "6080300028", "name": "USPS COLLECTION BOX - BLUE BOX", "address": {"city": "CHICAGO", "state": "IL", "street": "3800 W 127TH ST", "postcode": "60803"}}},
{"geometry": {"type": "Point", "coordinates": [-87.7279477249, 41.6726342897]}, "type": "Feature", "properties": {"collection_times": [{"days": "Mon-Fri", "time": "12:00pm"}, {"days": "Sat", "time": "10:00am"}, {"days": "Sun", "time": "Closed"}], "id": "6080300030", "name": "USPS COLLECTION BOX - BLUE BOX", "address": {"city": "CHICAGO", "state": "IL", "street": "4902 W 122ND ST", "postcode": "60803"}}},
{"geometry": {"type": "Point", "coordinates": [-87.7216769789, 41.6839820983]}, "type": "Feature", "properties": {"collection_times": [{"days": "Mon-Fri", "time": "12:00pm"}, {"days": "Sat", "time": "10:00am"}, {"days": "Sun", "time": "Closed"}], "id": "6080300036", "name": "USPS COLLECTION BOX - BLUE BOX", "address": {"city": "CHICAGO", "state": "IL", "street": "4050 W 115TH ST", "postcode": "60803"}}},
{"geometry": {"type": "Point", "coordinates": [-87.7195146841, 41.6742092136]}, "type": "Feature", "properties": {"collection_times": [{"days": "Mon-Fri", "time": "12:00pm"}, {"days": "Sat", "time": "10:00am"}, {"days": "Sun", "time": "Closed"}], "id": "6080300038", "name": "USPS COLLECTION BOX - BLUE BOX", "address": {"city": "CHICAGO", "state": "IL", "street": "12001 S PULASKI RD", "postcode": "60803"}}},
{"geometry": {"type": "Point", "coordinates": [-87.696449196, 41.6844801241]}, "type": "Feature", "properties": {"collection_times": [{"days": "Mon-Fri", "time": "12:00pm"}, {"days": "Sat", "time": "10:00am"}, {"days": "Sun", "time": "Closed"}], "id": "6080300039", "name": "USPS COLLECTION BOX - BLUE BOX", "address": {"city": "CHICAGO", "state": "IL", "street": "11468 S WHIPPLE ST", "postcode": "60803"}}},
{"geometry": {"type": "Point", "coordinates": [-87.750589679, 41.8619393473]}, "type": "Feature", "properties": {"collection_times": [{"days": "Mon-Fri", "time": "1:00pm"}, {"days": "Sat", "time": "10:00am"}, {"days": "Sun", "time": "Closed"}], "id": "6080400000", "name": "USPS COLLECTION BOX - BLUE BOX", "address": {"city": "CHICAGO", "state": "IL", "street": "1401 S 50TH AVE", "postcode": "60804"}}},
{"geometry": {"type": "Point", "coordinates": [-87.7629539661, 41.8621309866]}, "type": "Feature", "properties": {"collection_times": [{"days": "Mon-Fri", "time": "1:00pm"}, {"days": "Sat", "time": "10:00am"}, {"days": "Sun", "time": "Closed"}], "id": "6080400001", "name": "USPS COLLECTION BOX - BLUE BOX", "address": {"city": "CHICAGO", "state": "IL", "street": "1340 S 55TH CT", "postcode": "60804"}}},
{"geometry": {"type": "Point", "coordinates": [-87.7480983674, 41.8605138817]}, "type": "Feature", "properties": {"collection_times": [{"days": "Mon-Fri", "time": "1:00pm"}, {"days": "Sat", "time": "10:00am"}, {"days": "Sun", "time": "Closed"}], "id": "6080400005", "name": "USPS COLLECTION BOX - BLUE BOX", "address": {"city": "CHICAGO", "state": "IL", "street": "1447 S 49TH CT", "postcode": "60804"}}},
{"geometry": {"type": "Point", "coordinates": [-87.7703248845, 41.8582914219]}, "type": "Feature", "properties": {"collection_times": [{"days": "Mon-Fri", "time": "12:00pm"}, {"days": "Sat", "time": "10:00am"}, {"days": "Sun", "time": "Closed"}], "id": "6080400006", "name": "USPS COLLECTION BOX - BLUE BOX", "address": {"city": "CHICAGO", "state": "IL", "street": "5828 W 16TH ST", "postcode": "60804"}}},
{"geometry": {"type": "Point", "coordinates": [-87.7641038022, 41.8581243046]}, "type": "Feature", "properties": {"collection_times": [{"days": "Mon-Fri", "time": "12:00pm"}, {"days": "Sat", "time": "10:00am"}, {"days": "Sun", "time": "Closed"}], "id": "6080400008", "name": "USPS COLLECTION BOX - BLUE BOX", "address": {"city": "CHICAGO", "state": "IL", "street": "1600 S CENTRAL AVE", "postcode": "60804"}}},
{"geometry": {"type": "Point", "coordinates": [-87.7616827667, 41.8565641285]}, "type": "Feature", "properties": {"collection_times": [{"days": "Mon-Fri", "time": "1:00pm"}, {"days": "Sat", "time": "10:00am"}, {"days": "Sun", "time": "Closed"}], "id": "6080400010", "name": "USPS COLLECTION BOX - BLUE BOX", "address": {"city": "CHICAGO", "state": "IL", "street": "1698 S 55TH AVE", "postcode": "60804"}}},
{"geometry": {"type": "Point", "coordinates": [-87.7493404743, 41.8565060168]}, "type": "Feature", "properties": {"collection_times": [{"days": "Mon-Fri", "time": "1:00pm"}, {"days": "Sat", "time": "10:00am"}, {"days": "Sun", "time": "Closed"}], "id": "6080400011", "name": "USPS COLLECTION BOX - BLUE BOX", "address": {"city": "CHICAGO", "state": "IL", "street": "1801 S 50TH AVE", "postcode": "60804"}}},
{"geometry": {"type": "Point", "coordinates": [-87.7750225134, 41.8546475882]}, "type": "Feature", "properties": {"collection_times": [{"days": "Mon-Fri", "time": "12:00pm"}, {"days": "Sat", "time": "10:00am"}, {"days": "Sun", "time": "Closed"}], "id": "6080400013", "name": "USPS COLLECTION BOX - BLUE BOX", "address": {"city": "CHICAGO", "state": "IL", "street": "1844 S 60TH CT", "postcode": "60804"}}},
{"geometry": {"type": "Point", "coordinates": [-87.7540990509, 41.8547324836]}, "type": "Feature", "properties": {"collection_times": [{"days": "Mon-Fri", "time": "1:00pm"}, {"days": "Sat", "time": "10:00am"}, {"days": "Sun", "time": "Closed"}], "id": "6080400014", "name": "USPS COLLECTION BOX - BLUE BOX", "address": {"city": "CHICAGO", "state": "IL", "street": "1901 S LARAMIE AVE", "postcode": "60804"}}},
{"geometry": {"type": "Point", "coordinates": [-87.7408828346, 41.8541296607]}, "type": "Feature", "properties": {"collection_times": [{"days": "Mon-Fri", "time": "1:00pm"}, {"days": "Sat", "time": "10:00am"}, {"days": "Sun", "time": "Closed"}], "id": "6080400015", "name": "USPS COLLECTION BOX - BLUE BOX", "address": {"city": "CHICAGO", "state": "IL", "street": "4648 W 20TH ST", "postcode": "60804"}}},
{"geometry": {"type": "Point", "coordinates": [-87.7757228251, 41.9246610146]}, "type": "Feature", "properties": {"collection_times": [{"days": "Mon-Fri", "time": "1:00pm"}, {"days": "Sat", "time": "10:00am"}, {"days": "Sun", "time": "Closed"}], "id": "6080400018", "name": "USPS COLLECTION BOX - BLUE BOX", "address": {"city": "CHICAGO", "state": "IL", "street": "2425 S AUSTIN BLVD", "postcode": "60804"}}},
{"geometry": {"type": "Point", "coordinates": [-87.7687043777, 41.8463892939]}, "type": "Feature", "properties": {"collection_times": [{"days": "Mon-Fri", "time": "12:00pm"}, {"days": "Sat", "time": "10:00am"}, {"days": "Sun", "time": "Closed"}], "id": "6080400027", "name": "USPS COLLECTION BOX - BLUE BOX", "address": {"city": "CHICAGO", "state": "IL", "street": "2446 S 58TH AVE", "postcode": "60804"}}},
{"geometry": {"type": "Point", "coordinates": [-87.7441677871, 41.8458851139]}, "type": "Feature", "properties": {"collection_times": [{"days": "Mon-Fri", "time": "5:00pm"}, {"days": "Sat", "time": "10:00am"}, {"days": "Sun", "time": "Closed"}], "id": "6080400028", "name": "USPS COLLECTION BOX - BLUE BOX", "address": {"city": "CHICAGO", "state": "IL", "street": "4800 W 25TH ST", "postcode": "60804"}}},
{"geometry": {"type": "Point", "coordinates": [-87.766040306, 41.9253719729]}, "type": "Feature", "properties": {"collection_times": [{"days": "Mon-Sat", "time": "10:00am"}, {"days": "Sun", "time": "Closed"}], "id": "6080400029", "name": "USPS COLLECTION BOX - BLUE BOX", "address": {"city": "CHICAGO", "state": "IL", "street": "2447 S CENTRAL AVE", "postcode": "60804"}}},
{"geometry": {"type": "Point", "coordinates": [-87.7735692696, 41.8435288261]}, "type": "Feature", "properties": {"collection_times": [{"days": "Mon-Fri", "time": "9:00am"}, {"days": "Sat", "time": "10:00am"}, {"days": "Sun", "time": "Closed"}], "id": "6080400030", "name": "USPS COLLECTION BOX - BLUE BOX", "address": {"city": "CHICAGO", "state": "IL", "street": "2600 S AUSTIN BLVD", "postcode": "60804"}}},
{"geometry": {"type": "Point", "coordinates": [-87.7769888729, 41.8407741429]}, "type": "Feature", "properties": {"collection_times": [{"days": "Mon-Fri", "time": "1:00pm"}, {"days": "Sat", "time": "10:00am"}, {"days": "Sun", "time": "Closed"}], "id": "6080400031", "name": "USPS COLLECTION BOX - BLUE BOX", "address": {"city": "CHICAGO", "state": "IL", "street": "2747 S 61ST CT", "postcode": "60804"}}},
{"geometry": {"type": "Point", "coordinates": [-87.747071559, 41.8400593383]}, "type": "Feature", "properties": {"collection_times": [{"days": "Mon-Sat", "time": "10:00am"}, {"days": "Sun", "time": "Closed"}], "id": "6080400032", "name": "USPS COLLECTION BOX - BLUE BOX", "address": {"city": "CHICAGO", "state": "IL", "street": "2901 S 49TH AVE", "postcode": "60804"}}},
{"geometry": {"type": "Point", "coordinates": [-87.7454426245, 41.8381393959]}, "type": "Feature", "properties": {"collection_times": [{"days": "Mon-Fri", "time": "12:00pm"}, {"days": "Sat", "time": "10:00am"}, {"days": "Sun", "time": "Closed"}], "id": "6080400034", "name": "USPS COLLECTION BOX - BLUE BOX", "address": {"city": "CHICAGO", "state": "IL", "street": "3000 S 48TH CT", "postcode": "60804"}}},
{"geometry": {"type": "Point", "coordinates": [-87.7469264651, 41.8354222896]}, "type": "Feature", "properties": {"collection_times": [{"days": "Mon-Sat", "time": "10:00am"}, {"days": "Sun", "time": "Closed"}], "id": "6080400038", "name": "USPS COLLECTION BOX - BLUE BOX", "address": {"city": "CHICAGO", "state": "IL", "street": "3145 S 49TH AVE", "postcode": "60804"}}},
{"geometry": {"type": "Point", "coordinates": [-87.7665915649, 41.941946411]}, "type": "Feature", "properties": {"collection_times": [{"days": "Mon-Fri", "time": "12:00pm"}, {"days": "Sat", "time": "10:00am"}, {"days": "Sun", "time": "Closed"}], "id": "6080400041", "name": "USPS COLLECTION BOX - BLUE BOX", "address": {"city": "CHICAGO", "state": "IL", "street": "3344 S CENTRAL AVE", "postcode": "60804"}}},
{"geometry": {"type": "Point", "coordinates": [-87.6324457446, 41.8842536651]}, "type": "Feature", "properties": {"collection_times": [{"days": "Mon-Fri", "time": "1:00pm"}, {"days": "Sat", "time": "10:00am"}, {"days": "Sun", "time": "Closed"}], "id": "6080400043", "name": "USPS COLLECTION BOX - BLUE BOX", "address": {"city": "CHICAGO", "state": "IL", "street": "3501 S 59TH CT", "postcode": "60804"}}},
{"geometry": {"type": "Point", "coordinates": [-87.7694956312, 41.8289448057]}, "type": "Feature", "properties": {"collection_times": [{"days": "Mon-Fri", "time": "1:00pm"}, {"days": "Sat", "time": "10:00am"}, {"days": "Sun", "time": "Closed"}], "id": "6080400045", "name": "USPS COLLECTION BOX - BLUE BOX", "address": {"city": "CHICAGO", "state": "IL", "street": "3500 S 58TH CT", "postcode": "60804"}}},
{"geometry": {"type": "Point", "coordinates": [-87.7620685455, 41.8254046752]}, "type": "Feature", "properties": {"collection_times": [{"days": "Mon-Fri", "time": "12:00pm"}, {"days": "Sat", "time": "10:00am"}, {"days": "Sun", "time": "Closed"}], "id": "6080400047", "name": "USPS COLLECTION BOX - BLUE BOX", "address": {"city": "CHICAGO", "state": "IL", "street": "5531 W 37TH ST", "postcode": "60804"}}},
{"geometry": {"type": "Point", "coordinates": [-87.7688812575, 41.8250779172]}, "type": "Feature", "properties": {"collection_times": [{"days": "Mon-Fri", "time": "12:00pm"}, {"days": "Sat", "time": "10:00am"}, {"days": "Sun", "time": "Closed"}], "id": "6080400048", "name": "USPS COLLECTION BOX - BLUE BOX", "address": {"city": "CHICAGO", "state": "IL", "street": "3701 S 58TH CT", "postcode": "60804"}}},
{"geometry": {"type": "Point", "coordinates": [-87.7644315571, 41.8243907008]}, "type": "Feature", "properties": {"collection_times": [{"days": "Mon-Fri", "time": "12:00pm"}, {"days": "Sat", "time": "10:00am"}, {"days": "Sun", "time": "Closed"}], "id": "6080400049", "name": "USPS COLLECTION BOX - BLUE BOX", "address": {"city": "CHICAGO", "state": "IL", "street": "3756 S 56TH CT", "postcode": "60804"}}},
{"geometry": {"type": "Point", "coordinates": [-87.7432638386, 41.8511837828]}, "type": "Feature", "properties": {"collection_times": [{"days": "Mon-Fri", "time": "1:00pm"}, {"days": "Sat", "time": "10:00am"}, {"days": "Sun", "time": "Closed"}], "id": "6080400050", "name": "USPS COLLECTION BOX - BLUE BOX", "address": {"city": "CHICAGO", "state": "IL", "street": "4739 W CERMAK RD", "postcode": "60804"}}},
{"geometry": {"type": "Point", "coordinates": [-87.7587580698, 41.8426250859]}, "type": "Feature", "properties": {"collection_times": [{"days": "Mon-Fri", "time": "1:00pm"}, {"days": "Sat", "time": "10:00am"}, {"days": "Sun", "time": "Closed"}], "id": "6080400055", "name": "USPS COLLECTION BOX - BLUE BOX", "address": {"city": "CHICAGO", "state": "IL", "street": "5420 W ROOSEVELT N", "postcode": "60804"}}},
{"geometry": {"type": "Point", "coordinates": [-87.7618208247, 41.8379740544]}, "type": "Feature", "properties": {"collection_times": [{"days": "Mon-Fri", "time": "1:00pm"}, {"days": "Sat", "time": "10:00am"}, {"days": "Sun", "time": "Closed"}], "id": "6080400056", "name": "USPS COLLECTION BOX - BLUE BOX", "address": {"city": "CHICAGO", "state": "IL", "street": "5501 W OGDEN AVE", "postcode": "60804"}}},
{"geometry": {"type": "Point", "coordinates": [-87.7755441983, 41.8507757635]}, "type": "Feature", "properties": {"collection_times": [{"days": "Mon-Fri", "time": "1:00pm"}, {"days": "Sat", "time": "10:00am"}, {"days": "Sun", "time": "Closed"}], "id": "6080400058", "name": "USPS COLLECTION BOX - BLUE BOX", "address": {"city": "CHICAGO", "state": "IL", "street": "6041 W CERMAK RD", "postcode": "60804"}}},
{"geometry": {"type": "Point", "coordinates": [-87.7766182248, 41.865383231]}, "type": "Feature", "properties": {"collection_times": [{"days": "Mon-Fri", "time": "12:00pm"}, {"days": "Sat", "time": "10:00am"}, {"days": "Sun", "time": "Closed"}], "id": "6080400059", "name": "USPS COLLECTION BOX - BLUE BOX", "address": {"city": "CHICAGO", "state": "IL", "street": "1200 S 61ST AVE", "postcode": "60804"}}},
{"geometry": {"type": "Point", "coordinates": [-87.7591625826, 41.8510123553]}, "type": "Feature", "properties": {"collection_times": [{"days": "Mon-Fri", "time": "1:00pm"}, {"days": "Sat", "time": "10:00am"}, {"days": "Sun", "time": "Closed"}], "id": "6080400064", "name": "USPS COLLECTION BOX - BLUE BOX", "address": {"city": "CHICAGO", "state": "IL", "street": "5401 W CERMAK RD", "postcode": "60804"}}},
{"geometry": {"type": "Point", "coordinates": [-87.7691278289, 41.8508727662]}, "type": "Feature", "properties": {"collection_times": [{"days": "Mon-Fri", "time": "1:00pm"}, {"days": "Sat", "time": "10:00am"}, {"days": "Sun", "time": "Closed"}], "id": "6080400067", "name": "USPS COLLECTION BOX - BLUE BOX", "address": {"city": "CHICAGO", "state": "IL", "street": "5801 W CERMAK RD", "postcode": "60804"}}},
{"geometry": {"type": "Point", "coordinates": [-87.7712697581, 41.8510006767]}, "type": "Feature", "properties": {"collection_times": [{"days": "Mon-Fri", "time": "1:00pm"}, {"days": "Sat", "time": "10:00am"}, {"days": "Sun", "time": "Closed"}], "id": "6080400068", "name": "USPS COLLECTION BOX - BLUE BOX", "address": {"city": "CHICAGO", "state": "IL", "street": "5900 W CERMAK RD", "postcode": "60804"}}},
{"geometry": {"type": "Point", "coordinates": [-87.7736966046, 41.8509655347]}, "type": "Feature", "properties": {"collection_times": [{"days": "Mon-Fri", "time": "1:00pm"}, {"days": "Sat", "time": "10:00am"}, {"days": "Sun", "time": "Closed"}], "id": "6080400069", "name": "USPS COLLECTION BOX - BLUE BOX", "address": {"city": "CHICAGO", "state": "IL", "street": "6000 W CERMAK RD", "postcode": "60804"}}},
{"geometry": {"type": "Point", "coordinates": [-87.7638079429, 41.8509339488]}, "type": "Feature", "properties": {"collection_times": [{"days": "Mon-Fri", "time": "12:00pm"}, {"days": "Sat", "time": "10:00am"}, {"days": "Sun", "time": "Closed"}], "id": "6080400070", "name": "USPS COLLECTION BOX - BLUE BOX", "address": {"city": "CHICAGO", "state": "IL", "street": "2201 S CENTRAL AVE", "postcode": "60804"}}},
{"geometry": {"type": "Point", "coordinates": [-87.7449150248, 41.8513246565]}, "type": "Feature", "properties": {"collection_times": [{"days": "Mon-Fri", "time": "1:00pm"}, {"days": "Sat", "time": "10:00am"}, {"days": "Sun", "time": "Closed"}], "id": "6080400071", "name": "USPS COLLECTION BOX - BLUE BOX", "address": {"city": "CHICAGO", "state": "IL", "street": "4800 W CERMAK RD", "postcode": "60804"}}},
{"geometry": {"type": "Point", "coordinates": [-87.7540108203, 41.8510678251]}, "type": "Feature", "properties": {"collection_times": [{"days": "Mon-Fri", "time": "1:00pm"}, {"days": "Sat", "time": "10:00am"}, {"days": "Sun", "time": "Closed"}], "id": "6080400072", "name": "USPS COLLECTION BOX - BLUE BOX", "address": {"city": "CHICAGO", "state": "IL", "street": "2201 S LARAMIE AVE", "postcode": "60804"}}},
{"geometry": {"type": "Point", "coordinates": [-87.7777463646, 41.8509036114]}, "type": "Feature", "properties": {"collection_times": [{"days": "Mon-Fri", "time": "1:00pm"}, {"days": "Sat", "time": "10:00am"}, {"days": "Sun", "time": "Closed"}], "id": "6080400073", "name": "USPS COLLECTION BOX - BLUE BOX", "address": {"city": "CHICAGO", "state": "IL", "street": "6150 W CERMAK RD", "postcode": "60804"}}},
{"geometry": {"type": "Point", "coordinates": [-87.7692513855, 41.8654901535]}, "type": "Feature", "properties": {"collection_times": [{"days": "Mon-Fri", "time": "1:00pm"}, {"days": "Sat", "time": "10:00am"}, {"days": "Sun", "time": "Closed"}], "id": "6080400077", "name": "USPS COLLECTION BOX - BLUE BOX", "address": {"city": "CHICAGO", "state": "IL", "street": "1200 S 58TH AVE", "postcode": "60804"}}},
{"geometry": {"type": "Point", "coordinates": [-87.75439959, 41.864258728]}, "type": "Feature", "properties": {"collection_times": [{"days": "Mon-Fri", "time": "12:00pm"}, {"days": "Sat", "time": "10:00am"}, {"days": "Sun", "time": "Closed"}], "id": "6080400078", "name": "USPS COLLECTION BOX - BLUE BOX", "address": {"city": "CHICAGO", "state": "IL", "street": "1201 S LARAMIE AVE", "postcode": "60804"}}},
{"geometry": {"type": "Point", "coordinates": [-87.7587580698, 41.8426250859]}, "type": "Feature", "properties": {"collection_times": [{"days": "Mon-Fri", "time": "1:00pm"}, {"days": "Sat", "time": "10:00am"}, {"days": "Sun", "time": "Closed"}], "id": "6080400079", "name": "USPS COLLECTION BOX - BLUE BOX", "address": {"city": "CHICAGO", "state": "IL", "street": "5960 W ROOSEVELT SW", "postcode": "60804"}}},
{"geometry": {"type": "Point", "coordinates": [-87.7543857943, 41.8624184457]}, "type": "Feature", "properties": {"collection_times": [{"days": "Mon-Fri", "time": "12:00pm"}, {"days": "Sat", "time": "10:00am"}, {"days": "Sun", "time": "Closed"}], "id": "6080400080", "name": "USPS COLLECTION BOX - BLUE BOX", "address": {"city": "CHICAGO", "state": "IL", "street": "1347 S LARAMIE AVE", "postcode": "60804"}}},
{"geometry": {"type": "Point", "coordinates": [-87.75961329, 41.8290034038]}, "type": "Feature", "properties": {"collection_times": [{"days": "Mon-Fri", "time": "1:00pm"}, {"days": "Sat", "time": "10:00am"}, {"days": "Sun", "time": "Closed"}], "id": "6080400081", "name": "USPS COLLECTION BOX - BLUE BOX", "address": {"city": "CHICAGO", "state": "IL", "street": "3501 S 54TH AVE", "postcode": "60804"}}},
{"geometry": {"type": "Point", "coordinates": [-87.7569551812, 41.9473442527]}, "type": "Feature", "properties": {"collection_times": [{"days": "Mon-Fri", "time": "1:00pm"}, {"days": "Sat", "time": "10:00am"}, {"days": "Sun", "time": "Closed"}], "id": "6080400082", "name": "USPS COLLECTION BOX - BLUE BOX", "address": {"city": "CHICAGO", "state": "IL", "street": "3644 S LARAMIE AVE", "postcode": "60804"}}},
{"geometry": {"type": "Point", "coordinates": [-87.7779743656, 41.8315537224]}, "type": "Feature", "properties": {"collection_times": [{"days": "Mon-Fri", "time": "12:00pm"}, {"days": "Sat", "time": "10:00am"}, {"days": "Sun", "time": "Closed"}], "id": "6080400083", "name": "USPS COLLECTION BOX - BLUE BOX", "address": {"city": "CHICAGO", "state": "IL", "street": "3347 S LOMBARD AVE", "postcode": "60804"}}},
{"geometry": {"type": "Point", "coordinates": [-87.7587580698, 41.8426250859]}, "type": "Feature", "properties": {"collection_times": [{"days": "Mon-Fri", "time": "1:00pm"}, {"days": "Sat", "time": "10:00am"}, {"days": "Sun", "time": "Closed"}], "id": "6080400092", "name": "USPS COLLECTION BOX - BLUE BOX", "address": {"city": "CHICAGO", "state": "IL", "street": "5000 W ROOSEVELT NW", "postcode": "60804"}}},
{"geometry": {"type": "Point", "coordinates": [-87.7536854826, 41.8381228344]}, "type": "Feature", "properties": {"collection_times": [{"days": "Mon-Sat", "time": "10:00am"}, {"days": "Sun", "time": "Closed"}], "id": "6080400093", "name": "USPS COLLECTION BOX - BLUE BOX", "address": {"city": "CHICAGO", "state": "IL", "street": "3000 S LARAMIE AVE", "postcode": "60804"}}},
{"geometry": {"type": "Point", "coordinates": [-87.753865115, 41.8463964298]}, "type": "Feature", "properties": {"collection_times": [{"days": "Mon-Fri", "time": "5:00pm"}, {"days": "Sat", "time": "2:30pm"}, {"days": "Sun", "time": "Closed"}], "id": "6080400094", "name": "USPS COLLECTION BOX - BLUE BOX", "address": {"city": "CHICAGO", "state": "IL", "street": "2437 S LARAMIE AVE", "postcode": "60804"}}},
{"geometry": {"type": "Point", "coordinates": [-87.753865115, 41.8463964298]}, "type": "Feature", "properties": {"collection_times": [{"days": "Mon-Fri", "time": "5:00pm"}, {"days": "Sat", "time": "2:30pm"}, {"days": "Sun", "time": "Closed"}], "id": "6080400095", "name": "USPS COLLECTION BOX - BLUE BOX", "address": {"city": "CHICAGO", "state": "IL", "street": "2437 S LARAMIE AVE", "postcode": "60804"}}},
{"geometry": {"type": "Point", "coordinates": [-87.7591634627, 41.8596971153]}, "type": "Feature", "properties": {"collection_times": [{"days": "Mon-Fri", "time": "12:00pm"}, {"days": "Sat", "time": "10:00am"}, {"days": "Sun", "time": "Closed"}], "id": "6080400096", "name": "USPS COLLECTION BOX - BLUE BOX", "address": {"city": "CHICAGO", "state": "IL", "street": "1543 S 54TH AVE", "postcode": "60804"}}},
{"geometry": {"type": "Point", "coordinates": [-87.7649046654, 41.8290590028]}, "type": "Feature", "properties": {"collection_times": [{"days": "Mon-Fri", "time": "12:00pm"}, {"days": "Sat", "time": "10:00am"}, {"days": "Sun", "time": "Closed"}], "id": "6080400104", "name": "USPS COLLECTION BOX - BLUE BOX", "address": {"city": "CHICAGO", "state": "IL", "street": "5631 W 35TH ST", "postcode": "60804"}}},
{"geometry": {"type": "Point", "coordinates": [-87.7016959683, 41.7124767079]}, "type": "Feature", "properties": {"collection_times": [{"days": "Mon-Sat", "time": "12:00pm"}, {"days": "Sun", "time": "Closed"}], "id": "6080500000", "name": "USPS COLLECTION BOX - BLUE BOX", "address": {"city": "CHICAGO", "state": "IL", "street": "9950 S KEDZIE AVE", "postcode": "60805"}}},
{"geometry": {"type": "Point", "coordinates": [-87.701530173, 41.7091427879]}, "type": "Feature", "properties": {"collection_times": [{"days": "Mon-Sat", "time": "12:00pm"}, {"days": "Sun", "time": "Closed"}], "id": "6080500002", "name": "USPS COLLECTION BOX - BLUE BOX", "address": {"city": "CHICAGO", "state": "IL", "street": "10124 S KEDZIE AVE", "postcode": "60805"}}},
{"geometry": {"type": "Point", "coordinates": [-87.7084304541, 41.7170649456]}, "type": "Feature", "properties": {"collection_times": [{"days": "Mon-Sat", "time": "12:00pm"}, {"days": "Sun", "time": "Closed"}], "id": "6080500006", "name": "USPS COLLECTION BOX - BLUE BOX", "address": {"city": "CHICAGO", "state": "IL", "street": "3450 W 97TH ST", "postcode": "60805"}}},
{"geometry": {"type": "Point", "coordinates": [-87.6923928297, 41.7354147882]}, "type": "Feature", "properties": {"collection_times": [{"days": "Mon-Sat", "time": "12:00pm"}, {"days": "Sun", "time": "Closed"}], "id": "6080500007", "name": "USPS COLLECTION BOX - BLUE BOX", "address": {"city": "CHICAGO", "state": "IL", "street": "2800 W 87TH ST", "postcode": "60805"}}},
{"geometry": {"type": "Point", "coordinates": [-87.6922615213, 41.732393511]}, "type": "Feature", "properties": {"collection_times": [{"days": "Mon-Sat", "time": "12:00pm"}, {"days": "Sun", "time": "Closed"}], "id": "6080500010", "name": "USPS COLLECTION BOX - BLUE BOX", "address": {"city": "CHICAGO", "state": "IL", "street": "8859 S CALIFORNIA AVE", "postcode": "60805"}}},
{"geometry": {"type": "Point", "coordinates": [-87.6957322967, 41.7280093908]}, "type": "Feature", "properties": {"collection_times": [{"days": "Mon-Sat", "time": "12:00pm"}, {"days": "Sun", "time": "Closed"}], "id": "6080500012", "name": "USPS COLLECTION BOX - BLUE BOX", "address": {"city": "CHICAGO", "state": "IL", "street": "9101 S RICHMOND AVE", "postcode": "60805"}}},
{"geometry": {"type": "Point", "coordinates": [-87.7189336971, 41.7221455375]}, "type": "Feature", "properties": {"collection_times": [{"days": "Mon-Sat", "time": "12:00pm"}, {"days": "Sun", "time": "Closed"}], "id": "6080500022", "name": "USPS COLLECTION BOX - BLUE BOX", "address": {"city": "CHICAGO", "state": "IL", "street": "9401 S SPRINGFIELD AVE", "postcode": "60805"}}},
{"geometry": {"type": "Point", "coordinates": [-87.7019538073, 41.720623]}, "type": "Feature", "properties": {"collection_times": [{"days": "Mon-Sat", "time": "12:00pm"}, {"days": "Sun", "time": "Closed"}], "id": "6080500023", "name": "USPS COLLECTION BOX - BLUE BOX", "address": {"city": "CHICAGO", "state": "IL", "street": "3201 W 95TH ST", "postcode": "60805"}}},
{"geometry": {"type": "Point", "coordinates": [-87.7111220811, 41.720672184]}, "type": "Feature", "properties": {"collection_times": [{"days": "Mon-Sat", "time": "12:00pm"}, {"days": "Sun", "time": "Closed"}], "id": "6080500025", "name": "USPS COLLECTION BOX - BLUE BOX", "address": {"city": "CHICAGO", "state": "IL", "street": "3580 W 95TH ST", "postcode": "60805"}}},
{"geometry": {"type": "Point", "coordinates": [-87.6959381577, 41.7208466486]}, "type": "Feature", "properties": {"collection_times": [{"days": "Mon-Sat", "time": "12:00pm"}, {"days": "Sun", "time": "Closed"}], "id": "6080500037", "name": "USPS COLLECTION BOX - BLUE BOX", "address": {"city": "CHICAGO", "state": "IL", "street": "2940 W 95TH ST", "postcode": "60805"}}},
{"geometry": {"type": "Point", "coordinates": [-87.6918190946, 41.7161999858]}, "type": "Feature", "properties": {"collection_times": [{"days": "Mon-Sat", "time": "12:00pm"}, {"days": "Sun", "time": "Closed"}], "id": "6080500042", "name": "USPS COLLECTION BOX - BLUE BOX", "address": {"city": "CHICAGO", "state": "IL", "street": "9738 S CALIFORNIA AVE", "postcode": "60805"}}},
{"geometry": {"type": "Point", "coordinates": [-87.7064115925, 41.7133386477]}, "type": "Feature", "properties": {"collection_times": [{"days": "Mon-Sat", "time": "12:00pm"}, {"days": "Sun", "time": "Closed"}], "id": "6080500045", "name": "USPS COLLECTION BOX - BLUE BOX", "address": {"city": "CHICAGO", "state": "IL", "street": "9901 S HOMAN AVE", "postcode": "60805"}}},
{"geometry": {"type": "Point", "coordinates": [-87.7019950453, 41.722520078]}, "type": "Feature", "properties": {"collection_times": [{"days": "Mon-Sat", "time": "12:00pm"}, {"days": "Sun", "time": "Closed"}], "id": "6080500052", "name": "USPS COLLECTION BOX - BLUE BOX", "address": {"city": "CHICAGO", "state": "IL", "street": "9420 S KEDZIE AVE", "postcode": "60805"}}},
{"geometry": {"type": "Point", "coordinates": [-87.700734894, 41.7225245258]}, "type": "Feature", "properties": {"collection_times": [{"days": "Mon-Fri", "time": "5:00pm"}, {"days": "Sat", "time": "2:30pm"}, {"days": "Sun", "time": "Closed"}], "id": "6080500055", "name": "USPS COLLECTION BOX - BLUE BOX", "address": {"city": "CHICAGO", "state": "IL", "street": "9400 S TROY AVE", "postcode": "60805"}}},
{"geometry": {"type": "Point", "coordinates": [-87.700734894, 41.7225245258]}, "type": "Feature", "properties": {"collection_times": [{"days": "Mon-Fri", "time": "5:00pm"}, {"days": "Sat", "time": "2:30pm"}, {"days": "Sun", "time": "Closed"}], "id": "6080500056", "name": "USPS COLLECTION BOX - BLUE BOX", "address": {"city": "CHICAGO", "state": "IL", "street": "9400 S TROY AVE", "postcode": "60805"}}},
{"geometry": {"type": "Point", "coordinates": [-87.6820880202, 41.7167217606]}, "type": "Feature", "properties": {"collection_times": [{"days": "Mon-Sat", "time": "12:00pm"}, {"days": "Sun", "time": "Closed"}], "id": "6080500061", "name": "USPS COLLECTION BOX - BLUE BOX", "address": {"city": "CHICAGO", "state": "IL", "street": "9730 S WESTERN AVE", "postcode": "60805"}}},
{"geometry": {"type": "Point", "coordinates": [-87.7018054355, 41.7233037146]}, "type": "Feature", "properties": {"collection_times": [{"days": "Mon-Fri", "time": "5:00pm"}, {"days": "Sat", "time": "2:00pm"}, {"days": "Sun", "time": "Closed"}], "id": "6080500062", "name": "USPS COLLECTION BOX - APC", "address": {"city": "CHICAGO", "state": "IL", "street": "9359 S KEDZIE AVE", "postcode": "60805"}}},
{"geometry": {"type": "Point", "coordinates": [-87.7057615622, 41.7206315436]}, "type": "Feature", "properties": {"collection_times": [{"days": "Mon-Sat", "time": "12:00pm"}, {"days": "Sun", "time": "Closed"}], "id": "6080500066", "name": "USPS COLLECTION BOX - BLUE BOX", "address": {"city": "CHICAGO", "state": "IL", "street": "3347 W 95TH ST", "postcode": "60805"}}},
{"geometry": {"type": "Point", "coordinates": [-87.7113958825, 41.7206076909]}, "type": "Feature", "properties": {"collection_times": [{"days": "Mon-Sat", "time": "12:00pm"}, {"days": "Sun", "time": "Closed"}], "id": "6080500067", "name": "USPS COLLECTION BOX - BLUE BOX", "address": {"city": "CHICAGO", "state": "IL", "street": "3545 W 95TH ST", "postcode": "60805"}}},
{"geometry": {"type": "Point", "coordinates": [-87.7112944858, 41.7132720328]}, "type": "Feature", "properties": {"collection_times": [{"days": "Mon-Sat", "time": "12:00pm"}, {"days": "Sun", "time": "Closed"}], "id": "6080500068", "name": "USPS COLLECTION BOX - BLUE BOX", "address": {"city": "CHICAGO", "state": "IL", "street": "9901 S CENTRAL PARK AVE", "postcode": "60805"}}},
{"geometry": {"type": "Point", "coordinates": [-87.7052634233, 41.7225252673]}, "type": "Feature", "properties": {"collection_times": [{"days": "Mon-Sat", "time": "12:00pm"}, {"days": "Sun", "time": "Closed"}], "id": "6080500069", "name": "USPS COLLECTION BOX - BLUE BOX", "address": {"city": "CHICAGO", "state": "IL", "street": "3300 W 95TH ST", "postcode": "60805"}}},
{"geometry": {"type": "Point", "coordinates": [-87.6154655598, 41.6586472117]}, "type": "Feature", "properties": {"collection_times": [{"days": "Mon-Fri", "time": "12:00pm"}, {"days": "Sat", "time": "10:00am"}, {"days": "Sun", "time": "Closed"}], "id": "6082700000", "name": "USPS COLLECTION BOX - BLUE BOX", "address": {"city": "CALUMET PARK", "state": "IL", "street": "13037 S DANIEL DR", "postcode": "60827"}}},
{"geometry": {"type": "Point", "coordinates": [-87.597466, 41.656803]}, "type": "Feature", "properties": {"collection_times": [{"days": "Mon-Fri", "time": "12:00pm"}, {"days": "Sat", "time": "10:00am"}, {"days": "Sun", "time": "Closed"}], "id": "6082700002", "name": "USPS COLLECTION BOX - BLUE BOX", "address": {"city": "CALUMET PARK", "state": "IL", "street": "13122 S ELLIS AVE", "postcode": "60827"}}},
{"geometry": {"type": "Point", "coordinates": [-87.6049339818, 41.6542934343]}, "type": "Feature", "properties": {"collection_times": [{"days": "Mon-Fri", "time": "12:00pm"}, {"days": "Sat", "time": "10:00am"}, {"days": "Sun", "time": "Closed"}], "id": "6082700003", "name": "USPS COLLECTION BOX - BLUE BOX", "address": {"city": "CALUMET PARK", "state": "IL", "street": "700 E 133RD ST", "postcode": "60827"}}},
{"geometry": {"type": "Point", "coordinates": [-87.6172524592, 41.6530749295]}, "type": "Feature", "properties": {"collection_times": [{"days": "Mon-Fri", "time": "12:00pm"}, {"days": "Sat", "time": "10:00am"}, {"days": "Sun", "time": "Closed"}], "id": "6082700004", "name": "USPS COLLECTION BOX - BLUE BOX", "address": {"city": "CALUMET PARK", "state": "IL", "street": "13300 S INDIANA AVE", "postcode": "60827"}}},
{"geometry": {"type": "Point", "coordinates": [-87.6173122911, 41.646730795]}, "type": "Feature", "properties": {"collection_times": [{"days": "Mon-Fri", "time": "5:00pm"}, {"days": "Sat", "time": "10:00am"}, {"days": "Sun", "time": "Closed"}], "id": "6082700005", "name": "USPS COLLECTION BOX - BLUE BOX", "address": {"city": "CALUMET PARK", "state": "IL", "street": "13700 S INDIANA AVE", "postcode": "60827"}}},
{"geometry": {"type": "Point", "coordinates": [-87.6269898216, 41.6445301619]}, "type": "Feature", "properties": {"collection_times": [{"days": "Mon-Fri", "time": "5:00pm"}, {"days": "Sat", "time": "10:00am"}, {"days": "Sun", "time": "Closed"}], "id": "6082700008", "name": "USPS COLLECTION BOX - BLUE BOX", "address": {"city": "CALUMET PARK", "state": "IL", "street": "13800 S WENTWORTH AVE", "postcode": "60827"}}},
{"geometry": {"type": "Point", "coordinates": [-87.61724, 41.63343]}, "type": "Feature", "properties": {"collection_times": [{"days": "Mon-Fri", "time": "12:00pm"}, {"days": "Sat", "time": "10:00am"}, {"days": "Sun", "time": "Closed"}], "id": "6082700010", "name": "USPS COLLECTION BOX - BLUE BOX", "address": {"city": "CALUMET PARK", "state": "IL", "street": "14400 S INDIANA AVE", "postcode": "60827"}}},
{"geometry": {"type": "Point", "coordinates": [-87.6327279284, 41.6335478258]}, "type": "Feature", "properties": {"collection_times": [{"days": "Mon-Fri", "time": "12:00pm"}, {"days": "Sat", "time": "10:00am"}, {"days": "Sun", "time": "Closed"}], "id": "6082700012", "name": "USPS COLLECTION BOX - BLUE BOX", "address": {"city": "CALUMET PARK", "state": "IL", "street": "419 W 144TH ST", "postcode": "60827"}}},
{"geometry": {"type": "Point", "coordinates": [-87.6360062991, 41.6333833584]}, "type": "Feature", "properties": {"collection_times": [{"days": "Mon-Fri", "time": "12:00pm"}, {"days": "Sat", "time": "10:00am"}, {"days": "Sun", "time": "Closed"}], "id": "6082700013", "name": "USPS COLLECTION BOX - BLUE BOX", "address": {"city": "CALUMET PARK", "state": "IL", "street": "560 W 144TH ST", "postcode": "60827"}}},
{"geometry": {"type": "Point", "coordinates": [-87.6272147387, 41.6334045386]}, "type": "Feature", "properties": {"collection_times": [{"days": "Mon-Fri", "time": "5:00pm"}, {"days": "Sat", "time": "10:00am"}, {"days": "Sun", "time": "Closed"}], "id": "6082700014", "name": "USPS COLLECTION BOX - BLUE BOX", "address": {"city": "CALUMET PARK", "state": "IL", "street": "208 W 144TH ST", "postcode": "60827"}}},
{"geometry": {"type": "Point", "coordinates": [-87.6393716026, 41.644575986]}, "type": "Feature", "properties": {"collection_times": [{"days": "Mon-Fri", "time": "5:00pm"}, {"days": "Sat", "time": "1:30pm"}, {"days": "Sun", "time": "Closed"}], "id": "6082700017", "name": "USPS COLLECTION BOX - BLUE BOX", "address": {"city": "CALUMET PARK", "state": "IL", "street": "661 W 138TH ST", "postcode": "60827"}}},
{"geometry": {"type": "Point", "coordinates": [-87.6104362497, 41.6552598547]}, "type": "Feature", "properties": {"collection_times": [{"days": "Mon-Fri", "time": "12:00pm"}, {"days": "Sat", "time": "10:00am"}, {"days": "Sun", "time": "Closed"}], "id": "6082700018", "name": "USPS COLLECTION BOX - BLUE BOX", "address": {"city": "CALUMET PARK", "state": "IL", "street": "13172 S EBERHART AVE", "postcode": "60827"}}},
{"geometry": {"type": "Point", "coordinates": [-87.652845287, 41.6631211643]}, "type": "Feature", "properties": {"collection_times": [{"days": "Mon-Fri", "time": "5:00pm"}, {"days": "Sat", "time": "10:00am"}, {"days": "Sun", "time": "Closed"}], "id": "6082700022", "name": "USPS COLLECTION BOX - BLUE BOX", "address": {"city": "CALUMET PARK", "state": "IL", "street": "1258 W 127TH ST", "postcode": "60827"}}},
{"geometry": {"type": "Point", "coordinates": [-87.6646559698, 41.6636428766]}, "type": "Feature", "properties": {"collection_times": [{"days": "Mon-Fri", "time": "12:00pm"}, {"days": "Sat", "time": "10:00am"}, {"days": "Sun", "time": "Closed"}], "id": "6082700023", "name": "USPS COLLECTION BOX - BLUE BOX", "address": {"city": "CALUMET PARK", "state": "IL", "street": "12658 S PAGE ST", "postcode": "60827"}}},
{"geometry": {"type": "Point", "coordinates": [-87.66099, 41.667084]}, "type": "Feature", "properties": {"collection_times": [{"days": "Mon-Fri", "time": "12:00pm"}, {"days": "Sat", "time": "10:00am"}, {"days": "Sun", "time": "Closed"}], "id": "6082700024", "name": "USPS COLLECTION BOX - BLUE BOX", "address": {"city": "CALUMET PARK", "state": "IL", "street": "12457 S ASHLAND AVE", "postcode": "60827"}}},
{"geometry": {"type": "Point", "coordinates": [-87.6537183523, 41.666552381]}, "type": "Feature", "properties": {"collection_times": [{"days": "Mon-Fri", "time": "12:00pm"}, {"days": "Sat", "time": "10:00am"}, {"days": "Sun", "time": "Closed"}], "id": "6082700025", "name": "USPS COLLECTION BOX - BLUE BOX", "address": {"city": "CALUMET PARK", "state": "IL", "street": "12500 S THROOP ST", "postcode": "60827"}}},
{"geometry": {"type": "Point", "coordinates": [-87.6477101037, 41.6687278425]}, "type": "Feature", "properties": {"collection_times": [{"days": "Mon-Fri", "time": "12:00pm"}, {"days": "Sat", "time": "10:00am"}, {"days": "Sun", "time": "Closed"}], "id": "6082700026", "name": "USPS COLLECTION BOX - BLUE BOX", "address": {"city": "CALUMET PARK", "state": "IL", "street": "12358 S CARPENTER ST", "postcode": "60827"}}},
{"geometry": {"type": "Point", "coordinates": [-87.6550761885, 41.6684488237]}, "type": "Feature", "properties": {"collection_times": [{"days": "Mon-Fri", "time": "12:00pm"}, {"days": "Sat", "time": "10:00am"}, {"days": "Sun", "time": "Closed"}], "id": "6082700027", "name": "USPS COLLECTION BOX - BLUE BOX", "address": {"city": "CALUMET PARK", "state": "IL", "street": "12400 S ADA ST", "postcode": "60827"}}},
{"geometry": {"type": "Point", "coordinates": [-87.6526158345, 41.6700740498]}, "type": "Feature", "properties": {"collection_times": [{"days": "Mon-Fri", "time": "12:00pm"}, {"days": "Sat", "time": "10:00am"}, {"days": "Sun", "time": "Closed"}], "id": "6082700028", "name": "USPS COLLECTION BOX - BLUE BOX", "address": {"city": "CALUMET PARK", "state": "IL", "street": "12300 S ELIZABETH ST", "postcode": "60827"}}},
{"geometry": {"type": "Point", "coordinates": [-87.6605725258, 41.6576032082]}, "type": "Feature", "properties": {"collection_times": [{"days": "Mon-Fri", "time": "12:00pm"}, {"days": "Sat", "time": "10:00am"}, {"days": "Sun", "time": "Closed"}], "id": "6082700029", "name": "USPS COLLECTION BOX - BLUE BOX", "address": {"city": "CALUMET PARK", "state": "IL", "street": "13001 S ASHLAND AVE", "postcode": "60827"}}},
{"geometry": {"type": "Point", "coordinates": [-87.6486351776, 41.6606955511]}, "type": "Feature", "properties": {"collection_times": [{"days": "Mon-Fri", "time": "12:00pm"}, {"days": "Sat", "time": "10:00am"}, {"days": "Sun", "time": "Closed"}], "id": "6082700030", "name": "USPS COLLECTION BOX - BLUE BOX", "address": {"city": "CALUMET PARK", "state": "IL", "street": "12847 S ABERDEEN ST", "postcode": "60827"}}}
]}
