{"type": "FeatureCollection", "features": [
{"geometry": {"type": "Point", "coordinates": [-87.8758930666, 41.1056802276]}, "type": "Feature", "properties": {"collection_times": [{"days": "Mon-Fri", "time": "4:15pm"}, {"days": "Sat", "time": "1:15pm"}, {"days": "Sun", "time": "Closed"}], "id": "6090100015", "name": "USPS COLLECTION BOX - BLUE BOX", "address": {"city": "KANKAKEE", "state": "IL", "street": "580 W JEFFERY ST", "postcode": "60901"}}},
{"geometry": {"type": "Point", "coordinates": [-87.8805868122, 41.1186983865]}, "type": "Feature", "properties": {"collection_times": [{"days": "Mon-Fri", "time": "4:15pm"}, {"days": "Sat", "time": "1:15pm"}, {"days": "Sun", "time": "Closed"}], "id": "6090100025", "name": "USPS COLLECTION BOX - BLUE BOX", "address": {"city": "KANKAKEE", "state": "IL", "street": "1124 W STATION ST", "postcode": "60901"}}},
{"geometry": {"type": "Point", "coordinates": [-87.8600672525, 41.1200109471]}, "type": "Feature", "properties": {"collection_times": [{"days": "Mon-Fri", "time": "6:00pm"}, {"days": "Sat", "time": "3:00pm"}, {"days": "Sun", "time": "Closed"}], "id": "6090100031", "name": "USPS COLLECTION BOX - BLUE BOX", "address": {"city": "KANKAKEE", "state": "IL", "street": "475 E COURT ST", "postcode": "60901"}}},
{"geometry": {"type": "Point", "coordinates": [-87.8615472247, 41.1173570247]}, "type": "Feature", "properties": {"collection_times": [{"days": "Mon-Fri", "time": "4:45pm"}, {"days": "Sat", "time": "1:00pm"}, {"days": "Sun", "time": "Closed"}], "id": "6090100032", "name": "USPS COLLECTION BOX - BLUE BOX", "address": {"city": "KANKAKEE", "state": "IL", "street": "304 S INDIANA AVE", "postcode": "60901"}}},
{"geometry": {"type": "Point", "coordinates": [-87.8683265875, 41.1162531542]}, "type": "Feature", "properties": {"collection_times": [{"days": "Mon-Fri", "time": "4:30pm"}, {"days": "Sat", "time": "1:15pm"}, {"days": "Sun", "time": "Closed"}], "id": "6090100036", "name": "USPS COLLECTION BOX - BLUE BOX", "address": {"city": "KANKAKEE", "state": "IL", "street": "446 S WASHINGTON AVE", "postcode": "60901"}}},
{"geometry": {"type": "Point", "coordinates": [-87.8693116578, 41.1057577789]}, "type": "Feature", "properties": {"collection_times": [{"days": "Mon-Fri", "time": "4:30pm"}, {"days": "Sat-Sun", "time": "Closed"}], "id": "6090100038", "name": "USPS COLLECTION BOX - BLUE BOX", "address": {"city": "KANKAKEE", "state": "IL", "street": "100 E JEFFERY ST", "postcode": "60901"}}},
{"geometry": {"type": "Point", "coordinates": [-87.8608983005, 41.1208333825]}, "type": "Feature", "properties": {"collection_times": [{"days": "Mon-Fri", "time": "5:00pm"}, {"days": "Sat", "time": "1:45pm"}, {"days": "Sun", "time": "Closed"}], "id": "6090100042", "name": "USPS COLLECTION BOX - BLUE BOX", "address": {"city": "KANKAKEE", "state": "IL", "street": "160 N INDIANA AVE", "postcode": "60901"}}},
{"geometry": {"type": "Point", "coordinates": [-87.8832946363, 41.1251225852]}, "type": "Feature", "properties": {"collection_times": [{"days": "Mon-Fri", "time": "4:15pm"}, {"days": "Sat", "time": "1:00pm"}, {"days": "Sun", "time": "Closed"}], "id": "6090100044", "name": "USPS COLLECTION BOX - BLUE BOX", "address": {"city": "KANKAKEE", "state": "IL", "street": "401 N WALL ST", "postcode": "60901"}}},
{"geometry": {"type": "Point", "coordinates": [-87.8846007185, 41.1274432798]}, "type": "Feature", "properties": {"collection_times": [{"days": "Mon-Fri", "time": "4:15pm"}, {"days": "Sat", "time": "1:00pm"}, {"days": "Sun", "time": "Closed"}], "id": "6090100045", "name": "USPS COLLECTION BOX - BLUE BOX", "address": {"city": "KANKAKEE", "state": "IL", "street": "500 N WALL ST", "postcode": "60901"}}},
{"geometry": {"type": "Point", "coordinates": [-87.8596721471, 41.1205483927]}, "type": "Feature", "properties": {"collection_times": [{"days": "Mon-Fri", "time": "6:00pm"}, {"days": "Sat", "time": "3:00pm"}, {"days": "Sun", "time": "Closed"}], "id": "6090100056", "name": "USPS COLLECTION BOX - BLUE BOX", "address": {"city": "KANKAKEE", "state": "IL", "street": "149 N HARRISON AVE", "postcode": "60901"}}},
{"geometry": {"type": "Point", "coordinates": [-87.8718822873, 41.1210964987]}, "type": "Feature", "properties": {"collection_times": [{"days": "Mon-Fri", "time": "4:00pm"}, {"days": "Sat", "time": "1:00pm"}, {"days": "Sun", "time": "Closed"}], "id": "6090100062", "name": "USPS COLLECTION BOX - BLUE BOX", "address": {"city": "KANKAKEE", "state": "IL", "street": "500 W COURT ST", "postcode": "60901"}}},
{"geometry": {"type": "Point", "coordinates": [-87.8723169047, 41.1213582726]}, "type": "Feature", "properties": {"collection_times": [{"days": "Mon-Fri", "time": "4:00pm"}, {"days": "Sat", "time": "1:00pm"}, {"days": "Sun", "time": "Closed"}], "id": "6090100064", "name": "USPS COLLECTION BOX - BLUE BOX", "address": {"city": "KANKAKEE", "state": "IL", "street": "555 W COURT ST", "postcode": "60901"}}},
{"geometry": {"type": "Point", "coordinates": [-87.876134094, 41.1317498985]}, "type": "Feature", "properties": {"collection_times": [{"days": "Mon-Sat", "time": "10:30am"}, {"days": "Sun", "time": "Closed"}], "id": "6090100065", "name": "USPS COLLECTION BOX - BLUE BOX", "address": {"city": "KANKAKEE", "state": "IL", "street": "1015 N 5TH AVE", "postcode": "60901"}}},
{"geometry": {"type": "Point", "coordinates": [-87.870575867, 41.1347206924]}, "type": "Feature", "properties": {"collection_times": [{"days": "Mon-Fri", "time": "5:00pm"}, {"days": "Sat", "time": "1:45pm"}, {"days": "Sun", "time": "Closed"}], "id": "6090100070", "name": "USPS COLLECTION BOX - BLUE BOX", "address": {"city": "KANKAKEE", "state": "IL", "street": "10 MEADOWVIEW CTR", "postcode": "60901"}}},
{"geometry": {"type": "Point", "coordinates": [-87.870575867, 41.1347206924]}, "type": "Feature", "properties": {"collection_times": [{"days": "Mon-Fri", "time": "5:00pm"}, {"days": "Sat", "time": "1:45pm"}, {"days": "Sun", "time": "Closed"}], "id": "6090100071", "name": "USPS COLLECTION BOX - BLUE BOX", "address": {"city": "KANKAKEE", "state": "IL", "street": "10 MEADOWVIEW CTR", "postcode": "60901"}}},
{"geometry": {"type": "Point", "coordinates": [-87.870575867, 41.1347206924]}, "type": "Feature", "properties": {"collection_times": [{"days": "Mon-Fri", "time": "5:00pm"}, {"days": "Sat", "time": "1:45pm"}, {"days": "Sun", "time": "Closed"}], "id": "6090100072", "name": "USPS COLLECTION BOX - BLUE BOX", "address": {"city": "KANKAKEE", "state": "IL", "street": "10 MEADOWVIEW CTR", "postcode": "60901"}}},
{"geometry": {"type": "Point", "coordinates": [-87.8730665638, 41.1173512304]}, "type": "Feature", "properties": {"collection_times": [{"days": "Mon-Fri", "time": "5:00pm"}, {"days": "Sat", "time": "1:45pm"}, {"days": "Sun", "time": "Closed"}], "id": "6090100073", "name": "USPS COLLECTION BOX - EXPRESS", "address": {"city": "KANKAKEE", "state": "IL", "street": "10 MEADOWVIEW CTR", "postcode": "60901"}}},
{"geometry": {"type": "Point", "coordinates": [-87.870575867, 41.1347206924]}, "type": "Feature", "properties": {"collection_times": [{"days": "Mon-Fri", "time": "5:00pm"}, {"days": "Sat", "time": "1:45pm"}, {"days": "Sun", "time": "Closed"}], "id": "6090100076", "name": "USPS COLLECTION BOX - BLUE BOX", "address": {"city": "KANKAKEE", "state": "IL", "street": "10 MEADOWVIEW CTR", "postcode": "60901"}}},
{"geometry": {"type": "Point", "coordinates": [-87.886581407, 41.121285693]}, "type": "Feature", "properties": {"collection_times": [{"days": "Mon-Fri", "time": "4:15pm"}, {"days": "Sat", "time": "1:15pm"}, {"days": "Sun", "time": "Closed"}], "id": "6090100083", "name": "USPS COLLECTION BOX - BLUE BOX", "address": {"city": "KANKAKEE", "state": "IL", "street": "1557 W COURT ST", "postcode": "60901"}}},
{"geometry": {"type": "Point", "coordinates": [-87.8639057673, 41.1202286355]}, "type": "Feature", "properties": {"collection_times": [{"days": "Mon-Fri", "time": "4:30pm"}, {"days": "Sat", "time": "1:30pm"}, {"days": "Sun", "time": "Closed"}], "id": "6090100086", "name": "USPS COLLECTION BOX - BLUE BOX", "address": {"city": "KANKAKEE", "state": "IL", "street": "200 E COURT ST", "postcode": "60901"}}},
{"geometry": {"type": "Point", "coordinates": [-87.8628546222, 41.1203164736]}, "type": "Feature", "properties": {"collection_times": [{"days": "Mon-Fri", "time": "4:45pm"}, {"days": "Sat", "time": "1:30pm"}, {"days": "Sun", "time": "Closed"}], "id": "6090100092", "name": "USPS COLLECTION BOX - BLUE BOX", "address": {"city": "KANKAKEE", "state": "IL", "street": "275 E COURT ST", "postcode": "60901"}}},
{"geometry": {"type": "Point", "coordinates": [-87.8730665638, 41.1173512304]}, "type": "Feature", "properties": {"collection_times": [{"days": "Mon-Fri", "time": "6:00pm"}, {"days": "Sat", "time": "3:00pm"}, {"days": "Sun", "time": "Closed"}], "id": "6090100097", "name": "USPS COLLECTION BOX - EXPRESS", "address": {"city": "KANKAKEE", "state": "IL", "street": "149 N HARRISON AVE", "postcode": "60901"}}},
{"geometry": {"type": "Point", "coordinates": [-87.8639057673, 41.1202286355]}, "type": "Feature", "properties": {"collection_times": [{"days": "Mon-Fri", "time": "4:30pm"}, {"days": "Sat", "time": "1:30pm"}, {"days": "Sun", "time": "Closed"}], "id": "6090100099", "name": "USPS COLLECTION BOX - BLUE BOX", "address": {"city": "KANKAKEE", "state": "IL", "street": "200 E COURT ST", "postcode": "60901"}}},
{"geometry": {"type": "Point", "coordinates": [-87.8709326517, 41.1211530225]}, "type": "Feature", "properties": {"collection_times": [{"days": "Mon-Fri", "time": "4:00pm"}, {"days": "Sat", "time": "1:00pm"}, {"days": "Sun", "time": "Closed"}], "id": "6090100101", "name": "USPS COLLECTION BOX - BLUE BOX", "address": {"city": "KANKAKEE", "state": "IL", "street": "455 W COURT ST", "postcode": "60901"}}},
{"geometry": {"type": "Point", "coordinates": [-87.8723169047, 41.1213582726]}, "type": "Feature", "properties": {"collection_times": [{"days": "Mon-Fri", "time": "4:00pm"}, {"days": "Sat", "time": "1:00pm"}, {"days": "Sun", "time": "Closed"}], "id": "6090100102", "name": "USPS COLLECTION BOX - BLUE BOX", "address": {"city": "KANKAKEE", "state": "IL", "street": "555 W COURT ST", "postcode": "60901"}}},
{"geometry": {"type": "Point", "coordinates": [-87.8600672525, 41.1200109471]}, "type": "Feature", "properties": {"collection_times": [{"days": "Mon-Fri", "time": "6:00pm"}, {"days": "Sat", "time": "3:00pm"}, {"days": "Sun", "time": "Closed"}], "id": "6090100104", "name": "USPS COLLECTION BOX - PO LOBBY", "address": {"city": "KANKAKEE", "state": "IL", "street": "475 E COURT ST", "postcode": "60901"}}},
{"geometry": {"type": "Point", "coordinates": [-87.8691168528, 41.0893797801]}, "type": "Feature", "properties": {"collection_times": [{"days": "Mon-Fri", "time": "4:30pm"}, {"days": "Sat", "time": "1:15pm"}, {"days": "Sun", "time": "Closed"}], "id": "6090100105", "name": "USPS COLLECTION BOX - BLUE BOX", "address": {"city": "KANKAKEE", "state": "IL", "street": "2150 S US HIGHWAY 45 52", "postcode": "60901"}}},
{"geometry": {"type": "Point", "coordinates": [-87.862584938, 41.120107573]}, "type": "Feature", "properties": {"collection_times": [{"days": "Mon-Fri", "time": "4:45pm"}, {"days": "Sat", "time": "1:30pm"}, {"days": "Sun", "time": "Closed"}], "id": "6090100106", "name": "USPS COLLECTION BOX - BLUE BOX", "address": {"city": "KANKAKEE", "state": "IL", "street": "1 DEARBORN SQ", "postcode": "60901"}}},
{"geometry": {"type": "Point", "coordinates": [-87.8825871258, 41.124183845]}, "type": "Feature", "properties": {"collection_times": [{"days": "Mon-Fri", "time": "4:00pm"}, {"days": "Sat", "time": "1:00pm"}, {"days": "Sun", "time": "Closed"}], "id": "6090100107", "name": "USPS COLLECTION BOX - BLUE BOX", "address": {"city": "KANKAKEE", "state": "IL", "street": "350 N WALL ST", "postcode": "60901"}}},
{"geometry": {"type": "Point", "coordinates": [-87.8829039684, 41.1245094126]}, "type": "Feature", "properties": {"collection_times": [{"days": "Mon-Fri", "time": "4:15pm"}, {"days": "Sat", "time": "1:00pm"}, {"days": "Sun", "time": "Closed"}], "id": "6090100108", "name": "USPS COLLECTION BOX - BLUE BOX", "address": {"city": "KANKAKEE", "state": "IL", "street": "375 N WALL ST", "postcode": "60901"}}},
{"geometry": {"type": "Point", "coordinates": [-87.8057657092, 41.0765652777]}, "type": "Feature", "properties": {"collection_times": [{"days": "Mon-Fri", "time": "4:00pm"}, {"days": "Sat", "time": "10:30am"}, {"days": "Sun", "time": "Closed"}], "id": "6091000001", "name": "USPS COLLECTION BOX - BLUE BOX", "address": {"city": "AROMA PARK", "state": "IL", "street": "300 S BRIDGE ST", "postcode": "60910"}}},
{"geometry": {"type": "Point", "coordinates": [-87.8057657092, 41.0765652777]}, "type": "Feature", "properties": {"collection_times": [{"days": "Mon-Fri", "time": "4:00pm"}, {"days": "Sat", "time": "10:30am"}, {"days": "Sun", "time": "Closed"}], "id": "6091000002", "name": "USPS COLLECTION BOX - PO LOBBY", "address": {"city": "AROMA PARK", "state": "IL", "street": "300 S BRIDGE ST", "postcode": "60910"}}},
{"geometry": {"type": "Point", "coordinates": [-87.9551288889, 40.8800024465]}, "type": "Feature", "properties": {"collection_times": [{"days": "Mon-Fri", "time": "4:30pm"}, {"days": "Sat", "time": "11:00am"}, {"days": "Sun", "time": "Closed"}], "id": "6091100001", "name": "USPS COLLECTION BOX - BLUE BOX", "address": {"city": "ASHKUM", "state": "IL", "street": "103 E MAIN ST", "postcode": "60911"}}},
{"geometry": {"type": "Point", "coordinates": [-87.9551288889, 40.8800024465]}, "type": "Feature", "properties": {"collection_times": [{"days": "Mon-Fri", "time": "4:30pm"}, {"days": "Sat", "time": "11:00am"}, {"days": "Sun", "time": "Closed"}], "id": "6091100002", "name": "USPS COLLECTION BOX - PO LOBBY", "address": {"city": "ASHKUM", "state": "IL", "street": "103 E MAIN ST", "postcode": "60911"}}},
{"geometry": {"type": "Point", "coordinates": [-87.9553148527, 40.8799509949]}, "type": "Feature", "properties": {"collection_times": [{"days": "Mon-Sat", "time": "1:00pm"}, {"days": "Sun", "time": "Closed"}], "id": "6091100003", "name": "USPS COLLECTION BOX - BLUE BOX", "address": {"city": "ASHKUM", "state": "IL", "street": "100 S US HIGHWAY 45", "postcode": "60911"}}},
{"geometry": {"type": "Point", "coordinates": [-87.6546347563, 40.9550420282]}, "type": "Feature", "properties": {"collection_times": [{"days": "Mon-Fri", "time": "4:00pm"}, {"days": "Sat", "time": "10:30am"}, {"days": "Sun", "time": "Closed"}], "id": "6091200001", "name": "USPS COLLECTION BOX - BLUE BOX", "address": {"city": "BEAVERVILLE", "state": "IL", "street": "702 SAINT CHARLES ST", "postcode": "60912"}}},
{"geometry": {"type": "Point", "coordinates": [-87.6546347563, 40.9550420282]}, "type": "Feature", "properties": {"collection_times": [{"days": "Mon-Fri", "time": "2:00pm"}, {"days": "Sat", "time": "10:30am"}, {"days": "Sun", "time": "Closed"}], "id": "6091200002", "name": "USPS COLLECTION BOX - PO LOBBY", "address": {"city": "BEAVERVILLE", "state": "IL", "street": "702 SAINT CHARLES ST", "postcode": "60912"}}},
{"geometry": {"type": "Point", "coordinates": [-88.0567750246, 41.1467428656]}, "type": "Feature", "properties": {"collection_times": [{"days": "Mon-Fri", "time": "4:15pm"}, {"days": "Sat", "time": "11:00am"}, {"days": "Sun", "time": "Closed"}], "id": "6091300001", "name": "USPS COLLECTION BOX - BLUE BOX", "address": {"city": "BONFIELD", "state": "IL", "street": "157 W SMITH ST", "postcode": "60913"}}},
{"geometry": {"type": "Point", "coordinates": [-88.0567750246, 41.1467428656]}, "type": "Feature", "properties": {"collection_times": [{"days": "Mon-Fri", "time": "2:30pm"}, {"days": "Sat", "time": "11:00am"}, {"days": "Sun", "time": "Closed"}], "id": "6091300002", "name": "USPS COLLECTION BOX - PO LOBBY", "address": {"city": "BONFIELD", "state": "IL", "street": "157 W SMITH ST", "postcode": "60913"}}},
{"geometry": {"type": "Point", "coordinates": [-87.8757660706, 41.1645140599]}, "type": "Feature", "properties": {"collection_times": [{"days": "Mon-Sat", "time": "1:00pm"}, {"days": "Sun", "time": "Closed"}], "id": "6091400011", "name": "USPS COLLECTION BOX - BLUE BOX", "address": {"city": "BOURBONNAIS", "state": "IL", "street": "19 HERITAGE DR", "postcode": "60914"}}},
{"geometry": {"type": "Point", "coordinates": [-87.8776365202, 41.1537378898]}, "type": "Feature", "properties": {"collection_times": [{"days": "Mon-Sat", "time": "1:00pm"}, {"days": "Sun", "time": "Closed"}], "id": "6091400012", "name": "USPS COLLECTION BOX - BLUE BOX", "address": {"city": "BOURBONNAIS", "state": "IL", "street": "315 N MAIN ST", "postcode": "60914"}}},
{"geometry": {"type": "Point", "coordinates": [-87.8936056466, 41.1533268914]}, "type": "Feature", "properties": {"collection_times": [{"days": "Mon-Sat", "time": "1:00pm"}, {"days": "Sun", "time": "Closed"}], "id": "6091400013", "name": "USPS COLLECTION BOX - BLUE BOX", "address": {"city": "BOURBONNAIS", "state": "IL", "street": "30 BRIARCLIFF PROF CTR", "postcode": "60914"}}},
{"geometry": {"type": "Point", "coordinates": [-87.8915810356, 41.1618717691]}, "type": "Feature", "properties": {"collection_times": [{"days": "Mon-Fri", "time": "5:00pm"}, {"days": "Sat", "time": "2:30pm"}, {"days": "Sun", "time": "Closed"}], "id": "6091400015", "name": "USPS COLLECTION BOX - PO LOBBY", "address": {"city": "BOURBONNAIS", "state": "IL", "street": "850 MAIN ST NW", "postcode": "60914"}}},
{"geometry": {"type": "Point", "coordinates": [-87.8715197419, 41.1692219061]}, "type": "Feature", "properties": {"collection_times": [{"days": "Mon-Fri", "time": "5:00pm"}, {"days": "Sat", "time": "2:30pm"}, {"days": "Sun", "time": "Closed"}], "id": "6091400017", "name": "USPS COLLECTION BOX - EXPRESS", "address": {"city": "BOURBONNAIS", "state": "IL", "street": "850 MAIN ST NW", "postcode": "60914"}}},
{"geometry": {"type": "Point", "coordinates": [-87.8915810356, 41.1618717691]}, "type": "Feature", "properties": {"collection_times": [{"days": "Mon-Fri", "time": "5:00pm"}, {"days": "Sat", "time": "2:30pm"}, {"days": "Sun", "time": "Closed"}], "id": "6091400018", "name": "USPS COLLECTION BOX - BLUE BOX", "address": {"city": "BOURBONNAIS", "state": "IL", "street": "850 MAIN ST NW", "postcode": "60914"}}},
{"geometry": {"type": "Point", "coordinates": [-87.8723211945, 41.1626378145]}, "type": "Feature", "properties": {"collection_times": [{"days": "Mon-Sat", "time": "1:00pm"}, {"days": "Sun", "time": "Closed"}], "id": "6091400024", "name": "USPS COLLECTION BOX - BLUE BOX", "address": {"city": "BOURBONNAIS", "state": "IL", "street": "633 ARMOUR RD", "postcode": "60914"}}},
{"geometry": {"type": "Point", "coordinates": [-87.8715197419, 41.1692219061]}, "type": "Feature", "properties": {"collection_times": [{"days": "Mon-Sat", "time": "10:30am"}, {"days": "Sun", "time": "Closed"}], "id": "6091400025", "name": "USPS COLLECTION BOX - BLUE BOX", "address": {"city": "BOURBONNAIS", "state": "IL", "street": "43 E 5000N RD", "postcode": "60914"}}},
{"geometry": {"type": "Point", "coordinates": [-87.8595495073, 41.1479647037]}, "type": "Feature", "properties": {"collection_times": [{"days": "Mon-Fri", "time": "2:15pm"}, {"days": "Sat", "time": "2:00pm"}, {"days": "Sun", "time": "Closed"}], "id": "6091500002", "name": "USPS COLLECTION BOX - BLUE BOX", "address": {"city": "BRADLEY", "state": "IL", "street": "180 E NORTH ST", "postcode": "60915"}}},
{"geometry": {"type": "Point", "coordinates": [-87.8509511218, 41.1617799002]}, "type": "Feature", "properties": {"collection_times": [{"days": "Mon-Fri", "time": "10:30am"}, {"days": "Sat", "time": "10:00am"}, {"days": "Sun", "time": "Closed"}], "id": "6091500004", "name": "USPS COLLECTION BOX - BLUE BOX", "address": {"city": "BRADLEY", "state": "IL", "street": "1260 N KINZIE AVE", "postcode": "60915"}}},
{"geometry": {"type": "Point", "coordinates": [-87.8709648503, 41.1431202036]}, "type": "Feature", "properties": {"collection_times": [{"days": "Mon-Fri", "time": "2:15pm"}, {"days": "Sat", "time": "2:00pm"}, {"days": "Sun", "time": "Closed"}], "id": "6091500005", "name": "USPS COLLECTION BOX - BLUE BOX", "address": {"city": "BRADLEY", "state": "IL", "street": "729 W BROADWAY ST", "postcode": "60915"}}},
{"geometry": {"type": "Point", "coordinates": [-87.8510699682, 41.1556797903]}, "type": "Feature", "properties": {"collection_times": [{"days": "Mon-Fri", "time": "2:15pm"}, {"days": "Sat", "time": "2:00pm"}, {"days": "Sun", "time": "Closed"}], "id": "6091500017", "name": "USPS COLLECTION BOX - BLUE BOX", "address": {"city": "BRADLEY", "state": "IL", "street": "990 N KINZIE AVE", "postcode": "60915"}}},
{"geometry": {"type": "Point", "coordinates": [-87.8651144642, 41.1418027883]}, "type": "Feature", "properties": {"collection_times": [{"days": "Mon-Fri", "time": "2:15pm"}, {"days": "Sat", "time": "2:00pm"}, {"days": "Sun", "time": "Closed"}], "id": "6091500018", "name": "USPS COLLECTION BOX - BLUE BOX", "address": {"city": "BRADLEY", "state": "IL", "street": "147 S MICHIGAN AVE", "postcode": "60915"}}},
{"geometry": {"type": "Point", "coordinates": [-87.8754297751, 41.1471379907]}, "type": "Feature", "properties": {"collection_times": [{"days": "Mon-Fri", "time": "2:15pm"}, {"days": "Sat", "time": "2:00pm"}, {"days": "Sun", "time": "Closed"}], "id": "6091500019", "name": "USPS COLLECTION BOX - BLUE BOX", "address": {"city": "BRADLEY", "state": "IL", "street": "400 S KENNEDY DR", "postcode": "60915"}}},
{"geometry": {"type": "Point", "coordinates": [-87.8643867409, 41.1422928627]}, "type": "Feature", "properties": {"collection_times": [{"days": "Mon-Fri", "time": "5:00pm"}, {"days": "Sat", "time": "1:30pm"}, {"days": "Sun", "time": "Closed"}], "id": "6091500020", "name": "USPS COLLECTION BOX - PO LOBBY", "address": {"city": "BRADLEY", "state": "IL", "street": "258 W BROADWAY ST", "postcode": "60915"}}},
{"geometry": {"type": "Point", "coordinates": [-87.8779808439, 41.1403663854]}, "type": "Feature", "properties": {"collection_times": [{"days": "Mon-Fri", "time": "2:15pm"}, {"days": "Sat", "time": "2:00pm"}, {"days": "Sun", "time": "Closed"}], "id": "6091500021", "name": "USPS COLLECTION BOX - BLUE BOX", "address": {"city": "BRADLEY", "state": "IL", "street": "400 FAIRVIEW AVE", "postcode": "60915"}}},
{"geometry": {"type": "Point", "coordinates": [-87.8643867409, 41.1422928627]}, "type": "Feature", "properties": {"collection_times": [{"days": "Mon-Fri", "time": "5:00pm"}, {"days": "Sat", "time": "1:30pm"}, {"days": "Sun", "time": "Closed"}], "id": "6091500022", "name": "USPS COLLECTION BOX - BLUE BOX", "address": {"city": "BRADLEY", "state": "IL", "street": "258 W BROADWAY ST", "postcode": "60915"}}},
{"geometry": {"type": "Point", "coordinates": [-87.8643867409, 41.1422928627]}, "type": "Feature", "properties": {"collection_times": [{"days": "Mon-Fri", "time": "5:00pm"}, {"days": "Sat", "time": "1:30pm"}, {"days": "Sun", "time": "Closed"}], "id": "6091500023", "name": "USPS COLLECTION BOX - BLUE BOX", "address": {"city": "BRADLEY", "state": "IL", "street": "258 W BROADWAY ST", "postcode": "60915"}}},
{"geometry": {"type": "Point", "coordinates": [-88.1748753697, 41.0469396142]}, "type": "Feature", "properties": {"collection_times": [{"days": "Mon-Fri", "time": "4:00pm"}, {"days": "Sat", "time": "10:30am"}, {"days": "Sun", "time": "Closed"}], "id": "6091700001", "name": "USPS COLLECTION BOX - BLUE BOX", "address": {"city": "BUCKINGHAM", "state": "IL", "street": "110 RAILROAD ST", "postcode": "60917"}}},
{"geometry": {"type": "Point", "coordinates": [-88.1748753697, 41.0469396142]}, "type": "Feature", "properties": {"collection_times": [{"days": "Mon-Fri", "time": "2:30pm"}, {"days": "Sat", "time": "10:30am"}, {"days": "Sun", "time": "Closed"}], "id": "6091700002", "name": "USPS COLLECTION BOX - PO LOBBY", "address": {"city": "BUCKINGHAM", "state": "IL", "street": "110 RAILROAD ST", "postcode": "60917"}}},
{"geometry": {"type": "Point", "coordinates": [-88.0373882648, 40.5985544368]}, "type": "Feature", "properties": {"collection_times": [{"days": "Mon-Fri", "time": "4:30pm"}, {"days": "Sat", "time": "10:30am"}, {"days": "Sun", "time": "Closed"}], "id": "6091800001", "name": "USPS COLLECTION BOX - BLUE BOX", "address": {"city": "BUCKLEY", "state": "IL", "street": "116 N RAILROAD AVE", "postcode": "60918"}}},
{"geometry": {"type": "Point", "coordinates": [-88.0373882648, 40.5985544368]}, "type": "Feature", "properties": {"collection_times": [{"days": "Mon-Fri", "time": "4:30pm"}, {"days": "Sat", "time": "10:30am"}, {"days": "Sun", "time": "Closed"}], "id": "6091800002", "name": "USPS COLLECTION BOX - PO LOBBY", "address": {"city": "BUCKLEY", "state": "IL", "street": "116 N RAILROAD AVE", "postcode": "60918"}}},
{"geometry": {"type": "Point", "coordinates": [-88.2072772885, 40.9957106122]}, "type": "Feature", "properties": {"collection_times": [{"days": "Mon-Fri", "time": "4:00pm"}, {"days": "Sat", "time": "10:30am"}, {"days": "Sun", "time": "Closed"}], "id": "6091900001", "name": "USPS COLLECTION BOX - BLUE BOX", "address": {"city": "CABERY", "state": "IL", "street": "201 MAIN ST", "postcode": "60919"}}},
{"geometry": {"type": "Point", "coordinates": [-88.2072772885, 40.9957106122]}, "type": "Feature", "properties": {"collection_times": [{"days": "Mon-Fri", "time": "12:30pm"}, {"days": "Sat", "time": "10:30am"}, {"days": "Sun", "time": "Closed"}], "id": "6091900002", "name": "USPS COLLECTION BOX - PO LOBBY", "address": {"city": "CABERY", "state": "IL", "street": "201 MAIN ST", "postcode": "60919"}}},
{"geometry": {"type": "Point", "coordinates": [-88.3081585807, 41.0256266572]}, "type": "Feature", "properties": {"collection_times": [{"days": "Mon-Fri", "time": "3:45pm"}, {"days": "Sat", "time": "10:30am"}, {"days": "Sun", "time": "Closed"}], "id": "6092000001", "name": "USPS COLLECTION BOX - BLUE BOX", "address": {"city": "CAMPUS", "state": "IL", "street": "107 CENTER ST", "postcode": "60920"}}},
{"geometry": {"type": "Point", "coordinates": [-88.3081585807, 41.0256266572]}, "type": "Feature", "properties": {"collection_times": [{"days": "Mon-Fri", "time": "12:00pm"}, {"days": "Sat", "time": "10:30am"}, {"days": "Sun", "time": "Closed"}], "id": "6092000002", "name": "USPS COLLECTION BOX - PO LOBBY", "address": {"city": "CAMPUS", "state": "IL", "street": "107 CENTER ST", "postcode": "60920"}}},
{"geometry": {"type": "Point", "coordinates": [-88.292182856, 40.7539116869]}, "type": "Feature", "properties": {"collection_times": [{"days": "Mon-Fri", "time": "4:00pm"}, {"days": "Sat", "time": "11:00am"}, {"days": "Sun", "time": "Closed"}], "id": "6092100001", "name": "USPS COLLECTION BOX - BLUE BOX", "address": {"city": "CHATSWORTH", "state": "IL", "street": "15 N 4TH ST", "postcode": "60921"}}},
{"geometry": {"type": "Point", "coordinates": [-88.292182856, 40.7539116869]}, "type": "Feature", "properties": {"collection_times": [{"days": "Mon-Fri", "time": "4:30pm"}, {"days": "Sat", "time": "11:00am"}, {"days": "Sun", "time": "Closed"}], "id": "6092100002", "name": "USPS COLLECTION BOX - PO LOBBY", "address": {"city": "CHATSWORTH", "state": "IL", "street": "15 N 4TH ST", "postcode": "60921"}}},
{"geometry": {"type": "Point", "coordinates": [-87.9092414047, 41.0026545982]}, "type": "Feature", "properties": {"collection_times": [{"days": "Mon-Fri", "time": "4:30pm"}, {"days": "Sat", "time": "11:00am"}, {"days": "Sun", "time": "Closed"}], "id": "6092200002", "name": "USPS COLLECTION BOX - BLUE BOX", "address": {"city": "CHEBANSE", "state": "IL", "street": "209 S CHESTNUT ST", "postcode": "60922"}}},
{"geometry": {"type": "Point", "coordinates": [-87.9092414047, 41.0026545982]}, "type": "Feature", "properties": {"collection_times": [{"days": "Mon-Fri", "time": "4:30pm"}, {"days": "Sat", "time": "11:00am"}, {"days": "Sun", "time": "Closed"}], "id": "6092200003", "name": "USPS COLLECTION BOX - PO LOBBY", "address": {"city": "CHEBANSE", "state": "IL", "street": "209 S CHESTNUT ST", "postcode": "60922"}}},
{"geometry": {"type": "Point", "coordinates": [-87.8930799687, 40.5639204809]}, "type": "Feature", "properties": {"collection_times": [{"days": "Mon-Fri", "time": "4:15pm"}, {"days": "Sat", "time": "11:00am"}, {"days": "Sun", "time": "Closed"}], "id": "6092400002", "name": "USPS COLLECTION BOX - PO LOBBY", "address": {"city": "CISSNA PARK", "state": "IL", "street": "129 W GARFIELD AVE", "postcode": "60924"}}},
{"geometry": {"type": "Point", "coordinates": [-87.8930799687, 40.5639204809]}, "type": "Feature", "properties": {"collection_times": [{"days": "Mon-Fri", "time": "4:15pm"}, {"days": "Sat", "time": "11:00am"}, {"days": "Sun", "time": "Closed"}], "id": "6092400003", "name": "USPS COLLECTION BOX - BLUE BOX", "address": {"city": "CISSNA PARK", "state": "IL", "street": "129 W GARFIELD AVE", "postcode": "60924"}}},
{"geometry": {"type": "Point", "coordinates": [-87.8228724143, 40.567359716]}, "type": "Feature", "properties": {"collection_times": [{"days": "Mon-Fri", "time": "4:00pm"}, {"days": "Sat", "time": "10:00am"}, {"days": "Sun", "time": "Closed"}], "id": "6092600001", "name": "USPS COLLECTION BOX - BLUE BOX", "address": {"city": "CLAYTONVILLE", "state": "IL", "street": "107 MANNING ST", "postcode": "60926"}}},
{"geometry": {"type": "Point", "coordinates": [-87.8228724143, 40.567359716]}, "type": "Feature", "properties": {"collection_times": [{"days": "Mon-Fri", "time": "4:00pm"}, {"days": "Sat", "time": "10:15am"}, {"days": "Sun", "time": "Closed"}], "id": "6092600002", "name": "USPS COLLECTION BOX - PO LOBBY", "address": {"city": "CLAYTONVILLE", "state": "IL", "street": "107 MANNING ST", "postcode": "60926"}}},
{"geometry": {"type": "Point", "coordinates": [-87.9345534408, 40.9318212369]}, "type": "Feature", "properties": {"collection_times": [{"days": "Mon-Fri", "time": "4:30pm"}, {"days": "Sat", "time": "11:00am"}, {"days": "Sun", "time": "Closed"}], "id": "6092700001", "name": "USPS COLLECTION BOX - BLUE BOX", "address": {"city": "CLIFTON", "state": "IL", "street": "175 E 6TH AVE", "postcode": "60927"}}},
{"geometry": {"type": "Point", "coordinates": [-87.9345534408, 40.9318212369]}, "type": "Feature", "properties": {"collection_times": [{"days": "Mon-Fri", "time": "4:30pm"}, {"days": "Sat", "time": "11:00am"}, {"days": "Sun", "time": "Closed"}], "id": "6092700002", "name": "USPS COLLECTION BOX - PO LOBBY", "address": {"city": "CLIFTON", "state": "IL", "street": "175 E 6TH AVE", "postcode": "60927"}}},
{"geometry": {"type": "Point", "coordinates": [-87.8580520203, 40.7699459043]}, "type": "Feature", "properties": {"collection_times": [{"days": "Mon-Fri", "time": "4:30pm"}, {"days": "Sat", "time": "10:45am"}, {"days": "Sun", "time": "Closed"}], "id": "6092800001", "name": "USPS COLLECTION BOX - BLUE BOX", "address": {"city": "CRESCENT CITY", "state": "IL", "street": "405 MAIN ST - HWY 24", "postcode": "60928"}}},
{"geometry": {"type": "Point", "coordinates": [-87.8580520203, 40.7699459043]}, "type": "Feature", "properties": {"collection_times": [{"days": "Mon-Fri", "time": "4:30pm"}, {"days": "Sat", "time": "10:45am"}, {"days": "Sun", "time": "Closed"}], "id": "6092800002", "name": "USPS COLLECTION BOX - PO LOBBY", "address": {"city": "CRESCENT CITY", "state": "IL", "street": "405 MAIN ST HWY 24", "postcode": "60928"}}},
{"geometry": {"type": "Point", "coordinates": [-88.2687268486, 40.8791274159]}, "type": "Feature", "properties": {"collection_times": [{"days": "Mon-Fri", "time": "3:45pm"}, {"days": "Sat", "time": "10:30am"}, {"days": "Sun", "time": "Closed"}], "id": "6092900001", "name": "USPS COLLECTION BOX - BLUE BOX", "address": {"city": "CULLOM", "state": "IL", "street": "101 W HACK ST", "postcode": "60929"}}},
{"geometry": {"type": "Point", "coordinates": [-88.2687268486, 40.8791274159]}, "type": "Feature", "properties": {"collection_times": [{"days": "Mon-Fri", "time": "12:00pm"}, {"days": "Sat", "time": "10:30am"}, {"days": "Sun", "time": "Closed"}], "id": "6092900002", "name": "USPS COLLECTION BOX - PO LOBBY", "address": {"city": "CULLOM", "state": "IL", "street": "101 W HACK ST", "postcode": "60929"}}},
{"geometry": {"type": "Point", "coordinates": [-88.2687268486, 40.8791274159]}, "type": "Feature", "properties": {"collection_times": [{"days": "Mon-Fri", "time": "12:00pm"}, {"days": "Sat", "time": "10:30am"}, {"days": "Sun", "time": "Closed"}], "id": "6092900004", "name": "USPS COLLECTION BOX - PO LOBBY", "address": {"city": "CULLOM", "state": "IL", "street": "101 W HACK ST", "postcode": "60929"}}},
{"geometry": {"type": "Point", "coordinates": [-88.0141285472, 40.8296281046]}, "type": "Feature", "properties": {"collection_times": [{"days": "Mon-Fri", "time": "4:15pm"}, {"days": "Sat", "time": "10:30am"}, {"days": "Sun", "time": "Closed"}], "id": "6093000001", "name": "USPS COLLECTION BOX - BLUE BOX", "address": {"city": "DANFORTH", "state": "IL", "street": "108 N FRONT ST", "postcode": "60930"}}},
{"geometry": {"type": "Point", "coordinates": [-88.0141285472, 40.8296281046]}, "type": "Feature", "properties": {"collection_times": [{"days": "Mon-Fri", "time": "12:00pm"}, {"days": "Sat", "time": "10:30am"}, {"days": "Sun", "time": "Closed"}], "id": "6093000002", "name": "USPS COLLECTION BOX - PO LOBBY", "address": {"city": "DANFORTH", "state": "IL", "street": "108 N FRONT ST", "postcode": "60930"}}},
{"geometry": {"type": "Point", "coordinates": [-87.6168014807, 40.8811680099]}, "type": "Feature", "properties": {"collection_times": [{"days": "Mon-Fri", "time": "4:30pm"}, {"days": "Sat", "time": "12:00pm"}, {"days": "Sun", "time": "Closed"}], "id": "6093100001", "name": "USPS COLLECTION BOX - BLUE BOX", "address": {"city": "DONOVAN", "state": "IL", "street": "301 2ND ST", "postcode": "60931"}}},
{"geometry": {"type": "Point", "coordinates": [-87.6168014807, 40.8811680099]}, "type": "Feature", "properties": {"collection_times": [{"days": "Mon-Fri", "time": "4:30pm"}, {"days": "Sat", "time": "12:00pm"}, {"days": "Sun", "time": "Closed"}], "id": "6093100002", "name": "USPS COLLECTION BOX - PO LOBBY", "address": {"city": "DONOVAN", "state": "IL", "street": "301 2ND ST", "postcode": "60931"}}},
{"geometry": {"type": "Point", "coordinates": [-87.8004353774, 40.4667709786]}, "type": "Feature", "properties": {"collection_times": [{"days": "Mon-Fri", "time": "3:45pm"}, {"days": "Sat", "time": "9:30am"}, {"days": "Sun", "time": "Closed"}], "id": "6093200001", "name": "USPS COLLECTION BOX - BLUE BOX", "address": {"city": "EAST LYNN", "state": "IL", "street": "41495 MAIN ST", "postcode": "60932"}}},
{"geometry": {"type": "Point", "coordinates": [-87.8004353774, 40.4667709786]}, "type": "Feature", "properties": {"collection_times": [{"days": "Mon-Sat", "time": "9:30am"}, {"days": "Sun", "time": "Closed"}], "id": "6093200002", "name": "USPS COLLECTION BOX - PO LOBBY", "address": {"city": "EAST LYNN", "state": "IL", "street": "41495 MAIN ST", "postcode": "60932"}}},
{"geometry": {"type": "Point", "coordinates": [-88.2721219737, 40.464974507]}, "type": "Feature", "properties": {"collection_times": [{"days": "Mon-Fri", "time": "4:00pm"}, {"days": "Sat", "time": "10:15am"}, {"days": "Sun", "time": "Closed"}], "id": "6093300001", "name": "USPS COLLECTION BOX - BLUE BOX", "address": {"city": "ELLIOTT", "state": "IL", "street": "115 S MAIN ST", "postcode": "60933"}}},
{"geometry": {"type": "Point", "coordinates": [-88.2721219737, 40.464974507]}, "type": "Feature", "properties": {"collection_times": [{"days": "Mon-Fri", "time": "12:00pm"}, {"days": "Sat", "time": "10:15am"}, {"days": "Sun", "time": "Closed"}], "id": "6093300002", "name": "USPS COLLECTION BOX - PO LOBBY", "address": {"city": "ELLIOTT", "state": "IL", "street": "115 S MAIN ST", "postcode": "60933"}}},
{"geometry": {"type": "Point", "coordinates": [-88.3566557367, 40.9704790834]}, "type": "Feature", "properties": {"collection_times": [{"days": "Mon-Fri", "time": "4:00pm"}, {"days": "Sat", "time": "10:30am"}, {"days": "Sun", "time": "Closed"}], "id": "6093400001", "name": "USPS COLLECTION BOX - BLUE BOX", "address": {"city": "EMINGTON", "state": "IL", "street": "107A WABASH ST", "postcode": "60934"}}},
{"geometry": {"type": "Point", "coordinates": [-88.3566557367, 40.9704790834]}, "type": "Feature", "properties": {"collection_times": [{"days": "Mon-Fri", "time": "12:00pm"}, {"days": "Sat", "time": "10:30am"}, {"days": "Sun", "time": "Closed"}], "id": "6093400002", "name": "USPS COLLECTION BOX - PO LOBBY", "address": {"city": "EMINGTON", "state": "IL", "street": "107A WABASH ST", "postcode": "60934"}}},
{"geometry": {"type": "Point", "coordinates": [-88.1869801351, 41.1771987208]}, "type": "Feature", "properties": {"collection_times": [{"days": "Mon-Fri", "time": "4:00pm"}, {"days": "Sat", "time": "10:30am"}, {"days": "Sun", "time": "Closed"}], "id": "6093500001", "name": "USPS COLLECTION BOX - BLUE BOX", "address": {"city": "ESSEX", "state": "IL", "street": "200 W MAIN ST", "postcode": "60935"}}},
{"geometry": {"type": "Point", "coordinates": [-88.1869801351, 41.1771987208]}, "type": "Feature", "properties": {"collection_times": [{"days": "Mon-Fri", "time": "11:30am"}, {"days": "Sat", "time": "10:30am"}, {"days": "Sun", "time": "Closed"}], "id": "6093500002", "name": "USPS COLLECTION BOX - PO LOBBY", "address": {"city": "ESSEX", "state": "IL", "street": "200 W MAIN ST", "postcode": "60935"}}},
{"geometry": {"type": "Point", "coordinates": [-88.3748942619, 40.4660987907]}, "type": "Feature", "properties": {"collection_times": [{"days": "Mon-Fri", "time": "5:00pm"}, {"days": "Sat", "time": "1:00pm"}, {"days": "Sun", "time": "Closed"}], "id": "6093600001", "name": "USPS COLLECTION BOX - BLUE BOX", "address": {"city": "GIBSON CITY", "state": "IL", "street": "127 E 9TH ST", "postcode": "60936"}}},
{"geometry": {"type": "Point", "coordinates": [-88.3748942619, 40.4660987907]}, "type": "Feature", "properties": {"collection_times": [{"days": "Mon-Fri", "time": "5:00pm"}, {"days": "Sat", "time": "1:00pm"}, {"days": "Sun", "time": "Closed"}], "id": "6093600002", "name": "USPS COLLECTION BOX - BLUE BOX", "address": {"city": "GIBSON CITY", "state": "IL", "street": "127 E 9TH ST", "postcode": "60936"}}},
{"geometry": {"type": "Point", "coordinates": [-88.3702210625, 40.4567682685]}, "type": "Feature", "properties": {"collection_times": [{"days": "Mon-Sat", "time": "1:30pm"}, {"days": "Sun", "time": "Closed"}], "id": "6093600003", "name": "USPS COLLECTION BOX - BLUE BOX", "address": {"city": "GIBSON CITY", "state": "IL", "street": "415 E 1ST ST", "postcode": "60936"}}},
{"geometry": {"type": "Point", "coordinates": [-88.3748942619, 40.4660987907]}, "type": "Feature", "properties": {"collection_times": [{"days": "Mon-Fri", "time": "5:00pm"}, {"days": "Sat", "time": "1:00pm"}, {"days": "Sun", "time": "Closed"}], "id": "6093600004", "name": "USPS COLLECTION BOX - PO LOBBY", "address": {"city": "GIBSON CITY", "state": "IL", "street": "127 E 9TH ST", "postcode": "60936"}}},
{"geometry": {"type": "Point", "coordinates": [-87.9928626563, 40.7685574364]}, "type": "Feature", "properties": {"collection_times": [{"days": "Mon-Fri", "time": "5:00pm"}, {"days": "Sat", "time": "3:30pm"}, {"days": "Sun", "time": "Closed"}], "id": "6093800002", "name": "USPS COLLECTION BOX - BLUE BOX", "address": {"city": "GILMAN", "state": "IL", "street": "204 N CENTRAL ST", "postcode": "60938"}}},
{"geometry": {"type": "Point", "coordinates": [-87.9968259352, 40.7539935809]}, "type": "Feature", "properties": {"collection_times": [{"days": "Mon-Sat", "time": "10:30am"}, {"days": "Sun", "time": "Closed"}], "id": "6093800004", "name": "USPS COLLECTION BOX - BLUE BOX", "address": {"city": "GILMAN", "state": "IL", "street": "1401 US HIGHWAY 24 W", "postcode": "60938"}}},
{"geometry": {"type": "Point", "coordinates": [-87.9948058618, 40.7580983974]}, "type": "Feature", "properties": {"collection_times": [{"days": "Mon-Sat", "time": "1:30pm"}, {"days": "Sun", "time": "Closed"}], "id": "6093800005", "name": "USPS COLLECTION BOX - BLUE BOX", "address": {"city": "GILMAN", "state": "IL", "street": "943 S CRESCENT ST", "postcode": "60938"}}},
{"geometry": {"type": "Point", "coordinates": [-87.9928626563, 40.7685574364]}, "type": "Feature", "properties": {"collection_times": [{"days": "Mon-Fri", "time": "5:00pm"}, {"days": "Sat", "time": "3:30pm"}, {"days": "Sun", "time": "Closed"}], "id": "6093800007", "name": "USPS COLLECTION BOX - PO LOBBY", "address": {"city": "GILMAN", "state": "IL", "street": "204 N CENTRAL ST", "postcode": "60938"}}},
{"geometry": {"type": "Point", "coordinates": [-87.7846518767, 40.5687620308]}, "type": "Feature", "properties": {"collection_times": [{"days": "Mon-Fri", "time": "4:15pm"}, {"days": "Sat", "time": "9:30am"}, {"days": "Sun", "time": "Closed"}], "id": "6093900001", "name": "USPS COLLECTION BOX - BLUE BOX", "address": {"city": "GOODWINE", "state": "IL", "street": "553 N 1800 EAST RD", "postcode": "60939"}}},
{"geometry": {"type": "Point", "coordinates": [-87.7846518767, 40.5687620308]}, "type": "Feature", "properties": {"collection_times": [{"days": "Mon-Sat", "time": "9:30am"}, {"days": "Sun", "time": "Closed"}], "id": "6093900002", "name": "USPS COLLECTION BOX - PO LOBBY", "address": {"city": "GOODWINE", "state": "IL", "street": "553 N 1800 EAST RD", "postcode": "60939"}}},
{"geometry": {"type": "Point", "coordinates": [-87.6447623204, 41.2412155362]}, "type": "Feature", "properties": {"collection_times": [{"days": "Mon-Fri", "time": "4:30pm"}, {"days": "Sat", "time": "11:00am"}, {"days": "Sun", "time": "Closed"}], "id": "6094000001", "name": "USPS COLLECTION BOX - BLUE BOX", "address": {"city": "GRANT PARK", "state": "IL", "street": "115 N MAIN ST", "postcode": "60940"}}},
{"geometry": {"type": "Point", "coordinates": [-87.6447623204, 41.2412155362]}, "type": "Feature", "properties": {"collection_times": [{"days": "Mon-Fri", "time": "4:30pm"}, {"days": "Sat", "time": "11:00am"}, {"days": "Sun", "time": "Closed"}], "id": "6094000004", "name": "USPS COLLECTION BOX - PO LOBBY", "address": {"city": "GRANT PARK", "state": "IL", "street": "115 N MAIN ST", "postcode": "60940"}}},
{"geometry": {"type": "Point", "coordinates": [-88.0975425845, 41.0478594948]}, "type": "Feature", "properties": {"collection_times": [{"days": "Mon-Fri", "time": "4:15pm"}, {"days": "Sat", "time": "12:00pm"}, {"days": "Sun", "time": "Closed"}], "id": "6094100001", "name": "USPS COLLECTION BOX - BLUE BOX", "address": {"city": "HERSCHER", "state": "IL", "street": "200 S MAIN ST", "postcode": "60941"}}},
{"geometry": {"type": "Point", "coordinates": [-88.0975425845, 41.0478594948]}, "type": "Feature", "properties": {"collection_times": [{"days": "Mon-Fri", "time": "4:15pm"}, {"days": "Sat", "time": "12:00pm"}, {"days": "Sun", "time": "Closed"}], "id": "6094100003", "name": "USPS COLLECTION BOX - PO LOBBY", "address": {"city": "HERSCHER", "state": "IL", "street": "200 S MAIN ST", "postcode": "60941"}}},
{"geometry": {"type": "Point", "coordinates": [-87.6684604303, 40.4659891178]}, "type": "Feature", "properties": {"collection_times": [{"days": "Mon-Fri", "time": "5:00pm"}, {"days": "Sat", "time": "3:30pm"}, {"days": "Sun", "time": "Closed"}], "id": "6094200001", "name": "USPS COLLECTION BOX - BLUE BOX", "address": {"city": "HOOPESTON", "state": "IL", "street": "314 S MARKET ST", "postcode": "60942"}}},
{"geometry": {"type": "Point", "coordinates": [-87.6684604303, 40.4659891178]}, "type": "Feature", "properties": {"collection_times": [{"days": "Mon-Fri", "time": "5:00pm"}, {"days": "Sat", "time": "3:30pm"}, {"days": "Sun", "time": "Closed"}], "id": "6094200002", "name": "USPS COLLECTION BOX - BLUE BOX", "address": {"city": "HOOPESTON", "state": "IL", "street": "314 S MARKET ST", "postcode": "60942"}}},
{"geometry": {"type": "Point", "coordinates": [-87.6872962702, 40.4602113559]}, "type": "Feature", "properties": {"collection_times": [{"days": "Mon-Sat", "time": "3:30pm"}, {"days": "Sun", "time": "Closed"}], "id": "6094200009", "name": "USPS COLLECTION BOX - BLUE BOX", "address": {"city": "HOOPESTON", "state": "IL", "street": "1010 W CHESTNUT ST", "postcode": "60942"}}},
{"geometry": {"type": "Point", "coordinates": [-87.6684604303, 40.4659891178]}, "type": "Feature", "properties": {"collection_times": [{"days": "Mon-Fri", "time": "5:00pm"}, {"days": "Sat", "time": "3:30pm"}, {"days": "Sun", "time": "Closed"}], "id": "6094200010", "name": "USPS COLLECTION BOX - PO LOBBY", "address": {"city": "HOOPESTON", "state": "IL", "street": "314 S MARKET ST", "postcode": "60942"}}},
{"geometry": {"type": "Point", "coordinates": [-87.5819703533, 41.0684099665]}, "type": "Feature", "properties": {"collection_times": [{"days": "Mon-Fri", "time": "4:00pm"}, {"days": "Sat", "time": "10:30am"}, {"days": "Sun", "time": "Closed"}], "id": "6094400001", "name": "USPS COLLECTION BOX - BLUE BOX", "address": {"city": "HOPKINS PARK", "state": "IL", "street": "3952 S KING DR", "postcode": "60944"}}},
{"geometry": {"type": "Point", "coordinates": [-87.5819703533, 41.0684099665]}, "type": "Feature", "properties": {"collection_times": [{"days": "Mon-Fri", "time": "4:00pm"}, {"days": "Sat", "time": "10:30am"}, {"days": "Sun", "time": "Closed"}], "id": "6094400002", "name": "USPS COLLECTION BOX - PO LOBBY", "address": {"city": "HOPKINS PARK", "state": "IL", "street": "3952 S KING DR", "postcode": "60944"}}},
{"geometry": {"type": "Point", "coordinates": [-87.5831518838, 40.8273988929]}, "type": "Feature", "properties": {"collection_times": [{"days": "Mon-Fri", "time": "4:15pm"}, {"days": "Sat", "time": "10:45am"}, {"days": "Sun", "time": "Closed"}], "id": "6094500001", "name": "USPS COLLECTION BOX - BLUE BOX", "address": {"city": "IROQUOIS", "state": "IL", "street": "205 S MAIN ST", "postcode": "60945"}}},
{"geometry": {"type": "Point", "coordinates": [-87.5831518838, 40.8273988929]}, "type": "Feature", "properties": {"collection_times": [{"days": "Mon-Fri", "time": "12:00pm"}, {"days": "Sat", "time": "10:45am"}, {"days": "Sun", "time": "Closed"}], "id": "6094500002", "name": "USPS COLLECTION BOX - PO LOBBY", "address": {"city": "IROQUOIS", "state": "IL", "street": "205 S MAIN ST", "postcode": "60945"}}},
{"geometry": {"type": "Point", "coordinates": [-88.2366612531, 40.9358075489]}, "type": "Feature", "properties": {"collection_times": [{"days": "Mon-Fri", "time": "4:00pm"}, {"days": "Sat", "time": "10:00am"}, {"days": "Sun", "time": "Closed"}], "id": "6094600001", "name": "USPS COLLECTION BOX - BLUE BOX", "address": {"city": "KEMPTON", "state": "IL", "street": "213 E MAIN ST", "postcode": "60946"}}},
{"geometry": {"type": "Point", "coordinates": [-88.2366612531, 40.9358075489]}, "type": "Feature", "properties": {"collection_times": [{"days": "Mon-Fri", "time": "12:00pm"}, {"days": "Sat", "time": "10:00am"}, {"days": "Sun", "time": "Closed"}], "id": "6094600002", "name": "USPS COLLECTION BOX - PO LOBBY", "address": {"city": "KEMPTON", "state": "IL", "street": "213 E MAIN ST", "postcode": "60946"}}},
{"geometry": {"type": "Point", "coordinates": [-88.0715432109, 40.5178846152]}, "type": "Feature", "properties": {"collection_times": [{"days": "Mon-Fri", "time": "4:30pm"}, {"days": "Sat", "time": "10:30am"}, {"days": "Sun", "time": "Closed"}], "id": "6094800001", "name": "USPS COLLECTION BOX - BLUE BOX", "address": {"city": "LODA", "state": "IL", "street": "203 N OAK ST", "postcode": "60948"}}},
{"geometry": {"type": "Point", "coordinates": [-88.0715432109, 40.5178846152]}, "type": "Feature", "properties": {"collection_times": [{"days": "Mon-Fri", "time": "12:00pm"}, {"days": "Sat", "time": "10:30am"}, {"days": "Sun", "time": "Closed"}], "id": "6094800002", "name": "USPS COLLECTION BOX - PO LOBBY", "address": {"city": "LODA", "state": "IL", "street": "203 N OAK ST", "postcode": "60948"}}},
{"geometry": {"type": "Point", "coordinates": [-88.1268055142, 40.3866015188]}, "type": "Feature", "properties": {"collection_times": [{"days": "Mon-Fri", "time": "5:00pm"}, {"days": "Sat", "time": "11:00am"}, {"days": "Sun", "time": "Closed"}], "id": "6094900001", "name": "USPS COLLECTION BOX - BLUE BOX", "address": {"city": "LUDLOW", "state": "IL", "street": "113 E THOMAS ST", "postcode": "60949"}}},
{"geometry": {"type": "Point", "coordinates": [-88.1268055142, 40.3866015188]}, "type": "Feature", "properties": {"collection_times": [{"days": "Mon-Fri", "time": "5:00pm"}, {"days": "Sat", "time": "11:00am"}, {"days": "Sun", "time": "Closed"}], "id": "6094900002", "name": "USPS COLLECTION BOX - PO LOBBY", "address": {"city": "LUDLOW", "state": "IL", "street": "113 E THOMAS ST", "postcode": "60949"}}},
{"geometry": {"type": "Point", "coordinates": [-87.8344572081, 41.2507327409]}, "type": "Feature", "properties": {"collection_times": [{"days": "Mon-Fri", "time": "5:00pm"}, {"days": "Sat", "time": "1:45pm"}, {"days": "Sun", "time": "Closed"}], "id": "6095000001", "name": "USPS COLLECTION BOX - BLUE BOX", "address": {"city": "MANTENO", "state": "IL", "street": "157 N MAIN ST", "postcode": "60950"}}},
{"geometry": {"type": "Point", "coordinates": [-87.8020488571, 41.2327607459]}, "type": "Feature", "properties": {"collection_times": [{"days": "Mon-Fri", "time": "12:00pm"}, {"days": "Sat-Sun", "time": "Closed"}], "id": "6095000006", "name": "USPS COLLECTION BOX - BLUE BOX", "address": {"city": "MANTENO", "state": "IL", "street": "1 DIVERSATECH DR", "postcode": "60950"}}},
{"geometry": {"type": "Point", "coordinates": [-87.8779590908, 41.2492626411]}, "type": "Feature", "properties": {"collection_times": [{"days": "Mon-Fri", "time": "12:00pm"}, {"days": "Sat", "time": "11:30am"}, {"days": "Sun", "time": "Closed"}], "id": "6095000009", "name": "USPS COLLECTION BOX - BLUE BOX", "address": {"city": "MANTENO", "state": "IL", "street": "1 GOLDEN DR", "postcode": "60950"}}},
{"geometry": {"type": "Point", "coordinates": [-87.833455795, 41.2477374601]}, "type": "Feature", "properties": {"collection_times": [{"days": "Mon-Fri", "time": "12:00pm"}, {"days": "Sat", "time": "11:30am"}, {"days": "Sun", "time": "Closed"}], "id": "6095000010", "name": "USPS COLLECTION BOX - BLUE BOX", "address": {"city": "MANTENO", "state": "IL", "street": "47 S LOCUST ST", "postcode": "60950"}}},
{"geometry": {"type": "Point", "coordinates": [-87.8305696753, 41.2532118116]}, "type": "Feature", "properties": {"collection_times": [{"days": "Mon-Fri", "time": "12:00pm"}, {"days": "Sat", "time": "11:30am"}, {"days": "Sun", "time": "Closed"}], "id": "6095000012", "name": "USPS COLLECTION BOX - BLUE BOX", "address": {"city": "MANTENO", "state": "IL", "street": "451 N LOCUST ST", "postcode": "60950"}}},
{"geometry": {"type": "Point", "coordinates": [-87.8344572081, 41.2507327409]}, "type": "Feature", "properties": {"collection_times": [{"days": "Mon-Fri", "time": "5:00pm"}, {"days": "Sat", "time": "1:45pm"}, {"days": "Sun", "time": "Closed"}], "id": "6095000014", "name": "USPS COLLECTION BOX - PO LOBBY", "address": {"city": "MANTENO", "state": "IL", "street": "157 N MAIN ST", "postcode": "60950"}}},
{"geometry": {"type": "Point", "coordinates": [-87.83405, 41.251217]}, "type": "Feature", "properties": {"collection_times": [{"days": "Mon-Fri", "time": "12:00pm"}, {"days": "Sat", "time": "11:30am"}, {"days": "Sun", "time": "Closed"}], "id": "6095000016", "name": "USPS COLLECTION BOX - BLUE BOX", "address": {"city": "MANTENO", "state": "IL", "street": "98 E THIRD ST", "postcode": "60950"}}},
{"geometry": {"type": "Point", "coordinates": [-87.7255865835, 40.9159692186]}, "type": "Feature", "properties": {"collection_times": [{"days": "Mon-Fri", "time": "4:30pm"}, {"days": "Sat", "time": "10:30am"}, {"days": "Sun", "time": "Closed"}], "id": "6095100001", "name": "USPS COLLECTION BOX - BLUE BOX", "address": {"city": "MARTINTON", "state": "IL", "street": "102 W MAIN ST", "postcode": "60951"}}},
{"geometry": {"type": "Point", "coordinates": [-87.7255865835, 40.9159692186]}, "type": "Feature", "properties": {"collection_times": [{"days": "Mon-Fri", "time": "11:30am"}, {"days": "Sat", "time": "10:30am"}, {"days": "Sun", "time": "Closed"}], "id": "6095100002", "name": "USPS COLLECTION BOX - PO LOBBY", "address": {"city": "MARTINTON", "state": "IL", "street": "102 E MAIN ST", "postcode": "60951"}}},
{"geometry": {"type": "Point", "coordinates": [-88.2442516749, 40.5611025788]}, "type": "Feature", "properties": {"collection_times": [{"days": "Mon-Fri", "time": "3:30pm"}, {"days": "Sat", "time": "10:30am"}, {"days": "Sun", "time": "Closed"}], "id": "6095200001", "name": "USPS COLLECTION BOX - BLUE BOX", "address": {"city": "MELVIN", "state": "IL", "street": "100 E MAIN ST", "postcode": "60952"}}},
{"geometry": {"type": "Point", "coordinates": [-88.2442516749, 40.5611025788]}, "type": "Feature", "properties": {"collection_times": [{"days": "Mon-Fri", "time": "11:30am"}, {"days": "Sat", "time": "10:30am"}, {"days": "Sun", "time": "Closed"}], "id": "6095200002", "name": "USPS COLLECTION BOX - PO LOBBY", "address": {"city": "MELVIN", "state": "IL", "street": "104 E MAIN ST", "postcode": "60952"}}},
{"geometry": {"type": "Point", "coordinates": [-87.6951418342, 40.6284940443]}, "type": "Feature", "properties": {"collection_times": [{"days": "Mon-Fri", "time": "4:45pm"}, {"days": "Sat", "time": "1:15pm"}, {"days": "Sun", "time": "Closed"}], "id": "6095300001", "name": "USPS COLLECTION BOX - BLUE BOX", "address": {"city": "MILFORD", "state": "IL", "street": "108 N WEST AVE", "postcode": "60953"}}},
{"geometry": {"type": "Point", "coordinates": [-87.6951418342, 40.6284940443]}, "type": "Feature", "properties": {"collection_times": [{"days": "Mon-Fri", "time": "4:45pm"}, {"days": "Sat", "time": "1:15pm"}, {"days": "Sun", "time": "Closed"}], "id": "6095300002", "name": "USPS COLLECTION BOX - PO LOBBY", "address": {"city": "MILFORD", "state": "IL", "street": "108 N WEST AVE", "postcode": "60953"}}},
{"geometry": {"type": "Point", "coordinates": [-87.6614306255, 41.1748736978]}, "type": "Feature", "properties": {"collection_times": [{"days": "Mon-Sat", "time": "10:00am"}, {"days": "Sun", "time": "Closed"}], "id": "6095400001", "name": "USPS COLLECTION BOX - BLUE BOX", "address": {"city": "MOMENCE", "state": "IL", "street": "157 STIRLING PL", "postcode": "60954"}}},
{"geometry": {"type": "Point", "coordinates": [-87.6611874733, 41.1630761807]}, "type": "Feature", "properties": {"collection_times": [{"days": "Mon-Fri", "time": "5:00pm"}, {"days": "Sat", "time": "2:45pm"}, {"days": "Sun", "time": "Closed"}], "id": "6095400004", "name": "USPS COLLECTION BOX - BLUE BOX", "address": {"city": "MOMENCE", "state": "IL", "street": "202 E WASHINGTON ST", "postcode": "60954"}}},
{"geometry": {"type": "Point", "coordinates": [-87.6611874733, 41.1630761807]}, "type": "Feature", "properties": {"collection_times": [{"days": "Mon-Fri", "time": "5:00pm"}, {"days": "Sat", "time": "2:45pm"}, {"days": "Sun", "time": "Closed"}], "id": "6095400006", "name": "USPS COLLECTION BOX - PO LOBBY", "address": {"city": "MOMENCE", "state": "IL", "street": "202 E WASHINGTON ST", "postcode": "60954"}}},
{"geometry": {"type": "Point", "coordinates": [-88.0074802583, 40.7149970992]}, "type": "Feature", "properties": {"collection_times": [{"days": "Mon-Fri", "time": "5:00pm"}, {"days": "Sat", "time": "11:00am"}, {"days": "Sun", "time": "Closed"}], "id": "6095500001", "name": "USPS COLLECTION BOX - BLUE BOX", "address": {"city": "ONARGA", "state": "IL", "street": "120 W SEMINARY AVE", "postcode": "60955"}}},
{"geometry": {"type": "Point", "coordinates": [-88.0074802583, 40.7149970992]}, "type": "Feature", "properties": {"collection_times": [{"days": "Mon-Fri", "time": "5:00pm"}, {"days": "Sat", "time": "11:00am"}, {"days": "Sun", "time": "Closed"}], "id": "6095500002", "name": "USPS COLLECTION BOX - PO LOBBY", "address": {"city": "ONARGA", "state": "IL", "street": "120 W SEMINARY AVE", "postcode": "60955"}}},
{"geometry": {"type": "Point", "coordinates": [-88.0074802583, 40.7149970992]}, "type": "Feature", "properties": {"collection_times": [{"days": "Mon-Fri", "time": "5:00pm"}, {"days": "Sat", "time": "11:00am"}, {"days": "Sun", "time": "Closed"}], "id": "6095500003", "name": "USPS COLLECTION BOX - BLUE BOX", "address": {"city": "ONARGA", "state": "IL", "street": "120 W SEMINARY AVE", "postcode": "60955"}}},
{"geometry": {"type": "Point", "coordinates": [-87.7162217021, 40.9702633585]}, "type": "Feature", "properties": {"collection_times": [{"days": "Mon-Fri", "time": "4:00pm"}, {"days": "Sat", "time": "10:45am"}, {"days": "Sun", "time": "Closed"}], "id": "6095600001", "name": "USPS COLLECTION BOX - BLUE BOX", "address": {"city": "PAPINEAU", "state": "IL", "street": "105 E PAPINEAU ST", "postcode": "60956"}}},
{"geometry": {"type": "Point", "coordinates": [-87.7162217021, 40.9702633585]}, "type": "Feature", "properties": {"collection_times": [{"days": "Mon-Fri", "time": "4:00pm"}, {"days": "Sat", "time": "10:45am"}, {"days": "Sun", "time": "Closed"}], "id": "6095600002", "name": "USPS COLLECTION BOX - PO LOBBY", "address": {"city": "PAPINEAU", "state": "IL", "street": "105 E PAPINEAU ST", "postcode": "60956"}}},
{"geometry": {"type": "Point", "coordinates": [-88.0989774511, 40.4612269463]}, "type": "Feature", "properties": {"collection_times": [{"days": "Mon-Fri", "time": "5:00pm"}, {"days": "Sat", "time": "12:00pm"}, {"days": "Sun", "time": "Closed"}], "id": "6095700005", "name": "USPS COLLECTION BOX - BLUE BOX", "address": {"city": "PAXTON", "state": "IL", "street": "101 N TAFT ST", "postcode": "60957"}}},
{"geometry": {"type": "Point", "coordinates": [-88.0985866528, 40.4624409155]}, "type": "Feature", "properties": {"collection_times": [{"days": "Mon-Fri", "time": "5:00pm"}, {"days": "Sat", "time": "12:00pm"}, {"days": "Sun", "time": "Closed"}], "id": "6095700009", "name": "USPS COLLECTION BOX - BLUE BOX", "address": {"city": "PAXTON", "state": "IL", "street": "200 W STATE ST", "postcode": "60957"}}},
{"geometry": {"type": "Point", "coordinates": [-88.0978445492, 40.4595470923]}, "type": "Feature", "properties": {"collection_times": [{"days": "Mon-Sat", "time": "5:00pm"}, {"days": "Sun", "time": "Closed"}], "id": "6095700013", "name": "USPS COLLECTION BOX - PO LOBBY", "address": {"city": "PAXTON", "state": "IL", "street": "209 S MARKET ST", "postcode": "60957"}}},
{"geometry": {"type": "Point", "coordinates": [-88.0978445492, 40.4595470923]}, "type": "Feature", "properties": {"collection_times": [{"days": "Mon-Sat", "time": "5:00pm"}, {"days": "Sun", "time": "Closed"}], "id": "6095700014", "name": "USPS COLLECTION BOX - BLUE BOX", "address": {"city": "PAXTON", "state": "IL", "street": "209 S MARKET ST", "postcode": "60957"}}},
{"geometry": {"type": "Point", "coordinates": [-88.1920760737, 40.758778581]}, "type": "Feature", "properties": {"collection_times": [{"days": "Mon-Fri", "time": "3:45pm"}, {"days": "Sat", "time": "10:30am"}, {"days": "Sun", "time": "Closed"}], "id": "6095900001", "name": "USPS COLLECTION BOX - BLUE BOX", "address": {"city": "PIPER CITY", "state": "IL", "street": "2 N PINE ST", "postcode": "60959"}}},
{"geometry": {"type": "Point", "coordinates": [-88.1920760737, 40.758778581]}, "type": "Feature", "properties": {"collection_times": [{"days": "Mon-Fri", "time": "3:45pm"}, {"days": "Sat", "time": "10:30am"}, {"days": "Sun", "time": "Closed"}], "id": "6095900002", "name": "USPS COLLECTION BOX - PO LOBBY", "address": {"city": "PIPER CITY", "state": "IL", "street": "2 N PINE ST", "postcode": "60959"}}},
{"geometry": {"type": "Point", "coordinates": [-87.8967673975, 40.4648855561]}, "type": "Feature", "properties": {"collection_times": [{"days": "Mon-Fri", "time": "4:00pm"}, {"days": "Sat", "time": "10:30am"}, {"days": "Sun", "time": "Closed"}], "id": "6096000001", "name": "USPS COLLECTION BOX - BLUE BOX", "address": {"city": "RANKIN", "state": "IL", "street": "102 S MAIN ST", "postcode": "60960"}}},
{"geometry": {"type": "Point", "coordinates": [-87.8967673975, 40.4648855561]}, "type": "Feature", "properties": {"collection_times": [{"days": "Mon-Fri", "time": "2:30pm"}, {"days": "Sat", "time": "10:30am"}, {"days": "Sun", "time": "Closed"}], "id": "6096000002", "name": "USPS COLLECTION BOX - PO LOBBY", "address": {"city": "RANKIN", "state": "IL", "street": "102 S MAIN ST", "postcode": "60960"}}},
{"geometry": {"type": "Point", "coordinates": [-88.2507195167, 41.0984980987]}, "type": "Feature", "properties": {"collection_times": [{"days": "Mon-Fri", "time": "4:00pm"}, {"days": "Sat", "time": "10:30am"}, {"days": "Sun", "time": "Closed"}], "id": "6096100001", "name": "USPS COLLECTION BOX - BLUE BOX", "address": {"city": "REDDICK", "state": "IL", "street": "113 W LINCOLN ST", "postcode": "60961"}}},
{"geometry": {"type": "Point", "coordinates": [-88.2507195167, 41.0984980987]}, "type": "Feature", "properties": {"collection_times": [{"days": "Mon-Fri", "time": "11:45am"}, {"days": "Sat", "time": "10:30am"}, {"days": "Sun", "time": "Closed"}], "id": "6096100002", "name": "USPS COLLECTION BOX - PO LOBBY", "address": {"city": "REDDICK", "state": "IL", "street": "113 W LINCOLN ST", "postcode": "60961"}}},
{"geometry": {"type": "Point", "coordinates": [-88.1827421986, 40.6131679093]}, "type": "Feature", "properties": {"collection_times": [{"days": "Mon-Fri", "time": "3:45pm"}, {"days": "Sat", "time": "10:30am"}, {"days": "Sun", "time": "Closed"}], "id": "6096200001", "name": "USPS COLLECTION BOX - BLUE BOX", "address": {"city": "ROBERTS", "state": "IL", "street": "110 E GREEN ST", "postcode": "60962"}}},
{"geometry": {"type": "Point", "coordinates": [-88.1827421986, 40.6131679093]}, "type": "Feature", "properties": {"collection_times": [{"days": "Mon-Fri", "time": "11:00am"}, {"days": "Sat", "time": "10:30am"}, {"days": "Sun", "time": "Closed"}], "id": "6096200002", "name": "USPS COLLECTION BOX - PO LOBBY", "address": {"city": "ROBERTS", "state": "IL", "street": "110 E GREEN ST", "postcode": "60962"}}},
{"geometry": {"type": "Point", "coordinates": [-87.6682119162, 40.3779620412]}, "type": "Feature", "properties": {"collection_times": [{"days": "Mon-Fri", "time": "4:30pm"}, {"days": "Sat", "time": "11:00am"}, {"days": "Sun", "time": "Closed"}], "id": "6096300002", "name": "USPS COLLECTION BOX - BLUE BOX", "address": {"city": "ROSSVILLE", "state": "IL", "street": "106 MAPLE ST", "postcode": "60963"}}},
{"geometry": {"type": "Point", "coordinates": [-87.6682119162, 40.3779620412]}, "type": "Feature", "properties": {"collection_times": [{"days": "Mon-Fri", "time": "4:30pm"}, {"days": "Sat", "time": "11:00am"}, {"days": "Sun", "time": "Closed"}], "id": "6096300008", "name": "USPS COLLECTION BOX - PO LOBBY", "address": {"city": "ROSSVILLE", "state": "IL", "street": "106 MAPLE ST", "postcode": "60963"}}},
{"geometry": {"type": "Point", "coordinates": [-87.7137920467, 41.0228879992]}, "type": "Feature", "properties": {"collection_times": [{"days": "Mon-Fri", "time": "5:00pm"}, {"days": "Sat", "time": "2:00pm"}, {"days": "Sun", "time": "Closed"}], "id": "6096400001", "name": "USPS COLLECTION BOX - BLUE BOX", "address": {"city": "SAINT ANNE", "state": "IL", "street": "201 S CHICAGO AVE", "postcode": "60964"}}},
{"geometry": {"type": "Point", "coordinates": [-87.7137920467, 41.0228879992]}, "type": "Feature", "properties": {"collection_times": [{"days": "Mon-Fri", "time": "5:00pm"}, {"days": "Sat", "time": "2:00pm"}, {"days": "Sun", "time": "Closed"}], "id": "6096400002", "name": "USPS COLLECTION BOX - PO LOBBY", "address": {"city": "SAINT ANNE", "state": "IL", "street": "201 S CHICAGO AVE", "postcode": "60964"}}},
{"geometry": {"type": "Point", "coordinates": [-87.564342809, 40.7708327496]}, "type": "Feature", "properties": {"collection_times": [{"days": "Mon-Fri", "time": "4:45pm"}, {"days": "Sat", "time": "11:00am"}, {"days": "Sun", "time": "Closed"}], "id": "6096600001", "name": "USPS COLLECTION BOX - BLUE BOX", "address": {"city": "SHELDON", "state": "IL", "street": "110 W DEPOT ST", "postcode": "60966"}}},
{"geometry": {"type": "Point", "coordinates": [-87.564342809, 40.7708327496]}, "type": "Feature", "properties": {"collection_times": [{"days": "Mon-Fri", "time": "4:45pm"}, {"days": "Sat", "time": "11:00am"}, {"days": "Sun", "time": "Closed"}], "id": "6096600002", "name": "USPS COLLECTION BOX - PO LOBBY", "address": {"city": "SHELDON", "state": "IL", "street": "110 W DEPOT ST", "postcode": "60966"}}},
{"geometry": {"type": "Point", "coordinates": [-87.593142844, 40.6126443967]}, "type": "Feature", "properties": {"collection_times": [{"days": "Mon-Sat", "time": "9:00am"}, {"days": "Sun", "time": "Closed"}], "id": "6096700001", "name": "USPS COLLECTION BOX - BLUE BOX", "address": {"city": "STOCKLAND", "state": "IL", "street": "2842 E 860 NORTH RD", "postcode": "60967"}}},
{"geometry": {"type": "Point", "coordinates": [-87.593142844, 40.6126443967]}, "type": "Feature", "properties": {"collection_times": [{"days": "Mon-Sat", "time": "9:00am"}, {"days": "Sun", "time": "Closed"}], "id": "6096700002", "name": "USPS COLLECTION BOX - PO LOBBY", "address": {"city": "STOCKLAND", "state": "IL", "street": "2842 E 860 NORTH RD", "postcode": "60967"}}},
{"geometry": {"type": "Point", "coordinates": [-88.1143180411, 40.6746805408]}, "type": "Feature", "properties": {"collection_times": [{"days": "Mon-Fri", "time": "3:45pm"}, {"days": "Sat", "time": "10:15am"}, {"days": "Sun", "time": "Closed"}], "id": "6096800001", "name": "USPS COLLECTION BOX - BLUE BOX", "address": {"city": "THAWVILLE", "state": "IL", "street": "106 W MAIN ST", "postcode": "60968"}}},
{"geometry": {"type": "Point", "coordinates": [-88.1143180411, 40.6746805408]}, "type": "Feature", "properties": {"collection_times": [{"days": "Mon-Fri", "time": "12:30pm"}, {"days": "Sat", "time": "10:15am"}, {"days": "Sun", "time": "Closed"}], "id": "6096800002", "name": "USPS COLLECTION BOX - PO LOBBY", "address": {"city": "THAWVILLE", "state": "IL", "street": "106 W MAIN ST", "postcode": "60968"}}},
{"geometry": {"type": "Point", "coordinates": [-88.1468270258, 41.1080934423]}, "type": "Feature", "properties": {"collection_times": [{"days": "Mon-Fri", "time": "12:00pm"}, {"days": "Sat", "time": "10:00am"}, {"days": "Sun", "time": "Closed"}], "id": "6096900002", "name": "USPS COLLECTION BOX - PO LOBBY", "address": {"city": "UNION HILL", "state": "IL", "street": "1 CENTER ST", "postcode": "60969"}}},
{"geometry": {"type": "Point", "coordinates": [-87.7446939361, 40.7794585232]}, "type": "Feature", "properties": {"collection_times": [{"days": "Mon-Sat", "time": "10:00am"}, {"days": "Sun", "time": "Closed"}], "id": "6097000002", "name": "USPS COLLECTION BOX - BLUE BOX", "address": {"city": "WATSEKA", "state": "IL", "street": "750 W WALNUT ST", "postcode": "60970"}}},
{"geometry": {"type": "Point", "coordinates": [-87.7345699018, 40.7762045954]}, "type": "Feature", "properties": {"collection_times": [{"days": "Mon-Sat", "time": "5:00pm"}, {"days": "Sun", "time": "Closed"}], "id": "6097000009", "name": "USPS COLLECTION BOX - BLUE BOX", "address": {"city": "WATSEKA", "state": "IL", "street": "101 W WALNUT ST", "postcode": "60970"}}},
{"geometry": {"type": "Point", "coordinates": [-87.7345699018, 40.7762045954]}, "type": "Feature", "properties": {"collection_times": [{"days": "Mon-Sat", "time": "5:00pm"}, {"days": "Sun", "time": "Closed"}], "id": "6097000010", "name": "USPS COLLECTION BOX - BLUE BOX", "address": {"city": "WATSEKA", "state": "IL", "street": "101 W WALNUT ST", "postcode": "60970"}}},
{"geometry": {"type": "Point", "coordinates": [-87.7345699018, 40.7762045954]}, "type": "Feature", "properties": {"collection_times": [{"days": "Mon-Sat", "time": "5:00pm"}, {"days": "Sun", "time": "Closed"}], "id": "6097000011", "name": "USPS COLLECTION BOX - BLUE BOX", "address": {"city": "WATSEKA", "state": "IL", "street": "101 W WALNUT ST", "postcode": "60970"}}},
{"geometry": {"type": "Point", "coordinates": [-87.7116279455, 40.7757148784]}, "type": "Feature", "properties": {"collection_times": [{"days": "Mon-Sat", "time": "2:00pm"}, {"days": "Sun", "time": "Closed"}], "id": "6097000012", "name": "USPS COLLECTION BOX - BLUE BOX", "address": {"city": "WATSEKA", "state": "IL", "street": "1152 E WALNUT ST", "postcode": "60970"}}},
{"geometry": {"type": "Point", "coordinates": [-87.7345699018, 40.7762045954]}, "type": "Feature", "properties": {"collection_times": [{"days": "Mon-Sat", "time": "5:00pm"}, {"days": "Sun", "time": "Closed"}], "id": "6097000013", "name": "USPS COLLECTION BOX - BLUE BOX", "address": {"city": "WATSEKA", "state": "IL", "street": "101 W WALNUT ST", "postcode": "60970"}}},
{"geometry": {"type": "Point", "coordinates": [-87.7345699018, 40.7762045954]}, "type": "Feature", "properties": {"collection_times": [{"days": "Mon-Fri", "time": "5:00pm"}, {"days": "Sat", "time": "4:00pm"}, {"days": "Sun", "time": "Closed"}], "id": "6097000014", "name": "USPS COLLECTION BOX - PO LOBBY", "address": {"city": "WATSEKA", "state": "IL", "street": "101 W WALNUT ST", "postcode": "60970"}}},
{"geometry": {"type": "Point", "coordinates": [-87.7345699018, 40.7762045954]}, "type": "Feature", "properties": {"collection_times": [{"days": "Mon-Fri", "time": "5:00pm"}, {"days": "Sat", "time": "4:00pm"}, {"days": "Sun", "time": "Closed"}], "id": "6097000015", "name": "USPS COLLECTION BOX - BLUE BOX", "address": {"city": "WATSEKA", "state": "IL", "street": "101 W WALNUT ST", "postcode": "60970"}}},
{"geometry": {"type": "Point", "coordinates": [-87.6785698141, 40.5389867287]}, "type": "Feature", "properties": {"collection_times": [{"days": "Mon-Fri", "time": "4:00pm"}, {"days": "Sat", "time": "10:30am"}, {"days": "Sun", "time": "Closed"}], "id": "6097300001", "name": "USPS COLLECTION BOX - BLUE BOX", "address": {"city": "WELLINGTON", "state": "IL", "street": "311 E MAIN ST", "postcode": "60973"}}},
{"geometry": {"type": "Point", "coordinates": [-87.6785698141, 40.5389867287]}, "type": "Feature", "properties": {"collection_times": [{"days": "Mon-Fri", "time": "11:55am"}, {"days": "Sat", "time": "10:30am"}, {"days": "Sun", "time": "Closed"}], "id": "6097300002", "name": "USPS COLLECTION BOX - PO LOBBY", "address": {"city": "WELLINGTON", "state": "IL", "street": "311 E MAIN ST", "postcode": "60973"}}},
{"geometry": {"type": "Point", "coordinates": [-87.7312062068, 40.7145601472]}, "type": "Feature", "properties": {"collection_times": [{"days": "Mon-Fri", "time": "4:00pm"}, {"days": "Sat", "time": "10:30am"}, {"days": "Sun", "time": "Closed"}], "id": "6097400001", "name": "USPS COLLECTION BOX - BLUE BOX", "address": {"city": "WOODLAND", "state": "IL", "street": "102 S WEST AVE", "postcode": "60974"}}},
{"geometry": {"type": "Point", "coordinates": [-87.7312062068, 40.7145601472]}, "type": "Feature", "properties": {"collection_times": [{"days": "Mon-Fri", "time": "4:00pm"}, {"days": "Sat", "time": "10:30am"}, {"days": "Sun", "time": "Closed"}], "id": "6097400002", "name": "USPS COLLECTION BOX - PO LOBBY", "address": {"city": "WOODLAND", "state": "IL", "street": "102 S WEST AVE", "postcode": "60974"}}}
]}
