{"type": "FeatureCollection", "features": [
{"geometry": {"type": "Point", "coordinates": [-90.1011152182, 42.503313837]}, "type": "Feature", "properties": {"collection_times": [{"days": "Mon-Fri", "time": "3:30pm"}, {"days": "Sat", "time": "11:00am"}, {"days": "Sun", "time": "Closed"}], "id": "6100100001", "name": "USPS COLLECTION BOX - BLUE BOX", "address": {"city": "APPLE RIVER", "state": "IL", "street": "110 W RAILROAD ST", "postcode": "61001"}}},
{"geometry": {"type": "Point", "coordinates": [-90.1011152182, 42.503313837]}, "type": "Feature", "properties": {"collection_times": [{"days": "Mon-Fri", "time": "4:00pm"}, {"days": "Sat", "time": "11:00am"}, {"days": "Sun", "time": "Closed"}], "id": "6100100002", "name": "USPS COLLECTION BOX - PO LOBBY", "address": {"city": "APPLE RIVER", "state": "IL", "street": "110 W RAILROAD ST", "postcode": "61001"}}},
{"geometry": {"type": "Point", "coordinates": [-90.1011152182, 42.503313837]}, "type": "Feature", "properties": {"collection_times": [{"days": "Mon-Fri", "time": "4:00pm"}, {"days": "Sat", "time": "11:00am"}, {"days": "Sun", "time": "Closed"}], "id": "6100100003", "name": "USPS COLLECTION BOX - PO LOBBY", "address": {"city": "APPLE RIVER", "state": "IL", "street": "110 W RAILROAD ST", "postcode": "61001"}}},
{"geometry": {"type": "Point", "coordinates": [-89.219339438, 41.8692844507]}, "type": "Feature", "properties": {"collection_times": [{"days": "Mon-Fri", "time": "4:15pm"}, {"days": "Sat", "time": "12:15pm"}, {"days": "Sun", "time": "Closed"}], "id": "6100600001", "name": "USPS COLLECTION BOX - BLUE BOX", "address": {"city": "ASHTON", "state": "IL", "street": "605 BROWN AVE", "postcode": "61006"}}},
{"geometry": {"type": "Point", "coordinates": [-89.219339438, 41.8692844507]}, "type": "Feature", "properties": {"collection_times": [{"days": "Mon-Fri", "time": "4:15pm"}, {"days": "Sat", "time": "12:15pm"}, {"days": "Sun", "time": "Closed"}], "id": "6100600002", "name": "USPS COLLECTION BOX - PO LOBBY", "address": {"city": "ASHTON", "state": "IL", "street": "605 BROWN AVE", "postcode": "61006"}}},
{"geometry": {"type": "Point", "coordinates": [-89.219339438, 41.8692844507]}, "type": "Feature", "properties": {"collection_times": [{"days": "Mon-Fri", "time": "4:15pm"}, {"days": "Sat", "time": "12:15pm"}, {"days": "Sun", "time": "Closed"}], "id": "6100600003", "name": "USPS COLLECTION BOX - PO LOBBY", "address": {"city": "ASHTON", "state": "IL", "street": "605 BROWN AVE", "postcode": "61006"}}},
{"geometry": {"type": "Point", "coordinates": [-89.5929033286, 42.1969089562]}, "type": "Feature", "properties": {"collection_times": [{"days": "Mon-Fri", "time": "4:30pm"}, {"days": "Sat", "time": "11:30am"}, {"days": "Sun", "time": "Closed"}], "id": "6100700001", "name": "USPS COLLECTION BOX - BLUE BOX", "address": {"city": "BAILEYVILLE", "state": "IL", "street": "100 S COMMERCIAL ST", "postcode": "61007"}}},
{"geometry": {"type": "Point", "coordinates": [-89.5929033286, 42.1969089562]}, "type": "Feature", "properties": {"collection_times": [{"days": "Mon-Fri", "time": "4:30pm"}, {"days": "Sat", "time": "11:30am"}, {"days": "Sun", "time": "Closed"}], "id": "6100700002", "name": "USPS COLLECTION BOX - PO LOBBY", "address": {"city": "BAILEYVILLE", "state": "IL", "street": "100 S COMMERICAL ST", "postcode": "61007"}}},
{"geometry": {"type": "Point", "coordinates": [-88.8507308698, 42.2573197222]}, "type": "Feature", "properties": {"collection_times": [{"days": "Mon-Sat", "time": "9:00am"}, {"days": "Sun", "time": "Closed"}], "id": "6100800004", "name": "USPS COLLECTION BOX - BLUE BOX", "address": {"city": "BELVIDERE", "state": "IL", "street": "628 W LINCOLN AVE", "postcode": "61008"}}},
{"geometry": {"type": "Point", "coordinates": [-88.8231232379, 42.2526332688]}, "type": "Feature", "properties": {"collection_times": [{"days": "Mon-Fri", "time": "4:15pm"}, {"days": "Sat", "time": "3:15pm"}, {"days": "Sun", "time": "Closed"}], "id": "6100800006", "name": "USPS COLLECTION BOX - BLUE BOX", "address": {"city": "BELVIDERE", "state": "IL", "street": "1212 LOGAN AVE", "postcode": "61008"}}},
{"geometry": {"type": "Point", "coordinates": [-88.8633565908, 42.274648888]}, "type": "Feature", "properties": {"collection_times": [{"days": "Mon-Fri", "time": "5:00pm"}, {"days": "Sat", "time": "4:00pm"}, {"days": "Sun", "time": "Closed"}], "id": "6100800009", "name": "USPS COLLECTION BOX - APC", "address": {"city": "BELVIDERE", "state": "IL", "street": "1800 DOC WOLF DR", "postcode": "61008"}}},
{"geometry": {"type": "Point", "coordinates": [-88.8548683517, 42.2631422618]}, "type": "Feature", "properties": {"collection_times": [{"days": "Mon-Fri", "time": "4:45pm"}, {"days": "Sat", "time": "4:00pm"}, {"days": "Sun", "time": "Closed"}], "id": "6100800010", "name": "USPS COLLECTION BOX - BLUE BOX", "address": {"city": "BELVIDERE", "state": "IL", "street": "1400 BIG THUNDER BLVD", "postcode": "61008"}}},
{"geometry": {"type": "Point", "coordinates": [-88.8391106639, 42.2552341655]}, "type": "Feature", "properties": {"collection_times": [{"days": "Mon-Fri", "time": "4:45pm"}, {"days": "Sat", "time": "4:00pm"}, {"days": "Sun", "time": "Closed"}], "id": "6100800012", "name": "USPS COLLECTION BOX - BLUE BOX", "address": {"city": "BELVIDERE", "state": "IL", "street": "530 S STATE ST", "postcode": "61008"}}},
{"geometry": {"type": "Point", "coordinates": [-88.8391343231, 42.2567814758]}, "type": "Feature", "properties": {"collection_times": [{"days": "Mon-Fri", "time": "4:30pm"}, {"days": "Sat", "time": "4:00pm"}, {"days": "Sun", "time": "Closed"}], "id": "6100800014", "name": "USPS COLLECTION BOX - BLUE BOX", "address": {"city": "BELVIDERE", "state": "IL", "street": "401 WHITNEY BLVD", "postcode": "61008"}}},
{"geometry": {"type": "Point", "coordinates": [-88.8391343231, 42.2567814758]}, "type": "Feature", "properties": {"collection_times": [{"days": "Mon-Fri", "time": "4:30pm"}, {"days": "Sat", "time": "4:00pm"}, {"days": "Sun", "time": "Closed"}], "id": "6100800015", "name": "USPS COLLECTION BOX - BLUE BOX", "address": {"city": "BELVIDERE", "state": "IL", "street": "401 WHITNEY BLVD", "postcode": "61008"}}},
{"geometry": {"type": "Point", "coordinates": [-88.8415463764, 42.2576911713]}, "type": "Feature", "properties": {"collection_times": [{"days": "Mon-Fri", "time": "4:30pm"}, {"days": "Sat", "time": "4:00pm"}, {"days": "Sun", "time": "Closed"}], "id": "6100800017", "name": "USPS COLLECTION BOX - BLUE BOX", "address": {"city": "BELVIDERE", "state": "IL", "street": "200 S STATE ST", "postcode": "61008"}}},
{"geometry": {"type": "Point", "coordinates": [-88.8437195905, 42.2410560598]}, "type": "Feature", "properties": {"collection_times": [{"days": "Mon-Fri", "time": "4:00pm"}, {"days": "Sat", "time": "3:15pm"}, {"days": "Sun", "time": "Closed"}], "id": "6100800019", "name": "USPS COLLECTION BOX - BLUE BOX", "address": {"city": "BELVIDERE", "state": "IL", "street": "413 FRONTAGE RD", "postcode": "61008"}}},
{"geometry": {"type": "Point", "coordinates": [-88.8422171141, 42.2402082207]}, "type": "Feature", "properties": {"collection_times": [{"days": "Mon-Fri", "time": "4:00pm"}, {"days": "Sat", "time": "3:15pm"}, {"days": "Sun", "time": "Closed"}], "id": "6100800020", "name": "USPS COLLECTION BOX - BLUE BOX", "address": {"city": "BELVIDERE", "state": "IL", "street": "372 W CHRYSLER DR", "postcode": "61008"}}},
{"geometry": {"type": "Point", "coordinates": [-88.8355002731, 42.2477980854]}, "type": "Feature", "properties": {"collection_times": [{"days": "Mon-Sat", "time": "1:00pm"}, {"days": "Sun", "time": "Closed"}], "id": "6100800021", "name": "USPS COLLECTION BOX - BLUE BOX", "address": {"city": "BELVIDERE", "state": "IL", "street": "353 E 6TH ST", "postcode": "61008"}}},
{"geometry": {"type": "Point", "coordinates": [-88.8452354155, 42.2647136819]}, "type": "Feature", "properties": {"collection_times": [{"days": "Mon-Fri", "time": "4:30pm"}, {"days": "Sat", "time": "3:30pm"}, {"days": "Sun", "time": "Closed"}], "id": "6100800023", "name": "USPS COLLECTION BOX - BLUE BOX", "address": {"city": "BELVIDERE", "state": "IL", "street": "601 N MAIN ST", "postcode": "61008"}}},
{"geometry": {"type": "Point", "coordinates": [-88.8453969078, 42.2426119933]}, "type": "Feature", "properties": {"collection_times": [{"days": "Mon-Sat", "time": "9:30am"}, {"days": "Sun", "time": "Closed"}], "id": "6100800030", "name": "USPS COLLECTION BOX - BLUE BOX", "address": {"city": "BELVIDERE", "state": "IL", "street": "1800 MAPLE AVE", "postcode": "61008"}}},
{"geometry": {"type": "Point", "coordinates": [-88.8465834157, 42.2486509989]}, "type": "Feature", "properties": {"collection_times": [{"days": "Mon-Fri", "time": "4:00pm"}, {"days": "Sat", "time": "3:15pm"}, {"days": "Sun", "time": "Closed"}], "id": "6100800032", "name": "USPS COLLECTION BOX - BLUE BOX", "address": {"city": "BELVIDERE", "state": "IL", "street": "1201 5TH AVE", "postcode": "61008"}}},
{"geometry": {"type": "Point", "coordinates": [-88.8633565908, 42.274648888]}, "type": "Feature", "properties": {"collection_times": [{"days": "Mon-Fri", "time": "5:00pm"}, {"days": "Sat", "time": "4:00pm"}, {"days": "Sun", "time": "Closed"}], "id": "6100800034", "name": "USPS COLLECTION BOX - PO LOBBY", "address": {"city": "BELVIDERE", "state": "IL", "street": "1800 DOC WOLF DR", "postcode": "61008"}}},
{"geometry": {"type": "Point", "coordinates": [-88.8633565908, 42.274648888]}, "type": "Feature", "properties": {"collection_times": [{"days": "Mon-Fri", "time": "5:00pm"}, {"days": "Sat", "time": "4:00pm"}, {"days": "Sun", "time": "Closed"}], "id": "6100800035", "name": "USPS COLLECTION BOX - PO LOBBY", "address": {"city": "BELVIDERE", "state": "IL", "street": "1800 DOC WOLF DR", "postcode": "61008"}}},
{"geometry": {"type": "Point", "coordinates": [-88.8633565908, 42.274648888]}, "type": "Feature", "properties": {"collection_times": [{"days": "Mon-Fri", "time": "5:00pm"}, {"days": "Sat", "time": "4:00pm"}, {"days": "Sun", "time": "Closed"}], "id": "6100800036", "name": "USPS COLLECTION BOX - BLUE BOX", "address": {"city": "BELVIDERE", "state": "IL", "street": "1800 DOC WOLF DR", "postcode": "61008"}}},
{"geometry": {"type": "Point", "coordinates": [-88.8633565908, 42.274648888]}, "type": "Feature", "properties": {"collection_times": [{"days": "Mon-Fri", "time": "5:00pm"}, {"days": "Sat", "time": "4:00pm"}, {"days": "Sun", "time": "Closed"}], "id": "6100800037", "name": "USPS COLLECTION BOX - BLUE BOX", "address": {"city": "BELVIDERE", "state": "IL", "street": "1800 DOC WOLF DR", "postcode": "61008"}}},
{"geometry": {"type": "Point", "coordinates": [-88.8416114391, 42.2554175241]}, "type": "Feature", "properties": {"collection_times": [{"days": "Mon-Fri", "time": "4:00pm"}, {"days": "Sat", "time": "3:15pm"}, {"days": "Sun", "time": "Closed"}], "id": "6100800039", "name": "USPS COLLECTION BOX - BLUE BOX", "address": {"city": "BELVIDERE", "state": "IL", "street": "520 PEARL ST", "postcode": "61008"}}},
{"geometry": {"type": "Point", "coordinates": [-88.8633565908, 42.274648888]}, "type": "Feature", "properties": {"collection_times": [{"days": "Mon-Fri", "time": "5:00pm"}, {"days": "Sat", "time": "4:00pm"}, {"days": "Sun", "time": "Closed"}], "id": "6100800040", "name": "USPS COLLECTION BOX - BLUE BOX", "address": {"city": "BELVIDERE", "state": "IL", "street": "1800 DOC WOLF DR", "postcode": "61008"}}},
{"geometry": {"type": "Point", "coordinates": [-88.8214845753, 42.2522661215]}, "type": "Feature", "properties": {"collection_times": [{"days": "Mon-Fri", "time": "4:15pm"}, {"days": "Sat", "time": "3:15pm"}, {"days": "Sun", "time": "Closed"}], "id": "6100800041", "name": "USPS COLLECTION BOX - BLUE BOX", "address": {"city": "BELVIDERE", "state": "IL", "street": "1776 LOGAN AVE", "postcode": "61008"}}},
{"geometry": {"type": "Point", "coordinates": [-89.255931237, 42.127087071]}, "type": "Feature", "properties": {"collection_times": [{"days": "Mon-Fri", "time": "5:00pm"}, {"days": "Sat", "time": "12:00pm"}, {"days": "Sun", "time": "Closed"}], "id": "6101000001", "name": "USPS COLLECTION BOX - BLUE BOX", "address": {"city": "BYRON", "state": "IL", "street": "232 N UNION ST", "postcode": "61010"}}},
{"geometry": {"type": "Point", "coordinates": [-89.255931237, 42.127087071]}, "type": "Feature", "properties": {"collection_times": [{"days": "Mon-Fri", "time": "5:00pm"}, {"days": "Sat", "time": "12:00pm"}, {"days": "Sun", "time": "Closed"}], "id": "6101000004", "name": "USPS COLLECTION BOX - PO LOBBY", "address": {"city": "BYRON", "state": "IL", "street": "232 N UNION ST", "postcode": "61010"}}},
{"geometry": {"type": "Point", "coordinates": [-89.255931237, 42.127087071]}, "type": "Feature", "properties": {"collection_times": [{"days": "Mon-Fri", "time": "5:00pm"}, {"days": "Sat", "time": "12:00pm"}, {"days": "Sun", "time": "Closed"}], "id": "6101000005", "name": "USPS COLLECTION BOX - PO LOBBY", "address": {"city": "BYRON", "state": "IL", "street": "232 N UNION ST", "postcode": "61010"}}},
{"geometry": {"type": "Point", "coordinates": [-89.255931237, 42.127087071]}, "type": "Feature", "properties": {"collection_times": [{"days": "Mon-Fri", "time": "5:00pm"}, {"days": "Sat", "time": "12:00pm"}, {"days": "Sun", "time": "Closed"}], "id": "6101000006", "name": "USPS COLLECTION BOX - BLUE BOX", "address": {"city": "BYRON", "state": "IL", "street": "232 N UNION ST", "postcode": "61010"}}},
{"geometry": {"type": "Point", "coordinates": [-88.8958417524, 42.3706648855]}, "type": "Feature", "properties": {"collection_times": [{"days": "Mon-Fri", "time": "4:15pm"}, {"days": "Sat", "time": "11:30am"}, {"days": "Sun", "time": "Closed"}], "id": "6101100001", "name": "USPS COLLECTION BOX - BLUE BOX", "address": {"city": "CALEDONIA", "state": "IL", "street": "2201 IL ROUTE 173", "postcode": "61011"}}},
{"geometry": {"type": "Point", "coordinates": [-88.8958417524, 42.3706648855]}, "type": "Feature", "properties": {"collection_times": [{"days": "Mon-Fri", "time": "4:15pm"}, {"days": "Sat", "time": "11:30am"}, {"days": "Sun", "time": "Closed"}], "id": "6101100002", "name": "USPS COLLECTION BOX - PO LOBBY", "address": {"city": "CALEDONIA", "state": "IL", "street": "2201 IL ROUTE 173", "postcode": "61011"}}},
{"geometry": {"type": "Point", "coordinates": [-88.8958417524, 42.3706648855]}, "type": "Feature", "properties": {"collection_times": [{"days": "Mon-Fri", "time": "4:15pm"}, {"days": "Sat", "time": "11:30am"}, {"days": "Sun", "time": "Closed"}], "id": "6101100003", "name": "USPS COLLECTION BOX - PO LOBBY", "address": {"city": "CALEDONIA", "state": "IL", "street": "2201 IL ROUTE 173", "postcode": "61011"}}},
{"geometry": {"type": "Point", "coordinates": [-88.7410954159, 42.3994084723]}, "type": "Feature", "properties": {"collection_times": [{"days": "Mon-Fri", "time": "4:30pm"}, {"days": "Sat", "time": "11:30am"}, {"days": "Sun", "time": "Closed"}], "id": "6101200001", "name": "USPS COLLECTION BOX - BLUE BOX", "address": {"city": "CAPRON", "state": "IL", "street": "120 W MAIN ST", "postcode": "61012"}}},
{"geometry": {"type": "Point", "coordinates": [-88.7410954159, 42.3994084723]}, "type": "Feature", "properties": {"collection_times": [{"days": "Mon-Fri", "time": "4:30pm"}, {"days": "Sat", "time": "11:30am"}, {"days": "Sun", "time": "Closed"}], "id": "6101200002", "name": "USPS COLLECTION BOX - PO LOBBY", "address": {"city": "CAPRON", "state": "IL", "street": "120 W MAIN ST", "postcode": "61012"}}},
{"geometry": {"type": "Point", "coordinates": [-88.7410954159, 42.3994084723]}, "type": "Feature", "properties": {"collection_times": [{"days": "Mon-Fri", "time": "4:30pm"}, {"days": "Sat", "time": "11:30am"}, {"days": "Sun", "time": "Closed"}], "id": "6101200003", "name": "USPS COLLECTION BOX - PO LOBBY", "address": {"city": "CAPRON", "state": "IL", "street": "120 W MAIN ST", "postcode": "61012"}}},
{"geometry": {"type": "Point", "coordinates": [-89.6329823567, 42.3742302685]}, "type": "Feature", "properties": {"collection_times": [{"days": "Mon-Fri", "time": "4:00pm"}, {"days": "Sat", "time": "11:30am"}, {"days": "Sun", "time": "Closed"}], "id": "6101300001", "name": "USPS COLLECTION BOX - BLUE BOX", "address": {"city": "CEDARVILLE", "state": "IL", "street": "125 W WASHINGTON ST", "postcode": "61013"}}},
{"geometry": {"type": "Point", "coordinates": [-89.6329823567, 42.3742302685]}, "type": "Feature", "properties": {"collection_times": [{"days": "Mon-Fri", "time": "4:00pm"}, {"days": "Sat", "time": "11:30am"}, {"days": "Sun", "time": "Closed"}], "id": "6101300002", "name": "USPS COLLECTION BOX - PO LOBBY", "address": {"city": "CEDARVILLE", "state": "IL", "street": "125 W WASHINGTON ST", "postcode": "61013"}}},
{"geometry": {"type": "Point", "coordinates": [-89.6329823567, 42.3742302685]}, "type": "Feature", "properties": {"collection_times": [{"days": "Mon-Fri", "time": "4:00pm"}, {"days": "Sat", "time": "11:30am"}, {"days": "Sun", "time": "Closed"}], "id": "6101300003", "name": "USPS COLLECTION BOX - PO LOBBY", "address": {"city": "CEDARVILLE", "state": "IL", "street": "125 W WASHINGTON ST", "postcode": "61013"}}},
{"geometry": {"type": "Point", "coordinates": [-89.8844478199, 41.9745208805]}, "type": "Feature", "properties": {"collection_times": [{"days": "Mon-Fri", "time": "4:00pm"}, {"days": "Sat", "time": "11:00am"}, {"days": "Sun", "time": "Closed"}], "id": "6101400001", "name": "USPS COLLECTION BOX - BLUE BOX", "address": {"city": "CHADWICK", "state": "IL", "street": "218 N MAIN ST", "postcode": "61014"}}},
{"geometry": {"type": "Point", "coordinates": [-89.8844478199, 41.9745208805]}, "type": "Feature", "properties": {"collection_times": [{"days": "Mon-Fri", "time": "4:00pm"}, {"days": "Sat", "time": "11:00am"}, {"days": "Sun", "time": "Closed"}], "id": "6101400002", "name": "USPS COLLECTION BOX - PO LOBBY", "address": {"city": "CHADWICK", "state": "IL", "street": "218 N MAIN ST", "postcode": "61014"}}},
{"geometry": {"type": "Point", "coordinates": [-89.8844478199, 41.9745208805]}, "type": "Feature", "properties": {"collection_times": [{"days": "Mon-Fri", "time": "4:00pm"}, {"days": "Sat", "time": "11:00am"}, {"days": "Sun", "time": "Closed"}], "id": "6101400003", "name": "USPS COLLECTION BOX - PO LOBBY", "address": {"city": "CHADWICK", "state": "IL", "street": "218 N MAIN ST", "postcode": "61014"}}},
{"geometry": {"type": "Point", "coordinates": [-89.22157674, 41.9801973336]}, "type": "Feature", "properties": {"collection_times": [{"days": "Mon-Fri", "time": "4:15pm"}, {"days": "Sat", "time": "12:00pm"}, {"days": "Sun", "time": "Closed"}], "id": "6101500001", "name": "USPS COLLECTION BOX - BLUE BOX", "address": {"city": "CHANA", "state": "IL", "street": "300 MAIN ST UNIT 0", "postcode": "61015"}}},
{"geometry": {"type": "Point", "coordinates": [-89.22157674, 41.9801973336]}, "type": "Feature", "properties": {"collection_times": [{"days": "Mon-Fri", "time": "4:15pm"}, {"days": "Sat", "time": "12:00pm"}, {"days": "Sun", "time": "Closed"}], "id": "6101500002", "name": "USPS COLLECTION BOX - PO LOBBY", "address": {"city": "CHANA", "state": "IL", "street": "300 MAIN ST UNIT 0", "postcode": "61015"}}},
{"geometry": {"type": "Point", "coordinates": [-88.9526611812, 42.2354952238]}, "type": "Feature", "properties": {"collection_times": [{"days": "Mon-Fri", "time": "4:45pm"}, {"days": "Sat", "time": "11:45am"}, {"days": "Sun", "time": "Closed"}], "id": "6101600001", "name": "USPS COLLECTION BOX - BLUE BOX", "address": {"city": "CHERRY VALLEY", "state": "IL", "street": "210 E STATE ST", "postcode": "61016"}}},
{"geometry": {"type": "Point", "coordinates": [-88.9526611812, 42.2354952238]}, "type": "Feature", "properties": {"collection_times": [{"days": "Mon-Fri", "time": "4:45pm"}, {"days": "Sat", "time": "11:45am"}, {"days": "Sun", "time": "Closed"}], "id": "6101600002", "name": "USPS COLLECTION BOX - PO LOBBY", "address": {"city": "CHERRY VALLEY", "state": "IL", "street": "210 E STATE ST", "postcode": "61016"}}},
{"geometry": {"type": "Point", "coordinates": [-89.5259678149, 42.3887591066]}, "type": "Feature", "properties": {"collection_times": [{"days": "Mon-Fri", "time": "4:30pm"}, {"days": "Sat", "time": "11:15am"}, {"days": "Sun", "time": "Closed"}], "id": "6101800001", "name": "USPS COLLECTION BOX - BLUE BOX", "address": {"city": "DAKOTA", "state": "IL", "street": "139 W MAIN ST", "postcode": "61018"}}},
{"geometry": {"type": "Point", "coordinates": [-89.5259678149, 42.3887591066]}, "type": "Feature", "properties": {"collection_times": [{"days": "Mon-Fri", "time": "4:15pm"}, {"days": "Sat", "time": "11:15am"}, {"days": "Sun", "time": "Closed"}], "id": "6101800003", "name": "USPS COLLECTION BOX - PO LOBBY", "address": {"city": "DAKOTA", "state": "IL", "street": "139 W MAIN ST", "postcode": "61018"}}},
{"geometry": {"type": "Point", "coordinates": [-89.4141599947, 42.4219270563]}, "type": "Feature", "properties": {"collection_times": [{"days": "Mon-Fri", "time": "4:45pm"}, {"days": "Sat", "time": "11:30am"}, {"days": "Sun", "time": "Closed"}], "id": "6101900001", "name": "USPS COLLECTION BOX - BLUE BOX", "address": {"city": "DAVIS", "state": "IL", "street": "420 N STANTON ST", "postcode": "61019"}}},
{"geometry": {"type": "Point", "coordinates": [-89.3810816116, 42.4543347699]}, "type": "Feature", "properties": {"collection_times": [{"days": "Mon-Sat", "time": "1:00pm"}, {"days": "Sun", "time": "Closed"}], "id": "6101900002", "name": "USPS COLLECTION BOX - BLUE BOX", "address": {"city": "DAVIS", "state": "IL", "street": "13965 BEST RD", "postcode": "61019"}}},
{"geometry": {"type": "Point", "coordinates": [-89.4141599947, 42.4219270563]}, "type": "Feature", "properties": {"collection_times": [{"days": "Mon-Fri", "time": "4:45pm"}, {"days": "Sat", "time": "11:30am"}, {"days": "Sun", "time": "Closed"}], "id": "6101900003", "name": "USPS COLLECTION BOX - PO LOBBY", "address": {"city": "DAVIS", "state": "IL", "street": "420 N STANTON ST", "postcode": "61019"}}},
{"geometry": {"type": "Point", "coordinates": [-89.4227809399, 42.4188709411]}, "type": "Feature", "properties": {"collection_times": [{"days": "Mon-Sat", "time": "1:00pm"}, {"days": "Sun", "time": "Closed"}], "id": "6101900004", "name": "USPS COLLECTION BOX - BLUE BOX", "address": {"city": "DAVIS", "state": "IL", "street": "100 IL ROUTE 75 E", "postcode": "61019"}}},
{"geometry": {"type": "Point", "coordinates": [-89.0999391351, 42.1013041596]}, "type": "Feature", "properties": {"collection_times": [{"days": "Mon-Fri", "time": "3:00pm"}, {"days": "Sat", "time": "11:30am"}, {"days": "Sun", "time": "Closed"}], "id": "6102000001", "name": "USPS COLLECTION BOX - BLUE BOX", "address": {"city": "DAVIS JUNCTION", "state": "IL", "street": "402 W CHICAGO AVE", "postcode": "61020"}}},
{"geometry": {"type": "Point", "coordinates": [-89.0999391351, 42.1013041596]}, "type": "Feature", "properties": {"collection_times": [{"days": "Mon-Fri", "time": "3:00pm"}, {"days": "Sat", "time": "11:30am"}, {"days": "Sun", "time": "Closed"}], "id": "6102000002", "name": "USPS COLLECTION BOX - PO LOBBY", "address": {"city": "DAVIS JUNCTION", "state": "IL", "street": "402 W CHICAGO AVE", "postcode": "61020"}}},
{"geometry": {"type": "Point", "coordinates": [-89.4844733825, 41.8304716909]}, "type": "Feature", "properties": {"collection_times": [{"days": "Mon-Sat", "time": "4:15pm"}, {"days": "Sun", "time": "Closed"}], "id": "6102100002", "name": "USPS COLLECTION BOX - BLUE BOX", "address": {"city": "DIXON", "state": "IL", "street": "666 VETERANS PKWY", "postcode": "61021"}}},
{"geometry": {"type": "Point", "coordinates": [-89.4985060516, 41.8618332804]}, "type": "Feature", "properties": {"collection_times": [{"days": "Mon-Sat", "time": "4:30pm"}, {"days": "Sun", "time": "Closed"}], "id": "6102100003", "name": "USPS COLLECTION BOX - BLUE BOX", "address": {"city": "DIXON", "state": "IL", "street": "1380 N GALENA AVE", "postcode": "61021"}}},
{"geometry": {"type": "Point", "coordinates": [-89.4906034471, 41.8579526382]}, "type": "Feature", "properties": {"collection_times": [{"days": "Mon-Sat", "time": "4:30pm"}, {"days": "Sun", "time": "Closed"}], "id": "6102100004", "name": "USPS COLLECTION BOX - BLUE BOX", "address": {"city": "DIXON", "state": "IL", "street": "144 N COURT ST", "postcode": "61021"}}},
{"geometry": {"type": "Point", "coordinates": [-89.4834196106, 41.8488055374]}, "type": "Feature", "properties": {"collection_times": [{"days": "Mon-Sat", "time": "4:30pm"}, {"days": "Sun", "time": "Closed"}], "id": "6102100005", "name": "USPS COLLECTION BOX - BLUE BOX", "address": {"city": "DIXON", "state": "IL", "street": "207 EVERETT ST", "postcode": "61021"}}},
{"geometry": {"type": "Point", "coordinates": [-89.4844733825, 41.8304716909]}, "type": "Feature", "properties": {"collection_times": [{"days": "Mon-Sat", "time": "4:30pm"}, {"days": "Sun", "time": "Closed"}], "id": "6102100006", "name": "USPS COLLECTION BOX - BLUE BOX", "address": {"city": "DIXON", "state": "IL", "street": "204 LINCOLN WAY", "postcode": "61021"}}},
{"geometry": {"type": "Point", "coordinates": [-89.4792901304, 41.8439888697]}, "type": "Feature", "properties": {"collection_times": [{"days": "Mon-Sat", "time": "4:45pm"}, {"days": "Sun", "time": "Closed"}], "id": "6102100007", "name": "USPS COLLECTION BOX - BLUE BOX", "address": {"city": "DIXON", "state": "IL", "street": "403 E 1ST ST", "postcode": "61021"}}},
{"geometry": {"type": "Point", "coordinates": [-89.4812098483, 41.8440303979]}, "type": "Feature", "properties": {"collection_times": [{"days": "Mon-Sat", "time": "4:45pm"}, {"days": "Sun", "time": "Closed"}], "id": "6102100008", "name": "USPS COLLECTION BOX - BLUE BOX", "address": {"city": "DIXON", "state": "IL", "street": "215 E 1ST ST", "postcode": "61021"}}},
{"geometry": {"type": "Point", "coordinates": [-89.4828361882, 41.84362723]}, "type": "Feature", "properties": {"collection_times": [{"days": "Mon-Sat", "time": "4:45pm"}, {"days": "Sun", "time": "Closed"}], "id": "6102100009", "name": "USPS COLLECTION BOX - BLUE BOX", "address": {"city": "DIXON", "state": "IL", "street": "101 W 1ST ST", "postcode": "61021"}}},
{"geometry": {"type": "Point", "coordinates": [-89.4816748573, 41.841822982]}, "type": "Feature", "properties": {"collection_times": [{"days": "Mon-Sat", "time": "5:00pm"}, {"days": "Sun", "time": "Closed"}], "id": "6102100010", "name": "USPS COLLECTION BOX - BLUE BOX", "address": {"city": "DIXON", "state": "IL", "street": "113 E 3RD ST", "postcode": "61021"}}},
{"geometry": {"type": "Point", "coordinates": [-89.4862603187, 41.8417322413]}, "type": "Feature", "properties": {"collection_times": [{"days": "Mon-Sat", "time": "5:15pm"}, {"days": "Sun", "time": "Closed"}], "id": "6102100013", "name": "USPS COLLECTION BOX - BLUE BOX", "address": {"city": "DIXON", "state": "IL", "street": "405 W 2ND ST", "postcode": "61021"}}},
{"geometry": {"type": "Point", "coordinates": [-89.4862603187, 41.8417322413]}, "type": "Feature", "properties": {"collection_times": [{"days": "Mon-Sat", "time": "5:15pm"}, {"days": "Sun", "time": "Closed"}], "id": "6102100014", "name": "USPS COLLECTION BOX - BLUE BOX", "address": {"city": "DIXON", "state": "IL", "street": "405 W 2ND ST", "postcode": "61021"}}},
{"geometry": {"type": "Point", "coordinates": [-89.4862603187, 41.8417322413]}, "type": "Feature", "properties": {"collection_times": [{"days": "Mon-Sat", "time": "5:15pm"}, {"days": "Sun", "time": "Closed"}], "id": "6102100015", "name": "USPS COLLECTION BOX - BLUE BOX", "address": {"city": "DIXON", "state": "IL", "street": "405 W 2ND ST", "postcode": "61021"}}},
{"geometry": {"type": "Point", "coordinates": [-89.4774613699, 41.838339929]}, "type": "Feature", "properties": {"collection_times": [{"days": "Mon-Sat", "time": "1:30pm"}, {"days": "Sun", "time": "Closed"}], "id": "6102100017", "name": "USPS COLLECTION BOX - BLUE BOX", "address": {"city": "DIXON", "state": "IL", "street": "728 CRAWFORD AVE", "postcode": "61021"}}},
{"geometry": {"type": "Point", "coordinates": [-89.4842872138, 41.8540173328]}, "type": "Feature", "properties": {"collection_times": [{"days": "Mon-Sat", "time": "1:30pm"}, {"days": "Sun", "time": "Closed"}], "id": "6102100018", "name": "USPS COLLECTION BOX - BLUE BOX", "address": {"city": "DIXON", "state": "IL", "street": "748 N BRINTON AVE", "postcode": "61021"}}},
{"geometry": {"type": "Point", "coordinates": [-89.4862603187, 41.8417322413]}, "type": "Feature", "properties": {"collection_times": [{"days": "Mon-Sat", "time": "5:15pm"}, {"days": "Sun", "time": "Closed"}], "id": "6102100020", "name": "USPS COLLECTION BOX - PO LOBBY", "address": {"city": "DIXON", "state": "IL", "street": "405 W 2ND ST", "postcode": "61021"}}},
{"geometry": {"type": "Point", "coordinates": [-89.4862603187, 41.8417322413]}, "type": "Feature", "properties": {"collection_times": [{"days": "Mon-Sat", "time": "5:15pm"}, {"days": "Sun", "time": "Closed"}], "id": "6102100021", "name": "USPS COLLECTION BOX - PO LOBBY", "address": {"city": "DIXON", "state": "IL", "street": "405 W 2ND ST", "postcode": "61021"}}},
{"geometry": {"type": "Point", "coordinates": [-89.4817621811, 41.8412898801]}, "type": "Feature", "properties": {"collection_times": [{"days": "Mon-Sat", "time": "5:00pm"}, {"days": "Sun", "time": "Closed"}], "id": "6102100022", "name": "USPS COLLECTION BOX - BLUE BOX", "address": {"city": "DIXON", "state": "IL", "street": "309 S GALENA AVE", "postcode": "61021"}}},
{"geometry": {"type": "Point", "coordinates": [-89.4754969562, 41.8275247412]}, "type": "Feature", "properties": {"collection_times": [{"days": "Mon-Sat", "time": "10:00am"}, {"days": "Sun", "time": "Closed"}], "id": "6102100023", "name": "USPS COLLECTION BOX - BLUE BOX", "address": {"city": "DIXON", "state": "IL", "street": "1640 S GALENA AVE", "postcode": "61021"}}},
{"geometry": {"type": "Point", "coordinates": [-89.4612453096, 41.8354455067]}, "type": "Feature", "properties": {"collection_times": [{"days": "Mon-Sat", "time": "9:30am"}, {"days": "Sun", "time": "Closed"}], "id": "6102100024", "name": "USPS COLLECTION BOX - BLUE BOX", "address": {"city": "DIXON", "state": "IL", "street": "1012 CARONDELET RD", "postcode": "61021"}}},
{"geometry": {"type": "Point", "coordinates": [-89.3317029966, 42.4325213293]}, "type": "Feature", "properties": {"collection_times": [{"days": "Mon-Fri", "time": "4:30pm"}, {"days": "Sat", "time": "11:45am"}, {"days": "Sun", "time": "Closed"}], "id": "6102400001", "name": "USPS COLLECTION BOX - BLUE BOX", "address": {"city": "DURAND", "state": "IL", "street": "211 N CENTER ST", "postcode": "61024"}}},
{"geometry": {"type": "Point", "coordinates": [-89.3317029966, 42.4325213293]}, "type": "Feature", "properties": {"collection_times": [{"days": "Mon-Fri", "time": "4:30pm"}, {"days": "Sat", "time": "11:45am"}, {"days": "Sun", "time": "Closed"}], "id": "6102400002", "name": "USPS COLLECTION BOX - PO LOBBY", "address": {"city": "DURAND", "state": "IL", "street": "211 N CENTER ST", "postcode": "61024"}}},
{"geometry": {"type": "Point", "coordinates": [-89.331975599, 42.437162128]}, "type": "Feature", "properties": {"collection_times": [{"days": "Mon-Sat", "time": "10:45am"}, {"days": "Sun", "time": "Closed"}], "id": "6102400004", "name": "USPS COLLECTION BOX - BLUE BOX", "address": {"city": "DURAND", "state": "IL", "street": "502 S CENTER ST", "postcode": "61024"}}},
{"geometry": {"type": "Point", "coordinates": [-90.6048497318, 42.4866101937]}, "type": "Feature", "properties": {"collection_times": [{"days": "Mon-Sat", "time": "10:00am"}, {"days": "Sun", "time": "Closed"}], "id": "6102500007", "name": "USPS COLLECTION BOX - BLUE BOX", "address": {"city": "EAST DUBUQUE", "state": "IL", "street": "122 WISCONSIN AVE", "postcode": "61025"}}},
{"geometry": {"type": "Point", "coordinates": [-90.6444012515, 42.4924949455]}, "type": "Feature", "properties": {"collection_times": [{"days": "Mon-Fri", "time": "4:15pm"}, {"days": "Sat", "time": "12:00pm"}, {"days": "Sun", "time": "Closed"}], "id": "6102500009", "name": "USPS COLLECTION BOX - PO LOBBY", "address": {"city": "EAST DUBUQUE", "state": "IL", "street": "200 WALL ST", "postcode": "61025"}}},
{"geometry": {"type": "Point", "coordinates": [-90.6444012515, 42.4924949455]}, "type": "Feature", "properties": {"collection_times": [{"days": "Mon-Fri", "time": "4:15pm"}, {"days": "Sat", "time": "12:00pm"}, {"days": "Sun", "time": "Closed"}], "id": "6102500010", "name": "USPS COLLECTION BOX - PO LOBBY", "address": {"city": "EAST DUBUQUE", "state": "IL", "street": "200 WALL ST", "postcode": "61025"}}},
{"geometry": {"type": "Point", "coordinates": [-90.6444012515, 42.4924949455]}, "type": "Feature", "properties": {"collection_times": [{"days": "Mon-Fri", "time": "4:15pm"}, {"days": "Sat", "time": "12:00pm"}, {"days": "Sun", "time": "Closed"}], "id": "6102500011", "name": "USPS COLLECTION BOX - BLUE BOX", "address": {"city": "EAST DUBUQUE", "state": "IL", "street": "200 WALL ST", "postcode": "61025"}}},
{"geometry": {"type": "Point", "coordinates": [-90.6048497318, 42.4866101937]}, "type": "Feature", "properties": {"collection_times": [{"days": "Mon-Sat", "time": "9:00am"}, {"days": "Sun", "time": "Closed"}], "id": "6102500012", "name": "USPS COLLECTION BOX - BLUE BOX", "address": {"city": "EAST DUBUQUE", "state": "IL", "street": "7796 TIMMERMAN DR", "postcode": "61025"}}},
{"geometry": {"type": "Point", "coordinates": [-89.7626218852, 42.3310469289]}, "type": "Feature", "properties": {"collection_times": [{"days": "Mon-Sat", "time": "10:15am"}, {"days": "Sun", "time": "Closed"}], "id": "6102700001", "name": "USPS COLLECTION BOX - BLUE BOX", "address": {"city": "ELEROY", "state": "IL", "street": "316 N BRIDGE ST", "postcode": "61027"}}},
{"geometry": {"type": "Point", "coordinates": [-89.7626218852, 42.3310469289]}, "type": "Feature", "properties": {"collection_times": [{"days": "Mon-Sat", "time": "10:15am"}, {"days": "Sun", "time": "Closed"}], "id": "6102700002", "name": "USPS COLLECTION BOX - PO LOBBY", "address": {"city": "ELEROY", "state": "IL", "street": "316 N BRIDGE ST", "postcode": "61027"}}},
{"geometry": {"type": "Point", "coordinates": [-90.2236494096, 42.3170689221]}, "type": "Feature", "properties": {"collection_times": [{"days": "Mon-Fri", "time": "4:00pm"}, {"days": "Sat", "time": "11:45am"}, {"days": "Sun", "time": "Closed"}], "id": "6102800002", "name": "USPS COLLECTION BOX - BLUE BOX", "address": {"city": "ELIZABETH", "state": "IL", "street": "102 E MYRTLE ST", "postcode": "61028"}}},
{"geometry": {"type": "Point", "coordinates": [-90.2236494096, 42.3170689221]}, "type": "Feature", "properties": {"collection_times": [{"days": "Mon-Fri", "time": "4:00pm"}, {"days": "Sat", "time": "11:45am"}, {"days": "Sun", "time": "Closed"}], "id": "6102800003", "name": "USPS COLLECTION BOX - PO LOBBY", "address": {"city": "ELIZABETH", "state": "IL", "street": "102 E MYRTLE ST", "postcode": "61028"}}},
{"geometry": {"type": "Point", "coordinates": [-89.5783570251, 42.1264101652]}, "type": "Feature", "properties": {"collection_times": [{"days": "Mon-Fri", "time": "4:30pm"}, {"days": "Sat", "time": "11:45am"}, {"days": "Sun", "time": "Closed"}], "id": "6103000001", "name": "USPS COLLECTION BOX - BLUE BOX", "address": {"city": "FORRESTON", "state": "IL", "street": "210 E MAIN ST", "postcode": "61030"}}},
{"geometry": {"type": "Point", "coordinates": [-89.5783570251, 42.1264101652]}, "type": "Feature", "properties": {"collection_times": [{"days": "Mon-Fri", "time": "4:30pm"}, {"days": "Sat", "time": "11:45am"}, {"days": "Sun", "time": "Closed"}], "id": "6103000002", "name": "USPS COLLECTION BOX - PO LOBBY", "address": {"city": "FORRESTON", "state": "IL", "street": "210 E MAIN ST", "postcode": "61030"}}},
{"geometry": {"type": "Point", "coordinates": [-89.5783570251, 42.1264101652]}, "type": "Feature", "properties": {"collection_times": [{"days": "Mon-Fri", "time": "4:30pm"}, {"days": "Sat", "time": "11:45am"}, {"days": "Sun", "time": "Closed"}], "id": "6103000003", "name": "USPS COLLECTION BOX - PO LOBBY", "address": {"city": "FORRESTON", "state": "IL", "street": "210 E MAIN ST", "postcode": "61030"}}},
{"geometry": {"type": "Point", "coordinates": [-89.2995510347, 41.8401532684]}, "type": "Feature", "properties": {"collection_times": [{"days": "Mon-Fri", "time": "4:30pm"}, {"days": "Sat", "time": "11:00am"}, {"days": "Sun", "time": "Closed"}], "id": "6103100001", "name": "USPS COLLECTION BOX - BLUE BOX", "address": {"city": "FRANKLIN GROVE", "state": "IL", "street": "113 S ELM ST", "postcode": "61031"}}},
{"geometry": {"type": "Point", "coordinates": [-89.2995510347, 41.8401532684]}, "type": "Feature", "properties": {"collection_times": [{"days": "Mon-Fri", "time": "4:30pm"}, {"days": "Sat", "time": "11:00am"}, {"days": "Sun", "time": "Closed"}], "id": "6103100002", "name": "USPS COLLECTION BOX - PO LOBBY", "address": {"city": "FRANKLIN GROVE", "state": "IL", "street": "113 S ELM ST", "postcode": "61031"}}},
{"geometry": {"type": "Point", "coordinates": [-89.2995510347, 41.8401532684]}, "type": "Feature", "properties": {"collection_times": [{"days": "Mon-Fri", "time": "4:30pm"}, {"days": "Sat", "time": "11:00am"}, {"days": "Sun", "time": "Closed"}], "id": "6103100003", "name": "USPS COLLECTION BOX - PO LOBBY", "address": {"city": "FRANKLIN GROVE", "state": "IL", "street": "113 S ELM ST", "postcode": "61031"}}},
{"geometry": {"type": "Point", "coordinates": [-89.6496020907, 42.3028727421]}, "type": "Feature", "properties": {"collection_times": [{"days": "Mon-Fri", "time": "4:30pm"}, {"days": "Sat", "time": "4:00pm"}, {"days": "Sun", "time": "Closed"}], "id": "6103200005", "name": "USPS COLLECTION BOX - BLUE BOX", "address": {"city": "FREEPORT", "state": "IL", "street": "2002 W GALENA AVE", "postcode": "61032"}}},
{"geometry": {"type": "Point", "coordinates": [-89.6314905029, 42.2729034854]}, "type": "Feature", "properties": {"collection_times": [{"days": "Mon-Fri", "time": "4:45pm"}, {"days": "Sat", "time": "4:15pm"}, {"days": "Sun", "time": "Closed"}], "id": "6103200006", "name": "USPS COLLECTION BOX - BLUE BOX", "address": {"city": "FREEPORT", "state": "IL", "street": "1844 S WEST AVE", "postcode": "61032"}}},
{"geometry": {"type": "Point", "coordinates": [-89.6296909292, 42.2801975078]}, "type": "Feature", "properties": {"collection_times": [{"days": "Mon-Fri", "time": "4:45pm"}, {"days": "Sat", "time": "4:15pm"}, {"days": "Sun", "time": "Closed"}], "id": "6103200007", "name": "USPS COLLECTION BOX - BLUE BOX", "address": {"city": "FREEPORT", "state": "IL", "street": "721 W SOUTH ST", "postcode": "61032"}}},
{"geometry": {"type": "Point", "coordinates": [-89.619926884, 42.2982147858]}, "type": "Feature", "properties": {"collection_times": [{"days": "Mon-Fri", "time": "5:00pm"}, {"days": "Sat", "time": "4:30pm"}, {"days": "Sun", "time": "Closed"}], "id": "6103200011", "name": "USPS COLLECTION BOX - BLUE BOX", "address": {"city": "FREEPORT", "state": "IL", "street": "22 S CHICAGO AVE", "postcode": "61032"}}},
{"geometry": {"type": "Point", "coordinates": [-89.6211395646, 42.297886443]}, "type": "Feature", "properties": {"collection_times": [{"days": "Mon-Fri", "time": "5:00pm"}, {"days": "Sat", "time": "4:30pm"}, {"days": "Sun", "time": "Closed"}], "id": "6103200012", "name": "USPS COLLECTION BOX - BLUE BOX", "address": {"city": "FREEPORT", "state": "IL", "street": "101 W STEPHENSON ST", "postcode": "61032"}}},
{"geometry": {"type": "Point", "coordinates": [-89.618611493, 42.2987076241]}, "type": "Feature", "properties": {"collection_times": [{"days": "Mon-Fri", "time": "5:00pm"}, {"days": "Sat", "time": "4:30pm"}, {"days": "Sun", "time": "Closed"}], "id": "6103200013", "name": "USPS COLLECTION BOX - BLUE BOX", "address": {"city": "FREEPORT", "state": "IL", "street": "27 S STATE AVE", "postcode": "61032"}}},
{"geometry": {"type": "Point", "coordinates": [-89.6221466572, 42.2974631915]}, "type": "Feature", "properties": {"collection_times": [{"days": "Mon-Fri", "time": "5:00pm"}, {"days": "Sat", "time": "4:30pm"}, {"days": "Sun", "time": "Closed"}], "id": "6103200015", "name": "USPS COLLECTION BOX - BLUE BOX", "address": {"city": "FREEPORT", "state": "IL", "street": "223 W STEPHENSON ST", "postcode": "61032"}}},
{"geometry": {"type": "Point", "coordinates": [-89.6226465576, 42.2964105956]}, "type": "Feature", "properties": {"collection_times": [{"days": "Mon-Fri", "time": "5:00pm"}, {"days": "Sat", "time": "4:30pm"}, {"days": "Sun", "time": "Closed"}], "id": "6103200016", "name": "USPS COLLECTION BOX - BLUE BOX", "address": {"city": "FREEPORT", "state": "IL", "street": "302 W MAIN ST", "postcode": "61032"}}},
{"geometry": {"type": "Point", "coordinates": [-89.6296850666, 42.2962927322]}, "type": "Feature", "properties": {"collection_times": [{"days": "Mon-Sat", "time": "9:00am"}, {"days": "Sun", "time": "Closed"}], "id": "6103200017", "name": "USPS COLLECTION BOX - BLUE BOX", "address": {"city": "FREEPORT", "state": "IL", "street": "662 W STEPHENSON ST", "postcode": "61032"}}},
{"geometry": {"type": "Point", "coordinates": [-89.6309765884, 42.2945828116]}, "type": "Feature", "properties": {"collection_times": [{"days": "Mon-Sat", "time": "2:00pm"}, {"days": "Sun", "time": "Closed"}], "id": "6103200018", "name": "USPS COLLECTION BOX - BLUE BOX", "address": {"city": "FREEPORT", "state": "IL", "street": "773 W LINCOLN ST", "postcode": "61032"}}},
{"geometry": {"type": "Point", "coordinates": [-89.6420835227, 42.3015926196]}, "type": "Feature", "properties": {"collection_times": [{"days": "Mon-Fri", "time": "4:30pm"}, {"days": "Sat", "time": "4:00pm"}, {"days": "Sun", "time": "Closed"}], "id": "6103200019", "name": "USPS COLLECTION BOX - BLUE BOX", "address": {"city": "FREEPORT", "state": "IL", "street": "1201 W GALENA AVE", "postcode": "61032"}}},
{"geometry": {"type": "Point", "coordinates": [-89.6379152307, 42.2958427985]}, "type": "Feature", "properties": {"collection_times": [{"days": "Mon-Fri", "time": "4:30pm"}, {"days": "Sat", "time": "4:00pm"}, {"days": "Sun", "time": "Closed"}], "id": "6103200020", "name": "USPS COLLECTION BOX - BLUE BOX", "address": {"city": "FREEPORT", "state": "IL", "street": "1045 W STEPHENSON ST", "postcode": "61032"}}},
{"geometry": {"type": "Point", "coordinates": [-89.631652018, 42.2813889207]}, "type": "Feature", "properties": {"collection_times": [{"days": "Mon-Fri", "time": "4:30pm"}, {"days": "Sat", "time": "4:00pm"}, {"days": "Sun", "time": "Closed"}], "id": "6103200021", "name": "USPS COLLECTION BOX - BLUE BOX", "address": {"city": "FREEPORT", "state": "IL", "street": "1512 S WEST AVE", "postcode": "61032"}}},
{"geometry": {"type": "Point", "coordinates": [-89.6203566015, 42.2990591527]}, "type": "Feature", "properties": {"collection_times": [{"days": "Mon-Fri", "time": "5:45pm"}, {"days": "Sat", "time": "5:15pm"}, {"days": "Sun", "time": "Closed"}], "id": "6103200029", "name": "USPS COLLECTION BOX - BLUE BOX", "address": {"city": "FREEPORT", "state": "IL", "street": "103 N CHICAGO AVE", "postcode": "61032"}}},
{"geometry": {"type": "Point", "coordinates": [-89.6203566015, 42.2990591527]}, "type": "Feature", "properties": {"collection_times": [{"days": "Mon-Fri", "time": "5:45pm"}, {"days": "Sat", "time": "5:15pm"}, {"days": "Sun", "time": "Closed"}], "id": "6103200030", "name": "USPS COLLECTION BOX - BLUE BOX", "address": {"city": "FREEPORT", "state": "IL", "street": "103 N CHICAGO AVE", "postcode": "61032"}}},
{"geometry": {"type": "Point", "coordinates": [-89.6496096448, 42.2876804471]}, "type": "Feature", "properties": {"collection_times": [{"days": "Mon-Sat", "time": "1:00pm"}, {"days": "Sun", "time": "Closed"}], "id": "6103200031", "name": "USPS COLLECTION BOX - BLUE BOX", "address": {"city": "FREEPORT", "state": "IL", "street": "1223 S BENSON BLVD", "postcode": "61032"}}},
{"geometry": {"type": "Point", "coordinates": [-89.6708879192, 42.2916004423]}, "type": "Feature", "properties": {"collection_times": [{"days": "Mon-Sat", "time": "1:00pm"}, {"days": "Sun", "time": "Closed"}], "id": "6103200032", "name": "USPS COLLECTION BOX - BLUE BOX", "address": {"city": "FREEPORT", "state": "IL", "street": "750 KIWANIS DR", "postcode": "61032"}}},
{"geometry": {"type": "Point", "coordinates": [-89.652127662, 42.3072364022]}, "type": "Feature", "properties": {"collection_times": [{"days": "Mon-Sat", "time": "1:00pm"}, {"days": "Sun", "time": "Closed"}], "id": "6103200035", "name": "USPS COLLECTION BOX - BLUE BOX", "address": {"city": "FREEPORT", "state": "IL", "street": "101 MARCIA DR", "postcode": "61032"}}},
{"geometry": {"type": "Point", "coordinates": [-89.621336213, 42.2919624385]}, "type": "Feature", "properties": {"collection_times": [{"days": "Mon-Sat", "time": "1:00pm"}, {"days": "Sun", "time": "Closed"}], "id": "6103200036", "name": "USPS COLLECTION BOX - BLUE BOX", "address": {"city": "FREEPORT", "state": "IL", "street": "818 S WALNUT AVE", "postcode": "61032"}}},
{"geometry": {"type": "Point", "coordinates": [-89.603972988, 42.2900321254]}, "type": "Feature", "properties": {"collection_times": [{"days": "Mon-Sat", "time": "1:00pm"}, {"days": "Sun", "time": "Closed"}], "id": "6103200042", "name": "USPS COLLECTION BOX - BLUE BOX", "address": {"city": "FREEPORT", "state": "IL", "street": "939 S CHIPPEWA AVE", "postcode": "61032"}}},
{"geometry": {"type": "Point", "coordinates": [-89.6319674231, 42.2938912994]}, "type": "Feature", "properties": {"collection_times": [{"days": "Mon-Sat", "time": "1:00pm"}, {"days": "Sun", "time": "Closed"}], "id": "6103200043", "name": "USPS COLLECTION BOX - BLUE BOX", "address": {"city": "FREEPORT", "state": "IL", "street": "602 S WEST AVE", "postcode": "61032"}}},
{"geometry": {"type": "Point", "coordinates": [-89.641764048, 42.2942679926]}, "type": "Feature", "properties": {"collection_times": [{"days": "Mon-Sat", "time": "1:00pm"}, {"days": "Sun", "time": "Closed"}], "id": "6103200044", "name": "USPS COLLECTION BOX - BLUE BOX", "address": {"city": "FREEPORT", "state": "IL", "street": "1203 W LINCOLN ST", "postcode": "61032"}}},
{"geometry": {"type": "Point", "coordinates": [-89.6501910867, 42.2944497268]}, "type": "Feature", "properties": {"collection_times": [{"days": "Mon-Sat", "time": "1:00pm"}, {"days": "Sun", "time": "Closed"}], "id": "6103200045", "name": "USPS COLLECTION BOX - BLUE BOX", "address": {"city": "FREEPORT", "state": "IL", "street": "1550 W STEPHENSON ST", "postcode": "61032"}}},
{"geometry": {"type": "Point", "coordinates": [-89.6203566015, 42.2990591527]}, "type": "Feature", "properties": {"collection_times": [{"days": "Mon-Fri", "time": "5:45pm"}, {"days": "Sat", "time": "5:15pm"}, {"days": "Sun", "time": "Closed"}], "id": "6103200048", "name": "USPS COLLECTION BOX - BLUE BOX", "address": {"city": "FREEPORT", "state": "IL", "street": "103 N CHICAGO AVE", "postcode": "61032"}}},
{"geometry": {"type": "Point", "coordinates": [-89.6203566015, 42.2990591527]}, "type": "Feature", "properties": {"collection_times": [{"days": "Mon-Fri", "time": "5:45pm"}, {"days": "Sat", "time": "5:15pm"}, {"days": "Sun", "time": "Closed"}], "id": "6103200049", "name": "USPS COLLECTION BOX - BLUE BOX", "address": {"city": "FREEPORT", "state": "IL", "street": "103 N CHICAGO AVE", "postcode": "61032"}}},
{"geometry": {"type": "Point", "coordinates": [-89.6203566015, 42.2990591527]}, "type": "Feature", "properties": {"collection_times": [{"days": "Mon-Fri", "time": "5:45pm"}, {"days": "Sat", "time": "5:15pm"}, {"days": "Sun", "time": "Closed"}], "id": "6103200050", "name": "USPS COLLECTION BOX - BLUE BOX", "address": {"city": "FREEPORT", "state": "IL", "street": "103 N CHICAGO AVE", "postcode": "61032"}}},
{"geometry": {"type": "Point", "coordinates": [-89.6309516578, 42.2649478401]}, "type": "Feature", "properties": {"collection_times": [{"days": "Mon-Fri", "time": "4:45pm"}, {"days": "Sat", "time": "4:15pm"}, {"days": "Sun", "time": "Closed"}], "id": "6103200052", "name": "USPS COLLECTION BOX - BLUE BOX", "address": {"city": "FREEPORT", "state": "IL", "street": "2545 IL ROUTE 26 S", "postcode": "61032"}}},
{"geometry": {"type": "Point", "coordinates": [-89.6261120687, 42.2803031594]}, "type": "Feature", "properties": {"collection_times": [{"days": "Mon-Fri", "time": "4:45pm"}, {"days": "Sat", "time": "4:15pm"}, {"days": "Sun", "time": "Closed"}], "id": "6103200053", "name": "USPS COLLECTION BOX - BLUE BOX", "address": {"city": "FREEPORT", "state": "IL", "street": "555 W SOUTH ST", "postcode": "61032"}}},
{"geometry": {"type": "Point", "coordinates": [-89.6203566015, 42.2990591527]}, "type": "Feature", "properties": {"collection_times": [{"days": "Mon-Fri", "time": "5:45pm"}, {"days": "Sat", "time": "5:15pm"}, {"days": "Sun", "time": "Closed"}], "id": "6103200054", "name": "USPS COLLECTION BOX - PO LOBBY", "address": {"city": "FREEPORT", "state": "IL", "street": "103 N CHICAGO AVE", "postcode": "61032"}}},
{"geometry": {"type": "Point", "coordinates": [-89.6203566015, 42.2990591527]}, "type": "Feature", "properties": {"collection_times": [{"days": "Mon-Fri", "time": "5:45pm"}, {"days": "Sat", "time": "5:15pm"}, {"days": "Sun", "time": "Closed"}], "id": "6103200055", "name": "USPS COLLECTION BOX - PO LOBBY", "address": {"city": "FREEPORT", "state": "IL", "street": "103 N CHICAGO AVE", "postcode": "61032"}}},
{"geometry": {"type": "Point", "coordinates": [-89.6135636338, 42.3008838772]}, "type": "Feature", "properties": {"collection_times": [{"days": "Mon-Sat", "time": "1:00pm"}, {"days": "Sun", "time": "Closed"}], "id": "6103200057", "name": "USPS COLLECTION BOX - BLUE BOX", "address": {"city": "FREEPORT", "state": "IL", "street": "315 E STEPHENSON ST", "postcode": "61032"}}},
{"geometry": {"type": "Point", "coordinates": [-89.6196059974, 42.298510202]}, "type": "Feature", "properties": {"collection_times": [{"days": "Mon-Fri", "time": "5:00pm"}, {"days": "Sat", "time": "4:30pm"}, {"days": "Sun", "time": "Closed"}], "id": "6103200058", "name": "USPS COLLECTION BOX - BLUE BOX", "address": {"city": "FREEPORT", "state": "IL", "street": "29 E STEPHENSON ST", "postcode": "61032"}}},
{"geometry": {"type": "Point", "coordinates": [-89.6351096791, 42.2984715016]}, "type": "Feature", "properties": {"collection_times": [{"days": "Mon-Fri", "time": "5:45pm"}, {"days": "Sat", "time": "4:15pm"}, {"days": "Sun", "time": "Closed"}], "id": "6103200059", "name": "USPS COLLECTION BOX - BLUE BOX", "address": {"city": "FREEPORT", "state": "IL", "street": "103 N CHICAGO AVE", "postcode": "61032"}}},
{"geometry": {"type": "Point", "coordinates": [-89.6211395646, 42.297886443]}, "type": "Feature", "properties": {"collection_times": [{"days": "Mon-Fri", "time": "5:00pm"}, {"days": "Sat", "time": "4:30pm"}, {"days": "Sun", "time": "Closed"}], "id": "6103200060", "name": "USPS COLLECTION BOX - BLUE BOX", "address": {"city": "FREEPORT", "state": "IL", "street": "101 W STEPHENSON ST", "postcode": "61032"}}},
{"geometry": {"type": "Point", "coordinates": [-89.6219559291, 42.3011874522]}, "type": "Feature", "properties": {"collection_times": [{"days": "Mon-Sat", "time": "9:00am"}, {"days": "Sun", "time": "Closed"}], "id": "6103200062", "name": "USPS COLLECTION BOX - BLUE BOX", "address": {"city": "FREEPORT", "state": "IL", "street": "4 E LINDEN ST", "postcode": "61032"}}},
{"geometry": {"type": "Point", "coordinates": [-90.4260438055, 42.41793631]}, "type": "Feature", "properties": {"collection_times": [{"days": "Mon-Sat", "time": "2:15pm"}, {"days": "Sun", "time": "Closed"}], "id": "6103600001", "name": "USPS COLLECTION BOX - BLUE BOX", "address": {"city": "GALENA", "state": "IL", "street": "330 N BENCH ST", "postcode": "61036"}}},
{"geometry": {"type": "Point", "coordinates": [-90.4288668921, 42.4142448389]}, "type": "Feature", "properties": {"collection_times": [{"days": "Mon-Fri", "time": "4:30pm"}, {"days": "Sat", "time": "3:00pm"}, {"days": "Sun", "time": "Closed"}], "id": "6103600002", "name": "USPS COLLECTION BOX - BLUE BOX", "address": {"city": "GALENA", "state": "IL", "street": "110 GREEN ST", "postcode": "61036"}}},
{"geometry": {"type": "Point", "coordinates": [-90.4274907791, 42.416531454]}, "type": "Feature", "properties": {"collection_times": [{"days": "Mon-Sat", "time": "2:15pm"}, {"days": "Sun", "time": "Closed"}], "id": "6103600003", "name": "USPS COLLECTION BOX - BLUE BOX", "address": {"city": "GALENA", "state": "IL", "street": "200 PERRY ST", "postcode": "61036"}}},
{"geometry": {"type": "Point", "coordinates": [-90.428388126, 42.4162577593]}, "type": "Feature", "properties": {"collection_times": [{"days": "Mon-Sat", "time": "2:15pm"}, {"days": "Sun", "time": "Closed"}], "id": "6103600005", "name": "USPS COLLECTION BOX - BLUE BOX", "address": {"city": "GALENA", "state": "IL", "street": "100 N MAIN ST", "postcode": "61036"}}},
{"geometry": {"type": "Point", "coordinates": [-90.428992531, 42.409074189]}, "type": "Feature", "properties": {"collection_times": [{"days": "Mon-Sat", "time": "12:30pm"}, {"days": "Sun", "time": "Closed"}], "id": "6103600006", "name": "USPS COLLECTION BOX - BLUE BOX", "address": {"city": "GALENA", "state": "IL", "street": "754 PARK AVE", "postcode": "61036"}}},
{"geometry": {"type": "Point", "coordinates": [-90.4280574873, 42.4194845459]}, "type": "Feature", "properties": {"collection_times": [{"days": "Mon-Sat", "time": "12:15pm"}, {"days": "Sun", "time": "Closed"}], "id": "6103600008", "name": "USPS COLLECTION BOX - BLUE BOX", "address": {"city": "GALENA", "state": "IL", "street": "399 FRANKLIN ST", "postcode": "61036"}}},
{"geometry": {"type": "Point", "coordinates": [-90.4286076956, 42.416568202]}, "type": "Feature", "properties": {"collection_times": [{"days": "Mon-Sat", "time": "11:30am"}, {"days": "Sun", "time": "Closed"}], "id": "6103600009", "name": "USPS COLLECTION BOX - BLUE BOX", "address": {"city": "GALENA", "state": "IL", "street": "319 HILL ST", "postcode": "61036"}}},
{"geometry": {"type": "Point", "coordinates": [-90.4325304744, 42.4193485254]}, "type": "Feature", "properties": {"collection_times": [{"days": "Mon-Sat", "time": "2:00pm"}, {"days": "Sun", "time": "Closed"}], "id": "6103600011", "name": "USPS COLLECTION BOX - BLUE BOX", "address": {"city": "GALENA", "state": "IL", "street": "515 MARS AVE", "postcode": "61036"}}},
{"geometry": {"type": "Point", "coordinates": [-90.4425344939, 42.4242657695]}, "type": "Feature", "properties": {"collection_times": [{"days": "Mon-Sat", "time": "2:00pm"}, {"days": "Sun", "time": "Closed"}], "id": "6103600013", "name": "USPS COLLECTION BOX - BLUE BOX", "address": {"city": "GALENA", "state": "IL", "street": "997 GALENA SQUARE DR", "postcode": "61036"}}},
{"geometry": {"type": "Point", "coordinates": [-90.4288668921, 42.4142448389]}, "type": "Feature", "properties": {"collection_times": [{"days": "Mon-Fri", "time": "4:30pm"}, {"days": "Sat", "time": "3:00pm"}, {"days": "Sun", "time": "Closed"}], "id": "6103600016", "name": "USPS COLLECTION BOX - BLUE BOX", "address": {"city": "GALENA", "state": "IL", "street": "110 GREEN ST", "postcode": "61036"}}},
{"geometry": {"type": "Point", "coordinates": [-90.442587874, 42.4234075816]}, "type": "Feature", "properties": {"collection_times": [{"days": "Mon-Fri", "time": "4:30pm"}, {"days": "Sat", "time": "3:00pm"}, {"days": "Sun", "time": "Closed"}], "id": "6103600017", "name": "USPS COLLECTION BOX - BLUE BOX", "address": {"city": "GALENA", "state": "IL", "street": "901 GALENA SQUARE DR", "postcode": "61036"}}},
{"geometry": {"type": "Point", "coordinates": [-90.442587874, 42.4234075816]}, "type": "Feature", "properties": {"collection_times": [{"days": "Mon-Fri", "time": "4:30pm"}, {"days": "Sat", "time": "3:00pm"}, {"days": "Sun", "time": "Closed"}], "id": "6103600018", "name": "USPS COLLECTION BOX - BLUE BOX", "address": {"city": "GALENA", "state": "IL", "street": "901 GALENA SQUARE DR", "postcode": "61036"}}},
{"geometry": {"type": "Point", "coordinates": [-90.4288668921, 42.4142448389]}, "type": "Feature", "properties": {"collection_times": [{"days": "Mon-Fri", "time": "4:30pm"}, {"days": "Sat", "time": "3:00pm"}, {"days": "Sun", "time": "Closed"}], "id": "6103600019", "name": "USPS COLLECTION BOX - PO LOBBY", "address": {"city": "GALENA", "state": "IL", "street": "110 GREEN ST", "postcode": "61036"}}},
{"geometry": {"type": "Point", "coordinates": [-90.4288668921, 42.4142448389]}, "type": "Feature", "properties": {"collection_times": [{"days": "Mon-Fri", "time": "4:30pm"}, {"days": "Sat", "time": "3:00pm"}, {"days": "Sun", "time": "Closed"}], "id": "6103600020", "name": "USPS COLLECTION BOX - PO LOBBY", "address": {"city": "GALENA", "state": "IL", "street": "110 GREEN ST", "postcode": "61036"}}},
{"geometry": {"type": "Point", "coordinates": [-90.3407130707, 42.3981764398]}, "type": "Feature", "properties": {"collection_times": [{"days": "Mon-Sat", "time": "12:00pm"}, {"days": "Sun", "time": "Closed"}], "id": "6103600021", "name": "USPS COLLECTION BOX - BLUE BOX", "address": {"city": "GALENA", "state": "IL", "street": "425 EAGLE RIDGE DR", "postcode": "61036"}}},
{"geometry": {"type": "Point", "coordinates": [-90.413580939, 42.4065565997]}, "type": "Feature", "properties": {"collection_times": [{"days": "Mon-Sat", "time": "12:00pm"}, {"days": "Sun", "time": "Closed"}], "id": "6103600022", "name": "USPS COLLECTION BOX - BLUE BOX", "address": {"city": "GALENA", "state": "IL", "street": "9816 W US ROUTE 20", "postcode": "61036"}}},
{"geometry": {"type": "Point", "coordinates": [-90.442587874, 42.4234075816]}, "type": "Feature", "properties": {"collection_times": [{"days": "Mon-Fri", "time": "4:30pm"}, {"days": "Sat", "time": "3:00pm"}, {"days": "Sun", "time": "Closed"}], "id": "6103600023", "name": "USPS COLLECTION BOX - PO LOBBY", "address": {"city": "GALENA", "state": "IL", "street": "901 GALENA SQUARE DR", "postcode": "61036"}}},
{"geometry": {"type": "Point", "coordinates": [-90.442587874, 42.4234075816]}, "type": "Feature", "properties": {"collection_times": [{"days": "Mon-Fri", "time": "4:30pm"}, {"days": "Sat", "time": "3:00pm"}, {"days": "Sun", "time": "Closed"}], "id": "6103600024", "name": "USPS COLLECTION BOX - PO LOBBY", "address": {"city": "GALENA", "state": "IL", "street": "901 GALENA SQUARE DR", "postcode": "61036"}}},
{"geometry": {"type": "Point", "coordinates": [-90.4446443327, 42.4220947295]}, "type": "Feature", "properties": {"collection_times": [{"days": "Mon-Sat", "time": "12:30pm"}, {"days": "Sun", "time": "Closed"}], "id": "6103600025", "name": "USPS COLLECTION BOX - BLUE BOX", "address": {"city": "GALENA", "state": "IL", "street": "971 GEAR ST", "postcode": "61036"}}},
{"geometry": {"type": "Point", "coordinates": [-90.3945074948, 42.41300065]}, "type": "Feature", "properties": {"collection_times": [{"days": "Mon-Sat", "time": "12:30pm"}, {"days": "Sun", "time": "Closed"}], "id": "6103600026", "name": "USPS COLLECTION BOX - BLUE BOX", "address": {"city": "GALENA", "state": "IL", "street": "11358 INDUSTRIAL DR", "postcode": "61036"}}},
{"geometry": {"type": "Point", "coordinates": [-89.7624371831, 41.7892888165]}, "type": "Feature", "properties": {"collection_times": [{"days": "Mon-Fri", "time": "3:00pm"}, {"days": "Sat", "time": "11:45am"}, {"days": "Sun", "time": "Closed"}], "id": "6103700001", "name": "USPS COLLECTION BOX - BLUE BOX", "address": {"city": "GALT", "state": "IL", "street": "411 GALT RD", "postcode": "61037"}}},
{"geometry": {"type": "Point", "coordinates": [-89.7624371831, 41.7892888165]}, "type": "Feature", "properties": {"collection_times": [{"days": "Mon-Fri", "time": "3:00pm"}, {"days": "Sat", "time": "11:45am"}, {"days": "Sun", "time": "Closed"}], "id": "6103700002", "name": "USPS COLLECTION BOX - PO LOBBY", "address": {"city": "GALT", "state": "IL", "street": "411 GALT RD", "postcode": "61037"}}},
{"geometry": {"type": "Point", "coordinates": [-89.7624371831, 41.7892888165]}, "type": "Feature", "properties": {"collection_times": [{"days": "Mon-Fri", "time": "3:00pm"}, {"days": "Sat", "time": "11:45am"}, {"days": "Sun", "time": "Closed"}], "id": "6103700003", "name": "USPS COLLECTION BOX - PO LOBBY", "address": {"city": "GALT", "state": "IL", "street": "411 GALT RD", "postcode": "61037"}}},
{"geometry": {"type": "Point", "coordinates": [-88.7369492474, 42.2536918288]}, "type": "Feature", "properties": {"collection_times": [{"days": "Mon-Fri", "time": "4:30pm"}, {"days": "Sat", "time": "10:30am"}, {"days": "Sun", "time": "Closed"}], "id": "6103800001", "name": "USPS COLLECTION BOX - BLUE BOX", "address": {"city": "GARDEN PRAIRIE", "state": "IL", "street": "6820 PLEASANT ST", "postcode": "61038"}}},
{"geometry": {"type": "Point", "coordinates": [-88.7227311609, 42.2537223439]}, "type": "Feature", "properties": {"collection_times": [{"days": "Mon-Fri", "time": "4:30pm"}, {"days": "Sat", "time": "10:30am"}, {"days": "Sun", "time": "Closed"}], "id": "6103800002", "name": "USPS COLLECTION BOX - PO LOBBY", "address": {"city": "GARDEN PRAIRIE", "state": "IL", "street": "6828 PLEASANT ST", "postcode": "61038"}}},
{"geometry": {"type": "Point", "coordinates": [-89.4744400786, 42.2151657404]}, "type": "Feature", "properties": {"collection_times": [{"days": "Mon-Fri", "time": "4:00pm"}, {"days": "Sat", "time": "11:30am"}, {"days": "Sun", "time": "Closed"}], "id": "6103900001", "name": "USPS COLLECTION BOX - BLUE BOX", "address": {"city": "GERMAN VALLEY", "state": "IL", "street": "35 CHURCH ST", "postcode": "61039"}}},
{"geometry": {"type": "Point", "coordinates": [-89.4744400786, 42.2151657404]}, "type": "Feature", "properties": {"collection_times": [{"days": "Mon-Fri", "time": "4:00pm"}, {"days": "Sat", "time": "11:30am"}, {"days": "Sun", "time": "Closed"}], "id": "6103900002", "name": "USPS COLLECTION BOX - PO LOBBY", "address": {"city": "GERMAN VALLEY", "state": "IL", "street": "35 CHURCH ST", "postcode": "61039"}}},
{"geometry": {"type": "Point", "coordinates": [-89.4744400786, 42.2151657404]}, "type": "Feature", "properties": {"collection_times": [{"days": "Mon-Fri", "time": "4:00pm"}, {"days": "Sat", "time": "11:30am"}, {"days": "Sun", "time": "Closed"}], "id": "6103900003", "name": "USPS COLLECTION BOX - PO LOBBY", "address": {"city": "GERMAN VALLEY", "state": "IL", "street": "35 CHURCH ST", "postcode": "61039"}}},
{"geometry": {"type": "Point", "coordinates": [-90.2850842095, 42.2578468581]}, "type": "Feature", "properties": {"collection_times": [{"days": "Mon-Fri", "time": "3:45pm"}, {"days": "Sat", "time": "12:00pm"}, {"days": "Sun", "time": "Closed"}], "id": "6104100001", "name": "USPS COLLECTION BOX - BLUE BOX", "address": {"city": "HANOVER", "state": "IL", "street": "220 JEFFERSON ST", "postcode": "61041"}}},
{"geometry": {"type": "Point", "coordinates": [-90.2850842095, 42.2578468581]}, "type": "Feature", "properties": {"collection_times": [{"days": "Mon-Fri", "time": "4:00pm"}, {"days": "Sat", "time": "11:45am"}, {"days": "Sun", "time": "Closed"}], "id": "6104100002", "name": "USPS COLLECTION BOX - PO LOBBY", "address": {"city": "HANOVER", "state": "IL", "street": "220 JEFFERSON ST", "postcode": "61041"}}},
{"geometry": {"type": "Point", "coordinates": [-89.5546482621, 41.7217102598]}, "type": "Feature", "properties": {"collection_times": [{"days": "Mon-Fri", "time": "4:30pm"}, {"days": "Sat", "time": "10:45am"}, {"days": "Sun", "time": "Closed"}], "id": "6104200001", "name": "USPS COLLECTION BOX - BLUE BOX", "address": {"city": "HARMON", "state": "IL", "street": "205 N 1ST ST", "postcode": "61042"}}},
{"geometry": {"type": "Point", "coordinates": [-89.5546482621, 41.7217102598]}, "type": "Feature", "properties": {"collection_times": [{"days": "Mon-Fri", "time": "4:30pm"}, {"days": "Sat", "time": "10:45am"}, {"days": "Sun", "time": "Closed"}], "id": "6104200002", "name": "USPS COLLECTION BOX - PO LOBBY", "address": {"city": "HARMON", "state": "IL", "street": "205 N 1ST ST", "postcode": "61042"}}},
{"geometry": {"type": "Point", "coordinates": [-89.0967326279, 42.0636992339]}, "type": "Feature", "properties": {"collection_times": [{"days": "Mon-Fri", "time": "4:45pm"}, {"days": "Sat", "time": "10:30am"}, {"days": "Sun", "time": "Closed"}], "id": "6104300001", "name": "USPS COLLECTION BOX - BLUE BOX", "address": {"city": "HOLCOMB", "state": "IL", "street": "105 W MAIN ST", "postcode": "61043"}}},
{"geometry": {"type": "Point", "coordinates": [-89.0967326279, 42.0636992339]}, "type": "Feature", "properties": {"collection_times": [{"days": "Mon-Fri", "time": "4:45pm"}, {"days": "Sat", "time": "10:30am"}, {"days": "Sun", "time": "Closed"}], "id": "6104300002", "name": "USPS COLLECTION BOX - PO LOBBY", "address": {"city": "HOLCOMB", "state": "IL", "street": "105 W MAIN ST", "postcode": "61043"}}},
{"geometry": {"type": "Point", "coordinates": [-89.0967326279, 42.0636992339]}, "type": "Feature", "properties": {"collection_times": [{"days": "Mon-Fri", "time": "4:45pm"}, {"days": "Sat", "time": "10:30am"}, {"days": "Sun", "time": "Closed"}], "id": "6104300003", "name": "USPS COLLECTION BOX - PO LOBBY", "address": {"city": "HOLCOMB", "state": "IL", "street": "105 W MAIN ST", "postcode": "61043"}}},
{"geometry": {"type": "Point", "coordinates": [-89.9021297352, 42.3087067696]}, "type": "Feature", "properties": {"collection_times": [{"days": "Mon-Fri", "time": "4:15pm"}, {"days": "Sat", "time": "11:15am"}, {"days": "Sun", "time": "Closed"}], "id": "6104400001", "name": "USPS COLLECTION BOX - BLUE BOX", "address": {"city": "KENT", "state": "IL", "street": "767 N KENT RD", "postcode": "61044"}}},
{"geometry": {"type": "Point", "coordinates": [-89.9021297352, 42.3087067696]}, "type": "Feature", "properties": {"collection_times": [{"days": "Mon-Fri", "time": "4:15pm"}, {"days": "Sat", "time": "11:30am"}, {"days": "Sun", "time": "Closed"}], "id": "6104400002", "name": "USPS COLLECTION BOX - PO LOBBY", "address": {"city": "KENT", "state": "IL", "street": "767 N KENT RD", "postcode": "61044"}}},
{"geometry": {"type": "Point", "coordinates": [-89.8402178935, 42.0965638465]}, "type": "Feature", "properties": {"collection_times": [{"days": "Mon-Fri", "time": "4:45pm"}, {"days": "Sat", "time": "12:00pm"}, {"days": "Sun", "time": "Closed"}], "id": "6104600001", "name": "USPS COLLECTION BOX - BLUE BOX", "address": {"city": "LANARK", "state": "IL", "street": "600 W OLYMPIC DR", "postcode": "61046"}}},
{"geometry": {"type": "Point", "coordinates": [-89.8331650144, 42.1029449088]}, "type": "Feature", "properties": {"collection_times": [{"days": "Mon-Fri", "time": "2:30pm"}, {"days": "Sat", "time": "12:00pm"}, {"days": "Sun", "time": "Closed"}], "id": "6104600002", "name": "USPS COLLECTION BOX - BLUE BOX", "address": {"city": "LANARK", "state": "IL", "street": "108 W CARROLL ST", "postcode": "61046"}}},
{"geometry": {"type": "Point", "coordinates": [-89.8331650144, 42.1029449088]}, "type": "Feature", "properties": {"collection_times": [{"days": "Mon-Fri", "time": "2:30pm"}, {"days": "Sat", "time": "12:00pm"}, {"days": "Sun", "time": "Closed"}], "id": "6104600003", "name": "USPS COLLECTION BOX - BLUE BOX", "address": {"city": "LANARK", "state": "IL", "street": "108 W CARROLL ST", "postcode": "61046"}}},
{"geometry": {"type": "Point", "coordinates": [-89.8402178935, 42.0965638465]}, "type": "Feature", "properties": {"collection_times": [{"days": "Mon-Fri", "time": "4:45pm"}, {"days": "Sat", "time": "12:00pm"}, {"days": "Sun", "time": "Closed"}], "id": "6104600004", "name": "USPS COLLECTION BOX - PO LOBBY", "address": {"city": "LANARK", "state": "IL", "street": "600 W OLYMPIC DR", "postcode": "61046"}}},
{"geometry": {"type": "Point", "coordinates": [-89.8402178935, 42.0965638465]}, "type": "Feature", "properties": {"collection_times": [{"days": "Mon-Fri", "time": "4:45pm"}, {"days": "Sat", "time": "12:00pm"}, {"days": "Sun", "time": "Closed"}], "id": "6104600005", "name": "USPS COLLECTION BOX - PO LOBBY", "address": {"city": "LANARK", "state": "IL", "street": "600 W OLYMPIC DR", "postcode": "61046"}}},
{"geometry": {"type": "Point", "coordinates": [-89.8402178935, 42.0965638465]}, "type": "Feature", "properties": {"collection_times": [{"days": "Mon-Fri", "time": "4:45pm"}, {"days": "Sat", "time": "12:00pm"}, {"days": "Sun", "time": "Closed"}], "id": "6104600007", "name": "USPS COLLECTION BOX - BLUE BOX", "address": {"city": "LANARK", "state": "IL", "street": "600 W OLYMPIC DR", "postcode": "61046"}}},
{"geometry": {"type": "Point", "coordinates": [-89.4041008169, 42.12717734]}, "type": "Feature", "properties": {"collection_times": [{"days": "Mon-Fri", "time": "4:15pm"}, {"days": "Sat", "time": "10:45am"}, {"days": "Sun", "time": "Closed"}], "id": "6104700001", "name": "USPS COLLECTION BOX - BLUE BOX", "address": {"city": "LEAF RIVER", "state": "IL", "street": "116 MAIN ST", "postcode": "61047"}}},
{"geometry": {"type": "Point", "coordinates": [-89.4041008169, 42.12717734]}, "type": "Feature", "properties": {"collection_times": [{"days": "Mon-Fri", "time": "4:15pm"}, {"days": "Sat", "time": "10:45am"}, {"days": "Sun", "time": "Closed"}], "id": "6104700002", "name": "USPS COLLECTION BOX - PO LOBBY", "address": {"city": "LEAF RIVER", "state": "IL", "street": "116 MAIN ST", "postcode": "61047"}}},
{"geometry": {"type": "Point", "coordinates": [-89.4041008169, 42.12717734]}, "type": "Feature", "properties": {"collection_times": [{"days": "Mon-Fri", "time": "4:15pm"}, {"days": "Sat", "time": "10:45am"}, {"days": "Sun", "time": "Closed"}], "id": "6104700003", "name": "USPS COLLECTION BOX - PO LOBBY", "address": {"city": "LEAF RIVER", "state": "IL", "street": "116 MAIN ST", "postcode": "61047"}}},
{"geometry": {"type": "Point", "coordinates": [-89.4049460479, 42.1451101414]}, "type": "Feature", "properties": {"collection_times": [{"days": "Mon-Sat", "time": "11:00am"}, {"days": "Sun", "time": "Closed"}], "id": "6104700004", "name": "USPS COLLECTION BOX - BLUE BOX", "address": {"city": "LEAF RIVER", "state": "IL", "street": "705 MAIN ST", "postcode": "61047"}}},
{"geometry": {"type": "Point", "coordinates": [-89.8286195809, 42.3727688166]}, "type": "Feature", "properties": {"collection_times": [{"days": "Mon-Fri", "time": "4:00pm"}, {"days": "Sat", "time": "10:45am"}, {"days": "Sun", "time": "Closed"}], "id": "6104800002", "name": "USPS COLLECTION BOX - BLUE BOX", "address": {"city": "LENA", "state": "IL", "street": "913 S LOGAN ST", "postcode": "61048"}}},
{"geometry": {"type": "Point", "coordinates": [-89.8237831588, 42.3779316257]}, "type": "Feature", "properties": {"collection_times": [{"days": "Mon-Fri", "time": "2:45pm"}, {"days": "Sat", "time": "10:45am"}, {"days": "Sun", "time": "Closed"}], "id": "6104800003", "name": "USPS COLLECTION BOX - BLUE BOX", "address": {"city": "LENA", "state": "IL", "street": "102 W MAIN ST", "postcode": "61048"}}},
{"geometry": {"type": "Point", "coordinates": [-89.8286195809, 42.3727688166]}, "type": "Feature", "properties": {"collection_times": [{"days": "Mon-Fri", "time": "4:30pm"}, {"days": "Sat", "time": "10:45am"}, {"days": "Sun", "time": "Closed"}], "id": "6104800004", "name": "USPS COLLECTION BOX - PO LOBBY", "address": {"city": "LENA", "state": "IL", "street": "913 S LOGAN ST", "postcode": "61048"}}},
{"geometry": {"type": "Point", "coordinates": [-89.8286195809, 42.3727688166]}, "type": "Feature", "properties": {"collection_times": [{"days": "Mon-Fri", "time": "4:30pm"}, {"days": "Sat", "time": "10:45am"}, {"days": "Sun", "time": "Closed"}], "id": "6104800005", "name": "USPS COLLECTION BOX - PO LOBBY", "address": {"city": "LENA", "state": "IL", "street": "913 S LOGAN ST", "postcode": "61048"}}},
{"geometry": {"type": "Point", "coordinates": [-89.8379789014, 42.3865101134]}, "type": "Feature", "properties": {"collection_times": [{"days": "Mon-Fri", "time": "2:45pm"}, {"days": "Sat", "time": "10:45am"}, {"days": "Sun", "time": "Closed"}], "id": "6104800006", "name": "USPS COLLECTION BOX - BLUE BOX", "address": {"city": "LENA", "state": "IL", "street": "435 W LENA ST", "postcode": "61048"}}},
{"geometry": {"type": "Point", "coordinates": [-89.030420696, 42.0531366031]}, "type": "Feature", "properties": {"collection_times": [{"days": "Mon-Fri", "time": "4:00pm"}, {"days": "Sat", "time": "10:45am"}, {"days": "Sun", "time": "Closed"}], "id": "6104900001", "name": "USPS COLLECTION BOX - BLUE BOX", "address": {"city": "LINDENWOOD", "state": "IL", "street": "104 S WALNUT ST", "postcode": "61049"}}},
{"geometry": {"type": "Point", "coordinates": [-89.030420696, 42.0531366031]}, "type": "Feature", "properties": {"collection_times": [{"days": "Mon-Fri", "time": "4:00pm"}, {"days": "Sat", "time": "10:45am"}, {"days": "Sun", "time": "Closed"}], "id": "6104900002", "name": "USPS COLLECTION BOX - PO LOBBY", "address": {"city": "LINDENWOOD", "state": "IL", "street": "104 S WALNUT ST", "postcode": "61049"}}},
{"geometry": {"type": "Point", "coordinates": [-89.7324162825, 42.4340825952]}, "type": "Feature", "properties": {"collection_times": [{"days": "Mon-Fri", "time": "3:45pm"}, {"days": "Sat", "time": "10:45am"}, {"days": "Sun", "time": "Closed"}], "id": "6105000001", "name": "USPS COLLECTION BOX - BLUE BOX", "address": {"city": "MCCONNELL", "state": "IL", "street": "218 E MAIN ST", "postcode": "61050"}}},
{"geometry": {"type": "Point", "coordinates": [-89.7324162825, 42.4340825952]}, "type": "Feature", "properties": {"collection_times": [{"days": "Mon-Fri", "time": "3:45pm"}, {"days": "Sat", "time": "10:45am"}, {"days": "Sun", "time": "Closed"}], "id": "6105000002", "name": "USPS COLLECTION BOX - PO LOBBY", "address": {"city": "MCCONNELL", "state": "IL", "street": "218 E MAIN ST", "postcode": "61050"}}},
{"geometry": {"type": "Point", "coordinates": [-89.77602324, 41.9612649716]}, "type": "Feature", "properties": {"collection_times": [{"days": "Mon-Fri", "time": "4:15pm"}, {"days": "Sat", "time": "11:00am"}, {"days": "Sun", "time": "Closed"}], "id": "6105100001", "name": "USPS COLLECTION BOX - BLUE BOX", "address": {"city": "MILLEDGEVILLE", "state": "IL", "street": "315 N MEYERS AVE", "postcode": "61051"}}},
{"geometry": {"type": "Point", "coordinates": [-89.77602324, 41.9612649716]}, "type": "Feature", "properties": {"collection_times": [{"days": "Mon-Fri", "time": "4:15pm"}, {"days": "Sat", "time": "11:00am"}, {"days": "Sun", "time": "Closed"}], "id": "6105100002", "name": "USPS COLLECTION BOX - PO LOBBY", "address": {"city": "MILLEDGEVILLE", "state": "IL", "street": "315 N MEYERS AVE", "postcode": "61051"}}},
{"geometry": {"type": "Point", "coordinates": [-89.77602324, 41.9612649716]}, "type": "Feature", "properties": {"collection_times": [{"days": "Mon-Fri", "time": "4:15pm"}, {"days": "Sat", "time": "11:00am"}, {"days": "Sun", "time": "Closed"}], "id": "6105100003", "name": "USPS COLLECTION BOX - PO LOBBY", "address": {"city": "MILLEDGEVILLE", "state": "IL", "street": "315 N MEYERS AVE", "postcode": "61051"}}},
{"geometry": {"type": "Point", "coordinates": [-89.0005712939, 42.0982393573]}, "type": "Feature", "properties": {"collection_times": [{"days": "Mon-Fri", "time": "4:15pm"}, {"days": "Sat", "time": "12:00pm"}, {"days": "Sun", "time": "Closed"}], "id": "6105200001", "name": "USPS COLLECTION BOX - BLUE BOX", "address": {"city": "MONROE CENTER", "state": "IL", "street": "200 MAIN ST", "postcode": "61052"}}},
{"geometry": {"type": "Point", "coordinates": [-89.0005712939, 42.0982393573]}, "type": "Feature", "properties": {"collection_times": [{"days": "Mon-Fri", "time": "4:15pm"}, {"days": "Sat", "time": "12:00pm"}, {"days": "Sun", "time": "Closed"}], "id": "6105200002", "name": "USPS COLLECTION BOX - PO LOBBY", "address": {"city": "MONROE CENTER", "state": "IL", "street": "200 MAIN ST", "postcode": "61052"}}},
{"geometry": {"type": "Point", "coordinates": [-89.0005712939, 42.0982393573]}, "type": "Feature", "properties": {"collection_times": [{"days": "Mon-Fri", "time": "4:15pm"}, {"days": "Sat", "time": "12:00pm"}, {"days": "Sun", "time": "Closed"}], "id": "6105200003", "name": "USPS COLLECTION BOX - PO LOBBY", "address": {"city": "MONROE CENTER", "state": "IL", "street": "200 MAIN ST", "postcode": "61052"}}},
{"geometry": {"type": "Point", "coordinates": [-89.9787777758, 42.0995382736]}, "type": "Feature", "properties": {"collection_times": [{"days": "Mon-Fri", "time": "4:15pm"}, {"days": "Sat", "time": "12:00pm"}, {"days": "Sun", "time": "Closed"}], "id": "6105300002", "name": "USPS COLLECTION BOX - BLUE BOX", "address": {"city": "MOUNT CARROLL", "state": "IL", "street": "301 N MAIN ST", "postcode": "61053"}}},
{"geometry": {"type": "Point", "coordinates": [-89.9776684944, 42.0984627466]}, "type": "Feature", "properties": {"collection_times": [{"days": "Mon-Fri", "time": "4:15pm"}, {"days": "Sat", "time": "12:00pm"}, {"days": "Sun", "time": "Closed"}], "id": "6105300006", "name": "USPS COLLECTION BOX - PO LOBBY", "address": {"city": "MOUNT CARROLL", "state": "IL", "street": "211 N CLAY ST", "postcode": "61053"}}},
{"geometry": {"type": "Point", "coordinates": [-89.9776684944, 42.0984627466]}, "type": "Feature", "properties": {"collection_times": [{"days": "Mon-Fri", "time": "4:15pm"}, {"days": "Sat", "time": "12:00pm"}, {"days": "Sun", "time": "Closed"}], "id": "6105300007", "name": "USPS COLLECTION BOX - PO LOBBY", "address": {"city": "MOUNT CARROLL", "state": "IL", "street": "211 N CLAY ST", "postcode": "61053"}}},
{"geometry": {"type": "Point", "coordinates": [-89.9776684944, 42.0984627466]}, "type": "Feature", "properties": {"collection_times": [{"days": "Mon-Fri", "time": "4:15pm"}, {"days": "Sat", "time": "12:00pm"}, {"days": "Sun", "time": "Closed"}], "id": "6105300008", "name": "USPS COLLECTION BOX - PO LOBBY", "address": {"city": "MOUNT CARROLL", "state": "IL", "street": "211 N CLAY ST", "postcode": "61053"}}},
{"geometry": {"type": "Point", "coordinates": [-89.4338474205, 42.0485778339]}, "type": "Feature", "properties": {"collection_times": [{"days": "Mon-Fri", "time": "5:00pm"}, {"days": "Sat", "time": "4:00pm"}, {"days": "Sun", "time": "Closed"}], "id": "6105400001", "name": "USPS COLLECTION BOX - BLUE BOX", "address": {"city": "MOUNT MORRIS", "state": "IL", "street": "21 W MAIN ST", "postcode": "61054"}}},
{"geometry": {"type": "Point", "coordinates": [-89.4338474205, 42.0485778339]}, "type": "Feature", "properties": {"collection_times": [{"days": "Mon-Fri", "time": "5:00pm"}, {"days": "Sat", "time": "4:00pm"}, {"days": "Sun", "time": "Closed"}], "id": "6105400012", "name": "USPS COLLECTION BOX - BLUE BOX", "address": {"city": "MOUNT MORRIS", "state": "IL", "street": "21 W MAIN ST", "postcode": "61054"}}},
{"geometry": {"type": "Point", "coordinates": [-89.4338474205, 42.0485778339]}, "type": "Feature", "properties": {"collection_times": [{"days": "Mon-Fri", "time": "5:00pm"}, {"days": "Sat", "time": "4:00pm"}, {"days": "Sun", "time": "Closed"}], "id": "6105400013", "name": "USPS COLLECTION BOX - PO LOBBY", "address": {"city": "MOUNT MORRIS", "state": "IL", "street": "21 W MAIN ST", "postcode": "61054"}}},
{"geometry": {"type": "Point", "coordinates": [-89.4338474205, 42.0485778339]}, "type": "Feature", "properties": {"collection_times": [{"days": "Mon-Fri", "time": "5:00pm"}, {"days": "Sat", "time": "4:00pm"}, {"days": "Sun", "time": "Closed"}], "id": "6105400016", "name": "USPS COLLECTION BOX - BLUE BOX", "address": {"city": "MOUNT MORRIS", "state": "IL", "street": "21 W MAIN ST", "postcode": "61054"}}},
{"geometry": {"type": "Point", "coordinates": [-89.3902668114, 41.8314534534]}, "type": "Feature", "properties": {"collection_times": [{"days": "Mon-Fri", "time": "4:45pm"}, {"days": "Sat", "time": "9:45am"}, {"days": "Sun", "time": "Closed"}], "id": "6105700001", "name": "USPS COLLECTION BOX - BLUE BOX", "address": {"city": "NACHUSA", "state": "IL", "street": "1712 WARREN ST", "postcode": "61057"}}},
{"geometry": {"type": "Point", "coordinates": [-89.3902668114, 41.8314534534]}, "type": "Feature", "properties": {"collection_times": [{"days": "Mon-Fri", "time": "4:45pm"}, {"days": "Sat", "time": "9:45am"}, {"days": "Sun", "time": "Closed"}], "id": "6105700002", "name": "USPS COLLECTION BOX - PO LOBBY", "address": {"city": "NACHUSA", "state": "IL", "street": "1712 WARREN ST", "postcode": "61057"}}},
{"geometry": {"type": "Point", "coordinates": [-89.3902668114, 41.8314534534]}, "type": "Feature", "properties": {"collection_times": [{"days": "Mon-Fri", "time": "4:45pm"}, {"days": "Sat", "time": "9:45am"}, {"days": "Sun", "time": "Closed"}], "id": "6105700003", "name": "USPS COLLECTION BOX - PO LOBBY", "address": {"city": "NACHUSA", "state": "IL", "street": "1712 WARREN ST", "postcode": "61057"}}},
{"geometry": {"type": "Point", "coordinates": [-89.9448460877, 42.456380058]}, "type": "Feature", "properties": {"collection_times": [{"days": "Mon-Fri", "time": "4:15pm"}, {"days": "Sat", "time": "10:00am"}, {"days": "Sun", "time": "Closed"}], "id": "6105900001", "name": "USPS COLLECTION BOX - BLUE BOX", "address": {"city": "NORA", "state": "IL", "street": "111 W CHESTNUT ST", "postcode": "61059"}}},
{"geometry": {"type": "Point", "coordinates": [-89.9448460877, 42.456380058]}, "type": "Feature", "properties": {"collection_times": [{"days": "Mon-Fri", "time": "4:15pm"}, {"days": "Sat", "time": "10:00am"}, {"days": "Sun", "time": "Closed"}], "id": "6105900002", "name": "USPS COLLECTION BOX - PO LOBBY", "address": {"city": "NORA", "state": "IL", "street": "111 W CHESTNUT ST", "postcode": "61059"}}},
{"geometry": {"type": "Point", "coordinates": [-89.646122725, 42.4685962497]}, "type": "Feature", "properties": {"collection_times": [{"days": "Mon-Fri", "time": "2:30pm"}, {"days": "Sat", "time": "11:15am"}, {"days": "Sun", "time": "Closed"}], "id": "6106000001", "name": "USPS COLLECTION BOX - BLUE BOX", "address": {"city": "ORANGEVILLE", "state": "IL", "street": "211 W HIGH ST", "postcode": "61060"}}},
{"geometry": {"type": "Point", "coordinates": [-89.646122725, 42.4685962497]}, "type": "Feature", "properties": {"collection_times": [{"days": "Mon-Fri", "time": "2:30pm"}, {"days": "Sat", "time": "11:15am"}, {"days": "Sun", "time": "Closed"}], "id": "6106000002", "name": "USPS COLLECTION BOX - PO LOBBY", "address": {"city": "ORANGEVILLE", "state": "IL", "street": "211 W HIGH ST", "postcode": "61060"}}},
{"geometry": {"type": "Point", "coordinates": [-89.646122725, 42.4685962497]}, "type": "Feature", "properties": {"collection_times": [{"days": "Mon-Fri", "time": "2:30pm"}, {"days": "Sat", "time": "11:15am"}, {"days": "Sun", "time": "Closed"}], "id": "6106000003", "name": "USPS COLLECTION BOX - PO LOBBY", "address": {"city": "ORANGEVILLE", "state": "IL", "street": "211 W HIGH ST", "postcode": "61060"}}},
{"geometry": {"type": "Point", "coordinates": [-89.65095302, 42.469471459]}, "type": "Feature", "properties": {"collection_times": [{"days": "Mon-Sat", "time": "12:00pm"}, {"days": "Sun", "time": "Closed"}], "id": "6106000004", "name": "USPS COLLECTION BOX - BLUE BOX", "address": {"city": "ORANGEVILLE", "state": "IL", "street": "456 HIGH ST", "postcode": "61060"}}},
{"geometry": {"type": "Point", "coordinates": [-89.333802593, 42.0146881255]}, "type": "Feature", "properties": {"collection_times": [{"days": "Mon-Fri", "time": "5:30pm"}, {"days": "Sat", "time": "3:00pm"}, {"days": "Sun", "time": "Closed"}], "id": "6106100001", "name": "USPS COLLECTION BOX - BLUE BOX", "address": {"city": "OREGON", "state": "IL", "street": "500 WASHINGTON ST", "postcode": "61061"}}},
{"geometry": {"type": "Point", "coordinates": [-89.333802593, 42.0146881255]}, "type": "Feature", "properties": {"collection_times": [{"days": "Mon-Fri", "time": "5:30pm"}, {"days": "Sat", "time": "3:00pm"}, {"days": "Sun", "time": "Closed"}], "id": "6106100002", "name": "USPS COLLECTION BOX - BLUE BOX", "address": {"city": "OREGON", "state": "IL", "street": "500 WASHINGTON ST", "postcode": "61061"}}},
{"geometry": {"type": "Point", "coordinates": [-89.3312477072, 42.0159398816]}, "type": "Feature", "properties": {"collection_times": [{"days": "Mon-Sat", "time": "10:00am"}, {"days": "Sun", "time": "Closed"}], "id": "6106100003", "name": "USPS COLLECTION BOX - BLUE BOX", "address": {"city": "OREGON", "state": "IL", "street": "201 N 3RD ST", "postcode": "61061"}}},
{"geometry": {"type": "Point", "coordinates": [-89.3324308223, 42.0145803873]}, "type": "Feature", "properties": {"collection_times": [{"days": "Mon-Sat", "time": "12:00pm"}, {"days": "Sun", "time": "Closed"}], "id": "6106100005", "name": "USPS COLLECTION BOX - BLUE BOX", "address": {"city": "OREGON", "state": "IL", "street": "101 S 4TH ST", "postcode": "61061"}}},
{"geometry": {"type": "Point", "coordinates": [-89.3312425094, 42.0145296565]}, "type": "Feature", "properties": {"collection_times": [{"days": "Mon-Sat", "time": "1:00pm"}, {"days": "Sun", "time": "Closed"}], "id": "6106100011", "name": "USPS COLLECTION BOX - BLUE BOX", "address": {"city": "OREGON", "state": "IL", "street": "301 WASHINGTON ST", "postcode": "61061"}}},
{"geometry": {"type": "Point", "coordinates": [-89.333802593, 42.0146881255]}, "type": "Feature", "properties": {"collection_times": [{"days": "Mon-Fri", "time": "5:30pm"}, {"days": "Sat", "time": "3:00pm"}, {"days": "Sun", "time": "Closed"}], "id": "6106100015", "name": "USPS COLLECTION BOX - BLUE BOX", "address": {"city": "OREGON", "state": "IL", "street": "500 WASHINGTON ST", "postcode": "61061"}}},
{"geometry": {"type": "Point", "coordinates": [-89.333802593, 42.0146881255]}, "type": "Feature", "properties": {"collection_times": [{"days": "Mon-Fri", "time": "5:30pm"}, {"days": "Sat", "time": "3:00pm"}, {"days": "Sun", "time": "Closed"}], "id": "6106100016", "name": "USPS COLLECTION BOX - BLUE BOX", "address": {"city": "OREGON", "state": "IL", "street": "500 WASHINGTON ST", "postcode": "61061"}}},
{"geometry": {"type": "Point", "coordinates": [-89.333802593, 42.0146881255]}, "type": "Feature", "properties": {"collection_times": [{"days": "Mon-Fri", "time": "5:30pm"}, {"days": "Sat", "time": "3:00pm"}, {"days": "Sun", "time": "Closed"}], "id": "6106100018", "name": "USPS COLLECTION BOX - PO LOBBY", "address": {"city": "OREGON", "state": "IL", "street": "500 WASHINGTON ST", "postcode": "61061"}}},
{"geometry": {"type": "Point", "coordinates": [-89.826127818, 42.2672363522]}, "type": "Feature", "properties": {"collection_times": [{"days": "Mon-Fri", "time": "1:30pm"}, {"days": "Sat", "time": "11:30am"}, {"days": "Sun", "time": "Closed"}], "id": "6106200001", "name": "USPS COLLECTION BOX - BLUE BOX", "address": {"city": "PEARL CITY", "state": "IL", "street": "105 S MAIN ST", "postcode": "61062"}}},
{"geometry": {"type": "Point", "coordinates": [-89.826127818, 42.2672363522]}, "type": "Feature", "properties": {"collection_times": [{"days": "Mon-Fri", "time": "1:30pm"}, {"days": "Sat", "time": "11:30am"}, {"days": "Sun", "time": "Closed"}], "id": "6106200002", "name": "USPS COLLECTION BOX - PO LOBBY", "address": {"city": "PEARL CITY", "state": "IL", "street": "105 S MAIN ST", "postcode": "61062"}}},
{"geometry": {"type": "Point", "coordinates": [-89.826127818, 42.2672363522]}, "type": "Feature", "properties": {"collection_times": [{"days": "Mon-Fri", "time": "1:30pm"}, {"days": "Sat", "time": "11:30am"}, {"days": "Sun", "time": "Closed"}], "id": "6106200003", "name": "USPS COLLECTION BOX - PO LOBBY", "address": {"city": "PEARL CITY", "state": "IL", "street": "105 S MAIN ST", "postcode": "61062"}}},
{"geometry": {"type": "Point", "coordinates": [-89.3590912873, 42.3139932663]}, "type": "Feature", "properties": {"collection_times": [{"days": "Mon-Fri", "time": "4:30pm"}, {"days": "Sat", "time": "11:30am"}, {"days": "Sun", "time": "Closed"}], "id": "6106300001", "name": "USPS COLLECTION BOX - BLUE BOX", "address": {"city": "PECATONICA", "state": "IL", "street": "120 E 3RD ST", "postcode": "61063"}}},
{"geometry": {"type": "Point", "coordinates": [-89.3590912873, 42.3139932663]}, "type": "Feature", "properties": {"collection_times": [{"days": "Mon-Fri", "time": "5:00pm"}, {"days": "Sat", "time": "12:00pm"}, {"days": "Sun", "time": "Closed"}], "id": "6106300002", "name": "USPS COLLECTION BOX - PO LOBBY", "address": {"city": "PECATONICA", "state": "IL", "street": "120 E 3RD ST", "postcode": "61063"}}},
{"geometry": {"type": "Point", "coordinates": [-89.5774430822, 41.9863048012]}, "type": "Feature", "properties": {"collection_times": [{"days": "Mon-Fri", "time": "4:45pm"}, {"days": "Sat", "time": "12:00pm"}, {"days": "Sun", "time": "Closed"}], "id": "6106400002", "name": "USPS COLLECTION BOX - BLUE BOX", "address": {"city": "POLO", "state": "IL", "street": "110 N FRANKLIN AVE", "postcode": "61064"}}},
{"geometry": {"type": "Point", "coordinates": [-89.5772605464, 41.9862161749]}, "type": "Feature", "properties": {"collection_times": [{"days": "Mon-Sat", "time": "2:30pm"}, {"days": "Sun", "time": "Closed"}], "id": "6106400003", "name": "USPS COLLECTION BOX - BLUE BOX", "address": {"city": "POLO", "state": "IL", "street": "124 E MASON ST", "postcode": "61064"}}},
{"geometry": {"type": "Point", "coordinates": [-89.5772605464, 41.9862161749]}, "type": "Feature", "properties": {"collection_times": [{"days": "Mon-Sat", "time": "2:30pm"}, {"days": "Sun", "time": "Closed"}], "id": "6106400004", "name": "USPS COLLECTION BOX - BLUE BOX", "address": {"city": "POLO", "state": "IL", "street": "124 E MASON ST", "postcode": "61064"}}},
{"geometry": {"type": "Point", "coordinates": [-89.5774430822, 41.9863048012]}, "type": "Feature", "properties": {"collection_times": [{"days": "Mon-Fri", "time": "4:30pm"}, {"days": "Sat", "time": "12:00pm"}, {"days": "Sun", "time": "Closed"}], "id": "6106400005", "name": "USPS COLLECTION BOX - PO LOBBY", "address": {"city": "POLO", "state": "IL", "street": "110 N FRANKLIN AVE", "postcode": "61064"}}},
{"geometry": {"type": "Point", "coordinates": [-89.5774430822, 41.9863048012]}, "type": "Feature", "properties": {"collection_times": [{"days": "Mon-Fri", "time": "4:30pm"}, {"days": "Sat", "time": "12:00pm"}, {"days": "Sun", "time": "Closed"}], "id": "6106400006", "name": "USPS COLLECTION BOX - PO LOBBY", "address": {"city": "POLO", "state": "IL", "street": "110 N FRANKLIN AVE", "postcode": "61064"}}},
{"geometry": {"type": "Point", "coordinates": [-88.8214987708, 42.3586803781]}, "type": "Feature", "properties": {"collection_times": [{"days": "Mon-Fri", "time": "4:45pm"}, {"days": "Sat", "time": "12:00pm"}, {"days": "Sun", "time": "Closed"}], "id": "6106500001", "name": "USPS COLLECTION BOX - BLUE BOX", "address": {"city": "POPLAR GROVE", "state": "IL", "street": "105 E BRITNIE DR", "postcode": "61065"}}},
{"geometry": {"type": "Point", "coordinates": [-88.85145, 42.34545]}, "type": "Feature", "properties": {"collection_times": [{"days": "Mon-Sat", "time": "12:00pm"}, {"days": "Sun", "time": "Closed"}], "id": "6106500003", "name": "USPS COLLECTION BOX - BLUE BOX", "address": {"city": "POPLAR GROVE", "state": "IL", "street": "13521 IL ROUTE 76", "postcode": "61065"}}},
{"geometry": {"type": "Point", "coordinates": [-88.8214987708, 42.3586803781]}, "type": "Feature", "properties": {"collection_times": [{"days": "Mon-Fri", "time": "5:00pm"}, {"days": "Sat", "time": "12:00pm"}, {"days": "Sun", "time": "Closed"}], "id": "6106500004", "name": "USPS COLLECTION BOX - PO LOBBY", "address": {"city": "POPLAR GROVE", "state": "IL", "street": "105 E BRITNIE DR", "postcode": "61065"}}},
{"geometry": {"type": "Point", "coordinates": [-88.8214987708, 42.3586803781]}, "type": "Feature", "properties": {"collection_times": [{"days": "Mon-Fri", "time": "5:00pm"}, {"days": "Sat", "time": "12:00pm"}, {"days": "Sun", "time": "Closed"}], "id": "6106500005", "name": "USPS COLLECTION BOX - PO LOBBY", "address": {"city": "POPLAR GROVE", "state": "IL", "street": "105 E BRITNIE DR", "postcode": "61065"}}},
{"geometry": {"type": "Point", "coordinates": [-88.8514678532, 42.3540609234]}, "type": "Feature", "properties": {"collection_times": [{"days": "Mon-Sat", "time": "12:00pm"}, {"days": "Sun", "time": "Closed"}], "id": "6106500006", "name": "USPS COLLECTION BOX - BLUE BOX", "address": {"city": "POPLAR GROVE", "state": "IL", "street": "13400 STATE ROUTE 76", "postcode": "61065"}}},
{"geometry": {"type": "Point", "coordinates": [-89.4766865512, 42.2986065434]}, "type": "Feature", "properties": {"collection_times": [{"days": "Mon-Fri", "time": "3:45pm"}, {"days": "Sat", "time": "10:45am"}, {"days": "Sun", "time": "Closed"}], "id": "6106700001", "name": "USPS COLLECTION BOX - BLUE BOX", "address": {"city": "RIDOTT", "state": "IL", "street": "103 ADAMS ST", "postcode": "61067"}}},
{"geometry": {"type": "Point", "coordinates": [-89.4766865512, 42.2986065434]}, "type": "Feature", "properties": {"collection_times": [{"days": "Mon-Fri", "time": "4:00pm"}, {"days": "Sat", "time": "10:45am"}, {"days": "Sun", "time": "Closed"}], "id": "6106700002", "name": "USPS COLLECTION BOX - PO LOBBY", "address": {"city": "RIDOTT", "state": "IL", "street": "103 ADAMS ST", "postcode": "61067"}}},
{"geometry": {"type": "Point", "coordinates": [-89.06626615, 41.9239283609]}, "type": "Feature", "properties": {"collection_times": [{"days": "Mon-Sat", "time": "5:00pm"}, {"days": "Sun", "time": "Closed"}], "id": "6106800002", "name": "USPS COLLECTION BOX - BLUE BOX", "address": {"city": "ROCHELLE", "state": "IL", "street": "501 LINCOLN HWY", "postcode": "61068"}}},
{"geometry": {"type": "Point", "coordinates": [-89.06626615, 41.9239283609]}, "type": "Feature", "properties": {"collection_times": [{"days": "Mon-Sat", "time": "5:00pm"}, {"days": "Sun", "time": "Closed"}], "id": "6106800003", "name": "USPS COLLECTION BOX - BLUE BOX", "address": {"city": "ROCHELLE", "state": "IL", "street": "501 LINCOLN HWY", "postcode": "61068"}}},
{"geometry": {"type": "Point", "coordinates": [-89.06626615, 41.9239283609]}, "type": "Feature", "properties": {"collection_times": [{"days": "Mon-Sat", "time": "5:00pm"}, {"days": "Sun", "time": "Closed"}], "id": "6106800006", "name": "USPS COLLECTION BOX - BLUE BOX", "address": {"city": "ROCHELLE", "state": "IL", "street": "501 LINCOLN HWY", "postcode": "61068"}}},
{"geometry": {"type": "Point", "coordinates": [-89.06626615, 41.9239283609]}, "type": "Feature", "properties": {"collection_times": [{"days": "Mon-Sat", "time": "5:00pm"}, {"days": "Sun", "time": "Closed"}], "id": "6106800007", "name": "USPS COLLECTION BOX - BLUE BOX", "address": {"city": "ROCHELLE", "state": "IL", "street": "501 LINCOLN HWY", "postcode": "61068"}}},
{"geometry": {"type": "Point", "coordinates": [-89.0593788541, 41.9261908883]}, "type": "Feature", "properties": {"collection_times": [{"days": "Mon-Sat", "time": "1:15pm"}, {"days": "Sun", "time": "Closed"}], "id": "6106800008", "name": "USPS COLLECTION BOX - BLUE BOX", "address": {"city": "ROCHELLE", "state": "IL", "street": "117 7TH AVE", "postcode": "61068"}}},
{"geometry": {"type": "Point", "coordinates": [-89.0636628897, 41.9328716922]}, "type": "Feature", "properties": {"collection_times": [{"days": "Mon-Sat", "time": "12:00pm"}, {"days": "Sun", "time": "Closed"}], "id": "6106800009", "name": "USPS COLLECTION BOX - BLUE BOX", "address": {"city": "ROCHELLE", "state": "IL", "street": "234 MAY MART DR", "postcode": "61068"}}},
{"geometry": {"type": "Point", "coordinates": [-89.0343777474, 41.9362550533]}, "type": "Feature", "properties": {"collection_times": [{"days": "Mon-Sat", "time": "11:00am"}, {"days": "Sun", "time": "Closed"}], "id": "6106800010", "name": "USPS COLLECTION BOX - BLUE BOX", "address": {"city": "ROCHELLE", "state": "IL", "street": "900 PETRO RD", "postcode": "61068"}}},
{"geometry": {"type": "Point", "coordinates": [-89.0744084445, 41.9328740028]}, "type": "Feature", "properties": {"collection_times": [{"days": "Mon-Sat", "time": "10:30am"}, {"days": "Sun", "time": "Closed"}], "id": "6106800012", "name": "USPS COLLECTION BOX - BLUE BOX", "address": {"city": "ROCHELLE", "state": "IL", "street": "204 HILLCREST AVE", "postcode": "61068"}}},
{"geometry": {"type": "Point", "coordinates": [-89.4687361514, 42.4121723253]}, "type": "Feature", "properties": {"collection_times": [{"days": "Mon-Fri", "time": "4:15pm"}, {"days": "Sat", "time": "11:00am"}, {"days": "Sun", "time": "Closed"}], "id": "6107000001", "name": "USPS COLLECTION BOX - BLUE BOX", "address": {"city": "ROCK CITY", "state": "IL", "street": "100 N MAIN ST", "postcode": "61070"}}},
{"geometry": {"type": "Point", "coordinates": [-89.4687361514, 42.4121723253]}, "type": "Feature", "properties": {"collection_times": [{"days": "Mon-Fri", "time": "4:15pm"}, {"days": "Sat", "time": "11:00am"}, {"days": "Sun", "time": "Closed"}], "id": "6107000002", "name": "USPS COLLECTION BOX - PO LOBBY", "address": {"city": "ROCK CITY", "state": "IL", "street": "100 N MAIN ST", "postcode": "61070"}}},
{"geometry": {"type": "Point", "coordinates": [-89.6892364936, 41.7643174611]}, "type": "Feature", "properties": {"collection_times": [{"days": "Mon-Fri", "time": "3:15pm"}, {"days": "Sat", "time": "1:30pm"}, {"days": "Sun", "time": "Closed"}], "id": "6107100004", "name": "USPS COLLECTION BOX - BLUE BOX", "address": {"city": "ROCK FALLS", "state": "IL", "street": "1801 1ST AVE", "postcode": "61071"}}},
{"geometry": {"type": "Point", "coordinates": [-89.7039155443, 41.7703004589]}, "type": "Feature", "properties": {"collection_times": [{"days": "Mon-Fri", "time": "3:15pm"}, {"days": "Sat", "time": "1:30pm"}, {"days": "Sun", "time": "Closed"}], "id": "6107100014", "name": "USPS COLLECTION BOX - BLUE BOX", "address": {"city": "ROCK FALLS", "state": "IL", "street": "1120 W ROUTE 30", "postcode": "61071"}}},
{"geometry": {"type": "Point", "coordinates": [-89.6926608185, 41.7814820338]}, "type": "Feature", "properties": {"collection_times": [{"days": "Mon-Fri", "time": "4:45pm"}, {"days": "Sat", "time": "3:45pm"}, {"days": "Sun", "time": "Closed"}], "id": "6107100022", "name": "USPS COLLECTION BOX - BLUE BOX", "address": {"city": "ROCK FALLS", "state": "IL", "street": "210 2ND AVE", "postcode": "61071"}}},
{"geometry": {"type": "Point", "coordinates": [-89.6926608185, 41.7814820338]}, "type": "Feature", "properties": {"collection_times": [{"days": "Mon-Fri", "time": "4:45pm"}, {"days": "Sat", "time": "3:45pm"}, {"days": "Sun", "time": "Closed"}], "id": "6107100023", "name": "USPS COLLECTION BOX - BLUE BOX", "address": {"city": "ROCK FALLS", "state": "IL", "street": "210 2ND AVE", "postcode": "61071"}}},
{"geometry": {"type": "Point", "coordinates": [-89.6926608185, 41.7814820338]}, "type": "Feature", "properties": {"collection_times": [{"days": "Mon-Fri", "time": "4:45pm"}, {"days": "Sat", "time": "3:45pm"}, {"days": "Sun", "time": "Closed"}], "id": "6107100024", "name": "USPS COLLECTION BOX - BLUE BOX", "address": {"city": "ROCK FALLS", "state": "IL", "street": "210 2ND AVE", "postcode": "61071"}}},
{"geometry": {"type": "Point", "coordinates": [-89.6926608185, 41.7814820338]}, "type": "Feature", "properties": {"collection_times": [{"days": "Mon-Fri", "time": "4:45pm"}, {"days": "Sat", "time": "3:45pm"}, {"days": "Sun", "time": "Closed"}], "id": "6107100026", "name": "USPS COLLECTION BOX - PO LOBBY", "address": {"city": "ROCK FALLS", "state": "IL", "street": "210 2ND AVE", "postcode": "61071"}}},
{"geometry": {"type": "Point", "coordinates": [-89.0740756119, 42.4524730571]}, "type": "Feature", "properties": {"collection_times": [{"days": "Mon-Fri", "time": "5:00pm"}, {"days": "Sat", "time": "3:00pm"}, {"days": "Sun", "time": "Closed"}], "id": "6107200001", "name": "USPS COLLECTION BOX - BLUE BOX", "address": {"city": "ROCKTON", "state": "IL", "street": "214 W MAIN ST", "postcode": "61072"}}},
{"geometry": {"type": "Point", "coordinates": [-89.0696918969, 42.4524871054]}, "type": "Feature", "properties": {"collection_times": [{"days": "Mon-Sat", "time": "2:30pm"}, {"days": "Sun", "time": "Closed"}], "id": "6107200005", "name": "USPS COLLECTION BOX - BLUE BOX", "address": {"city": "ROCKTON", "state": "IL", "street": "300 E MAIN ST", "postcode": "61072"}}},
{"geometry": {"type": "Point", "coordinates": [-89.0740756119, 42.4524730571]}, "type": "Feature", "properties": {"collection_times": [{"days": "Mon-Fri", "time": "5:00pm"}, {"days": "Sat", "time": "3:00pm"}, {"days": "Sun", "time": "Closed"}], "id": "6107200006", "name": "USPS COLLECTION BOX - PO LOBBY", "address": {"city": "ROCKTON", "state": "IL", "street": "214 W MAIN ST", "postcode": "61072"}}},
{"geometry": {"type": "Point", "coordinates": [-89.0120990844, 42.4246191387]}, "type": "Feature", "properties": {"collection_times": [{"days": "Mon-Fri", "time": "5:00pm"}, {"days": "Sat", "time": "12:30pm"}, {"days": "Sun", "time": "Closed"}], "id": "6107300001", "name": "USPS COLLECTION BOX - BLUE BOX", "address": {"city": "ROSCOE", "state": "IL", "street": "11320 MAIN ST", "postcode": "61073"}}},
{"geometry": {"type": "Point", "coordinates": [-89.0120990844, 42.4246191387]}, "type": "Feature", "properties": {"collection_times": [{"days": "Mon-Fri", "time": "5:00pm"}, {"days": "Sat", "time": "12:30pm"}, {"days": "Sun", "time": "Closed"}], "id": "6107300002", "name": "USPS COLLECTION BOX - BLUE BOX", "address": {"city": "ROSCOE", "state": "IL", "street": "11320 MAIN ST", "postcode": "61073"}}},
{"geometry": {"type": "Point", "coordinates": [-89.0087261138, 42.4276150683]}, "type": "Feature", "properties": {"collection_times": [{"days": "Mon-Sat", "time": "1:00pm"}, {"days": "Sun", "time": "Closed"}], "id": "6107300003", "name": "USPS COLLECTION BOX - BLUE BOX", "address": {"city": "ROSCOE", "state": "IL", "street": "5522 ELEVATOR RD", "postcode": "61073"}}},
{"geometry": {"type": "Point", "coordinates": [-89.0239908923, 42.4329664892]}, "type": "Feature", "properties": {"collection_times": [{"days": "Mon-Sat", "time": "1:00pm"}, {"days": "Sun", "time": "Closed"}], "id": "6107300004", "name": "USPS COLLECTION BOX - BLUE BOX", "address": {"city": "ROSCOE", "state": "IL", "street": "4860 HONONEGAH RD", "postcode": "61073"}}},
{"geometry": {"type": "Point", "coordinates": [-89.0182746008, 42.4285221257]}, "type": "Feature", "properties": {"collection_times": [{"days": "Mon-Sat", "time": "1:00pm"}, {"days": "Sun", "time": "Closed"}], "id": "6107300007", "name": "USPS COLLECTION BOX - BLUE BOX", "address": {"city": "ROSCOE", "state": "IL", "street": "5069 EDGEMERE CT", "postcode": "61073"}}},
{"geometry": {"type": "Point", "coordinates": [-89.0120990844, 42.4246191387]}, "type": "Feature", "properties": {"collection_times": [{"days": "Mon-Fri", "time": "5:00pm"}, {"days": "Sat", "time": "12:30pm"}, {"days": "Sun", "time": "Closed"}], "id": "6107300008", "name": "USPS COLLECTION BOX - PO LOBBY", "address": {"city": "ROSCOE", "state": "IL", "street": "11320 MAIN ST", "postcode": "61073"}}},
{"geometry": {"type": "Point", "coordinates": [-89.0120990844, 42.4246191387]}, "type": "Feature", "properties": {"collection_times": [{"days": "Mon-Fri", "time": "5:00pm"}, {"days": "Sat", "time": "12:30pm"}, {"days": "Sun", "time": "Closed"}], "id": "6107300009", "name": "USPS COLLECTION BOX - PO LOBBY", "address": {"city": "ROSCOE", "state": "IL", "street": "11320 MAIN ST", "postcode": "61073"}}},
{"geometry": {"type": "Point", "coordinates": [-88.9957062888, 42.4261031293]}, "type": "Feature", "properties": {"collection_times": [{"days": "Mon-Sat", "time": "1:00pm"}, {"days": "Sun", "time": "Closed"}], "id": "6107300011", "name": "USPS COLLECTION BOX - BLUE BOX", "address": {"city": "ROSCOE", "state": "IL", "street": "13477 QUALITY DR", "postcode": "61073"}}},
{"geometry": {"type": "Point", "coordinates": [-90.1553131359, 42.0937707542]}, "type": "Feature", "properties": {"collection_times": [{"days": "Mon-Fri", "time": "4:30pm"}, {"days": "Sat", "time": "3:00pm"}, {"days": "Sun", "time": "Closed"}], "id": "6107400001", "name": "USPS COLLECTION BOX - BLUE BOX", "address": {"city": "SAVANNA", "state": "IL", "street": "321 3RD ST", "postcode": "61074"}}},
{"geometry": {"type": "Point", "coordinates": [-90.1563407191, 42.0930374309]}, "type": "Feature", "properties": {"collection_times": [{"days": "Mon-Fri", "time": "3:00pm"}, {"days": "Sat", "time": "2:00pm"}, {"days": "Sun", "time": "Closed"}], "id": "6107400005", "name": "USPS COLLECTION BOX - BLUE BOX", "address": {"city": "SAVANNA", "state": "IL", "street": "301 MAIN ST", "postcode": "61074"}}},
{"geometry": {"type": "Point", "coordinates": [-90.1553131359, 42.0937707542]}, "type": "Feature", "properties": {"collection_times": [{"days": "Mon-Fri", "time": "4:30pm"}, {"days": "Sat", "time": "3:00pm"}, {"days": "Sun", "time": "Closed"}], "id": "6107400007", "name": "USPS COLLECTION BOX - PO LOBBY", "address": {"city": "SAVANNA", "state": "IL", "street": "321 3RD ST", "postcode": "61074"}}},
{"geometry": {"type": "Point", "coordinates": [-90.1553131359, 42.0937707542]}, "type": "Feature", "properties": {"collection_times": [{"days": "Mon-Fri", "time": "4:30pm"}, {"days": "Sat", "time": "3:00pm"}, {"days": "Sun", "time": "Closed"}], "id": "6107400008", "name": "USPS COLLECTION BOX - PO LOBBY", "address": {"city": "SAVANNA", "state": "IL", "street": "321 3RD ST", "postcode": "61074"}}},
{"geometry": {"type": "Point", "coordinates": [-90.2517611137, 42.476473386]}, "type": "Feature", "properties": {"collection_times": [{"days": "Mon-Fri", "time": "3:00pm"}, {"days": "Sat", "time": "11:00am"}, {"days": "Sun", "time": "Closed"}], "id": "6107500001", "name": "USPS COLLECTION BOX - BLUE BOX", "address": {"city": "SCALES MOUND", "state": "IL", "street": "310 SOUTH AVE", "postcode": "61075"}}},
{"geometry": {"type": "Point", "coordinates": [-90.2517611137, 42.476473386]}, "type": "Feature", "properties": {"collection_times": [{"days": "Mon-Fri", "time": "3:30pm"}, {"days": "Sat", "time": "11:00am"}, {"days": "Sun", "time": "Closed"}], "id": "6107500002", "name": "USPS COLLECTION BOX - PO LOBBY", "address": {"city": "SCALES MOUND", "state": "IL", "street": "310 SOUTH AVE", "postcode": "61075"}}},
{"geometry": {"type": "Point", "coordinates": [-90.2517611137, 42.476473386]}, "type": "Feature", "properties": {"collection_times": [{"days": "Mon-Fri", "time": "3:30pm"}, {"days": "Sat", "time": "11:00am"}, {"days": "Sun", "time": "Closed"}], "id": "6107500003", "name": "USPS COLLECTION BOX - PO LOBBY", "address": {"city": "SCALES MOUND", "state": "IL", "street": "310 SOUTH AVE", "postcode": "61075"}}},
{"geometry": {"type": "Point", "coordinates": [-89.357999363, 42.2360290896]}, "type": "Feature", "properties": {"collection_times": [{"days": "Mon-Fri", "time": "10:45am"}, {"days": "Sat", "time": "9:15am"}, {"days": "Sun", "time": "Closed"}], "id": "6107700001", "name": "USPS COLLECTION BOX - BLUE BOX", "address": {"city": "SEWARD", "state": "IL", "street": "3057 S PECATONICA RD", "postcode": "61077"}}},
{"geometry": {"type": "Point", "coordinates": [-89.357999363, 42.2360290896]}, "type": "Feature", "properties": {"collection_times": [{"days": "Mon-Fri", "time": "10:45am"}, {"days": "Sat", "time": "9:15am"}, {"days": "Sun", "time": "Closed"}], "id": "6107700002", "name": "USPS COLLECTION BOX - PO LOBBY", "address": {"city": "SEWARD", "state": "IL", "street": "3057 S PECATONICA RD", "postcode": "61077"}}},
{"geometry": {"type": "Point", "coordinates": [-89.357561082, 42.236325223]}, "type": "Feature", "properties": {"collection_times": [{"days": "Mon-Sat", "time": "10:30am"}, {"days": "Sun", "time": "Closed"}], "id": "6107700003", "name": "USPS COLLECTION BOX - BLUE BOX", "address": {"city": "SEWARD", "state": "IL", "street": "16476 3RD ST", "postcode": "61077"}}},
{"geometry": {"type": "Point", "coordinates": [-89.7404788822, 42.1546668621]}, "type": "Feature", "properties": {"collection_times": [{"days": "Mon-Fri", "time": "4:00pm"}, {"days": "Sat", "time": "11:45am"}, {"days": "Sun", "time": "Closed"}], "id": "6107800001", "name": "USPS COLLECTION BOX - BLUE BOX", "address": {"city": "SHANNON", "state": "IL", "street": "2 N LOCUST ST", "postcode": "61078"}}},
{"geometry": {"type": "Point", "coordinates": [-89.7404788822, 42.1546668621]}, "type": "Feature", "properties": {"collection_times": [{"days": "Mon-Fri", "time": "4:00pm"}, {"days": "Sat", "time": "11:45am"}, {"days": "Sun", "time": "Closed"}], "id": "6107800003", "name": "USPS COLLECTION BOX - PO LOBBY", "address": {"city": "SHANNON", "state": "IL", "street": "2 N LOCUST ST", "postcode": "61078"}}},
{"geometry": {"type": "Point", "coordinates": [-89.1966669562, 42.4436271016]}, "type": "Feature", "properties": {"collection_times": [{"days": "Mon-Fri", "time": "3:45pm"}, {"days": "Sat", "time": "11:45am"}, {"days": "Sun", "time": "Closed"}], "id": "6107900001", "name": "USPS COLLECTION BOX - BLUE BOX", "address": {"city": "SHIRLAND", "state": "IL", "street": "13047 PUTNAM ST", "postcode": "61079"}}},
{"geometry": {"type": "Point", "coordinates": [-89.1966669562, 42.4436271016]}, "type": "Feature", "properties": {"collection_times": [{"days": "Mon-Fri", "time": "3:45pm"}, {"days": "Sat", "time": "11:45am"}, {"days": "Sun", "time": "Closed"}], "id": "6107900002", "name": "USPS COLLECTION BOX - PO LOBBY", "address": {"city": "SHIRLAND", "state": "IL", "street": "13047 PUTNAM ST", "postcode": "61079"}}},
{"geometry": {"type": "Point", "coordinates": [-89.0415689208, 42.4878028311]}, "type": "Feature", "properties": {"collection_times": [{"days": "Mon-Fri", "time": "5:00pm"}, {"days": "Sat", "time": "4:00pm"}, {"days": "Sun", "time": "Closed"}], "id": "6108000001", "name": "USPS COLLECTION BOX - BLUE BOX", "address": {"city": "SOUTH BELOIT", "state": "IL", "street": "311 OAK GROVE AVE", "postcode": "61080"}}},
{"geometry": {"type": "Point", "coordinates": [-89.0515123221, 42.4865832291]}, "type": "Feature", "properties": {"collection_times": [{"days": "Mon-Sat", "time": "9:30am"}, {"days": "Sun", "time": "Closed"}], "id": "6108000002", "name": "USPS COLLECTION BOX - BLUE BOX", "address": {"city": "SOUTH BELOIT", "state": "IL", "street": "666 S BLUFF ST", "postcode": "61080"}}},
{"geometry": {"type": "Point", "coordinates": [-89.0466458653, 42.4945329489]}, "type": "Feature", "properties": {"collection_times": [{"days": "Mon-Sat", "time": "2:30pm"}, {"days": "Sun", "time": "Closed"}], "id": "6108000005", "name": "USPS COLLECTION BOX - BLUE BOX", "address": {"city": "SOUTH BELOIT", "state": "IL", "street": "202 S 8TH ST", "postcode": "61080"}}},
{"geometry": {"type": "Point", "coordinates": [-89.044543816, 42.4804016482]}, "type": "Feature", "properties": {"collection_times": [{"days": "Mon-Sat", "time": "2:00pm"}, {"days": "Sun", "time": "Closed"}], "id": "6108000007", "name": "USPS COLLECTION BOX - BLUE BOX", "address": {"city": "SOUTH BELOIT", "state": "IL", "street": "1408 BLACKHAWK BLVD", "postcode": "61080"}}},
{"geometry": {"type": "Point", "coordinates": [-89.02018354, 42.4944479369]}, "type": "Feature", "properties": {"collection_times": [{"days": "Mon-Sat", "time": "2:30pm"}, {"days": "Sun", "time": "Closed"}], "id": "6108000009", "name": "USPS COLLECTION BOX - BLUE BOX", "address": {"city": "SOUTH BELOIT", "state": "IL", "street": "200 DEARBORN AVE", "postcode": "61080"}}},
{"geometry": {"type": "Point", "coordinates": [-89.0183474343, 42.4874932554]}, "type": "Feature", "properties": {"collection_times": [{"days": "Mon-Sat", "time": "1:00pm"}, {"days": "Sun", "time": "Closed"}], "id": "6108000017", "name": "USPS COLLECTION BOX - BLUE BOX", "address": {"city": "SOUTH BELOIT", "state": "IL", "street": "15531 ARNEMAN DR", "postcode": "61080"}}},
{"geometry": {"type": "Point", "coordinates": [-89.0415689208, 42.4878028311]}, "type": "Feature", "properties": {"collection_times": [{"days": "Mon-Fri", "time": "5:00pm"}, {"days": "Sat", "time": "4:00pm"}, {"days": "Sun", "time": "Closed"}], "id": "6108000019", "name": "USPS COLLECTION BOX - PO LOBBY", "address": {"city": "SOUTH BELOIT", "state": "IL", "street": "311 OAK GROVE AVE", "postcode": "61080"}}},
{"geometry": {"type": "Point", "coordinates": [-89.0001337574, 42.4942457034]}, "type": "Feature", "properties": {"collection_times": [{"days": "Mon-Sat", "time": "2:30pm"}, {"days": "Sun", "time": "Closed"}], "id": "6108000021", "name": "USPS COLLECTION BOX - BLUE BOX", "address": {"city": "SOUTH BELOIT", "state": "IL", "street": "16049 WILLOWBROOK RD", "postcode": "61080"}}},
{"geometry": {"type": "Point", "coordinates": [-89.6945844736, 41.7883383863]}, "type": "Feature", "properties": {"collection_times": [{"days": "Mon-Sat", "time": "4:30pm"}, {"days": "Sun", "time": "Closed"}], "id": "6108100005", "name": "USPS COLLECTION BOX - BLUE BOX", "address": {"city": "STERLING", "state": "IL", "street": "302 1ST AVE", "postcode": "61081"}}},
{"geometry": {"type": "Point", "coordinates": [-89.6679962207, 41.8009589309]}, "type": "Feature", "properties": {"collection_times": [{"days": "Mon-Sat", "time": "3:45pm"}, {"days": "Sun", "time": "Closed"}], "id": "6108100006", "name": "USPS COLLECTION BOX - BLUE BOX", "address": {"city": "STERLING", "state": "IL", "street": "2317 E LINCOLNWAY", "postcode": "61081"}}},
{"geometry": {"type": "Point", "coordinates": [-89.6621684722, 41.8058532641]}, "type": "Feature", "properties": {"collection_times": [{"days": "Mon-Sat", "time": "11:00am"}, {"days": "Sun", "time": "Closed"}], "id": "6108100009", "name": "USPS COLLECTION BOX - BLUE BOX", "address": {"city": "STERLING", "state": "IL", "street": "2900 E LINCOLNWAY", "postcode": "61081"}}},
{"geometry": {"type": "Point", "coordinates": [-89.6795360087, 41.8023093731]}, "type": "Feature", "properties": {"collection_times": [{"days": "Mon-Sat", "time": "4:00pm"}, {"days": "Sun", "time": "Closed"}], "id": "6108100011", "name": "USPS COLLECTION BOX - BLUE BOX", "address": {"city": "STERLING", "state": "IL", "street": "1701 16TH AVE", "postcode": "61081"}}},
{"geometry": {"type": "Point", "coordinates": [-89.7101983178, 41.7889518837]}, "type": "Feature", "properties": {"collection_times": [{"days": "Mon-Sat", "time": "2:30pm"}, {"days": "Sun", "time": "Closed"}], "id": "6108100019", "name": "USPS COLLECTION BOX - BLUE BOX", "address": {"city": "STERLING", "state": "IL", "street": "1008 W 3RD ST", "postcode": "61081"}}},
{"geometry": {"type": "Point", "coordinates": [-89.7037630097, 41.8016103016]}, "type": "Feature", "properties": {"collection_times": [{"days": "Mon-Sat", "time": "11:30am"}, {"days": "Sun", "time": "Closed"}], "id": "6108100020", "name": "USPS COLLECTION BOX - BLUE BOX", "address": {"city": "STERLING", "state": "IL", "street": "610 W LE FEVRE RD", "postcode": "61081"}}},
{"geometry": {"type": "Point", "coordinates": [-89.7044886716, 41.8087148621]}, "type": "Feature", "properties": {"collection_times": [{"days": "Mon-Sat", "time": "9:00am"}, {"days": "Sun", "time": "Closed"}], "id": "6108100021", "name": "USPS COLLECTION BOX - BLUE BOX", "address": {"city": "STERLING", "state": "IL", "street": "612 W 23RD ST", "postcode": "61081"}}},
{"geometry": {"type": "Point", "coordinates": [-89.6696411359, 41.8075292483]}, "type": "Feature", "properties": {"collection_times": [{"days": "Mon-Sat", "time": "9:30am"}, {"days": "Sun", "time": "Closed"}], "id": "6108100024", "name": "USPS COLLECTION BOX - BLUE BOX", "address": {"city": "STERLING", "state": "IL", "street": "2100 FREEPORT RD", "postcode": "61081"}}},
{"geometry": {"type": "Point", "coordinates": [-89.6987493118, 41.8088162196]}, "type": "Feature", "properties": {"collection_times": [{"days": "Mon-Sat", "time": "4:15pm"}, {"days": "Sun", "time": "Closed"}], "id": "6108100028", "name": "USPS COLLECTION BOX - BLUE BOX", "address": {"city": "STERLING", "state": "IL", "street": "2301 LOCUST ST", "postcode": "61081"}}},
{"geometry": {"type": "Point", "coordinates": [-89.6917953292, 41.7891079785]}, "type": "Feature", "properties": {"collection_times": [{"days": "Mon-Sat", "time": "4:30pm"}, {"days": "Sun", "time": "Closed"}], "id": "6108100029", "name": "USPS COLLECTION BOX - BLUE BOX", "address": {"city": "STERLING", "state": "IL", "street": "302 E 3RD ST", "postcode": "61081"}}},
{"geometry": {"type": "Point", "coordinates": [-89.6621684722, 41.8058532641]}, "type": "Feature", "properties": {"collection_times": [{"days": "Mon-Sat", "time": "4:00pm"}, {"days": "Sun", "time": "Closed"}], "id": "6108100030", "name": "USPS COLLECTION BOX - BLUE BOX", "address": {"city": "STERLING", "state": "IL", "street": "2900 E LINCOLNWAY", "postcode": "61081"}}},
{"geometry": {"type": "Point", "coordinates": [-89.6587448418, 41.8081733363]}, "type": "Feature", "properties": {"collection_times": [{"days": "Mon-Sat", "time": "4:00pm"}, {"days": "Sun", "time": "Closed"}], "id": "6108100031", "name": "USPS COLLECTION BOX - BLUE BOX", "address": {"city": "STERLING", "state": "IL", "street": "3205 E LINCOLNWAY", "postcode": "61081"}}},
{"geometry": {"type": "Point", "coordinates": [-89.6923674599, 41.7903577006]}, "type": "Feature", "properties": {"collection_times": [{"days": "Mon-Sat", "time": "5:00pm"}, {"days": "Sun", "time": "Closed"}], "id": "6108100034", "name": "USPS COLLECTION BOX - BLUE BOX", "address": {"city": "STERLING", "state": "IL", "street": "408 3RD AVE", "postcode": "61081"}}},
{"geometry": {"type": "Point", "coordinates": [-89.6923674599, 41.7903577006]}, "type": "Feature", "properties": {"collection_times": [{"days": "Mon-Sat", "time": "5:00pm"}, {"days": "Sun", "time": "Closed"}], "id": "6108100035", "name": "USPS COLLECTION BOX - BLUE BOX", "address": {"city": "STERLING", "state": "IL", "street": "408 3RD AVE", "postcode": "61081"}}},
{"geometry": {"type": "Point", "coordinates": [-89.7066574067, 41.7961850784]}, "type": "Feature", "properties": {"collection_times": [{"days": "Mon-Sat", "time": "2:45pm"}, {"days": "Sun", "time": "Closed"}], "id": "6108100037", "name": "USPS COLLECTION BOX - BLUE BOX", "address": {"city": "STERLING", "state": "IL", "street": "801 W 11TH ST", "postcode": "61081"}}},
{"geometry": {"type": "Point", "coordinates": [-89.6670450579, 41.8019797862]}, "type": "Feature", "properties": {"collection_times": [{"days": "Mon-Sat", "time": "12:00pm"}, {"days": "Sun", "time": "Closed"}], "id": "6108100038", "name": "USPS COLLECTION BOX - BLUE BOX", "address": {"city": "STERLING", "state": "IL", "street": "2506 E LINCOLNWAY", "postcode": "61081"}}},
{"geometry": {"type": "Point", "coordinates": [-89.6970825967, 41.8016088894]}, "type": "Feature", "properties": {"collection_times": [{"days": "Mon-Sat", "time": "9:00am"}, {"days": "Sun", "time": "Closed"}], "id": "6108100040", "name": "USPS COLLECTION BOX - BLUE BOX", "address": {"city": "STERLING", "state": "IL", "street": "100 E LE FEVRE RD", "postcode": "61081"}}},
{"geometry": {"type": "Point", "coordinates": [-89.6923674599, 41.7903577006]}, "type": "Feature", "properties": {"collection_times": [{"days": "Mon-Sat", "time": "5:00pm"}, {"days": "Sun", "time": "Closed"}], "id": "6108100041", "name": "USPS COLLECTION BOX - PO LOBBY", "address": {"city": "STERLING", "state": "IL", "street": "408 3RD AVE", "postcode": "61081"}}},
{"geometry": {"type": "Point", "coordinates": [-89.6923674599, 41.7903577006]}, "type": "Feature", "properties": {"collection_times": [{"days": "Mon-Sat", "time": "5:00pm"}, {"days": "Sun", "time": "Closed"}], "id": "6108100042", "name": "USPS COLLECTION BOX - PO LOBBY", "address": {"city": "STERLING", "state": "IL", "street": "408 3RD AVE", "postcode": "61081"}}},
{"geometry": {"type": "Point", "coordinates": [-89.6380203134, 41.8217921937]}, "type": "Feature", "properties": {"collection_times": [{"days": "Mon-Sat", "time": "9:30am"}, {"days": "Sun", "time": "Closed"}], "id": "6108100043", "name": "USPS COLLECTION BOX - BLUE BOX", "address": {"city": "STERLING", "state": "IL", "street": "4311 E LINCOLNWAY", "postcode": "61081"}}},
{"geometry": {"type": "Point", "coordinates": [-89.1788748983, 42.1054774039]}, "type": "Feature", "properties": {"collection_times": [{"days": "Mon-Fri", "time": "4:30pm"}, {"days": "Sat", "time": "12:00pm"}, {"days": "Sun", "time": "Closed"}], "id": "6108400001", "name": "USPS COLLECTION BOX - BLUE BOX", "address": {"city": "STILLMAN VALLEY", "state": "IL", "street": "215 N WALNUT ST", "postcode": "61084"}}},
{"geometry": {"type": "Point", "coordinates": [-89.1788748983, 42.1054774039]}, "type": "Feature", "properties": {"collection_times": [{"days": "Mon-Fri", "time": "4:30pm"}, {"days": "Sat", "time": "12:00pm"}, {"days": "Sun", "time": "Closed"}], "id": "6108400002", "name": "USPS COLLECTION BOX - PO LOBBY", "address": {"city": "STILLMAN VALLEY", "state": "IL", "street": "215 N WALNUT ST", "postcode": "61084"}}},
{"geometry": {"type": "Point", "coordinates": [-90.0082144287, 42.3481748434]}, "type": "Feature", "properties": {"collection_times": [{"days": "Mon-Fri", "time": "4:30pm"}, {"days": "Sat", "time": "3:30pm"}, {"days": "Sun", "time": "Closed"}], "id": "6108500001", "name": "USPS COLLECTION BOX - BLUE BOX", "address": {"city": "STOCKTON", "state": "IL", "street": "201 W RAILROAD AVE", "postcode": "61085"}}},
{"geometry": {"type": "Point", "coordinates": [-90.0054568603, 42.3545539007]}, "type": "Feature", "properties": {"collection_times": [{"days": "Mon-Sat", "time": "1:00pm"}, {"days": "Sun", "time": "Closed"}], "id": "6108500003", "name": "USPS COLLECTION BOX - BLUE BOX", "address": {"city": "STOCKTON", "state": "IL", "street": "527 N HUDSON ST", "postcode": "61085"}}},
{"geometry": {"type": "Point", "coordinates": [-90.0075144449, 42.35093457]}, "type": "Feature", "properties": {"collection_times": [{"days": "Mon-Sat", "time": "10:00am"}, {"days": "Sun", "time": "Closed"}], "id": "6108500004", "name": "USPS COLLECTION BOX - BLUE BOX", "address": {"city": "STOCKTON", "state": "IL", "street": "140 W BENTON AVE", "postcode": "61085"}}},
{"geometry": {"type": "Point", "coordinates": [-90.006697122, 42.3515721716]}, "type": "Feature", "properties": {"collection_times": [{"days": "Mon-Sat", "time": "11:00am"}, {"days": "Sun", "time": "Closed"}], "id": "6108500005", "name": "USPS COLLECTION BOX - BLUE BOX", "address": {"city": "STOCKTON", "state": "IL", "street": "246 N MAIN ST", "postcode": "61085"}}},
{"geometry": {"type": "Point", "coordinates": [-90.0067208446, 42.3495046182]}, "type": "Feature", "properties": {"collection_times": [{"days": "Mon-Sat", "time": "2:00pm"}, {"days": "Sun", "time": "Closed"}], "id": "6108500007", "name": "USPS COLLECTION BOX - BLUE BOX", "address": {"city": "STOCKTON", "state": "IL", "street": "139 S MAIN ST", "postcode": "61085"}}},
{"geometry": {"type": "Point", "coordinates": [-90.0082144287, 42.3481748434]}, "type": "Feature", "properties": {"collection_times": [{"days": "Mon-Fri", "time": "4:30pm"}, {"days": "Sat", "time": "3:30pm"}, {"days": "Sun", "time": "Closed"}], "id": "6108500008", "name": "USPS COLLECTION BOX - BLUE BOX", "address": {"city": "STOCKTON", "state": "IL", "street": "201 W RAILROAD AVE", "postcode": "61085"}}},
{"geometry": {"type": "Point", "coordinates": [-90.0082144287, 42.3481748434]}, "type": "Feature", "properties": {"collection_times": [{"days": "Mon-Fri", "time": "4:30pm"}, {"days": "Sat", "time": "3:30pm"}, {"days": "Sun", "time": "Closed"}], "id": "6108500009", "name": "USPS COLLECTION BOX - PO LOBBY", "address": {"city": "STOCKTON", "state": "IL", "street": "201 W RAILROAD AVE", "postcode": "61085"}}},
{"geometry": {"type": "Point", "coordinates": [-90.0082144287, 42.3481748434]}, "type": "Feature", "properties": {"collection_times": [{"days": "Mon-Fri", "time": "4:30pm"}, {"days": "Sat", "time": "3:30pm"}, {"days": "Sun", "time": "Closed"}], "id": "6108500010", "name": "USPS COLLECTION BOX - PO LOBBY", "address": {"city": "STOCKTON", "state": "IL", "street": "201 W RAILROAD AVE", "postcode": "61085"}}},
{"geometry": {"type": "Point", "coordinates": [-90.0051793372, 42.3571070095]}, "type": "Feature", "properties": {"collection_times": [{"days": "Mon-Sat", "time": "10:15am"}, {"days": "Sun", "time": "Closed"}], "id": "6108500011", "name": "USPS COLLECTION BOX - BLUE BOX", "address": {"city": "STOCKTON", "state": "IL", "street": "209 E NORTH AVE", "postcode": "61085"}}},
{"geometry": {"type": "Point", "coordinates": [-90.0001078206, 42.3571454159]}, "type": "Feature", "properties": {"collection_times": [{"days": "Mon-Sat", "time": "10:00am"}, {"days": "Sun", "time": "Closed"}], "id": "6108500012", "name": "USPS COLLECTION BOX - BLUE BOX", "address": {"city": "STOCKTON", "state": "IL", "street": "601 E NORTH AVE", "postcode": "61085"}}},
{"geometry": {"type": "Point", "coordinates": [-89.9895104242, 42.4964203423]}, "type": "Feature", "properties": {"collection_times": [{"days": "Mon-Fri", "time": "4:00pm"}, {"days": "Sat", "time": "11:30am"}, {"days": "Sun", "time": "Closed"}], "id": "6108700002", "name": "USPS COLLECTION BOX - PO LOBBY", "address": {"city": "WARREN", "state": "IL", "street": "101 E MAIN ST", "postcode": "61087"}}},
{"geometry": {"type": "Point", "coordinates": [-89.9895104242, 42.4964203423]}, "type": "Feature", "properties": {"collection_times": [{"days": "Mon-Fri", "time": "4:00pm"}, {"days": "Sat", "time": "11:30am"}, {"days": "Sun", "time": "Closed"}], "id": "6108700003", "name": "USPS COLLECTION BOX - PO LOBBY", "address": {"city": "WARREN", "state": "IL", "street": "101 E MAIN ST", "postcode": "61087"}}},
{"geometry": {"type": "Point", "coordinates": [-89.9879822299, 42.4958825697]}, "type": "Feature", "properties": {"collection_times": [{"days": "Mon-Fri", "time": "4:00pm"}, {"days": "Sat", "time": "11:30am"}, {"days": "Sun", "time": "Closed"}], "id": "6108700005", "name": "USPS COLLECTION BOX - BLUE BOX", "address": {"city": "WARREN", "state": "IL", "street": "101 E MAIN ST", "postcode": "61087"}}},
{"geometry": {"type": "Point", "coordinates": [-89.2417091523, 42.2798788257]}, "type": "Feature", "properties": {"collection_times": [{"days": "Mon-Fri", "time": "4:45pm"}, {"days": "Sat", "time": "12:00pm"}, {"days": "Sun", "time": "Closed"}], "id": "6108800001", "name": "USPS COLLECTION BOX - BLUE BOX", "address": {"city": "WINNEBAGO", "state": "IL", "street": "105 LANDMARK DR", "postcode": "61088"}}},
{"geometry": {"type": "Point", "coordinates": [-89.2417091523, 42.2798788257]}, "type": "Feature", "properties": {"collection_times": [{"days": "Mon-Fri", "time": "4:45pm"}, {"days": "Sat", "time": "12:00pm"}, {"days": "Sun", "time": "Closed"}], "id": "6108800004", "name": "USPS COLLECTION BOX - PO LOBBY", "address": {"city": "WINNEBAGO", "state": "IL", "street": "105 LANDMARK DR", "postcode": "61088"}}},
{"geometry": {"type": "Point", "coordinates": [-89.2417091523, 42.2798788257]}, "type": "Feature", "properties": {"collection_times": [{"days": "Mon-Fri", "time": "4:45pm"}, {"days": "Sat", "time": "12:00pm"}, {"days": "Sun", "time": "Closed"}], "id": "6108800006", "name": "USPS COLLECTION BOX - BLUE BOX", "address": {"city": "WINNEBAGO", "state": "IL", "street": "105 LANDMARK DR", "postcode": "61088"}}},
{"geometry": {"type": "Point", "coordinates": [-89.7938782597, 42.4951003816]}, "type": "Feature", "properties": {"collection_times": [{"days": "Mon-Fri", "time": "3:55pm"}, {"days": "Sat", "time": "11:30am"}, {"days": "Sun", "time": "Closed"}], "id": "6108900001", "name": "USPS COLLECTION BOX - BLUE BOX", "address": {"city": "WINSLOW", "state": "IL", "street": "200 CARVER ST", "postcode": "61089"}}},
{"geometry": {"type": "Point", "coordinates": [-89.7938782597, 42.4951003816]}, "type": "Feature", "properties": {"collection_times": [{"days": "Mon-Fri", "time": "3:55pm"}, {"days": "Sat", "time": "11:30am"}, {"days": "Sun", "time": "Closed"}], "id": "6108900002", "name": "USPS COLLECTION BOX - PO LOBBY", "address": {"city": "WINSLOW", "state": "IL", "street": "200 CARVER ST", "postcode": "61089"}}},
{"geometry": {"type": "Point", "coordinates": [-89.7938782597, 42.4951003816]}, "type": "Feature", "properties": {"collection_times": [{"days": "Mon-Fri", "time": "3:55pm"}, {"days": "Sat", "time": "11:30am"}, {"days": "Sun", "time": "Closed"}], "id": "6108900003", "name": "USPS COLLECTION BOX - PO LOBBY", "address": {"city": "WINSLOW", "state": "IL", "street": "200 CARVER ST", "postcode": "61089"}}},
{"geometry": {"type": "Point", "coordinates": [-89.792066119, 42.49316366]}, "type": "Feature", "properties": {"collection_times": [{"days": "Mon-Sat", "time": "9:00am"}, {"days": "Sun", "time": "Closed"}], "id": "6108900004", "name": "USPS COLLECTION BOX - BLUE BOX", "address": {"city": "WINSLOW", "state": "IL", "street": "221 CARVER ST", "postcode": "61089"}}},
{"geometry": {"type": "Point", "coordinates": [-89.5433009859, 41.9059011672]}, "type": "Feature", "properties": {"collection_times": [{"days": "Mon-Fri", "time": "12:30pm"}, {"days": "Sat", "time": "11:00am"}, {"days": "Sun", "time": "Closed"}], "id": "6109100001", "name": "USPS COLLECTION BOX - BLUE BOX", "address": {"city": "WOOSUNG", "state": "IL", "street": "604 GRISWOLD ST", "postcode": "61091"}}},
{"geometry": {"type": "Point", "coordinates": [-89.5433009859, 41.9059011672]}, "type": "Feature", "properties": {"collection_times": [{"days": "Mon-Fri", "time": "12:30pm"}, {"days": "Sat", "time": "11:00am"}, {"days": "Sun", "time": "Closed"}], "id": "6109100002", "name": "USPS COLLECTION BOX - PO LOBBY", "address": {"city": "WOOSUNG", "state": "IL", "street": "604 GRISWOLD ST", "postcode": "61091"}}}
]}
