{"type": "FeatureCollection", "features": [
{"geometry": {"type": "Point", "coordinates": [-89.1062952395, 42.2875530402]}, "type": "Feature", "properties": {"collection_times": [{"days": "Mon-Fri", "time": "4:00pm"}, {"days": "Sat", "time": "1:00pm"}, {"days": "Sun", "time": "Closed"}], "id": "6110100004", "name": "USPS COLLECTION BOX - BLUE BOX", "address": {"city": "ROCKFORD", "state": "IL", "street": "1109 N AVON ST", "postcode": "61101"}}},
{"geometry": {"type": "Point", "coordinates": [-89.1161856724, 42.2968333885]}, "type": "Feature", "properties": {"collection_times": [{"days": "Mon-Fri", "time": "4:00pm"}, {"days": "Sat", "time": "1:00pm"}, {"days": "Sun", "time": "Closed"}], "id": "6110100006", "name": "USPS COLLECTION BOX - BLUE BOX", "address": {"city": "ROCKFORD", "state": "IL", "street": "125 N CHURCH ST", "postcode": "61101"}}},
{"geometry": {"type": "Point", "coordinates": [-89.0936700032, 42.2745978892]}, "type": "Feature", "properties": {"collection_times": [{"days": "Mon-Fri", "time": "4:00pm"}, {"days": "Sat", "time": "1:00pm"}, {"days": "Sun", "time": "Closed"}], "id": "6110100007", "name": "USPS COLLECTION BOX - BLUE BOX", "address": {"city": "ROCKFORD", "state": "IL", "street": "399 N CHURCH ST", "postcode": "61101"}}},
{"geometry": {"type": "Point", "coordinates": [-89.0986248593, 42.268106763]}, "type": "Feature", "properties": {"collection_times": [{"days": "Mon-Fri", "time": "4:00pm"}, {"days": "Sat", "time": "1:00pm"}, {"days": "Sun", "time": "Closed"}], "id": "6110100011", "name": "USPS COLLECTION BOX - BLUE BOX", "address": {"city": "ROCKFORD", "state": "IL", "street": "511 N CHURCH ST", "postcode": "61101"}}},
{"geometry": {"type": "Point", "coordinates": [-89.0981509223, 42.271006559]}, "type": "Feature", "properties": {"collection_times": [{"days": "Mon-Fri", "time": "4:00pm"}, {"days": "Sat", "time": "1:00pm"}, {"days": "Sun", "time": "Closed"}], "id": "6110100012", "name": "USPS COLLECTION BOX - BLUE BOX", "address": {"city": "ROCKFORD", "state": "IL", "street": "211 S COURT ST", "postcode": "61101"}}},
{"geometry": {"type": "Point", "coordinates": [-89.0965040136, 42.2729745727]}, "type": "Feature", "properties": {"collection_times": [{"days": "Mon-Fri", "time": "4:00pm"}, {"days": "Sat", "time": "1:00pm"}, {"days": "Sun", "time": "Closed"}], "id": "6110100013", "name": "USPS COLLECTION BOX - BLUE BOX", "address": {"city": "ROCKFORD", "state": "IL", "street": "111 N COURT ST", "postcode": "61101"}}},
{"geometry": {"type": "Point", "coordinates": [-89.0965227644, 42.2709872993]}, "type": "Feature", "properties": {"collection_times": [{"days": "Mon-Fri", "time": "4:00pm"}, {"days": "Sat", "time": "1:00pm"}, {"days": "Sun", "time": "Closed"}], "id": "6110100014", "name": "USPS COLLECTION BOX - BLUE BOX", "address": {"city": "ROCKFORD", "state": "IL", "street": "404 ELM ST", "postcode": "61101"}}},
{"geometry": {"type": "Point", "coordinates": [-89.1021412738, 42.2744143008]}, "type": "Feature", "properties": {"collection_times": [{"days": "Mon-Fri", "time": "4:00pm"}, {"days": "Sat", "time": "1:00pm"}, {"days": "Sun", "time": "Closed"}], "id": "6110100016", "name": "USPS COLLECTION BOX - BLUE BOX", "address": {"city": "ROCKFORD", "state": "IL", "street": "401 W STATE ST", "postcode": "61101"}}},
{"geometry": {"type": "Point", "coordinates": [-89.1001173739, 42.2632101496]}, "type": "Feature", "properties": {"collection_times": [{"days": "Mon-Fri", "time": "4:00pm"}, {"days": "Sat", "time": "1:00pm"}, {"days": "Sun", "time": "Closed"}], "id": "6110100017", "name": "USPS COLLECTION BOX - BLUE BOX", "address": {"city": "ROCKFORD", "state": "IL", "street": "982 N MAIN ST", "postcode": "61101"}}},
{"geometry": {"type": "Point", "coordinates": [-89.0813597167, 42.2864403529]}, "type": "Feature", "properties": {"collection_times": [{"days": "Mon-Fri", "time": "4:00pm"}, {"days": "Sat", "time": "1:00pm"}, {"days": "Sun", "time": "Closed"}], "id": "6110100018", "name": "USPS COLLECTION BOX - BLUE BOX", "address": {"city": "ROCKFORD", "state": "IL", "street": "1320 N MAIN ST", "postcode": "61101"}}},
{"geometry": {"type": "Point", "coordinates": [-89.0968880578, 42.3056499289]}, "type": "Feature", "properties": {"collection_times": [{"days": "Mon-Fri", "time": "3:45pm"}, {"days": "Sat", "time": "1:00pm"}, {"days": "Sun", "time": "Closed"}], "id": "6110100020", "name": "USPS COLLECTION BOX - BLUE BOX", "address": {"city": "ROCKFORD", "state": "IL", "street": "3146 N ROCKTON AVE", "postcode": "61101"}}},
{"geometry": {"type": "Point", "coordinates": [-89.0968433351, 42.297814872]}, "type": "Feature", "properties": {"collection_times": [{"days": "Mon-Fri", "time": "3:45pm"}, {"days": "Sat", "time": "1:00pm"}, {"days": "Sun", "time": "Closed"}], "id": "6110100024", "name": "USPS COLLECTION BOX - BLUE BOX", "address": {"city": "ROCKFORD", "state": "IL", "street": "2400 N ROCKTON AVE", "postcode": "61101"}}},
{"geometry": {"type": "Point", "coordinates": [-89.0934066875, 42.2707437701]}, "type": "Feature", "properties": {"collection_times": [{"days": "Mon-Fri", "time": "4:00pm"}, {"days": "Sat", "time": "1:00pm"}, {"days": "Sun", "time": "Closed"}], "id": "6110100025", "name": "USPS COLLECTION BOX - BLUE BOX", "address": {"city": "ROCKFORD", "state": "IL", "street": "120 W STATE ST", "postcode": "61101"}}},
{"geometry": {"type": "Point", "coordinates": [-89.0983799587, 42.2727646346]}, "type": "Feature", "properties": {"collection_times": [{"days": "Mon-Fri", "time": "4:00pm"}, {"days": "Sat", "time": "1:00pm"}, {"days": "Sun", "time": "Closed"}], "id": "6110100027", "name": "USPS COLLECTION BOX - BLUE BOX", "address": {"city": "ROCKFORD", "state": "IL", "street": "598 W STATE ST", "postcode": "61101"}}},
{"geometry": {"type": "Point", "coordinates": [-89.0958543447, 42.2717359567]}, "type": "Feature", "properties": {"collection_times": [{"days": "Mon-Fri", "time": "4:00pm"}, {"days": "Sat", "time": "1:00pm"}, {"days": "Sun", "time": "Closed"}], "id": "6110100029", "name": "USPS COLLECTION BOX - BLUE BOX", "address": {"city": "ROCKFORD", "state": "IL", "street": "420 W STATE ST", "postcode": "61101"}}},
{"geometry": {"type": "Point", "coordinates": [-89.0938972814, 42.2709463051]}, "type": "Feature", "properties": {"collection_times": [{"days": "Mon-Fri", "time": "4:00pm"}, {"days": "Sat", "time": "1:00pm"}, {"days": "Sun", "time": "Closed"}], "id": "6110100034", "name": "USPS COLLECTION BOX - BLUE BOX", "address": {"city": "ROCKFORD", "state": "IL", "street": "308 W STATE ST", "postcode": "61101"}}},
{"geometry": {"type": "Point", "coordinates": [-89.0943488919, 42.2701156466]}, "type": "Feature", "properties": {"collection_times": [{"days": "Mon-Fri", "time": "4:00pm"}, {"days": "Sat", "time": "1:00pm"}, {"days": "Sun", "time": "Closed"}], "id": "6110100037", "name": "USPS COLLECTION BOX - BLUE BOX", "address": {"city": "ROCKFORD", "state": "IL", "street": "200 S WYMAN ST", "postcode": "61101"}}},
{"geometry": {"type": "Point", "coordinates": [-89.106894874, 42.297401893]}, "type": "Feature", "properties": {"collection_times": [{"days": "Mon-Fri", "time": "5:15pm"}, {"days": "Sat", "time": "1:00pm"}, {"days": "Sun", "time": "Closed"}], "id": "6110100039", "name": "USPS COLLECTION BOX - BLUE BOX", "address": {"city": "ROCKFORD", "state": "IL", "street": "2440 KILBURN AVE", "postcode": "61101"}}},
{"geometry": {"type": "Point", "coordinates": [-89.106894874, 42.297401893]}, "type": "Feature", "properties": {"collection_times": [{"days": "Mon-Fri", "time": "5:15pm"}, {"days": "Sat", "time": "1:00pm"}, {"days": "Sun", "time": "Closed"}], "id": "6110100042", "name": "USPS COLLECTION BOX - BLUE BOX", "address": {"city": "ROCKFORD", "state": "IL", "street": "2440 KILBURN AVE", "postcode": "61101"}}},
{"geometry": {"type": "Point", "coordinates": [-89.077300628, 42.31601182]}, "type": "Feature", "properties": {"collection_times": [{"days": "Mon-Fri", "time": "3:45pm"}, {"days": "Sat", "time": "1:00pm"}, {"days": "Sun", "time": "Closed"}], "id": "6110100043", "name": "USPS COLLECTION BOX - BLUE BOX", "address": {"city": "ROCKFORD", "state": "IL", "street": "3710 N MAIN ST", "postcode": "61101"}}},
{"geometry": {"type": "Point", "coordinates": [-89.097728758, 42.269118277]}, "type": "Feature", "properties": {"collection_times": [{"days": "Mon-Fri", "time": "4:30pm"}, {"days": "Sat", "time": "1:00pm"}, {"days": "Sun", "time": "Closed"}], "id": "6110100044", "name": "USPS COLLECTION BOX - BLUE BOX", "address": {"city": "ROCKFORD", "state": "IL", "street": "398 S CHURCH ST", "postcode": "61101"}}},
{"geometry": {"type": "Point", "coordinates": [-89.097728758, 42.269118277]}, "type": "Feature", "properties": {"collection_times": [{"days": "Mon-Fri", "time": "4:30pm"}, {"days": "Sat", "time": "1:00pm"}, {"days": "Sun", "time": "Closed"}], "id": "6110100045", "name": "USPS COLLECTION BOX - BLUE BOX", "address": {"city": "ROCKFORD", "state": "IL", "street": "398 S CHURCH ST", "postcode": "61101"}}},
{"geometry": {"type": "Point", "coordinates": [-89.0548980928, 42.2534396469]}, "type": "Feature", "properties": {"collection_times": [{"days": "Mon-Sat", "time": "1:00pm"}, {"days": "Sun", "time": "Closed"}], "id": "6110800000", "name": "USPS COLLECTION BOX - BLUE BOX", "address": {"city": "ROCKFORD", "state": "IL", "street": "1407 22ND ST", "postcode": "61108"}}},
{"geometry": {"type": "Point", "coordinates": [-89.0288707125, 42.2395689141]}, "type": "Feature", "properties": {"collection_times": [{"days": "Mon-Sat", "time": "1:00pm"}, {"days": "Sun", "time": "Closed"}], "id": "6110800002", "name": "USPS COLLECTION BOX - BLUE BOX", "address": {"city": "ROCKFORD", "state": "IL", "street": "2510 S ALPINE RD", "postcode": "61108"}}},
{"geometry": {"type": "Point", "coordinates": [-89.0288768136, 42.2559514421]}, "type": "Feature", "properties": {"collection_times": [{"days": "Mon-Sat", "time": "1:00pm"}, {"days": "Sun", "time": "Closed"}], "id": "6110800006", "name": "USPS COLLECTION BOX - BLUE BOX", "address": {"city": "ROCKFORD", "state": "IL", "street": "1100 S ALPINE RD", "postcode": "61108"}}},
{"geometry": {"type": "Point", "coordinates": [-89.0288707125, 42.2395689141]}, "type": "Feature", "properties": {"collection_times": [{"days": "Mon-Sat", "time": "1:00pm"}, {"days": "Sun", "time": "Closed"}], "id": "6110800008", "name": "USPS COLLECTION BOX - BLUE BOX", "address": {"city": "ROCKFORD", "state": "IL", "street": "2510 S ALPINE RD", "postcode": "61108"}}},
{"geometry": {"type": "Point", "coordinates": [-89.0291511267, 42.2557342852]}, "type": "Feature", "properties": {"collection_times": [{"days": "Mon-Sat", "time": "1:00pm"}, {"days": "Sun", "time": "Closed"}], "id": "6110800009", "name": "USPS COLLECTION BOX - BLUE BOX", "address": {"city": "ROCKFORD", "state": "IL", "street": "1111 S ALPINE RD", "postcode": "61108"}}},
{"geometry": {"type": "Point", "coordinates": [-88.9990344841, 42.2712146315]}, "type": "Feature", "properties": {"collection_times": [{"days": "Mon-Sat", "time": "1:00pm"}, {"days": "Sun", "time": "Closed"}], "id": "6110800019", "name": "USPS COLLECTION BOX - BLUE BOX", "address": {"city": "ROCKFORD", "state": "IL", "street": "293 EXECUTIVE PKWY", "postcode": "61108"}}},
{"geometry": {"type": "Point", "coordinates": [-89.0240670316, 42.2626103623]}, "type": "Feature", "properties": {"collection_times": [{"days": "Mon-Fri", "time": "2:00pm"}, {"days": "Sat", "time": "1:00pm"}, {"days": "Sun", "time": "Closed"}], "id": "6110800020", "name": "USPS COLLECTION BOX - BLUE BOX", "address": {"city": "ROCKFORD", "state": "IL", "street": "4751 MANHATTAN DR", "postcode": "61108"}}},
{"geometry": {"type": "Point", "coordinates": [-89.004861817, 42.2665847093]}, "type": "Feature", "properties": {"collection_times": [{"days": "Mon-Fri", "time": "4:00pm"}, {"days": "Sat", "time": "1:00pm"}, {"days": "Sun", "time": "Closed"}], "id": "6110800021", "name": "USPS COLLECTION BOX - BLUE BOX", "address": {"city": "ROCKFORD", "state": "IL", "street": "129 PHELPS AVE", "postcode": "61108"}}},
{"geometry": {"type": "Point", "coordinates": [-89.0678778653, 42.2742969066]}, "type": "Feature", "properties": {"collection_times": [{"days": "Mon-Sat", "time": "1:00pm"}, {"days": "Sun", "time": "Closed"}], "id": "6110800028", "name": "USPS COLLECTION BOX - BLUE BOX", "address": {"city": "ROCKFORD", "state": "IL", "street": "1700 RURAL ST", "postcode": "61108"}}},
{"geometry": {"type": "Point", "coordinates": [-89.011315447, 42.264912703]}, "type": "Feature", "properties": {"collection_times": [{"days": "Mon-Fri", "time": "2:00pm"}, {"days": "Sat", "time": "1:00pm"}, {"days": "Sun", "time": "Closed"}], "id": "6110800030", "name": "USPS COLLECTION BOX - BLUE BOX", "address": {"city": "ROCKFORD", "state": "IL", "street": "5411 E STATE ST", "postcode": "61108"}}},
{"geometry": {"type": "Point", "coordinates": [-88.9917744879, 42.2676645126]}, "type": "Feature", "properties": {"collection_times": [{"days": "Mon-Fri", "time": "4:00pm"}, {"days": "Sat", "time": "1:00pm"}, {"days": "Sun", "time": "Closed"}], "id": "6110800031", "name": "USPS COLLECTION BOX - BLUE BOX", "address": {"city": "ROCKFORD", "state": "IL", "street": "6410 E STATE ST", "postcode": "61108"}}},
{"geometry": {"type": "Point", "coordinates": [-88.9719240311, 42.2702306121]}, "type": "Feature", "properties": {"collection_times": [{"days": "Mon-Fri", "time": "3:00pm"}, {"days": "Sat", "time": "1:00pm"}, {"days": "Sun", "time": "Closed"}], "id": "6110800032", "name": "USPS COLLECTION BOX - BLUE BOX", "address": {"city": "ROCKFORD", "state": "IL", "street": "7400 E STATE ST", "postcode": "61108"}}},
{"geometry": {"type": "Point", "coordinates": [-89.026697638, 42.2635883365]}, "type": "Feature", "properties": {"collection_times": [{"days": "Mon-Fri", "time": "2:00pm"}, {"days": "Sat", "time": "1:00pm"}, {"days": "Sun", "time": "Closed"}], "id": "6110800033", "name": "USPS COLLECTION BOX - BLUE BOX", "address": {"city": "ROCKFORD", "state": "IL", "street": "4615 E STATE ST", "postcode": "61108"}}},
{"geometry": {"type": "Point", "coordinates": [-88.9920438526, 42.2673486439]}, "type": "Feature", "properties": {"collection_times": [{"days": "Mon-Fri", "time": "2:00pm"}, {"days": "Sat", "time": "1:00pm"}, {"days": "Sun", "time": "Closed"}], "id": "6110800036", "name": "USPS COLLECTION BOX - BLUE BOX", "address": {"city": "ROCKFORD", "state": "IL", "street": "6395 E STATE ST", "postcode": "61108"}}},
{"geometry": {"type": "Point", "coordinates": [-89.0057226003, 42.266140304]}, "type": "Feature", "properties": {"collection_times": [{"days": "Mon-Fri", "time": "3:30pm"}, {"days": "Sat", "time": "1:00pm"}, {"days": "Sun", "time": "Closed"}], "id": "6110800038", "name": "USPS COLLECTION BOX - BLUE BOX", "address": {"city": "ROCKFORD", "state": "IL", "street": "5668 E STATE ST", "postcode": "61108"}}},
{"geometry": {"type": "Point", "coordinates": [-89.0057851585, 42.2661289745]}, "type": "Feature", "properties": {"collection_times": [{"days": "Mon-Fri", "time": "3:30pm"}, {"days": "Sat", "time": "1:00pm"}, {"days": "Sun", "time": "Closed"}], "id": "6110800039", "name": "USPS COLLECTION BOX - BLUE BOX", "address": {"city": "ROCKFORD", "state": "IL", "street": "5666 E STATE ST", "postcode": "61108"}}},
{"geometry": {"type": "Point", "coordinates": [-89.0411332543, 42.2661090739]}, "type": "Feature", "properties": {"collection_times": [{"days": "Mon-Sat", "time": "1:00pm"}, {"days": "Sun", "time": "Closed"}], "id": "6110800040", "name": "USPS COLLECTION BOX - BLUE BOX", "address": {"city": "ROCKFORD", "state": "IL", "street": "3600 E STATE ST", "postcode": "61108"}}},
{"geometry": {"type": "Point", "coordinates": [-88.9778277593, 42.2677310474]}, "type": "Feature", "properties": {"collection_times": [{"days": "Mon-Fri", "time": "2:00pm"}, {"days": "Sat", "time": "1:00pm"}, {"days": "Sun", "time": "Closed"}], "id": "6110800043", "name": "USPS COLLECTION BOX - BLUE BOX", "address": {"city": "ROCKFORD", "state": "IL", "street": "7151 WALTON ST", "postcode": "61108"}}},
{"geometry": {"type": "Point", "coordinates": [-89.0735426901, 42.2668919067]}, "type": "Feature", "properties": {"collection_times": [{"days": "Mon-Fri", "time": "4:00pm"}, {"days": "Sat", "time": "1:00pm"}, {"days": "Sun", "time": "Closed"}], "id": "6110800045", "name": "USPS COLLECTION BOX - BLUE BOX", "address": {"city": "ROCKFORD", "state": "IL", "street": "1401 E STATE ST", "postcode": "61108"}}},
{"geometry": {"type": "Point", "coordinates": [-88.9867462452, 42.2683184689]}, "type": "Feature", "properties": {"collection_times": [{"days": "Mon-Fri", "time": "3:00pm"}, {"days": "Sat", "time": "1:00pm"}, {"days": "Sun", "time": "Closed"}], "id": "6110800047", "name": "USPS COLLECTION BOX - BLUE BOX", "address": {"city": "ROCKFORD", "state": "IL", "street": "6838 E STATE ST", "postcode": "61108"}}},
{"geometry": {"type": "Point", "coordinates": [-88.9493968022, 42.2731294126]}, "type": "Feature", "properties": {"collection_times": [{"days": "Mon-Fri", "time": "4:00pm"}, {"days": "Sat", "time": "1:00pm"}, {"days": "Sun", "time": "Closed"}], "id": "6110800048", "name": "USPS COLLECTION BOX - BLUE BOX", "address": {"city": "ROCKFORD", "state": "IL", "street": "8500 E STATE ST", "postcode": "61108"}}},
{"geometry": {"type": "Point", "coordinates": [-89.080109155, 42.252397354]}, "type": "Feature", "properties": {"collection_times": [{"days": "Mon-Fri", "time": "4:45pm"}, {"days": "Sat", "time": "1:00pm"}, {"days": "Sun", "time": "Closed"}], "id": "6110800050", "name": "USPS COLLECTION BOX - BLUE BOX", "address": {"city": "ROCKFORD", "state": "IL", "street": "1140 BROADWAY", "postcode": "61108"}}},
{"geometry": {"type": "Point", "coordinates": [-89.0822303091, 42.2670356509]}, "type": "Feature", "properties": {"collection_times": [{"days": "Mon-Fri", "time": "4:45pm"}, {"days": "Sat", "time": "1:00pm"}, {"days": "Sun", "time": "Closed"}], "id": "6110800051", "name": "USPS COLLECTION BOX - BLUE BOX", "address": {"city": "ROCKFORD", "state": "IL", "street": "111 N 6TH ST", "postcode": "61108"}}},
{"geometry": {"type": "Point", "coordinates": [-89.0822303091, 42.2670356509]}, "type": "Feature", "properties": {"collection_times": [{"days": "Mon-Fri", "time": "4:45pm"}, {"days": "Sat", "time": "1:00pm"}, {"days": "Sun", "time": "Closed"}], "id": "6110800052", "name": "USPS COLLECTION BOX - BLUE BOX", "address": {"city": "ROCKFORD", "state": "IL", "street": "111 N 6TH ST", "postcode": "61108"}}},
{"geometry": {"type": "Point", "coordinates": [-88.981139988, 42.297023915]}, "type": "Feature", "properties": {"collection_times": [{"days": "Mon-Fri", "time": "2:00pm"}, {"days": "Sat", "time": "1:00pm"}, {"days": "Sun", "time": "Closed"}], "id": "6110800053", "name": "USPS COLLECTION BOX - BLUE BOX", "address": {"city": "ROCKFORD", "state": "IL", "street": "6958 SPRING CREEK RD", "postcode": "61108"}}},
{"geometry": {"type": "Point", "coordinates": [-89.028950046, 42.251135004]}, "type": "Feature", "properties": {"collection_times": [{"days": "Mon-Fri", "time": "4:00pm"}, {"days": "Sat", "time": "1:00pm"}, {"days": "Sun", "time": "Closed"}], "id": "6110800054", "name": "USPS COLLECTION BOX - BLUE BOX", "address": {"city": "ROCKFORD", "state": "IL", "street": "1662 N ALPINE RD", "postcode": "61108"}}},
{"geometry": {"type": "Point", "coordinates": [-89.028950046, 42.251135004]}, "type": "Feature", "properties": {"collection_times": [{"days": "Mon-Fri", "time": "4:00pm"}, {"days": "Sat", "time": "1:00pm"}, {"days": "Sun", "time": "Closed"}], "id": "6110800055", "name": "USPS COLLECTION BOX - BLUE BOX", "address": {"city": "ROCKFORD", "state": "IL", "street": "1662 N ALPINE RD", "postcode": "61108"}}},
{"geometry": {"type": "Point", "coordinates": [-89.029032107, 42.251338737]}, "type": "Feature", "properties": {"collection_times": [{"days": "Mon-Fri", "time": "4:00pm"}, {"days": "Sat", "time": "1:00pm"}, {"days": "Sun", "time": "Closed"}], "id": "6110800056", "name": "USPS COLLECTION BOX - BLUE BOX", "address": {"city": "ROCKFORD", "state": "IL", "street": "1643 N ALPINE RD", "postcode": "61108"}}},
{"geometry": {"type": "Point", "coordinates": [-88.996824391, 42.279763982]}, "type": "Feature", "properties": {"collection_times": [{"days": "Mon-Fri", "time": "2:00pm"}, {"days": "Sat", "time": "1:00pm"}, {"days": "Sun", "time": "Closed"}], "id": "6110800057", "name": "USPS COLLECTION BOX - BLUE BOX", "address": {"city": "ROCKFORD", "state": "IL", "street": "973 FEATHERSTONE RD", "postcode": "61108"}}},
{"geometry": {"type": "Point", "coordinates": [-88.999593933, 42.238794972]}, "type": "Feature", "properties": {"collection_times": [{"days": "Mon-Fri", "time": "2:00pm"}, {"days": "Sat", "time": "1:00pm"}, {"days": "Sun", "time": "Closed"}], "id": "6110800058", "name": "USPS COLLECTION BOX - BLUE BOX", "address": {"city": "ROCKFORD", "state": "IL", "street": "2579 N MULFORD RD", "postcode": "61108"}}},
{"geometry": {"type": "Point", "coordinates": [-88.999593933, 42.238794972]}, "type": "Feature", "properties": {"collection_times": [{"days": "Mon-Fri", "time": "2:00pm"}, {"days": "Sat", "time": "1:00pm"}, {"days": "Sun", "time": "Closed"}], "id": "6110800059", "name": "USPS COLLECTION BOX - BLUE BOX", "address": {"city": "ROCKFORD", "state": "IL", "street": "2579 N MULFORD RD", "postcode": "61108"}}},
{"geometry": {"type": "Point", "coordinates": [-88.979300168, 42.309253277]}, "type": "Feature", "properties": {"collection_times": [{"days": "Mon-Fri", "time": "2:00pm"}, {"days": "Sat", "time": "1:00pm"}, {"days": "Sun", "time": "Closed"}], "id": "6110800060", "name": "USPS COLLECTION BOX - BLUE BOX", "address": {"city": "ROCKFORD", "state": "IL", "street": "3401 N PERRYVILLE RD", "postcode": "61108"}}},
{"geometry": {"type": "Point", "coordinates": [-88.997612242, 42.279840962]}, "type": "Feature", "properties": {"collection_times": [{"days": "Mon-Fri", "time": "2:00pm"}, {"days": "Sat", "time": "1:00pm"}, {"days": "Sun", "time": "Closed"}], "id": "6110800061", "name": "USPS COLLECTION BOX - BLUE BOX", "address": {"city": "ROCKFORD", "state": "IL", "street": "6075 VANTAGE PL", "postcode": "61108"}}},
{"geometry": {"type": "Point", "coordinates": [-88.999502559, 42.316800943]}, "type": "Feature", "properties": {"collection_times": [{"days": "Mon-Fri", "time": "2:00pm"}, {"days": "Sat", "time": "1:00pm"}, {"days": "Sun", "time": "Closed"}], "id": "6110800062", "name": "USPS COLLECTION BOX - BLUE BOX", "address": {"city": "ROCKFORD", "state": "IL", "street": "3815 N MULFORD RD", "postcode": "61108"}}},
{"geometry": {"type": "Point", "coordinates": [-89.053517217, 42.242739544]}, "type": "Feature", "properties": {"collection_times": [{"days": "Mon-Sat", "time": "1:00pm"}, {"days": "Sun", "time": "Closed"}], "id": "6110800063", "name": "USPS COLLECTION BOX - BLUE BOX", "address": {"city": "ROCKFORD", "state": "IL", "street": "2331 23RD AVE", "postcode": "61108"}}},
{"geometry": {"type": "Point", "coordinates": [-89.0823426425, 42.2646844426]}, "type": "Feature", "properties": {"collection_times": [{"days": "Mon-Sat", "time": "1:00pm"}, {"days": "Sun", "time": "Closed"}], "id": "6110800064", "name": "USPS COLLECTION BOX - BLUE BOX", "address": {"city": "ROCKFORD", "state": "IL", "street": "301 S 6TH ST", "postcode": "61108"}}},
{"geometry": {"type": "Point", "coordinates": [-89.080856134, 42.262523701]}, "type": "Feature", "properties": {"collection_times": [{"days": "Mon-Sat", "time": "1:00pm"}, {"days": "Sun", "time": "Closed"}], "id": "6110800065", "name": "USPS COLLECTION BOX - BLUE BOX", "address": {"city": "ROCKFORD", "state": "IL", "street": "501 7TH ST", "postcode": "61108"}}},
{"geometry": {"type": "Point", "coordinates": [-89.086755934, 42.272632714]}, "type": "Feature", "properties": {"collection_times": [{"days": "Mon-Sat", "time": "1:00pm"}, {"days": "Sun", "time": "Closed"}], "id": "6110800066", "name": "USPS COLLECTION BOX - BLUE BOX", "address": {"city": "ROCKFORD", "state": "IL", "street": "500 N MADISON ST", "postcode": "61108"}}},
{"geometry": {"type": "Point", "coordinates": [-89.088496135, 42.268068665]}, "type": "Feature", "properties": {"collection_times": [{"days": "Mon-Sat", "time": "1:00pm"}, {"days": "Sun", "time": "Closed"}], "id": "6110800067", "name": "USPS COLLECTION BOX - BLUE BOX", "address": {"city": "ROCKFORD", "state": "IL", "street": "425 E STATE ST", "postcode": "61108"}}},
{"geometry": {"type": "Point", "coordinates": [-89.082343321, 42.277581078]}, "type": "Feature", "properties": {"collection_times": [{"days": "Mon-Sat", "time": "1:00pm"}, {"days": "Sun", "time": "Closed"}], "id": "6110800068", "name": "USPS COLLECTION BOX - BLUE BOX", "address": {"city": "ROCKFORD", "state": "IL", "street": "843 N MADISON ST", "postcode": "61108"}}},
{"geometry": {"type": "Point", "coordinates": [-89.090867725, 42.269777599]}, "type": "Feature", "properties": {"collection_times": [{"days": "Mon-Fri", "time": "4:00pm"}, {"days": "Sat", "time": "1:00pm"}, {"days": "Sun", "time": "Closed"}], "id": "6110800069", "name": "USPS COLLECTION BOX - BLUE BOX", "address": {"city": "ROCKFORD", "state": "IL", "street": "124 N WATER ST", "postcode": "61108"}}},
{"geometry": {"type": "Point", "coordinates": [-89.077086852, 42.248853016]}, "type": "Feature", "properties": {"collection_times": [{"days": "Mon-Fri", "time": "4:00pm"}, {"days": "Sat", "time": "1:00pm"}, {"days": "Sun", "time": "Closed"}], "id": "6110800070", "name": "USPS COLLECTION BOX - BLUE BOX", "address": {"city": "ROCKFORD", "state": "IL", "street": "1801 9TH ST", "postcode": "61108"}}},
{"geometry": {"type": "Point", "coordinates": [-89.029032107, 42.251338737]}, "type": "Feature", "properties": {"collection_times": [{"days": "Mon-Fri", "time": "4:00pm"}, {"days": "Sat", "time": "1:00pm"}, {"days": "Sun", "time": "Closed"}], "id": "6110800071", "name": "USPS COLLECTION BOX - BLUE BOX", "address": {"city": "ROCKFORD", "state": "IL", "street": "1643 N ALPINE RD", "postcode": "61108"}}},
{"geometry": {"type": "Point", "coordinates": [-89.083406629, 42.268298567]}, "type": "Feature", "properties": {"collection_times": [{"days": "Mon-Fri", "time": "4:00pm"}, {"days": "Sat", "time": "1:00pm"}, {"days": "Sun", "time": "Closed"}], "id": "6110800072", "name": "USPS COLLECTION BOX - BLUE BOX", "address": {"city": "ROCKFORD", "state": "IL", "street": "701 E JEFFERSON ST", "postcode": "61108"}}},
{"geometry": {"type": "Point", "coordinates": [-89.058308845, 42.273142039]}, "type": "Feature", "properties": {"collection_times": [{"days": "Mon-Fri", "time": "4:00pm"}, {"days": "Sat", "time": "1:00pm"}, {"days": "Sun", "time": "Closed"}], "id": "6110800074", "name": "USPS COLLECTION BOX - BLUE BOX", "address": {"city": "ROCKFORD", "state": "IL", "street": "616 N ROCKFORD AVE", "postcode": "61108"}}},
{"geometry": {"type": "Point", "coordinates": [-89.058308845, 42.273142039]}, "type": "Feature", "properties": {"collection_times": [{"days": "Mon-Fri", "time": "4:00pm"}, {"days": "Sat", "time": "1:00pm"}, {"days": "Sun", "time": "Closed"}], "id": "6110800075", "name": "USPS COLLECTION BOX - BLUE BOX", "address": {"city": "ROCKFORD", "state": "IL", "street": "616 N ROCKFORD AVE", "postcode": "61108"}}},
{"geometry": {"type": "Point", "coordinates": [-89.0577041682, 42.3152792479]}, "type": "Feature", "properties": {"collection_times": [{"days": "Mon-Sat", "time": "1:00pm"}, {"days": "Sun", "time": "Closed"}], "id": "6111100001", "name": "USPS COLLECTION BOX - BLUE BOX", "address": {"city": "MACHESNEY PARK", "state": "IL", "street": "5723 N 2ND ST", "postcode": "61111"}}},
{"geometry": {"type": "Point", "coordinates": [-89.035850004, 42.365826274]}, "type": "Feature", "properties": {"collection_times": [{"days": "Mon-Fri", "time": "3:00pm"}, {"days": "Sat", "time": "1:00pm"}, {"days": "Sun", "time": "Closed"}], "id": "6111100003", "name": "USPS COLLECTION BOX - BLUE BOX", "address": {"city": "MACHESNEY PARK", "state": "IL", "street": "10114 N 2ND ST", "postcode": "61111"}}},
{"geometry": {"type": "Point", "coordinates": [-89.0285768784, 42.3398627974]}, "type": "Feature", "properties": {"collection_times": [{"days": "Mon-Sat", "time": "1:00pm"}, {"days": "Sun", "time": "Closed"}], "id": "6111100009", "name": "USPS COLLECTION BOX - BLUE BOX", "address": {"city": "MACHESNEY PARK", "state": "IL", "street": "7999 N ALPINE RD", "postcode": "61111"}}},
{"geometry": {"type": "Point", "coordinates": [-89.0517181057, 42.3394569375]}, "type": "Feature", "properties": {"collection_times": [{"days": "Mon-Sat", "time": "1:00pm"}, {"days": "Sun", "time": "Closed"}], "id": "6111100023", "name": "USPS COLLECTION BOX - BLUE BOX", "address": {"city": "MACHESNEY PARK", "state": "IL", "street": "633 HARLEM RD", "postcode": "61111"}}},
{"geometry": {"type": "Point", "coordinates": [-89.0465103563, 42.31471596]}, "type": "Feature", "properties": {"collection_times": [{"days": "Mon-Fri", "time": "4:00pm"}, {"days": "Sat", "time": "1:00pm"}, {"days": "Sun", "time": "Closed"}], "id": "6111100024", "name": "USPS COLLECTION BOX - BLUE BOX", "address": {"city": "MACHESNEY PARK", "state": "IL", "street": "300 HEART BLVD", "postcode": "61111"}}},
{"geometry": {"type": "Point", "coordinates": [-89.0350764314, 42.3660844458]}, "type": "Feature", "properties": {"collection_times": [{"days": "Mon-Fri", "time": "3:00pm"}, {"days": "Sat", "time": "1:00pm"}, {"days": "Sun", "time": "Closed"}], "id": "6111100025", "name": "USPS COLLECTION BOX - BLUE BOX", "address": {"city": "MACHESNEY PARK", "state": "IL", "street": "300 ROOSEVELT RD", "postcode": "61111"}}},
{"geometry": {"type": "Point", "coordinates": [-89.0659242692, 42.3212705816]}, "type": "Feature", "properties": {"collection_times": [{"days": "Mon-Fri", "time": "3:00pm"}, {"days": "Sat", "time": "1:00pm"}, {"days": "Sun", "time": "Closed"}], "id": "6111100039", "name": "USPS COLLECTION BOX - BLUE BOX", "address": {"city": "MACHESNEY PARK", "state": "IL", "street": "6277 EAST DR", "postcode": "61111"}}},
{"geometry": {"type": "Point", "coordinates": [-88.998890948, 42.3186488401]}, "type": "Feature", "properties": {"collection_times": [{"days": "Mon-Fri", "time": "3:00pm"}, {"days": "Sat", "time": "1:00pm"}, {"days": "Sun", "time": "Closed"}], "id": "6111100041", "name": "USPS COLLECTION BOX - BLUE BOX", "address": {"city": "MACHESNEY PARK", "state": "IL", "street": "6030 E RIVERSIDE BLVD", "postcode": "61111"}}},
{"geometry": {"type": "Point", "coordinates": [-88.995440602, 42.3325685896]}, "type": "Feature", "properties": {"collection_times": [{"days": "Mon-Fri", "time": "4:00pm"}, {"days": "Sat", "time": "1:15pm"}, {"days": "Sun", "time": "Closed"}], "id": "6111100042", "name": "USPS COLLECTION BOX - BLUE BOX", "address": {"city": "MACHESNEY PARK", "state": "IL", "street": "5923 E RIVERSIDE BLVD", "postcode": "61111"}}},
{"geometry": {"type": "Point", "coordinates": [-89.0328327931, 42.3255160288]}, "type": "Feature", "properties": {"collection_times": [{"days": "Mon-Fri", "time": "6:00pm"}, {"days": "Sat", "time": "1:30pm"}, {"days": "Sun", "time": "Closed"}], "id": "6111100046", "name": "USPS COLLECTION BOX - BLUE BOX", "address": {"city": "MACHESNEY PARK", "state": "IL", "street": "1702 WINDSOR RD", "postcode": "61111"}}},
{"geometry": {"type": "Point", "coordinates": [-89.0328327931, 42.3255160288]}, "type": "Feature", "properties": {"collection_times": [{"days": "Mon-Fri", "time": "6:00pm"}, {"days": "Sat", "time": "1:30pm"}, {"days": "Sun", "time": "Closed"}], "id": "6111100047", "name": "USPS COLLECTION BOX - PO LOBBY", "address": {"city": "MACHESNEY PARK", "state": "IL", "street": "1702 WINDSOR RD", "postcode": "61111"}}},
{"geometry": {"type": "Point", "coordinates": [-89.0281676982, 42.3401473553]}, "type": "Feature", "properties": {"collection_times": [{"days": "Mon-Fri", "time": "3:00pm"}, {"days": "Sat", "time": "1:00pm"}, {"days": "Sun", "time": "Closed"}], "id": "6111100050", "name": "USPS COLLECTION BOX - BLUE BOX", "address": {"city": "MACHESNEY PARK", "state": "IL", "street": "1810 HARLEM RD", "postcode": "61111"}}},
{"geometry": {"type": "Point", "coordinates": [-89.0328327931, 42.3255160288]}, "type": "Feature", "properties": {"collection_times": [{"days": "Mon-Fri", "time": "6:00pm"}, {"days": "Sat", "time": "1:30pm"}, {"days": "Sun", "time": "Closed"}], "id": "6111100051", "name": "USPS COLLECTION BOX - APC", "address": {"city": "MACHESNEY PARK", "state": "IL", "street": "1702 WINDSOR RD", "postcode": "61111"}}},
{"geometry": {"type": "Point", "coordinates": [-89.096517857, 42.268460935]}, "type": "Feature", "properties": {"collection_times": [{"days": "Mon-Fri", "time": "5:00pm"}, {"days": "Sat-Sun", "time": "Closed"}], "id": "6112500396", "name": "USPS COLLECTION BOX - PO LOBBY", "address": {"city": "ROCKFORD", "state": "IL", "street": "400 S MAIN ST", "postcode": "61125"}}},
{"geometry": {"type": "Point", "coordinates": [-88.970319033, 42.254567616]}, "type": "Feature", "properties": {"collection_times": [{"days": "Mon-Sat", "time": "1:00pm"}, {"days": "Sun", "time": "Closed"}], "id": "6112500397", "name": "USPS COLLECTION BOX - BLUE BOX", "address": {"city": "ROCKFORD", "state": "IL", "street": "1463 S BELL SCHOOL RD", "postcode": "61125"}}},
{"geometry": {"type": "Point", "coordinates": [-88.978597017, 42.243362976]}, "type": "Feature", "properties": {"collection_times": [{"days": "Mon-Sat", "time": "1:00pm"}, {"days": "Sun", "time": "Closed"}], "id": "6112500398", "name": "USPS COLLECTION BOX - BLUE BOX", "address": {"city": "ROCKFORD", "state": "IL", "street": "2206 BARNES BLVD", "postcode": "61125"}}},
{"geometry": {"type": "Point", "coordinates": [-89.085757163, 42.217725707]}, "type": "Feature", "properties": {"collection_times": [{"days": "Mon-Sat", "time": "1:00pm"}, {"days": "Sun", "time": "Closed"}], "id": "6112500400", "name": "USPS COLLECTION BOX - BLUE BOX", "address": {"city": "ROCKFORD", "state": "IL", "street": "766 RESEARCH PKWY", "postcode": "61125"}}},
{"geometry": {"type": "Point", "coordinates": [-89.019124302, 42.238194852]}, "type": "Feature", "properties": {"collection_times": [{"days": "Mon-Fri", "time": "4:30pm"}, {"days": "Sat", "time": "1:00pm"}, {"days": "Sun", "time": "Closed"}], "id": "6112500401", "name": "USPS COLLECTION BOX - BLUE BOX", "address": {"city": "ROCKFORD", "state": "IL", "street": "3000 FOREST VIEW RD", "postcode": "61125"}}},
{"geometry": {"type": "Point", "coordinates": [-89.071993379, 42.179372034]}, "type": "Feature", "properties": {"collection_times": [{"days": "Mon-Sat", "time": "1:00pm"}, {"days": "Sun", "time": "Closed"}], "id": "6112500402", "name": "USPS COLLECTION BOX - BLUE BOX", "address": {"city": "ROCKFORD", "state": "IL", "street": "7035 11TH ST", "postcode": "61125"}}},
{"geometry": {"type": "Point", "coordinates": [-89.028762852, 42.228279622]}, "type": "Feature", "properties": {"collection_times": [{"days": "Mon-Sat", "time": "1:00pm"}, {"days": "Sun", "time": "Closed"}], "id": "6112500403", "name": "USPS COLLECTION BOX - BLUE BOX", "address": {"city": "ROCKFORD", "state": "IL", "street": "3202 S ALPINE RD", "postcode": "61125"}}},
{"geometry": {"type": "Point", "coordinates": [-89.012210274, 42.231982904]}, "type": "Feature", "properties": {"collection_times": [{"days": "Mon-Fri", "time": "4:00pm"}, {"days": "Sat", "time": "1:00pm"}, {"days": "Sun", "time": "Closed"}], "id": "6112500404", "name": "USPS COLLECTION BOX - BLUE BOX", "address": {"city": "ROCKFORD", "state": "IL", "street": "3000 EASTROCK CT", "postcode": "61125"}}},
{"geometry": {"type": "Point", "coordinates": [-89.012210274, 42.231982904]}, "type": "Feature", "properties": {"collection_times": [{"days": "Mon-Fri", "time": "4:00pm"}, {"days": "Sat", "time": "1:00pm"}, {"days": "Sun", "time": "Closed"}], "id": "6112500405", "name": "USPS COLLECTION BOX - BLUE BOX", "address": {"city": "ROCKFORD", "state": "IL", "street": "3000 EASTROCK CT", "postcode": "61125"}}},
{"geometry": {"type": "Point", "coordinates": [-89.019124302, 42.238194852]}, "type": "Feature", "properties": {"collection_times": [{"days": "Mon-Fri", "time": "4:30pm"}, {"days": "Sat", "time": "1:00pm"}, {"days": "Sun", "time": "Closed"}], "id": "6112500406", "name": "USPS COLLECTION BOX - BLUE BOX", "address": {"city": "ROCKFORD", "state": "IL", "street": "3000 FOREST VIEW RD", "postcode": "61125"}}},
{"geometry": {"type": "Point", "coordinates": [-89.077913179, 42.223358304]}, "type": "Feature", "properties": {"collection_times": [{"days": "Mon-Sat", "time": "1:00pm"}, {"days": "Sun", "time": "Closed"}], "id": "6112500407", "name": "USPS COLLECTION BOX - BLUE BOX", "address": {"city": "ROCKFORD", "state": "IL", "street": "1235 SANDY HOLLOW RD", "postcode": "61125"}}},
{"geometry": {"type": "Point", "coordinates": [-89.072199527, 42.228721256]}, "type": "Feature", "properties": {"collection_times": [{"days": "Mon-Sat", "time": "1:00pm"}, {"days": "Sun", "time": "Closed"}], "id": "6112500408", "name": "USPS COLLECTION BOX - BLUE BOX", "address": {"city": "ROCKFORD", "state": "IL", "street": "3100 11TH ST", "postcode": "61125"}}},
{"geometry": {"type": "Point", "coordinates": [-89.11003365, 42.225126336]}, "type": "Feature", "properties": {"collection_times": [{"days": "Mon-Sat", "time": "1:00pm"}, {"days": "Sun", "time": "Closed"}], "id": "6112500409", "name": "USPS COLLECTION BOX - BLUE BOX", "address": {"city": "ROCKFORD", "state": "IL", "street": "550 SOUTHROCK DR", "postcode": "61125"}}},
{"geometry": {"type": "Point", "coordinates": [-89.0141880599, 42.2382901347]}, "type": "Feature", "properties": {"collection_times": [{"days": "Mon-Sat", "time": "7:00pm"}, {"days": "Sun", "time": "Closed"}], "id": "6112600000", "name": "USPS COLLECTION BOX - BLUE BOX", "address": {"city": "ROCKFORD", "state": "IL", "street": "5225 HARRISON AVE", "postcode": "61126"}}},
{"geometry": {"type": "Point", "coordinates": [-89.0134539787, 42.2382408942]}, "type": "Feature", "properties": {"collection_times": [{"days": "Mon-Sat", "time": "7:00pm"}, {"days": "Sun", "time": "Closed"}], "id": "6112600002", "name": "USPS COLLECTION BOX - BLUE BOX", "address": {"city": "ROCKFORD", "state": "IL", "street": "5225 HARRISON AVE", "postcode": "61126"}}},
{"geometry": {"type": "Point", "coordinates": [-89.0134539787, 42.2382408942]}, "type": "Feature", "properties": {"collection_times": [{"days": "Mon-Sat", "time": "7:00pm"}, {"days": "Sun", "time": "Closed"}], "id": "6112600003", "name": "USPS COLLECTION BOX - BLUE BOX", "address": {"city": "ROCKFORD", "state": "IL", "street": "5225 HARRISON AVE", "postcode": "61126"}}},
{"geometry": {"type": "Point", "coordinates": [-89.0134539787, 42.2382408942]}, "type": "Feature", "properties": {"collection_times": [{"days": "Mon-Sat", "time": "7:00pm"}, {"days": "Sun", "time": "Closed"}], "id": "6112600004", "name": "USPS COLLECTION BOX - BLUE BOX", "address": {"city": "ROCKFORD", "state": "IL", "street": "5225 HARRISON AVE", "postcode": "61126"}}},
{"geometry": {"type": "Point", "coordinates": [-89.1069264657, 42.2973808592]}, "type": "Feature", "properties": {"collection_times": [{"days": "Mon-Sat", "time": "6:00pm"}, {"days": "Sun", "time": "Closed"}], "id": "6112600005", "name": "USPS COLLECTION BOX - EXPRESS", "address": {"city": "ROCKFORD", "state": "IL", "street": "5225 HARRISON AVE", "postcode": "61126"}}},
{"geometry": {"type": "Point", "coordinates": [-89.0134539787, 42.2382408942]}, "type": "Feature", "properties": {"collection_times": [{"days": "Mon-Sat", "time": "7:00pm"}, {"days": "Sun", "time": "Closed"}], "id": "6112600006", "name": "USPS COLLECTION BOX - APC", "address": {"city": "ROCKFORD", "state": "IL", "street": "5225 HARRISON AVE", "postcode": "61126"}}}
]}
