{"type": "FeatureCollection", "features": [
{"geometry": {"type": "Point", "coordinates": [-90.5829660733, 41.4843696026]}, "type": "Feature", "properties": {"collection_times": [{"days": "Mon-Fri", "time": "5:15pm"}, {"days": "Sat", "time": "3:00pm"}, {"days": "Sun", "time": "Closed"}], "id": "6120100006", "name": "USPS COLLECTION BOX - BLUE BOX", "address": {"city": "ROCK ISLAND", "state": "IL", "street": "2633 11TH ST", "postcode": "61201"}}},
{"geometry": {"type": "Point", "coordinates": [-90.6183164238, 41.4436524702]}, "type": "Feature", "properties": {"collection_times": [{"days": "Mon-Sat", "time": "5:15pm"}, {"days": "Sun", "time": "Closed"}], "id": "6120100011", "name": "USPS COLLECTION BOX - BLUE BOX", "address": {"city": "ROCK ISLAND", "state": "IL", "street": "3700 78TH AVE W", "postcode": "61201"}}},
{"geometry": {"type": "Point", "coordinates": [-90.5738490085, 41.5077318592]}, "type": "Feature", "properties": {"collection_times": [{"days": "Mon-Fri", "time": "5:15pm"}, {"days": "Sat", "time": "3:00pm"}, {"days": "Sun", "time": "Closed"}], "id": "6120100017", "name": "USPS COLLECTION BOX - BLUE BOX", "address": {"city": "ROCK ISLAND", "state": "IL", "street": "1820 5TH AVE", "postcode": "61201"}}},
{"geometry": {"type": "Point", "coordinates": [-90.5727215068, 41.4833245801]}, "type": "Feature", "properties": {"collection_times": [{"days": "Mon-Fri", "time": "2:00pm"}, {"days": "Sat-Sun", "time": "Closed"}], "id": "6120100019", "name": "USPS COLLECTION BOX - BLUE BOX", "address": {"city": "ROCK ISLAND", "state": "IL", "street": "2701 17TH ST", "postcode": "61201"}}},
{"geometry": {"type": "Point", "coordinates": [-90.5830488804, 41.479110167]}, "type": "Feature", "properties": {"collection_times": [{"days": "Mon-Sat", "time": "2:00pm"}, {"days": "Sun", "time": "Closed"}], "id": "6120100024", "name": "USPS COLLECTION BOX - BLUE BOX", "address": {"city": "ROCK ISLAND", "state": "IL", "street": "3100 11TH ST", "postcode": "61201"}}},
{"geometry": {"type": "Point", "coordinates": [-90.5427431025, 41.5068659332]}, "type": "Feature", "properties": {"collection_times": [{"days": "Mon-Fri", "time": "2:45pm"}, {"days": "Sat-Sun", "time": "Closed"}], "id": "6120100035", "name": "USPS COLLECTION BOX - BLUE BOX", "address": {"city": "ROCK ISLAND", "state": "IL", "street": "500 42ND ST", "postcode": "61201"}}},
{"geometry": {"type": "Point", "coordinates": [-90.5584435619, 41.4789993166]}, "type": "Feature", "properties": {"collection_times": [{"days": "Mon-Fri", "time": "4:15pm"}, {"days": "Sat", "time": "2:45pm"}, {"days": "Sun", "time": "Closed"}], "id": "6120100038", "name": "USPS COLLECTION BOX - BLUE BOX", "address": {"city": "ROCK ISLAND", "state": "IL", "street": "2939 31ST AVE", "postcode": "61201"}}},
{"geometry": {"type": "Point", "coordinates": [-90.5487615283, 41.4931476937]}, "type": "Feature", "properties": {"collection_times": [{"days": "Mon-Fri", "time": "4:30pm"}, {"days": "Sat", "time": "2:45pm"}, {"days": "Sun", "time": "Closed"}], "id": "6120100041", "name": "USPS COLLECTION BOX - BLUE BOX", "address": {"city": "ROCK ISLAND", "state": "IL", "street": "3730 18TH AVE", "postcode": "61201"}}},
{"geometry": {"type": "Point", "coordinates": [-90.5472079367, 41.4668591152]}, "type": "Feature", "properties": {"collection_times": [{"days": "Mon-Fri", "time": "4:45pm"}, {"days": "Sat", "time": "9:30am"}, {"days": "Sun", "time": "Closed"}], "id": "6120100047", "name": "USPS COLLECTION BOX - BLUE BOX", "address": {"city": "ROCK ISLAND", "state": "IL", "street": "3840 46TH AVE", "postcode": "61201"}}},
{"geometry": {"type": "Point", "coordinates": [-90.5689165363, 41.4854818214]}, "type": "Feature", "properties": {"collection_times": [{"days": "Mon-Sat", "time": "11:00am"}, {"days": "Sun", "time": "Closed"}], "id": "6120100050", "name": "USPS COLLECTION BOX - BLUE BOX", "address": {"city": "ROCK ISLAND", "state": "IL", "street": "1 ROCK ISLAND ARSENAL", "postcode": "61201"}}},
{"geometry": {"type": "Point", "coordinates": [-90.6183164238, 41.4436524702]}, "type": "Feature", "properties": {"collection_times": [{"days": "Mon-Sat", "time": "5:15pm"}, {"days": "Sun", "time": "Closed"}], "id": "6120100051", "name": "USPS COLLECTION BOX - BLUE BOX", "address": {"city": "ROCK ISLAND", "state": "IL", "street": "3700 78TH AVE W", "postcode": "61201"}}},
{"geometry": {"type": "Point", "coordinates": [-90.5725063501, 41.5110216681]}, "type": "Feature", "properties": {"collection_times": [{"days": "Mon-Fri", "time": "5:15pm"}, {"days": "Sat", "time": "3:00pm"}, {"days": "Sun", "time": "Closed"}], "id": "6120100053", "name": "USPS COLLECTION BOX - BLUE BOX", "address": {"city": "ROCK ISLAND", "state": "IL", "street": "1956 2ND AVE", "postcode": "61201"}}},
{"geometry": {"type": "Point", "coordinates": [-90.5725063501, 41.5110216681]}, "type": "Feature", "properties": {"collection_times": [{"days": "Mon-Fri", "time": "4:30pm"}, {"days": "Sat-Sun", "time": "Closed"}], "id": "6120100059", "name": "USPS COLLECTION BOX - PO LOBBY", "address": {"city": "ROCK ISLAND", "state": "IL", "street": "1956 2ND AVE", "postcode": "61201"}}},
{"geometry": {"type": "Point", "coordinates": [-90.5472079367, 41.4668591152]}, "type": "Feature", "properties": {"collection_times": [{"days": "Mon-Fri", "time": "4:45pm"}, {"days": "Sat", "time": "9:30am"}, {"days": "Sun", "time": "Closed"}], "id": "6120100062", "name": "USPS COLLECTION BOX - BLUE BOX", "address": {"city": "ROCK ISLAND", "state": "IL", "street": "3840 46TH AVE", "postcode": "61201"}}},
{"geometry": {"type": "Point", "coordinates": [-90.5654037784, 41.4932370019]}, "type": "Feature", "properties": {"collection_times": [{"days": "Mon-Fri", "time": "5:15pm"}, {"days": "Sat", "time": "3:00pm"}, {"days": "Sun", "time": "Closed"}], "id": "6120100064", "name": "USPS COLLECTION BOX - BLUE BOX", "address": {"city": "ROCK ISLAND", "state": "IL", "street": "1600 4TH AVE", "postcode": "61201"}}},
{"geometry": {"type": "Point", "coordinates": [-90.5725063501, 41.5110216681]}, "type": "Feature", "properties": {"collection_times": [{"days": "Mon-Fri", "time": "5:15pm"}, {"days": "Sat", "time": "3:00pm"}, {"days": "Sun", "time": "Closed"}], "id": "6120100067", "name": "USPS COLLECTION BOX - BLUE BOX", "address": {"city": "ROCK ISLAND", "state": "IL", "street": "1956 2ND AVE", "postcode": "61201"}}},
{"geometry": {"type": "Point", "coordinates": [-90.5829660733, 41.4843696026]}, "type": "Feature", "properties": {"collection_times": [{"days": "Mon-Fri", "time": "5:15pm"}, {"days": "Sat", "time": "3:00pm"}, {"days": "Sun", "time": "Closed"}], "id": "6120100068", "name": "USPS COLLECTION BOX - PO LOBBY", "address": {"city": "ROCK ISLAND", "state": "IL", "street": "2633 11TH ST", "postcode": "61201"}}},
{"geometry": {"type": "Point", "coordinates": [-90.567143758, 41.4846910052]}, "type": "Feature", "properties": {"collection_times": [{"days": "Mon-Fri", "time": "2:00pm"}, {"days": "Sat-Sun", "time": "Closed"}], "id": "6120100069", "name": "USPS COLLECTION BOX - BLUE BOX", "address": {"city": "ROCK ISLAND", "state": "IL", "street": "2560 24TH ST", "postcode": "61201"}}},
{"geometry": {"type": "Point", "coordinates": [-90.5669866636, 41.4879989207]}, "type": "Feature", "properties": {"collection_times": [{"days": "Mon-Fri", "time": "4:15pm"}, {"days": "Sat", "time": "2:45pm"}, {"days": "Sun", "time": "Closed"}], "id": "6120100070", "name": "USPS COLLECTION BOX - BLUE BOX", "address": {"city": "ROCK ISLAND", "state": "IL", "street": "2252 24TH ST", "postcode": "61201"}}},
{"geometry": {"type": "Point", "coordinates": [-90.5475892851, 41.5047106132]}, "type": "Feature", "properties": {"collection_times": [{"days": "Mon-Fri", "time": "5:00pm"}, {"days": "Sat", "time": "2:45pm"}, {"days": "Sun", "time": "Closed"}], "id": "6120100071", "name": "USPS COLLECTION BOX - BLUE BOX", "address": {"city": "ROCK ISLAND", "state": "IL", "street": "3800 7TH AVE", "postcode": "61201"}}},
{"geometry": {"type": "Point", "coordinates": [-90.5571325314, 41.4972039201]}, "type": "Feature", "properties": {"collection_times": [{"days": "Mon-Sat", "time": "2:30pm"}, {"days": "Sun", "time": "Closed"}], "id": "6120100073", "name": "USPS COLLECTION BOX - BLUE BOX", "address": {"city": "ROCK ISLAND", "state": "IL", "street": "1435 30TH ST", "postcode": "61201"}}},
{"geometry": {"type": "Point", "coordinates": [-90.5654037784, 41.4932370019]}, "type": "Feature", "properties": {"collection_times": [{"days": "Mon-Fri", "time": "5:15pm"}, {"days": "Sat", "time": "3:00pm"}, {"days": "Sun", "time": "Closed"}], "id": "6120100076", "name": "USPS COLLECTION BOX - BLUE BOX", "address": {"city": "ROCK ISLAND", "state": "IL", "street": "1600 4TH AVE", "postcode": "61201"}}},
{"geometry": {"type": "Point", "coordinates": [-90.5654037784, 41.4932370019]}, "type": "Feature", "properties": {"collection_times": [{"days": "Mon-Fri", "time": "5:15pm"}, {"days": "Sat", "time": "3:00pm"}, {"days": "Sun", "time": "Closed"}], "id": "6120100077", "name": "USPS COLLECTION BOX - BLUE BOX", "address": {"city": "ROCK ISLAND", "state": "IL", "street": "1820 5TH AVE", "postcode": "61201"}}},
{"geometry": {"type": "Point", "coordinates": [-90.5584435619, 41.4789993166]}, "type": "Feature", "properties": {"collection_times": [{"days": "Mon-Fri", "time": "4:15pm"}, {"days": "Sat", "time": "2:45pm"}, {"days": "Sun", "time": "Closed"}], "id": "6120100078", "name": "USPS COLLECTION BOX - BLUE BOX", "address": {"city": "ROCK ISLAND", "state": "IL", "street": "2939 31ST AVE", "postcode": "61201"}}},
{"geometry": {"type": "Point", "coordinates": [-90.5427431025, 41.5068659332]}, "type": "Feature", "properties": {"collection_times": [{"days": "Mon-Fri", "time": "2:45pm"}, {"days": "Sat-Sun", "time": "Closed"}], "id": "6120100079", "name": "USPS COLLECTION BOX - BLUE BOX", "address": {"city": "ROCK ISLAND", "state": "IL", "street": "500 42ND ST", "postcode": "61201"}}},
{"geometry": {"type": "Point", "coordinates": [-90.222846964, 41.7882802521]}, "type": "Feature", "properties": {"collection_times": [{"days": "Mon-Sat", "time": "4:00pm"}, {"days": "Sun", "time": "Closed"}], "id": "6123000000", "name": "USPS COLLECTION BOX - BLUE BOX", "address": {"city": "ALBANY", "state": "IL", "street": "204 3RD AVE S", "postcode": "61230"}}},
{"geometry": {"type": "Point", "coordinates": [-90.222846964, 41.7882802521]}, "type": "Feature", "properties": {"collection_times": [{"days": "Mon-Fri", "time": "12:45pm"}, {"days": "Sat", "time": "11:45am"}, {"days": "Sun", "time": "Closed"}], "id": "6123000001", "name": "USPS COLLECTION BOX - PO LOBBY", "address": {"city": "ALBANY", "state": "IL", "street": "204 3RD AVE S", "postcode": "61230"}}},
{"geometry": {"type": "Point", "coordinates": [-90.7485617918, 41.1998830194]}, "type": "Feature", "properties": {"collection_times": [{"days": "Mon-Sat", "time": "3:30pm"}, {"days": "Sun", "time": "Closed"}], "id": "6123100001", "name": "USPS COLLECTION BOX - BLUE BOX", "address": {"city": "ALEDO", "state": "IL", "street": "100 SE 3RD ST", "postcode": "61231"}}},
{"geometry": {"type": "Point", "coordinates": [-90.7492688596, 41.2018185514]}, "type": "Feature", "properties": {"collection_times": [{"days": "Mon-Sat", "time": "4:45pm"}, {"days": "Sun", "time": "Closed"}], "id": "6123100003", "name": "USPS COLLECTION BOX - BLUE BOX", "address": {"city": "ALEDO", "state": "IL", "street": "117 N COLLEGE AVE", "postcode": "61231"}}},
{"geometry": {"type": "Point", "coordinates": [-90.7492688596, 41.2018185514]}, "type": "Feature", "properties": {"collection_times": [{"days": "Mon-Sat", "time": "4:45pm"}, {"days": "Sun", "time": "Closed"}], "id": "6123100004", "name": "USPS COLLECTION BOX - BLUE BOX", "address": {"city": "ALEDO", "state": "IL", "street": "117 N COLLEGE AVE", "postcode": "61231"}}},
{"geometry": {"type": "Point", "coordinates": [-90.7492688596, 41.2018185514]}, "type": "Feature", "properties": {"collection_times": [{"days": "Mon-Sat", "time": "4:45pm"}, {"days": "Sun", "time": "Closed"}], "id": "6123100005", "name": "USPS COLLECTION BOX - PO LOBBY", "address": {"city": "ALEDO", "state": "IL", "street": "117 N COLLEGE AVE", "postcode": "61231"}}},
{"geometry": {"type": "Point", "coordinates": [-90.719619127, 41.4432298387]}, "type": "Feature", "properties": {"collection_times": [{"days": "Mon-Sat", "time": "4:00pm"}, {"days": "Sun", "time": "Closed"}], "id": "6123200000", "name": "USPS COLLECTION BOX - BLUE BOX", "address": {"city": "ANDALUSIA", "state": "IL", "street": "124 2ND AVE E", "postcode": "61232"}}},
{"geometry": {"type": "Point", "coordinates": [-90.719619127, 41.4432298387]}, "type": "Feature", "properties": {"collection_times": [{"days": "Mon-Fri", "time": "1:45pm"}, {"days": "Sat", "time": "8:45am"}, {"days": "Sun", "time": "Closed"}], "id": "6123200001", "name": "USPS COLLECTION BOX - PO LOBBY", "address": {"city": "ANDALUSIA", "state": "IL", "street": "124 2ND AVE E", "postcode": "61232"}}},
{"geometry": {"type": "Point", "coordinates": [-90.2925493596, 41.2938642767]}, "type": "Feature", "properties": {"collection_times": [{"days": "Mon-Sat", "time": "4:00pm"}, {"days": "Sun", "time": "Closed"}], "id": "6123300000", "name": "USPS COLLECTION BOX - BLUE BOX", "address": {"city": "ANDOVER", "state": "IL", "street": "513 5TH ST", "postcode": "61233"}}},
{"geometry": {"type": "Point", "coordinates": [-90.2925493596, 41.2938642767]}, "type": "Feature", "properties": {"collection_times": [{"days": "Mon-Fri", "time": "1:45pm"}, {"days": "Sat-Sun", "time": "Closed"}], "id": "6123300001", "name": "USPS COLLECTION BOX - PO LOBBY", "address": {"city": "ANDOVER", "state": "IL", "street": "513 5TH ST", "postcode": "61233"}}},
{"geometry": {"type": "Point", "coordinates": [-89.9078162857, 41.3973146189]}, "type": "Feature", "properties": {"collection_times": [{"days": "Mon-Sat", "time": "4:15pm"}, {"days": "Sun", "time": "Closed"}], "id": "6123400000", "name": "USPS COLLECTION BOX - BLUE BOX", "address": {"city": "ANNAWAN", "state": "IL", "street": "106 S MAIN ST", "postcode": "61234"}}},
{"geometry": {"type": "Point", "coordinates": [-89.9078162857, 41.3973146189]}, "type": "Feature", "properties": {"collection_times": [{"days": "Mon-Fri", "time": "1:45pm"}, {"days": "Sat-Sun", "time": "Closed"}], "id": "6123400001", "name": "USPS COLLECTION BOX - PO LOBBY", "address": {"city": "ANNAWAN", "state": "IL", "street": "106 S MAIN ST", "postcode": "61234"}}},
{"geometry": {"type": "Point", "coordinates": [-90.0152573974, 41.4209280803]}, "type": "Feature", "properties": {"collection_times": [{"days": "Mon-Sat", "time": "4:00pm"}, {"days": "Sun", "time": "Closed"}], "id": "6123500000", "name": "USPS COLLECTION BOX - BLUE BOX", "address": {"city": "ATKINSON", "state": "IL", "street": "103 E MAIN ST", "postcode": "61235"}}},
{"geometry": {"type": "Point", "coordinates": [-90.0152573974, 41.4209280803]}, "type": "Feature", "properties": {"collection_times": [{"days": "Mon-Fri", "time": "1:45pm"}, {"days": "Sat-Sun", "time": "Closed"}], "id": "6123500001", "name": "USPS COLLECTION BOX - PO LOBBY", "address": {"city": "ATKINSON", "state": "IL", "street": "103 E MAIN ST", "postcode": "61235"}}},
{"geometry": {"type": "Point", "coordinates": [-90.3563675573, 41.5182518529]}, "type": "Feature", "properties": {"collection_times": [{"days": "Mon-Sat", "time": "4:00pm"}, {"days": "Sun", "time": "Closed"}], "id": "6123600000", "name": "USPS COLLECTION BOX - BLUE BOX", "address": {"city": "BARSTOW", "state": "IL", "street": "18617 1ST AVE", "postcode": "61236"}}},
{"geometry": {"type": "Point", "coordinates": [-90.3563675573, 41.5182518529]}, "type": "Feature", "properties": {"collection_times": [{"days": "Mon-Fri", "time": "9:15am"}, {"days": "Sat-Sun", "time": "Closed"}], "id": "6123600001", "name": "USPS COLLECTION BOX - PO LOBBY", "address": {"city": "BARSTOW", "state": "IL", "street": "18617 1ST AVE", "postcode": "61236"}}},
{"geometry": {"type": "Point", "coordinates": [-90.8500680012, 41.3384993062]}, "type": "Feature", "properties": {"collection_times": [{"days": "Mon-Sat", "time": "4:00pm"}, {"days": "Sun", "time": "Closed"}], "id": "6123700000", "name": "USPS COLLECTION BOX - BLUE BOX", "address": {"city": "BUFFALO PRAIRIE", "state": "IL", "street": "18401 206TH ST W", "postcode": "61237"}}},
{"geometry": {"type": "Point", "coordinates": [-90.8500680012, 41.3384993062]}, "type": "Feature", "properties": {"collection_times": [{"days": "Mon-Fri", "time": "9:45am"}, {"days": "Sat", "time": "9:00am"}, {"days": "Sun", "time": "Closed"}], "id": "6123700001", "name": "USPS COLLECTION BOX - PO LOBBY", "address": {"city": "BUFFALO PRAIRIE", "state": "IL", "street": "18401 206TH ST W", "postcode": "61237"}}},
{"geometry": {"type": "Point", "coordinates": [-90.1962429871, 41.3027668239]}, "type": "Feature", "properties": {"collection_times": [{"days": "Mon-Fri", "time": "3:00pm"}, {"days": "Sat-Sun", "time": "Closed"}], "id": "6123800001", "name": "USPS COLLECTION BOX - BLUE BOX", "address": {"city": "CAMBRIDGE", "state": "IL", "street": "307 W CENTER ST", "postcode": "61238"}}},
{"geometry": {"type": "Point", "coordinates": [-90.1926690552, 41.3028228569]}, "type": "Feature", "properties": {"collection_times": [{"days": "Mon-Sat", "time": "4:30pm"}, {"days": "Sun", "time": "Closed"}], "id": "6123800002", "name": "USPS COLLECTION BOX - BLUE BOX", "address": {"city": "CAMBRIDGE", "state": "IL", "street": "109 N PROSPECT ST", "postcode": "61238"}}},
{"geometry": {"type": "Point", "coordinates": [-90.1926690552, 41.3028228569]}, "type": "Feature", "properties": {"collection_times": [{"days": "Mon-Fri", "time": "1:45pm"}, {"days": "Sat", "time": "12:45pm"}, {"days": "Sun", "time": "Closed"}], "id": "6123800003", "name": "USPS COLLECTION BOX - PO LOBBY", "address": {"city": "CAMBRIDGE", "state": "IL", "street": "109 N PROSPECT ST", "postcode": "61238"}}},
{"geometry": {"type": "Point", "coordinates": [-90.1962429871, 41.3027668239]}, "type": "Feature", "properties": {"collection_times": [{"days": "Mon-Fri", "time": "3:00pm"}, {"days": "Sat-Sun", "time": "Closed"}], "id": "6123800004", "name": "USPS COLLECTION BOX - BLUE BOX", "address": {"city": "CAMBRIDGE", "state": "IL", "street": "307 W CENTER ST", "postcode": "61238"}}},
{"geometry": {"type": "Point", "coordinates": [-90.3822702735, 41.4902661405]}, "type": "Feature", "properties": {"collection_times": [{"days": "Mon-Fri", "time": "4:00pm"}, {"days": "Sat", "time": "4:15pm"}, {"days": "Sun", "time": "Closed"}], "id": "6123900000", "name": "USPS COLLECTION BOX - BLUE BOX", "address": {"city": "CARBON CLIFF", "state": "IL", "street": "118 3RD ST", "postcode": "61239"}}},
{"geometry": {"type": "Point", "coordinates": [-90.3822702735, 41.4902661405]}, "type": "Feature", "properties": {"collection_times": [{"days": "Mon-Fri", "time": "1:45pm"}, {"days": "Sat-Sun", "time": "Closed"}], "id": "6123900001", "name": "USPS COLLECTION BOX - PO LOBBY", "address": {"city": "CARBON CLIFF", "state": "IL", "street": "118 3RD ST", "postcode": "61239"}}},
{"geometry": {"type": "Point", "coordinates": [-90.459588185, 41.4295903218]}, "type": "Feature", "properties": {"collection_times": [{"days": "Mon-Sat", "time": "5:00pm"}, {"days": "Sun", "time": "Closed"}], "id": "6124000000", "name": "USPS COLLECTION BOX - BLUE BOX", "address": {"city": "COAL VALLEY", "state": "IL", "street": "121 E 22ND AVE", "postcode": "61240"}}},
{"geometry": {"type": "Point", "coordinates": [-90.459588185, 41.4295903218]}, "type": "Feature", "properties": {"collection_times": [{"days": "Mon-Fri", "time": "5:00pm"}, {"days": "Sat", "time": "11:00am"}, {"days": "Sun", "time": "Closed"}], "id": "6124000001", "name": "USPS COLLECTION BOX - PO LOBBY", "address": {"city": "COAL VALLEY", "state": "IL", "street": "121 E 22ND AVE", "postcode": "61240"}}},
{"geometry": {"type": "Point", "coordinates": [-90.460799535, 41.4495468395]}, "type": "Feature", "properties": {"collection_times": [{"days": "Mon-Sat", "time": "12:30pm"}, {"days": "Sun", "time": "Closed"}], "id": "6124000002", "name": "USPS COLLECTION BOX - BLUE BOX", "address": {"city": "COAL VALLEY", "state": "IL", "street": "200 1ST ST", "postcode": "61240"}}},
{"geometry": {"type": "Point", "coordinates": [-90.4679971014, 41.4525819795]}, "type": "Feature", "properties": {"collection_times": [{"days": "Mon-Sat", "time": "11:00am"}, {"days": "Sun", "time": "Closed"}], "id": "6124000003", "name": "USPS COLLECTION BOX - BLUE BOX", "address": {"city": "COAL VALLEY", "state": "IL", "street": "801 W 1ST AVE", "postcode": "61240"}}},
{"geometry": {"type": "Point", "coordinates": [-90.3577034341, 41.4768194767]}, "type": "Feature", "properties": {"collection_times": [{"days": "Mon-Fri", "time": "10:30am"}, {"days": "Sat-Sun", "time": "Closed"}], "id": "6124100000", "name": "USPS COLLECTION BOX - BLUE BOX", "address": {"city": "COLONA", "state": "IL", "street": "500 GREEN PARK AVE", "postcode": "61241"}}},
{"geometry": {"type": "Point", "coordinates": [-90.3580183426, 41.4706263829]}, "type": "Feature", "properties": {"collection_times": [{"days": "Mon-Sat", "time": "4:45pm"}, {"days": "Sun", "time": "Closed"}], "id": "6124100001", "name": "USPS COLLECTION BOX - BLUE BOX", "address": {"city": "COLONA", "state": "IL", "street": "900 1ST ST", "postcode": "61241"}}},
{"geometry": {"type": "Point", "coordinates": [-90.3580183426, 41.4706263829]}, "type": "Feature", "properties": {"collection_times": [{"days": "Mon-Fri", "time": "4:45pm"}, {"days": "Sat", "time": "12:15pm"}, {"days": "Sun", "time": "Closed"}], "id": "6124100003", "name": "USPS COLLECTION BOX - PO LOBBY", "address": {"city": "COLONA", "state": "IL", "street": "900 1ST ST", "postcode": "61241"}}},
{"geometry": {"type": "Point", "coordinates": [-90.3175715954, 41.6803752565]}, "type": "Feature", "properties": {"collection_times": [{"days": "Mon-Sat", "time": "4:00pm"}, {"days": "Sun", "time": "Closed"}], "id": "6124200000", "name": "USPS COLLECTION BOX - BLUE BOX", "address": {"city": "CORDOVA", "state": "IL", "street": "1001 MAIN AVE", "postcode": "61242"}}},
{"geometry": {"type": "Point", "coordinates": [-90.3175715954, 41.6803752565]}, "type": "Feature", "properties": {"collection_times": [{"days": "Mon-Fri", "time": "11:15am"}, {"days": "Sat", "time": "8:15am"}, {"days": "Sun", "time": "Closed"}], "id": "6124200001", "name": "USPS COLLECTION BOX - PO LOBBY", "address": {"city": "CORDOVA", "state": "IL", "street": "1001 MAIN AVE", "postcode": "61242"}}},
{"geometry": {"type": "Point", "coordinates": [-89.6937943428, 41.6080992309]}, "type": "Feature", "properties": {"collection_times": [{"days": "Mon-Sat", "time": "3:30pm"}, {"days": "Sun", "time": "Closed"}], "id": "6124300000", "name": "USPS COLLECTION BOX - BLUE BOX", "address": {"city": "DEER GROVE", "state": "IL", "street": "28983 HUB ST", "postcode": "61243"}}},
{"geometry": {"type": "Point", "coordinates": [-89.6937943428, 41.6080992309]}, "type": "Feature", "properties": {"collection_times": [{"days": "Mon-Fri", "time": "12:45pm"}, {"days": "Sat-Sun", "time": "Closed"}], "id": "6124300001", "name": "USPS COLLECTION BOX - PO LOBBY", "address": {"city": "DEER GROVE", "state": "IL", "street": "28983 HUB ST", "postcode": "61243"}}},
{"geometry": {"type": "Point", "coordinates": [-90.4425536913, 41.5150506499]}, "type": "Feature", "properties": {"collection_times": [{"days": "Mon-Fri", "time": "5:15pm"}, {"days": "Sat", "time": "4:30pm"}, {"days": "Sun", "time": "Closed"}], "id": "6124400001", "name": "USPS COLLECTION BOX - BLUE BOX", "address": {"city": "EAST MOLINE", "state": "IL", "street": "800 16TH AVE", "postcode": "61244"}}},
{"geometry": {"type": "Point", "coordinates": [-90.4441868756, 41.4837432473]}, "type": "Feature", "properties": {"collection_times": [{"days": "Mon-Sat", "time": "12:00pm"}, {"days": "Sun", "time": "Closed"}], "id": "6124400003", "name": "USPS COLLECTION BOX - BLUE BOX", "address": {"city": "EAST MOLINE", "state": "IL", "street": "4500 7TH ST", "postcode": "61244"}}},
{"geometry": {"type": "Point", "coordinates": [-90.4498364401, 41.5145039178]}, "type": "Feature", "properties": {"collection_times": [{"days": "Mon-Fri", "time": "4:30pm"}, {"days": "Sat", "time": "2:00pm"}, {"days": "Sun", "time": "Closed"}], "id": "6124400006", "name": "USPS COLLECTION BOX - BLUE BOX", "address": {"city": "EAST MOLINE", "state": "IL", "street": "500 16TH AVE", "postcode": "61244"}}},
{"geometry": {"type": "Point", "coordinates": [-90.4365620174, 41.4896596958]}, "type": "Feature", "properties": {"collection_times": [{"days": "Mon-Fri", "time": "5:00pm"}, {"days": "Sat", "time": "2:00pm"}, {"days": "Sun", "time": "Closed"}], "id": "6124400009", "name": "USPS COLLECTION BOX - BLUE BOX", "address": {"city": "EAST MOLINE", "state": "IL", "street": "1104 AVENUE OF THE CITIES", "postcode": "61244"}}},
{"geometry": {"type": "Point", "coordinates": [-90.456158787, 41.4917843894]}, "type": "Feature", "properties": {"collection_times": [{"days": "Mon-Fri", "time": "5:00pm"}, {"days": "Sat", "time": "2:00pm"}, {"days": "Sun", "time": "Closed"}], "id": "6124400017", "name": "USPS COLLECTION BOX - BLUE BOX", "address": {"city": "EAST MOLINE", "state": "IL", "street": "4115 KENNEDY DR", "postcode": "61244"}}},
{"geometry": {"type": "Point", "coordinates": [-90.4462456882, 41.4898019381]}, "type": "Feature", "properties": {"collection_times": [{"days": "Mon-Fri", "time": "5:00pm"}, {"days": "Sat", "time": "2:00pm"}, {"days": "Sun", "time": "Closed"}], "id": "6124400019", "name": "USPS COLLECTION BOX - BLUE BOX", "address": {"city": "EAST MOLINE", "state": "IL", "street": "677 AVENUE OF THE CITIES", "postcode": "61244"}}},
{"geometry": {"type": "Point", "coordinates": [-90.4544967297, 41.5133177914]}, "type": "Feature", "properties": {"collection_times": [{"days": "Mon-Fri", "time": "4:30pm"}, {"days": "Sat", "time": "2:00pm"}, {"days": "Sun", "time": "Closed"}], "id": "6124400024", "name": "USPS COLLECTION BOX - BLUE BOX", "address": {"city": "EAST MOLINE", "state": "IL", "street": "303 17TH AVE", "postcode": "61244"}}},
{"geometry": {"type": "Point", "coordinates": [-90.4384777493, 41.4793752975]}, "type": "Feature", "properties": {"collection_times": [{"days": "Mon-Sat", "time": "11:00am"}, {"days": "Sun", "time": "Closed"}], "id": "6124400027", "name": "USPS COLLECTION BOX - BLUE BOX", "address": {"city": "EAST MOLINE", "state": "IL", "street": "1063 51ST AVE", "postcode": "61244"}}},
{"geometry": {"type": "Point", "coordinates": [-90.456158787, 41.4917843894]}, "type": "Feature", "properties": {"collection_times": [{"days": "Mon-Fri", "time": "5:00pm"}, {"days": "Sat", "time": "2:00pm"}, {"days": "Sun", "time": "Closed"}], "id": "6124400032", "name": "USPS COLLECTION BOX - BLUE BOX", "address": {"city": "EAST MOLINE", "state": "IL", "street": "4115 KENNEDY DR", "postcode": "61244"}}},
{"geometry": {"type": "Point", "coordinates": [-90.4421750291, 41.5151300846]}, "type": "Feature", "properties": {"collection_times": [{"days": "Mon-Fri", "time": "5:15pm"}, {"days": "Sat", "time": "4:30pm"}, {"days": "Sun", "time": "Closed"}], "id": "6124400034", "name": "USPS COLLECTION BOX - PO LOBBY", "address": {"city": "EAST MOLINE", "state": "IL", "street": "805 16TH AVE", "postcode": "61244"}}},
{"geometry": {"type": "Point", "coordinates": [-90.4558266027, 41.5022294763]}, "type": "Feature", "properties": {"collection_times": [{"days": "Mon-Fri", "time": "5:00pm"}, {"days": "Sat", "time": "2:00pm"}, {"days": "Sun", "time": "Closed"}], "id": "6124400039", "name": "USPS COLLECTION BOX - BLUE BOX", "address": {"city": "EAST MOLINE", "state": "IL", "street": "301 30TH AVE", "postcode": "61244"}}},
{"geometry": {"type": "Point", "coordinates": [-90.4421750291, 41.5151300846]}, "type": "Feature", "properties": {"collection_times": [{"days": "Mon-Fri", "time": "5:15pm"}, {"days": "Sat", "time": "4:30pm"}, {"days": "Sun", "time": "Closed"}], "id": "6124400040", "name": "USPS COLLECTION BOX - BLUE BOX", "address": {"city": "EAST MOLINE", "state": "IL", "street": "800 16TH AVE", "postcode": "61244"}}},
{"geometry": {"type": "Point", "coordinates": [-90.0794913582, 41.656215729]}, "type": "Feature", "properties": {"collection_times": [{"days": "Mon-Sat", "time": "4:00pm"}, {"days": "Sun", "time": "Closed"}], "id": "6125000000", "name": "USPS COLLECTION BOX - BLUE BOX", "address": {"city": "ERIE", "state": "IL", "street": "802 MAIN ST", "postcode": "61250"}}},
{"geometry": {"type": "Point", "coordinates": [-90.0794913582, 41.656215729]}, "type": "Feature", "properties": {"collection_times": [{"days": "Mon-Fri", "time": "4:00pm"}, {"days": "Sat", "time": "10:45am"}, {"days": "Sun", "time": "Closed"}], "id": "6125000001", "name": "USPS COLLECTION BOX - PO LOBBY", "address": {"city": "ERIE", "state": "IL", "street": "802 MAIN ST", "postcode": "61250"}}},
{"geometry": {"type": "Point", "coordinates": [-90.0308358952, 41.7327064343]}, "type": "Feature", "properties": {"collection_times": [{"days": "Mon-Sat", "time": "4:15pm"}, {"days": "Sun", "time": "Closed"}], "id": "6125100000", "name": "USPS COLLECTION BOX - BLUE BOX", "address": {"city": "FENTON", "state": "IL", "street": "9979 FENTON RD", "postcode": "61251"}}},
{"geometry": {"type": "Point", "coordinates": [-90.0308358952, 41.7327064343]}, "type": "Feature", "properties": {"collection_times": [{"days": "Mon-Fri", "time": "11:45am"}, {"days": "Sat-Sun", "time": "Closed"}], "id": "6125100001", "name": "USPS COLLECTION BOX - PO LOBBY", "address": {"city": "FENTON", "state": "IL", "street": "9979 FENTON RD", "postcode": "61251"}}},
{"geometry": {"type": "Point", "coordinates": [-90.1655912207, 41.8678485239]}, "type": "Feature", "properties": {"collection_times": [{"days": "Mon-Sat", "time": "4:30pm"}, {"days": "Sun", "time": "Closed"}], "id": "6125200001", "name": "USPS COLLECTION BOX - BLUE BOX", "address": {"city": "FULTON", "state": "IL", "street": "915 4TH ST", "postcode": "61252"}}},
{"geometry": {"type": "Point", "coordinates": [-90.1655912207, 41.8678485239]}, "type": "Feature", "properties": {"collection_times": [{"days": "Mon-Fri", "time": "4:30pm"}, {"days": "Sat", "time": "12:00pm"}, {"days": "Sun", "time": "Closed"}], "id": "6125200006", "name": "USPS COLLECTION BOX - PO LOBBY", "address": {"city": "FULTON", "state": "IL", "street": "915 4TH ST", "postcode": "61252"}}},
{"geometry": {"type": "Point", "coordinates": [-90.1560598375, 41.4531186664]}, "type": "Feature", "properties": {"collection_times": [{"days": "Mon-Fri", "time": "5:00pm"}, {"days": "Sat", "time": "3:00pm"}, {"days": "Sun", "time": "Closed"}], "id": "6125400000", "name": "USPS COLLECTION BOX - BLUE BOX", "address": {"city": "GENESEO", "state": "IL", "street": "120 W 1ST ST", "postcode": "61254"}}},
{"geometry": {"type": "Point", "coordinates": [-90.1560598375, 41.4531186664]}, "type": "Feature", "properties": {"collection_times": [{"days": "Mon-Fri", "time": "5:00pm"}, {"days": "Sat", "time": "3:00pm"}, {"days": "Sun", "time": "Closed"}], "id": "6125400001", "name": "USPS COLLECTION BOX - BLUE BOX", "address": {"city": "GENESEO", "state": "IL", "street": "120 W 1ST ST", "postcode": "61254"}}},
{"geometry": {"type": "Point", "coordinates": [-90.1560598375, 41.4531186664]}, "type": "Feature", "properties": {"collection_times": [{"days": "Mon-Fri", "time": "5:00pm"}, {"days": "Sat", "time": "3:00pm"}, {"days": "Sun", "time": "Closed"}], "id": "6125400003", "name": "USPS COLLECTION BOX - PO LOBBY", "address": {"city": "GENESEO", "state": "IL", "street": "120 W 1ST ST", "postcode": "61254"}}},
{"geometry": {"type": "Point", "coordinates": [-90.4179645909, 41.5039203654]}, "type": "Feature", "properties": {"collection_times": [{"days": "Mon-Sat", "time": "4:45pm"}, {"days": "Sun", "time": "Closed"}], "id": "6125600000", "name": "USPS COLLECTION BOX - BLUE BOX", "address": {"city": "HAMPTON", "state": "IL", "street": "625 8TH ST", "postcode": "61256"}}},
{"geometry": {"type": "Point", "coordinates": [-90.4179645909, 41.5039203654]}, "type": "Feature", "properties": {"collection_times": [{"days": "Mon-Fri", "time": "2:45pm"}, {"days": "Sat", "time": "10:15am"}, {"days": "Sun", "time": "Closed"}], "id": "6125600001", "name": "USPS COLLECTION BOX - PO LOBBY", "address": {"city": "HAMPTON", "state": "IL", "street": "625 8TH ST", "postcode": "61256"}}},
{"geometry": {"type": "Point", "coordinates": [-90.1734836446, 41.6146287631]}, "type": "Feature", "properties": {"collection_times": [{"days": "Mon-Sat", "time": "4:00pm"}, {"days": "Sun", "time": "Closed"}], "id": "6125700000", "name": "USPS COLLECTION BOX - BLUE BOX", "address": {"city": "HILLSDALE", "state": "IL", "street": "108 BUTZER ST", "postcode": "61257"}}},
{"geometry": {"type": "Point", "coordinates": [-90.1734836446, 41.6146287631]}, "type": "Feature", "properties": {"collection_times": [{"days": "Mon-Fri", "time": "11:45am"}, {"days": "Sat", "time": "9:45am"}, {"days": "Sun", "time": "Closed"}], "id": "6125700001", "name": "USPS COLLECTION BOX - PO LOBBY", "address": {"city": "HILLSDALE", "state": "IL", "street": "108 BUTZER ST", "postcode": "61257"}}},
{"geometry": {"type": "Point", "coordinates": [-90.1657766712, 41.6186448058]}, "type": "Feature", "properties": {"collection_times": [{"days": "Mon-Sat", "time": "10:30am"}, {"days": "Sun", "time": "Closed"}], "id": "6125700002", "name": "USPS COLLECTION BOX - BLUE BOX", "address": {"city": "HILLSDALE", "state": "IL", "street": "32000 ROUTE 2 N", "postcode": "61257"}}},
{"geometry": {"type": "Point", "coordinates": [-90.900601202, 41.3972742488]}, "type": "Feature", "properties": {"collection_times": [{"days": "Mon-Sat", "time": "3:45pm"}, {"days": "Sun", "time": "Closed"}], "id": "6125900000", "name": "USPS COLLECTION BOX - BLUE BOX", "address": {"city": "ILLINOIS CITY", "state": "IL", "street": "23828 124TH AVE W", "postcode": "61259"}}},
{"geometry": {"type": "Point", "coordinates": [-90.900601202, 41.3972742488]}, "type": "Feature", "properties": {"collection_times": [{"days": "Mon-Fri", "time": "11:15am"}, {"days": "Sat", "time": "9:15am"}, {"days": "Sun", "time": "Closed"}], "id": "6125900001", "name": "USPS COLLECTION BOX - PO LOBBY", "address": {"city": "ILLINOIS CITY", "state": "IL", "street": "23828 124TH AVE W", "postcode": "61259"}}},
{"geometry": {"type": "Point", "coordinates": [-90.8803710139, 41.1964774454]}, "type": "Feature", "properties": {"collection_times": [{"days": "Mon-Sat", "time": "4:00pm"}, {"days": "Sun", "time": "Closed"}], "id": "6126000000", "name": "USPS COLLECTION BOX - BLUE BOX", "address": {"city": "JOY", "state": "IL", "street": "202 W MAIN ST", "postcode": "61260"}}},
{"geometry": {"type": "Point", "coordinates": [-90.8803710139, 41.1964774454]}, "type": "Feature", "properties": {"collection_times": [{"days": "Mon-Fri", "time": "10:45am"}, {"days": "Sat-Sun", "time": "Closed"}], "id": "6126000001", "name": "USPS COLLECTION BOX - PO LOBBY", "address": {"city": "JOY", "state": "IL", "street": "202 W MAIN ST", "postcode": "61260"}}},
{"geometry": {"type": "Point", "coordinates": [-89.9258012661, 41.7170879774]}, "type": "Feature", "properties": {"collection_times": [{"days": "Mon-Sat", "time": "4:00pm"}, {"days": "Sun", "time": "Closed"}], "id": "6126100000", "name": "USPS COLLECTION BOX - BLUE BOX", "address": {"city": "LYNDON", "state": "IL", "street": "409 2ND AVE E", "postcode": "61261"}}},
{"geometry": {"type": "Point", "coordinates": [-89.9258012661, 41.7170879774]}, "type": "Feature", "properties": {"collection_times": [{"days": "Mon-Fri", "time": "12:45pm"}, {"days": "Sat-Sun", "time": "Closed"}], "id": "6126100001", "name": "USPS COLLECTION BOX - PO LOBBY", "address": {"city": "LYNDON", "state": "IL", "street": "409 2ND AVE E", "postcode": "61261"}}},
{"geometry": {"type": "Point", "coordinates": [-90.3594950564, 41.2957347924]}, "type": "Feature", "properties": {"collection_times": [{"days": "Mon-Sat", "time": "4:30pm"}, {"days": "Sun", "time": "Closed"}], "id": "6126200000", "name": "USPS COLLECTION BOX - BLUE BOX", "address": {"city": "LYNN CENTER", "state": "IL", "street": "404 SOUTH ST", "postcode": "61262"}}},
{"geometry": {"type": "Point", "coordinates": [-90.3594950564, 41.2957347924]}, "type": "Feature", "properties": {"collection_times": [{"days": "Mon-Fri", "time": "10:45am"}, {"days": "Sat", "time": "8:45am"}, {"days": "Sun", "time": "Closed"}], "id": "6126200001", "name": "USPS COLLECTION BOX - PO LOBBY", "address": {"city": "LYNN CENTER", "state": "IL", "street": "404 SOUTH ST", "postcode": "61262"}}},
{"geometry": {"type": "Point", "coordinates": [-90.6096525574, 41.2596819662]}, "type": "Feature", "properties": {"collection_times": [{"days": "Mon-Sat", "time": "4:15pm"}, {"days": "Sun", "time": "Closed"}], "id": "6126300000", "name": "USPS COLLECTION BOX - BLUE BOX", "address": {"city": "MATHERVILLE", "state": "IL", "street": "509 2ND ST", "postcode": "61263"}}},
{"geometry": {"type": "Point", "coordinates": [-90.6096525574, 41.2596819662]}, "type": "Feature", "properties": {"collection_times": [{"days": "Mon-Fri", "time": "2:15pm"}, {"days": "Sat", "time": "12:00pm"}, {"days": "Sun", "time": "Closed"}], "id": "6126300001", "name": "USPS COLLECTION BOX - PO LOBBY", "address": {"city": "MATHERVILLE", "state": "IL", "street": "509 2ND ST", "postcode": "61263"}}},
{"geometry": {"type": "Point", "coordinates": [-90.5675169426, 41.4257570591]}, "type": "Feature", "properties": {"collection_times": [{"days": "Mon-Sat", "time": "10:00am"}, {"days": "Sun", "time": "Closed"}], "id": "6126400006", "name": "USPS COLLECTION BOX - BLUE BOX", "address": {"city": "MILAN", "state": "IL", "street": "2301 1ST ST E", "postcode": "61264"}}},
{"geometry": {"type": "Point", "coordinates": [-90.5701590479, 41.4530743859]}, "type": "Feature", "properties": {"collection_times": [{"days": "Mon-Sat", "time": "5:00pm"}, {"days": "Sun", "time": "Closed"}], "id": "6126400009", "name": "USPS COLLECTION BOX - BLUE BOX", "address": {"city": "MILAN", "state": "IL", "street": "111 3RD ST W", "postcode": "61264"}}},
{"geometry": {"type": "Point", "coordinates": [-90.5701590479, 41.4530743859]}, "type": "Feature", "properties": {"collection_times": [{"days": "Mon-Sat", "time": "5:00pm"}, {"days": "Sun", "time": "Closed"}], "id": "6126400010", "name": "USPS COLLECTION BOX - BLUE BOX", "address": {"city": "MILAN", "state": "IL", "street": "111 3RD ST W", "postcode": "61264"}}},
{"geometry": {"type": "Point", "coordinates": [-90.5701590479, 41.4530743859]}, "type": "Feature", "properties": {"collection_times": [{"days": "Mon-Sat", "time": "5:00pm"}, {"days": "Sun", "time": "Closed"}], "id": "6126400011", "name": "USPS COLLECTION BOX - BLUE BOX", "address": {"city": "MILAN", "state": "IL", "street": "111 3RD ST W", "postcode": "61264"}}},
{"geometry": {"type": "Point", "coordinates": [-90.5701590479, 41.4530743859]}, "type": "Feature", "properties": {"collection_times": [{"days": "Mon-Sat", "time": "5:00pm"}, {"days": "Sun", "time": "Closed"}], "id": "6126400012", "name": "USPS COLLECTION BOX - BLUE BOX", "address": {"city": "MILAN", "state": "IL", "street": "111 3RD ST W", "postcode": "61264"}}},
{"geometry": {"type": "Point", "coordinates": [-90.5701590479, 41.4530743859]}, "type": "Feature", "properties": {"collection_times": [{"days": "Mon-Sat", "time": "5:00pm"}, {"days": "Sun", "time": "Closed"}], "id": "6126400013", "name": "USPS COLLECTION BOX - BLUE BOX", "address": {"city": "MILAN", "state": "IL", "street": "111 3RD ST W", "postcode": "61264"}}},
{"geometry": {"type": "Point", "coordinates": [-90.5702398007, 41.4527112548]}, "type": "Feature", "properties": {"collection_times": [{"days": "Mon-Fri", "time": "5:00pm"}, {"days": "Sat", "time": "12:00pm"}, {"days": "Sun", "time": "Closed"}], "id": "6126400014", "name": "USPS COLLECTION BOX - PO LOBBY", "address": {"city": "MILAN", "state": "IL", "street": "111 3RD ST W", "postcode": "61264"}}},
{"geometry": {"type": "Point", "coordinates": [-90.5052806372, 41.4391461758]}, "type": "Feature", "properties": {"collection_times": [{"days": "Mon-Fri", "time": "7:30pm"}, {"days": "Sat", "time": "6:30pm"}, {"days": "Sun", "time": "Closed"}], "id": "6126400015", "name": "USPS COLLECTION BOX - BLUE BOX", "address": {"city": "MILAN", "state": "IL", "street": "7700 68TH ST", "postcode": "61264"}}},
{"geometry": {"type": "Point", "coordinates": [-90.5690950241, 41.4428268277]}, "type": "Feature", "properties": {"collection_times": [{"days": "Mon-Sat", "time": "10:00am"}, {"days": "Sun", "time": "Closed"}], "id": "6126400017", "name": "USPS COLLECTION BOX - BLUE BOX", "address": {"city": "MILAN", "state": "IL", "street": "201 10TH AVE W", "postcode": "61264"}}},
{"geometry": {"type": "Point", "coordinates": [-90.5161407213, 41.5060343131]}, "type": "Feature", "properties": {"collection_times": [{"days": "Mon-Sat", "time": "2:00pm"}, {"days": "Sun", "time": "Closed"}], "id": "6126500006", "name": "USPS COLLECTION BOX - BLUE BOX", "address": {"city": "MOLINE", "state": "IL", "street": "501 15TH ST", "postcode": "61265"}}},
{"geometry": {"type": "Point", "coordinates": [-90.5278094286, 41.4979014702]}, "type": "Feature", "properties": {"collection_times": [{"days": "Mon-Sat", "time": "10:00am"}, {"days": "Sun", "time": "Closed"}], "id": "6126500011", "name": "USPS COLLECTION BOX - BLUE BOX", "address": {"city": "MOLINE", "state": "IL", "street": "1500 7TH ST", "postcode": "61265"}}},
{"geometry": {"type": "Point", "coordinates": [-90.5282104516, 41.4932429778]}, "type": "Feature", "properties": {"collection_times": [{"days": "Mon-Sat", "time": "2:30pm"}, {"days": "Sun", "time": "Closed"}], "id": "6126500012", "name": "USPS COLLECTION BOX - BLUE BOX", "address": {"city": "MOLINE", "state": "IL", "street": "555 19TH AVE", "postcode": "61265"}}},
{"geometry": {"type": "Point", "coordinates": [-90.536152366, 41.491929133]}, "type": "Feature", "properties": {"collection_times": [{"days": "Mon-Fri", "time": "4:15pm"}, {"days": "Sat", "time": "4:00pm"}, {"days": "Sun", "time": "Closed"}], "id": "6126500013", "name": "USPS COLLECTION BOX - BLUE BOX", "address": {"city": "MOLINE", "state": "IL", "street": "1994 1ST STREET A", "postcode": "61265"}}},
{"geometry": {"type": "Point", "coordinates": [-90.5290408888, 41.4727635922]}, "type": "Feature", "properties": {"collection_times": [{"days": "Mon-Fri", "time": "4:30pm"}, {"days": "Sat", "time": "4:15pm"}, {"days": "Sun", "time": "Closed"}], "id": "6126500014", "name": "USPS COLLECTION BOX - BLUE BOX", "address": {"city": "MOLINE", "state": "IL", "street": "612 VALLEY VIEW DR", "postcode": "61265"}}},
{"geometry": {"type": "Point", "coordinates": [-90.5156911969, 41.4965091275]}, "type": "Feature", "properties": {"collection_times": [{"days": "Mon-Fri", "time": "4:15pm"}, {"days": "Sat", "time": "4:00pm"}, {"days": "Sun", "time": "Closed"}], "id": "6126500017", "name": "USPS COLLECTION BOX - BLUE BOX", "address": {"city": "MOLINE", "state": "IL", "street": "1601 15TH ST", "postcode": "61265"}}},
{"geometry": {"type": "Point", "coordinates": [-90.512869627, 41.4837945083]}, "type": "Feature", "properties": {"collection_times": [{"days": "Mon-Sat", "time": "2:00pm"}, {"days": "Sun", "time": "Closed"}], "id": "6126500020", "name": "USPS COLLECTION BOX - BLUE BOX", "address": {"city": "MOLINE", "state": "IL", "street": "2842 16TH ST", "postcode": "61265"}}},
{"geometry": {"type": "Point", "coordinates": [-90.5072012285, 41.4778969718]}, "type": "Feature", "properties": {"collection_times": [{"days": "Mon-Sat", "time": "9:00am"}, {"days": "Sun", "time": "Closed"}], "id": "6126500021", "name": "USPS COLLECTION BOX - BLUE BOX", "address": {"city": "MOLINE", "state": "IL", "street": "3601 16TH ST", "postcode": "61265"}}},
{"geometry": {"type": "Point", "coordinates": [-90.5041128155, 41.4775848967]}, "type": "Feature", "properties": {"collection_times": [{"days": "Mon-Fri", "time": "4:30pm"}, {"days": "Sat", "time": "4:15pm"}, {"days": "Sun", "time": "Closed"}], "id": "6126500022", "name": "USPS COLLECTION BOX - BLUE BOX", "address": {"city": "MOLINE", "state": "IL", "street": "2000 36TH AVE", "postcode": "61265"}}},
{"geometry": {"type": "Point", "coordinates": [-90.5041128155, 41.4775848967]}, "type": "Feature", "properties": {"collection_times": [{"days": "Mon-Fri", "time": "4:30pm"}, {"days": "Sat", "time": "4:15pm"}, {"days": "Sun", "time": "Closed"}], "id": "6126500023", "name": "USPS COLLECTION BOX - BLUE BOX", "address": {"city": "MOLINE", "state": "IL", "street": "2000 36TH AVE", "postcode": "61265"}}},
{"geometry": {"type": "Point", "coordinates": [-90.5071029148, 41.4674201665]}, "type": "Feature", "properties": {"collection_times": [{"days": "Mon-Fri", "time": "4:30pm"}, {"days": "Sat", "time": "4:15pm"}, {"days": "Sun", "time": "Closed"}], "id": "6126500025", "name": "USPS COLLECTION BOX - BLUE BOX", "address": {"city": "MOLINE", "state": "IL", "street": "4575 16TH ST", "postcode": "61265"}}},
{"geometry": {"type": "Point", "coordinates": [-90.5282104516, 41.4932429778]}, "type": "Feature", "properties": {"collection_times": [{"days": "Mon-Sat", "time": "2:30pm"}, {"days": "Sun", "time": "Closed"}], "id": "6126500026", "name": "USPS COLLECTION BOX - BLUE BOX", "address": {"city": "MOLINE", "state": "IL", "street": "555 19TH AVE", "postcode": "61265"}}},
{"geometry": {"type": "Point", "coordinates": [-90.5070242789, 41.4678429049]}, "type": "Feature", "properties": {"collection_times": [{"days": "Mon-Sat", "time": "10:00am"}, {"days": "Sun", "time": "Closed"}], "id": "6126500028", "name": "USPS COLLECTION BOX - BLUE BOX", "address": {"city": "MOLINE", "state": "IL", "street": "4500 16TH ST", "postcode": "61265"}}},
{"geometry": {"type": "Point", "coordinates": [-90.4909235851, 41.4686835667]}, "type": "Feature", "properties": {"collection_times": [{"days": "Mon-Sat", "time": "12:45pm"}, {"days": "Sun", "time": "Closed"}], "id": "6126500029", "name": "USPS COLLECTION BOX - BLUE BOX", "address": {"city": "MOLINE", "state": "IL", "street": "4515 34TH ST", "postcode": "61265"}}},
{"geometry": {"type": "Point", "coordinates": [-90.4742391318, 41.469251387]}, "type": "Feature", "properties": {"collection_times": [{"days": "Mon-Fri", "time": "4:45pm"}, {"days": "Sat", "time": "4:15pm"}, {"days": "Sun", "time": "Closed"}], "id": "6126500030", "name": "USPS COLLECTION BOX - BLUE BOX", "address": {"city": "MOLINE", "state": "IL", "street": "4300 44TH AVE", "postcode": "61265"}}},
{"geometry": {"type": "Point", "coordinates": [-90.4742391318, 41.469251387]}, "type": "Feature", "properties": {"collection_times": [{"days": "Mon-Fri", "time": "4:45pm"}, {"days": "Sat", "time": "4:15pm"}, {"days": "Sun", "time": "Closed"}], "id": "6126500031", "name": "USPS COLLECTION BOX - BLUE BOX", "address": {"city": "MOLINE", "state": "IL", "street": "4300 44TH AVE", "postcode": "61265"}}},
{"geometry": {"type": "Point", "coordinates": [-90.4569892242, 41.4775581249]}, "type": "Feature", "properties": {"collection_times": [{"days": "Mon-Sat", "time": "1:00pm"}, {"days": "Sun", "time": "Closed"}], "id": "6126500035", "name": "USPS COLLECTION BOX - BLUE BOX", "address": {"city": "MOLINE", "state": "IL", "street": "3411 60TH ST", "postcode": "61265"}}},
{"geometry": {"type": "Point", "coordinates": [-90.481211492, 41.4905020619]}, "type": "Feature", "properties": {"collection_times": [{"days": "Mon-Sat", "time": "2:00pm"}, {"days": "Sun", "time": "Closed"}], "id": "6126500040", "name": "USPS COLLECTION BOX - BLUE BOX", "address": {"city": "MOLINE", "state": "IL", "street": "4011 AVENUE OF THE CITIES", "postcode": "61265"}}},
{"geometry": {"type": "Point", "coordinates": [-90.4801823177, 41.4902075051]}, "type": "Feature", "properties": {"collection_times": [{"days": "Mon-Fri", "time": "5:00pm"}, {"days": "Sat", "time": "4:30pm"}, {"days": "Sun", "time": "Closed"}], "id": "6126500042", "name": "USPS COLLECTION BOX - BLUE BOX", "address": {"city": "MOLINE", "state": "IL", "street": "4000 AVENUE OF THE CITIES", "postcode": "61265"}}},
{"geometry": {"type": "Point", "coordinates": [-90.4801823177, 41.4902075051]}, "type": "Feature", "properties": {"collection_times": [{"days": "Mon-Fri", "time": "5:00pm"}, {"days": "Sat", "time": "4:30pm"}, {"days": "Sun", "time": "Closed"}], "id": "6126500043", "name": "USPS COLLECTION BOX - BLUE BOX", "address": {"city": "MOLINE", "state": "IL", "street": "4000 AVENUE OF THE CITIES", "postcode": "61265"}}},
{"geometry": {"type": "Point", "coordinates": [-90.504359633, 41.511196746]}, "type": "Feature", "properties": {"collection_times": [{"days": "Mon-Sat", "time": "2:30pm"}, {"days": "Sun", "time": "Closed"}], "id": "6126500046", "name": "USPS COLLECTION BOX - BLUE BOX", "address": {"city": "MOLINE", "state": "IL", "street": "2350 4TH AVE", "postcode": "61265"}}},
{"geometry": {"type": "Point", "coordinates": [-90.5132152638, 41.5064862034]}, "type": "Feature", "properties": {"collection_times": [{"days": "Mon-Sat", "time": "5:30pm"}, {"days": "Sun", "time": "Closed"}], "id": "6126500050", "name": "USPS COLLECTION BOX - BLUE BOX", "address": {"city": "MOLINE", "state": "IL", "street": "514 17TH ST", "postcode": "61265"}}},
{"geometry": {"type": "Point", "coordinates": [-90.5132152638, 41.5064862034]}, "type": "Feature", "properties": {"collection_times": [{"days": "Mon-Sat", "time": "5:30pm"}, {"days": "Sun", "time": "Closed"}], "id": "6126500060", "name": "USPS COLLECTION BOX - PO LOBBY", "address": {"city": "MOLINE", "state": "IL", "street": "514 17TH ST", "postcode": "61265"}}},
{"geometry": {"type": "Point", "coordinates": [-90.4832651087, 41.4705301657]}, "type": "Feature", "properties": {"collection_times": [{"days": "Mon-Sat", "time": "9:30am"}, {"days": "Sun", "time": "Closed"}], "id": "6126500062", "name": "USPS COLLECTION BOX - BLUE BOX", "address": {"city": "MOLINE", "state": "IL", "street": "3930 44TH AVENUE DR", "postcode": "61265"}}},
{"geometry": {"type": "Point", "coordinates": [-90.4803451537, 41.4902637982]}, "type": "Feature", "properties": {"collection_times": [{"days": "Mon-Fri", "time": "5:00pm"}, {"days": "Sat", "time": "4:30pm"}, {"days": "Sun", "time": "Closed"}], "id": "6126500065", "name": "USPS COLLECTION BOX - BLUE BOX", "address": {"city": "MOLINE", "state": "IL", "street": "4000 AVENUE OF THE CITIES", "postcode": "61265"}}},
{"geometry": {"type": "Point", "coordinates": [-90.5132152638, 41.5064862034]}, "type": "Feature", "properties": {"collection_times": [{"days": "Mon-Sat", "time": "5:30pm"}, {"days": "Sun", "time": "Closed"}], "id": "6126500066", "name": "USPS COLLECTION BOX - BLUE BOX", "address": {"city": "MOLINE", "state": "IL", "street": "514 17TH ST", "postcode": "61265"}}},
{"geometry": {"type": "Point", "coordinates": [-89.968187815, 41.809811844]}, "type": "Feature", "properties": {"collection_times": [{"days": "Mon-Fri", "time": "4:30pm"}, {"days": "Sat", "time": "4:00pm"}, {"days": "Sun", "time": "Closed"}], "id": "6127000003", "name": "USPS COLLECTION BOX - BLUE BOX", "address": {"city": "MORRISON", "state": "IL", "street": "226 W MAIN ST", "postcode": "61270"}}},
{"geometry": {"type": "Point", "coordinates": [-89.9681613925, 41.8098197979]}, "type": "Feature", "properties": {"collection_times": [{"days": "Mon-Fri", "time": "4:30pm"}, {"days": "Sat", "time": "4:00pm"}, {"days": "Sun", "time": "Closed"}], "id": "6127000005", "name": "USPS COLLECTION BOX - PO LOBBY", "address": {"city": "MORRISON", "state": "IL", "street": "226 W MAIN ST", "postcode": "61270"}}},
{"geometry": {"type": "Point", "coordinates": [-89.968187815, 41.809811844]}, "type": "Feature", "properties": {"collection_times": [{"days": "Mon-Fri", "time": "4:30pm"}, {"days": "Sat", "time": "4:00pm"}, {"days": "Sun", "time": "Closed"}], "id": "6127000006", "name": "USPS COLLECTION BOX - BLUE BOX", "address": {"city": "MORRISON", "state": "IL", "street": "226 W MAIN ST", "postcode": "61270"}}},
{"geometry": {"type": "Point", "coordinates": [-90.3814659734, 41.3546655416]}, "type": "Feature", "properties": {"collection_times": [{"days": "Mon-Sat", "time": "4:45pm"}, {"days": "Sun", "time": "Closed"}], "id": "6127300000", "name": "USPS COLLECTION BOX - BLUE BOX", "address": {"city": "ORION", "state": "IL", "street": "1012 4TH ST", "postcode": "61273"}}},
{"geometry": {"type": "Point", "coordinates": [-90.3814659734, 41.3546655416]}, "type": "Feature", "properties": {"collection_times": [{"days": "Mon-Fri", "time": "4:45pm"}, {"days": "Sat", "time": "11:00am"}, {"days": "Sun", "time": "Closed"}], "id": "6127300001", "name": "USPS COLLECTION BOX - PO LOBBY", "address": {"city": "ORION", "state": "IL", "street": "1012 4TH ST", "postcode": "61273"}}},
{"geometry": {"type": "Point", "coordinates": [-90.2649006444, 41.3741098618]}, "type": "Feature", "properties": {"collection_times": [{"days": "Mon-Sat", "time": "4:00pm"}, {"days": "Sun", "time": "Closed"}], "id": "6127400000", "name": "USPS COLLECTION BOX - BLUE BOX", "address": {"city": "OSCO", "state": "IL", "street": "203 N RAILROAD ST", "postcode": "61274"}}},
{"geometry": {"type": "Point", "coordinates": [-90.2649006444, 41.3741098618]}, "type": "Feature", "properties": {"collection_times": [{"days": "Mon-Fri", "time": "11:45am"}, {"days": "Sat-Sun", "time": "Closed"}], "id": "6127400001", "name": "USPS COLLECTION BOX - PO LOBBY", "address": {"city": "OSCO", "state": "IL", "street": "203 N RAILROAD ST", "postcode": "61274"}}},
{"geometry": {"type": "Point", "coordinates": [-90.3356921608, 41.6085507199]}, "type": "Feature", "properties": {"collection_times": [{"days": "Mon-Sat", "time": "4:00pm"}, {"days": "Sun", "time": "Closed"}], "id": "6127500000", "name": "USPS COLLECTION BOX - BLUE BOX", "address": {"city": "PORT BYRON", "state": "IL", "street": "105 HICKORY ST", "postcode": "61275"}}},
{"geometry": {"type": "Point", "coordinates": [-90.3273942828, 41.5408903973]}, "type": "Feature", "properties": {"collection_times": [{"days": "Mon-Sat", "time": "10:30am"}, {"days": "Sun", "time": "Closed"}], "id": "6127500001", "name": "USPS COLLECTION BOX - BLUE BOX", "address": {"city": "PORT BYRON", "state": "IL", "street": "2507 214TH ST N", "postcode": "61275"}}},
{"geometry": {"type": "Point", "coordinates": [-90.3356921608, 41.6085507199]}, "type": "Feature", "properties": {"collection_times": [{"days": "Mon-Fri", "time": "4:00pm"}, {"days": "Sat-Sun", "time": "Closed"}], "id": "6127500002", "name": "USPS COLLECTION BOX - PO LOBBY", "address": {"city": "PORT BYRON", "state": "IL", "street": "105 HICKORY ST", "postcode": "61275"}}},
{"geometry": {"type": "Point", "coordinates": [-90.5784764213, 41.312964958]}, "type": "Feature", "properties": {"collection_times": [{"days": "Mon-Sat", "time": "4:45pm"}, {"days": "Sun", "time": "Closed"}], "id": "6127600000", "name": "USPS COLLECTION BOX - BLUE BOX", "address": {"city": "PREEMPTION", "state": "IL", "street": "1699 US HIGHWAY 67", "postcode": "61276"}}},
{"geometry": {"type": "Point", "coordinates": [-90.5784764213, 41.312964958]}, "type": "Feature", "properties": {"collection_times": [{"days": "Mon-Fri", "time": "11:45am"}, {"days": "Sat-Sun", "time": "Closed"}], "id": "6127600001", "name": "USPS COLLECTION BOX - PO LOBBY", "address": {"city": "PREEMPTION", "state": "IL", "street": "1699 US HIGHWAY 67", "postcode": "61276"}}},
{"geometry": {"type": "Point", "coordinates": [-89.9363850778, 41.6703457584]}, "type": "Feature", "properties": {"collection_times": [{"days": "Mon-Sat", "time": "4:00pm"}, {"days": "Sun", "time": "Closed"}], "id": "6127700000", "name": "USPS COLLECTION BOX - BLUE BOX", "address": {"city": "PROPHETSTOWN", "state": "IL", "street": "313 WASHINGTON ST", "postcode": "61277"}}},
{"geometry": {"type": "Point", "coordinates": [-89.9363850778, 41.6703457584]}, "type": "Feature", "properties": {"collection_times": [{"days": "Mon-Fri", "time": "4:00pm"}, {"days": "Sat-Sun", "time": "Closed"}], "id": "6127700001", "name": "USPS COLLECTION BOX - PO LOBBY", "address": {"city": "PROPHETSTOWN", "state": "IL", "street": "313 WASHINGTON ST", "postcode": "61277"}}},
{"geometry": {"type": "Point", "coordinates": [-90.3500113497, 41.58074173]}, "type": "Feature", "properties": {"collection_times": [{"days": "Mon-Sat", "time": "4:30pm"}, {"days": "Sun", "time": "Closed"}], "id": "6127800000", "name": "USPS COLLECTION BOX - BLUE BOX", "address": {"city": "RAPIDS CITY", "state": "IL", "street": "135 13TH ST", "postcode": "61278"}}},
{"geometry": {"type": "Point", "coordinates": [-90.3500113497, 41.58074173]}, "type": "Feature", "properties": {"collection_times": [{"days": "Mon-Fri", "time": "4:30pm"}, {"days": "Sat", "time": "10:45am"}, {"days": "Sun", "time": "Closed"}], "id": "6127800001", "name": "USPS COLLECTION BOX - PO LOBBY", "address": {"city": "RAPIDS CITY", "state": "IL", "street": "135 13TH ST", "postcode": "61278"}}},
{"geometry": {"type": "Point", "coordinates": [-90.7437094559, 41.3375701128]}, "type": "Feature", "properties": {"collection_times": [{"days": "Mon-Sat", "time": "4:00pm"}, {"days": "Sun", "time": "Closed"}], "id": "6127900000", "name": "USPS COLLECTION BOX - BLUE BOX", "address": {"city": "REYNOLDS", "state": "IL", "street": "217 N MAIN ST", "postcode": "61279"}}},
{"geometry": {"type": "Point", "coordinates": [-89.1586488725, 40.1140436692]}, "type": "Feature", "properties": {"collection_times": [{"days": "Mon-Fri", "time": "10:45am"}, {"days": "Sat", "time": "8:15am"}, {"days": "Sun", "time": "Closed"}], "id": "6127900001", "name": "USPS COLLECTION BOX - PO LOBBY", "address": {"city": "REYNOLDS", "state": "IL", "street": "217 N MAIN ST", "postcode": "61279"}}},
{"geometry": {"type": "Point", "coordinates": [-90.5060478638, 41.3189290525]}, "type": "Feature", "properties": {"collection_times": [{"days": "Mon-Sat", "time": "4:15pm"}, {"days": "Sun", "time": "Closed"}], "id": "6128100000", "name": "USPS COLLECTION BOX - BLUE BOX", "address": {"city": "SHERRARD", "state": "IL", "street": "402 3RD ST", "postcode": "61281"}}},
{"geometry": {"type": "Point", "coordinates": [-90.5060478638, 41.3189290525]}, "type": "Feature", "properties": {"collection_times": [{"days": "Mon-Fri", "time": "2:45pm"}, {"days": "Sat-Sun", "time": "Closed"}], "id": "6128100001", "name": "USPS COLLECTION BOX - PO LOBBY", "address": {"city": "SHERRARD", "state": "IL", "street": "402 3RD ST", "postcode": "61281"}}},
{"geometry": {"type": "Point", "coordinates": [-90.4056940073, 41.4958316637]}, "type": "Feature", "properties": {"collection_times": [{"days": "Mon-Sat", "time": "11:00am"}, {"days": "Sun", "time": "Closed"}], "id": "6128200003", "name": "USPS COLLECTION BOX - BLUE BOX", "address": {"city": "EAST MOLINE", "state": "IL", "street": "1312 JOHN DEERE EXPY", "postcode": "61282"}}},
{"geometry": {"type": "Point", "coordinates": [-90.4246862234, 41.5003531845]}, "type": "Feature", "properties": {"collection_times": [{"days": "Mon-Sat", "time": "11:00am"}, {"days": "Sun", "time": "Closed"}], "id": "6128200006", "name": "USPS COLLECTION BOX - BLUE BOX", "address": {"city": "EAST MOLINE", "state": "IL", "street": "1007 1ST ST", "postcode": "61282"}}},
{"geometry": {"type": "Point", "coordinates": [-90.4248597957, 41.4933315416]}, "type": "Feature", "properties": {"collection_times": [{"days": "Mon-Sat", "time": "12:30pm"}, {"days": "Sun", "time": "Closed"}], "id": "6128200016", "name": "USPS COLLECTION BOX - BLUE BOX", "address": {"city": "EAST MOLINE", "state": "IL", "street": "2001 5TH ST", "postcode": "61282"}}},
{"geometry": {"type": "Point", "coordinates": [-90.4142950522, 41.5119621204]}, "type": "Feature", "properties": {"collection_times": [{"days": "Mon-Sat", "time": "5:00pm"}, {"days": "Sun", "time": "Closed"}], "id": "6128200022", "name": "USPS COLLECTION BOX - BLUE BOX", "address": {"city": "EAST MOLINE", "state": "IL", "street": "1001 1ST AVE", "postcode": "61282"}}},
{"geometry": {"type": "Point", "coordinates": [-90.4184271279, 41.493063168]}, "type": "Feature", "properties": {"collection_times": [{"days": "Mon-Sat", "time": "1:30pm"}, {"days": "Sun", "time": "Closed"}], "id": "6128200023", "name": "USPS COLLECTION BOX - BLUE BOX", "address": {"city": "EAST MOLINE", "state": "IL", "street": "801 ILLINI DR", "postcode": "61282"}}},
{"geometry": {"type": "Point", "coordinates": [-90.4142950522, 41.5119621204]}, "type": "Feature", "properties": {"collection_times": [{"days": "Mon-Fri", "time": "4:00pm"}, {"days": "Sat", "time": "9:00am"}, {"days": "Sun", "time": "Closed"}], "id": "6128200024", "name": "USPS COLLECTION BOX - PO LOBBY", "address": {"city": "EAST MOLINE", "state": "IL", "street": "1001 1ST AVE", "postcode": "61282"}}},
{"geometry": {"type": "Point", "coordinates": [-89.7859489551, 41.631823172]}, "type": "Feature", "properties": {"collection_times": [{"days": "Mon-Fri", "time": "3:45pm"}, {"days": "Sat", "time": "3:30pm"}, {"days": "Sun", "time": "Closed"}], "id": "6128300000", "name": "USPS COLLECTION BOX - BLUE BOX", "address": {"city": "TAMPICO", "state": "IL", "street": "113 N MAIN ST", "postcode": "61283"}}},
{"geometry": {"type": "Point", "coordinates": [-89.7859489551, 41.631823172]}, "type": "Feature", "properties": {"collection_times": [{"days": "Mon-Fri", "time": "3:45pm"}, {"days": "Sat", "time": "9:45am"}, {"days": "Sun", "time": "Closed"}], "id": "6128300001", "name": "USPS COLLECTION BOX - PO LOBBY", "address": {"city": "TAMPICO", "state": "IL", "street": "113 N MAIN ST", "postcode": "61283"}}},
{"geometry": {"type": "Point", "coordinates": [-90.7400271979, 41.4078539532]}, "type": "Feature", "properties": {"collection_times": [{"days": "Mon-Sat", "time": "4:45pm"}, {"days": "Sun", "time": "Closed"}], "id": "6128400000", "name": "USPS COLLECTION BOX - BLUE BOX", "address": {"city": "TAYLOR RIDGE", "state": "IL", "street": "6928 134TH AVE W", "postcode": "61284"}}},
{"geometry": {"type": "Point", "coordinates": [-90.6668237034, 41.3867568621]}, "type": "Feature", "properties": {"collection_times": [{"days": "Mon-Fri", "time": "10:45am"}, {"days": "Sat", "time": "10:15am"}, {"days": "Sun", "time": "Closed"}], "id": "6128400001", "name": "USPS COLLECTION BOX - PO LOBBY", "address": {"city": "TAYLOR RIDGE", "state": "IL", "street": "6928 134TH AVE W", "postcode": "61284"}}},
{"geometry": {"type": "Point", "coordinates": [-90.7630881371, 41.3870179946]}, "type": "Feature", "properties": {"collection_times": [{"days": "Mon-Sat", "time": "1:00pm"}, {"days": "Sun", "time": "Closed"}], "id": "6128400002", "name": "USPS COLLECTION BOX - BLUE BOX", "address": {"city": "TAYLOR RIDGE", "state": "IL", "street": "13925 134TH AVE W", "postcode": "61284"}}},
{"geometry": {"type": "Point", "coordinates": [-90.0683435626, 41.9726851667]}, "type": "Feature", "properties": {"collection_times": [{"days": "Mon-Sat", "time": "4:00pm"}, {"days": "Sun", "time": "Closed"}], "id": "6128500000", "name": "USPS COLLECTION BOX - BLUE BOX", "address": {"city": "THOMSON", "state": "IL", "street": "705 ARGO FAY RTE", "postcode": "61285"}}},
{"geometry": {"type": "Point", "coordinates": [-90.0683435626, 41.9726851667]}, "type": "Feature", "properties": {"collection_times": [{"days": "Mon-Fri", "time": "12:45pm"}, {"days": "Sat", "time": "10:15am"}, {"days": "Sun", "time": "Closed"}], "id": "6128500001", "name": "USPS COLLECTION BOX - PO LOBBY", "address": {"city": "THOMSON", "state": "IL", "street": "705 ARGO FAY RTE", "postcode": "61285"}}}
]}
