{"type": "FeatureCollection", "features": [
{"geometry": {"type": "Point", "coordinates": [-89.106037789, 41.3643933997]}, "type": "Feature", "properties": {"collection_times": [{"days": "Mon-Fri", "time": "5:00pm"}, {"days": "Sat", "time": "4:45pm"}, {"days": "Sun", "time": "Closed"}], "id": "6130100000", "name": "USPS COLLECTION BOX - BLUE BOX", "address": {"city": "LA SALLE", "state": "IL", "street": "2950 CHARTRES ST", "postcode": "61301"}}},
{"geometry": {"type": "Point", "coordinates": [-89.106037789, 41.3643933997]}, "type": "Feature", "properties": {"collection_times": [{"days": "Mon-Fri", "time": "5:00pm"}, {"days": "Sat", "time": "4:45pm"}, {"days": "Sun", "time": "Closed"}], "id": "6130100001", "name": "USPS COLLECTION BOX - BLUE BOX", "address": {"city": "LA SALLE", "state": "IL", "street": "2950 CHARTRES ST", "postcode": "61301"}}},
{"geometry": {"type": "Point", "coordinates": [-89.106037789, 41.3643933997]}, "type": "Feature", "properties": {"collection_times": [{"days": "Mon-Fri", "time": "5:00pm"}, {"days": "Sat", "time": "4:45pm"}, {"days": "Sun", "time": "Closed"}], "id": "6130100002", "name": "USPS COLLECTION BOX - BLUE BOX", "address": {"city": "LA SALLE", "state": "IL", "street": "2950 CHARTRES ST", "postcode": "61301"}}},
{"geometry": {"type": "Point", "coordinates": [-89.094538855, 41.3426136956]}, "type": "Feature", "properties": {"collection_times": [{"days": "Mon-Sat", "time": "4:45pm"}, {"days": "Sun", "time": "Closed"}], "id": "6130100003", "name": "USPS COLLECTION BOX - EXPRESS", "address": {"city": "LA SALLE", "state": "IL", "street": "2950 CHARTRES ST", "postcode": "61301"}}},
{"geometry": {"type": "Point", "coordinates": [-89.0960016891, 41.3279915827]}, "type": "Feature", "properties": {"collection_times": [{"days": "Mon-Sat", "time": "4:15pm"}, {"days": "Sun", "time": "Closed"}], "id": "6130100023", "name": "USPS COLLECTION BOX - BLUE BOX", "address": {"city": "LA SALLE", "state": "IL", "street": "654 1ST ST", "postcode": "61301"}}},
{"geometry": {"type": "Point", "coordinates": [-89.0983098437, 41.3290215597]}, "type": "Feature", "properties": {"collection_times": [{"days": "Mon-Sat", "time": "4:30pm"}, {"days": "Sun", "time": "Closed"}], "id": "6130100026", "name": "USPS COLLECTION BOX - BLUE BOX", "address": {"city": "LA SALLE", "state": "IL", "street": "501 2ND ST", "postcode": "61301"}}},
{"geometry": {"type": "Point", "coordinates": [-89.094968739, 41.3293191722]}, "type": "Feature", "properties": {"collection_times": [{"days": "Mon-Fri", "time": "4:15pm"}, {"days": "Sat", "time": "4:00pm"}, {"days": "Sun", "time": "Closed"}], "id": "6130100028", "name": "USPS COLLECTION BOX - BLUE BOX", "address": {"city": "LA SALLE", "state": "IL", "street": "745 2ND ST", "postcode": "61301"}}},
{"geometry": {"type": "Point", "coordinates": [-89.106037789, 41.3643933997]}, "type": "Feature", "properties": {"collection_times": [{"days": "Mon-Sat", "time": "5:00pm"}, {"days": "Sun", "time": "Closed"}], "id": "6130100045", "name": "USPS COLLECTION BOX - PO LOBBY", "address": {"city": "LA SALLE", "state": "IL", "street": "2950 CHARTRES ST", "postcode": "61301"}}},
{"geometry": {"type": "Point", "coordinates": [-89.0768404567, 41.3681699293]}, "type": "Feature", "properties": {"collection_times": [{"days": "Mon-Sat", "time": "3:30pm"}, {"days": "Sun", "time": "Closed"}], "id": "6130100046", "name": "USPS COLLECTION BOX - BLUE BOX", "address": {"city": "LA SALLE", "state": "IL", "street": "349 N 30TH RD", "postcode": "61301"}}},
{"geometry": {"type": "Point", "coordinates": [-89.0997741757, 41.3295893916]}, "type": "Feature", "properties": {"collection_times": [{"days": "Mon-Sat", "time": "4:30pm"}, {"days": "Sun", "time": "Closed"}], "id": "6130100048", "name": "USPS COLLECTION BOX - BLUE BOX", "address": {"city": "LA SALLE", "state": "IL", "street": "260 BUCKLIN ST", "postcode": "61301"}}},
{"geometry": {"type": "Point", "coordinates": [-89.330624304, 41.7149123495]}, "type": "Feature", "properties": {"collection_times": [{"days": "Mon-Fri", "time": "4:15pm"}, {"days": "Sat", "time": "3:30pm"}, {"days": "Sun", "time": "Closed"}], "id": "6131000006", "name": "USPS COLLECTION BOX - PO LOBBY", "address": {"city": "AMBOY", "state": "IL", "street": "215 E DIVISION ST", "postcode": "61310"}}},
{"geometry": {"type": "Point", "coordinates": [-89.330624304, 41.7149123495]}, "type": "Feature", "properties": {"collection_times": [{"days": "Mon-Fri", "time": "3:45pm"}, {"days": "Sat", "time": "12:00pm"}, {"days": "Sun", "time": "Closed"}], "id": "6131000009", "name": "USPS COLLECTION BOX - BLUE BOX", "address": {"city": "AMBOY", "state": "IL", "street": "215 E DIVISION ST", "postcode": "61310"}}},
{"geometry": {"type": "Point", "coordinates": [-89.3353998899, 41.7104401362]}, "type": "Feature", "properties": {"collection_times": [{"days": "Mon-Fri", "time": "3:45pm"}, {"days": "Sat", "time": "12:00pm"}, {"days": "Sun", "time": "Closed"}], "id": "6131000010", "name": "USPS COLLECTION BOX - EXPRESS", "address": {"city": "AMBOY", "state": "IL", "street": "215 E DIVISION ST", "postcode": "61310"}}},
{"geometry": {"type": "Point", "coordinates": [-89.3303690865, 41.7137516504]}, "type": "Feature", "properties": {"collection_times": [{"days": "Mon-Sat", "time": "2:30pm"}, {"days": "Sun", "time": "Closed"}], "id": "6131000011", "name": "USPS COLLECTION BOX - BLUE BOX", "address": {"city": "AMBOY", "state": "IL", "street": "220 E MAIN ST", "postcode": "61310"}}},
{"geometry": {"type": "Point", "coordinates": [-89.2247126794, 41.4444756603]}, "type": "Feature", "properties": {"collection_times": [{"days": "Mon-Fri", "time": "4:00pm"}, {"days": "Sat", "time": "10:30am"}, {"days": "Sun", "time": "Closed"}], "id": "6131200001", "name": "USPS COLLECTION BOX - BLUE BOX", "address": {"city": "ARLINGTON", "state": "IL", "street": "203 E RAILROAD AVE", "postcode": "61312"}}},
{"geometry": {"type": "Point", "coordinates": [-89.2247126794, 41.4444756603]}, "type": "Feature", "properties": {"collection_times": [{"days": "Mon-Fri", "time": "4:00pm"}, {"days": "Sat", "time": "10:30am"}, {"days": "Sun", "time": "Closed"}], "id": "6131200002", "name": "USPS COLLECTION BOX - PO LOBBY", "address": {"city": "ARLINGTON", "state": "IL", "street": "203 E RAILROAD AVE", "postcode": "61312"}}},
{"geometry": {"type": "Point", "coordinates": [-88.6896992046, 41.0849350586]}, "type": "Feature", "properties": {"collection_times": [{"days": "Mon-Fri", "time": "5:00pm"}, {"days": "Sat", "time": "11:45am"}, {"days": "Sun", "time": "Closed"}], "id": "6131300000", "name": "USPS COLLECTION BOX - BLUE BOX", "address": {"city": "BLACKSTONE", "state": "IL", "street": "12385 E 3153 NORTH RD", "postcode": "61313"}}},
{"geometry": {"type": "Point", "coordinates": [-88.6896992046, 41.0849350586]}, "type": "Feature", "properties": {"collection_times": [{"days": "Mon-Fri", "time": "5:00pm"}, {"days": "Sat", "time": "11:45am"}, {"days": "Sun", "time": "Closed"}], "id": "6131300001", "name": "USPS COLLECTION BOX - PO LOBBY", "address": {"city": "BLACKSTONE", "state": "IL", "street": "12385 E 3153 NORTH RD", "postcode": "61313"}}},
{"geometry": {"type": "Point", "coordinates": [-89.679764209, 41.3268105308]}, "type": "Feature", "properties": {"collection_times": [{"days": "Mon-Fri", "time": "3:15pm"}, {"days": "Sat", "time": "10:30am"}, {"days": "Sun", "time": "Closed"}], "id": "6131400000", "name": "USPS COLLECTION BOX - BLUE BOX", "address": {"city": "BUDA", "state": "IL", "street": "130 W MAIN ST", "postcode": "61314"}}},
{"geometry": {"type": "Point", "coordinates": [-89.679764209, 41.3268105308]}, "type": "Feature", "properties": {"collection_times": [{"days": "Mon-Fri", "time": "11:00am"}, {"days": "Sat", "time": "10:30am"}, {"days": "Sun", "time": "Closed"}], "id": "6131400002", "name": "USPS COLLECTION BOX - PO LOBBY", "address": {"city": "BUDA", "state": "IL", "street": "130 W MAIN ST", "postcode": "61314"}}},
{"geometry": {"type": "Point", "coordinates": [-89.3700078379, 41.2906003811]}, "type": "Feature", "properties": {"collection_times": [{"days": "Mon-Fri", "time": "4:00pm"}, {"days": "Sat", "time": "10:30am"}, {"days": "Sun", "time": "Closed"}], "id": "6131500000", "name": "USPS COLLECTION BOX - BLUE BOX", "address": {"city": "BUREAU", "state": "IL", "street": "201 E NEBRASKA ST", "postcode": "61315"}}},
{"geometry": {"type": "Point", "coordinates": [-89.3700078379, 41.2906003811]}, "type": "Feature", "properties": {"collection_times": [{"days": "Mon-Fri", "time": "4:00pm"}, {"days": "Sat", "time": "12:30pm"}, {"days": "Sun", "time": "Closed"}], "id": "6131500001", "name": "USPS COLLECTION BOX - PO LOBBY", "address": {"city": "BUREAU", "state": "IL", "street": "201 E NEBRASKA ST", "postcode": "61315"}}},
{"geometry": {"type": "Point", "coordinates": [-89.125819294, 41.2632121619]}, "type": "Feature", "properties": {"collection_times": [{"days": "Mon-Fri", "time": "4:00pm"}, {"days": "Sat", "time": "10:30am"}, {"days": "Sun", "time": "Closed"}], "id": "6131600000", "name": "USPS COLLECTION BOX - BLUE BOX", "address": {"city": "CEDAR POINT", "state": "IL", "street": "302 CEDAR ST", "postcode": "61316"}}},
{"geometry": {"type": "Point", "coordinates": [-89.125819294, 41.2632121619]}, "type": "Feature", "properties": {"collection_times": [{"days": "Mon-Fri", "time": "11:30am"}, {"days": "Sat", "time": "10:30am"}, {"days": "Sun", "time": "Closed"}], "id": "6131600001", "name": "USPS COLLECTION BOX - PO LOBBY", "address": {"city": "CEDAR POINT", "state": "IL", "street": "302 CEDAR ST", "postcode": "61316"}}},
{"geometry": {"type": "Point", "coordinates": [-89.212883793, 41.4270938543]}, "type": "Feature", "properties": {"collection_times": [{"days": "Mon-Fri", "time": "4:30pm"}, {"days": "Sat", "time": "11:00am"}, {"days": "Sun", "time": "Closed"}], "id": "6131700000", "name": "USPS COLLECTION BOX - BLUE BOX", "address": {"city": "CHERRY", "state": "IL", "street": "102 N MAIN ST", "postcode": "61317"}}},
{"geometry": {"type": "Point", "coordinates": [-89.212883793, 41.4270938543]}, "type": "Feature", "properties": {"collection_times": [{"days": "Mon-Fri", "time": "2:30pm"}, {"days": "Sat", "time": "11:00am"}, {"days": "Sun", "time": "Closed"}], "id": "6131700001", "name": "USPS COLLECTION BOX - PO LOBBY", "address": {"city": "CHERRY", "state": "IL", "street": "102 N MAIN ST", "postcode": "61317"}}},
{"geometry": {"type": "Point", "coordinates": [-89.0841151241, 41.6930230495]}, "type": "Feature", "properties": {"collection_times": [{"days": "Mon-Fri", "time": "3:45pm"}, {"days": "Sat", "time": "10:00am"}, {"days": "Sun", "time": "Closed"}], "id": "6131800000", "name": "USPS COLLECTION BOX - BLUE BOX", "address": {"city": "COMPTON", "state": "IL", "street": "240 W MAIN ST", "postcode": "61318"}}},
{"geometry": {"type": "Point", "coordinates": [-89.0841151241, 41.6930230495]}, "type": "Feature", "properties": {"collection_times": [{"days": "Mon-Fri", "time": "11:00am"}, {"days": "Sat", "time": "10:00am"}, {"days": "Sun", "time": "Closed"}], "id": "6131800001", "name": "USPS COLLECTION BOX - PO LOBBY", "address": {"city": "COMPTON", "state": "IL", "street": "240 W MAIN ST", "postcode": "61318"}}},
{"geometry": {"type": "Point", "coordinates": [-88.729404901, 40.989737285]}, "type": "Feature", "properties": {"collection_times": [{"days": "Mon-Fri", "time": "4:00pm"}, {"days": "Sat", "time": "10:30am"}, {"days": "Sun", "time": "Closed"}], "id": "6131900000", "name": "USPS COLLECTION BOX - BLUE BOX", "address": {"city": "CORNELL", "state": "IL", "street": "108 N 6TH ST", "postcode": "61319"}}},
{"geometry": {"type": "Point", "coordinates": [-88.729404901, 40.989737285]}, "type": "Feature", "properties": {"collection_times": [{"days": "Mon-Fri", "time": "11:30am"}, {"days": "Sat", "time": "10:30am"}, {"days": "Sun", "time": "Closed"}], "id": "6131900001", "name": "USPS COLLECTION BOX - PO LOBBY", "address": {"city": "CORNELL", "state": "IL", "street": "108 N 6TH ST", "postcode": "61319"}}},
{"geometry": {"type": "Point", "coordinates": [-89.1694514158, 41.3555751434]}, "type": "Feature", "properties": {"collection_times": [{"days": "Mon-Fri", "time": "3:30pm"}, {"days": "Sat", "time": "12:00pm"}, {"days": "Sun", "time": "Closed"}], "id": "6132000000", "name": "USPS COLLECTION BOX - BLUE BOX", "address": {"city": "DALZELL", "state": "IL", "street": "139 SAUNDERS ST", "postcode": "61320"}}},
{"geometry": {"type": "Point", "coordinates": [-89.1694514158, 41.3555751434]}, "type": "Feature", "properties": {"collection_times": [{"days": "Mon-Fri", "time": "2:00pm"}, {"days": "Sat", "time": "12:00pm"}, {"days": "Sun", "time": "Closed"}], "id": "6132000001", "name": "USPS COLLECTION BOX - PO LOBBY", "address": {"city": "DALZELL", "state": "IL", "street": "139 SAUNDERS ST", "postcode": "61320"}}},
{"geometry": {"type": "Point", "coordinates": [-88.9506434586, 40.9422065595]}, "type": "Feature", "properties": {"collection_times": [{"days": "Mon-Fri", "time": "3:15pm"}, {"days": "Sat", "time": "10:30am"}, {"days": "Sun", "time": "Closed"}], "id": "6132100001", "name": "USPS COLLECTION BOX - BLUE BOX", "address": {"city": "DANA", "state": "IL", "street": "101 S MAIN ST", "postcode": "61321"}}},
{"geometry": {"type": "Point", "coordinates": [-88.9506434586, 40.9422065595]}, "type": "Feature", "properties": {"collection_times": [{"days": "Mon-Fri", "time": "11:00am"}, {"days": "Sat", "time": "10:30am"}, {"days": "Sun", "time": "Closed"}], "id": "6132100002", "name": "USPS COLLECTION BOX - PO LOBBY", "address": {"city": "DANA", "state": "IL", "street": "101 S MAIN ST", "postcode": "61321"}}},
{"geometry": {"type": "Point", "coordinates": [-89.3080616021, 41.3242612164]}, "type": "Feature", "properties": {"collection_times": [{"days": "Mon-Fri", "time": "3:45pm"}, {"days": "Sat", "time": "11:00am"}, {"days": "Sun", "time": "Closed"}], "id": "6132200000", "name": "USPS COLLECTION BOX - BLUE BOX", "address": {"city": "DEPUE", "state": "IL", "street": "200 W 4TH ST", "postcode": "61322"}}},
{"geometry": {"type": "Point", "coordinates": [-89.3080616021, 41.3242612164]}, "type": "Feature", "properties": {"collection_times": [{"days": "Mon-Fri", "time": "3:45pm"}, {"days": "Sat", "time": "10:45am"}, {"days": "Sun", "time": "Closed"}], "id": "6132200002", "name": "USPS COLLECTION BOX - PO LOBBY", "address": {"city": "DEPUE", "state": "IL", "street": "200 W 4TH ST", "postcode": "61322"}}},
{"geometry": {"type": "Point", "coordinates": [-89.3975830365, 41.4356631221]}, "type": "Feature", "properties": {"collection_times": [{"days": "Mon-Fri", "time": "4:00pm"}, {"days": "Sat", "time": "11:15am"}, {"days": "Sun", "time": "Closed"}], "id": "6132300000", "name": "USPS COLLECTION BOX - BLUE BOX", "address": {"city": "DOVER", "state": "IL", "street": "106 E WASHINGTON ST", "postcode": "61323"}}},
{"geometry": {"type": "Point", "coordinates": [-89.3975830365, 41.4356631221]}, "type": "Feature", "properties": {"collection_times": [{"days": "Mon-Fri", "time": "10:00am"}, {"days": "Sat", "time": "1:00pm"}, {"days": "Sun", "time": "Closed"}], "id": "6132300001", "name": "USPS COLLECTION BOX - PO LOBBY", "address": {"city": "DOVER", "state": "IL", "street": "106 E WASHINGTON ST", "postcode": "61323"}}},
{"geometry": {"type": "Point", "coordinates": [-88.8124733288, 41.2347322728]}, "type": "Feature", "properties": {"collection_times": [{"days": "Mon-Fri", "time": "4:00pm"}, {"days": "Sat", "time": "10:30am"}, {"days": "Sun", "time": "Closed"}], "id": "6132500000", "name": "USPS COLLECTION BOX - BLUE BOX", "address": {"city": "GRAND RIDGE", "state": "IL", "street": "150 W MAIN ST", "postcode": "61325"}}},
{"geometry": {"type": "Point", "coordinates": [-88.8124733288, 41.2347322728]}, "type": "Feature", "properties": {"collection_times": [{"days": "Mon-Fri", "time": "11:30am"}, {"days": "Sat", "time": "10:30am"}, {"days": "Sun", "time": "Closed"}], "id": "6132500001", "name": "USPS COLLECTION BOX - PO LOBBY", "address": {"city": "GRAND RIDGE", "state": "IL", "street": "150 W MAIN ST", "postcode": "61325"}}},
{"geometry": {"type": "Point", "coordinates": [-89.2280320629, 41.2628382702]}, "type": "Feature", "properties": {"collection_times": [{"days": "Mon-Fri", "time": "4:45pm"}, {"days": "Sat", "time": "11:00am"}, {"days": "Sun", "time": "Closed"}], "id": "6132600000", "name": "USPS COLLECTION BOX - BLUE BOX", "address": {"city": "GRANVILLE", "state": "IL", "street": "107 S MCCOY ST", "postcode": "61326"}}},
{"geometry": {"type": "Point", "coordinates": [-89.2280320629, 41.2628382702]}, "type": "Feature", "properties": {"collection_times": [{"days": "Mon-Fri", "time": "4:45pm"}, {"days": "Sat", "time": "11:00am"}, {"days": "Sun", "time": "Closed"}], "id": "6132600001", "name": "USPS COLLECTION BOX - PO LOBBY", "address": {"city": "GRANVILLE", "state": "IL", "street": "107 S MCCOY ST", "postcode": "61326"}}},
{"geometry": {"type": "Point", "coordinates": [-89.3442986062, 41.2531942872]}, "type": "Feature", "properties": {"collection_times": [{"days": "Mon-Fri", "time": "4:30pm"}, {"days": "Sat", "time": "10:30am"}, {"days": "Sun", "time": "Closed"}], "id": "6132700001", "name": "USPS COLLECTION BOX - BLUE BOX", "address": {"city": "HENNEPIN", "state": "IL", "street": "316 E HIGH ST", "postcode": "61327"}}},
{"geometry": {"type": "Point", "coordinates": [-89.3442986062, 41.2531942872]}, "type": "Feature", "properties": {"collection_times": [{"days": "Mon-Fri", "time": "1:45pm"}, {"days": "Sat", "time": "10:30am"}, {"days": "Sun", "time": "Closed"}], "id": "6132700002", "name": "USPS COLLECTION BOX - PO LOBBY", "address": {"city": "HENNEPIN", "state": "IL", "street": "316 E HIGH ST", "postcode": "61327"}}},
{"geometry": {"type": "Point", "coordinates": [-89.4662844928, 41.5039909237]}, "type": "Feature", "properties": {"collection_times": [{"days": "Mon-Sat", "time": "12:15pm"}, {"days": "Sun", "time": "Closed"}], "id": "6132800000", "name": "USPS COLLECTION BOX - BLUE BOX", "address": {"city": "KASBEER", "state": "IL", "street": "20367 2470 NORTH AVE", "postcode": "61328"}}},
{"geometry": {"type": "Point", "coordinates": [-89.4662844928, 41.5039909237]}, "type": "Feature", "properties": {"collection_times": [{"days": "Mon-Fri", "time": "9:30am"}, {"days": "Sat", "time": "12:15pm"}, {"days": "Sun", "time": "Closed"}], "id": "6132800001", "name": "USPS COLLECTION BOX - PO LOBBY", "address": {"city": "KASBEER", "state": "IL", "street": "20367 2470 NORTH AVE", "postcode": "61328"}}},
{"geometry": {"type": "Point", "coordinates": [-89.2191102556, 41.3829038237]}, "type": "Feature", "properties": {"collection_times": [{"days": "Mon-Fri", "time": "4:30pm"}, {"days": "Sat", "time": "10:45am"}, {"days": "Sun", "time": "Closed"}], "id": "6132900000", "name": "USPS COLLECTION BOX - BLUE BOX", "address": {"city": "LADD", "state": "IL", "street": "233 N MAIN AVE", "postcode": "61329"}}},
{"geometry": {"type": "Point", "coordinates": [-89.2191102556, 41.3829038237]}, "type": "Feature", "properties": {"collection_times": [{"days": "Mon-Fri", "time": "4:30pm"}, {"days": "Sat", "time": "10:30am"}, {"days": "Sun", "time": "Closed"}], "id": "6132900001", "name": "USPS COLLECTION BOX - PO LOBBY", "address": {"city": "LADD", "state": "IL", "street": "233 N MAIN AVE", "postcode": "61329"}}},
{"geometry": {"type": "Point", "coordinates": [-89.2803121398, 41.5307463312]}, "type": "Feature", "properties": {"collection_times": [{"days": "Mon-Fri", "time": "4:15pm"}, {"days": "Sat", "time": "10:30am"}, {"days": "Sun", "time": "Closed"}], "id": "6133000000", "name": "USPS COLLECTION BOX - BLUE BOX", "address": {"city": "LA MOILLE", "state": "IL", "street": "98 FRANKLIN ST", "postcode": "61330"}}},
{"geometry": {"type": "Point", "coordinates": [-89.2803121398, 41.5307463312]}, "type": "Feature", "properties": {"collection_times": [{"days": "Mon-Fri", "time": "3:30pm"}, {"days": "Sat", "time": "10:30am"}, {"days": "Sun", "time": "Closed"}], "id": "6133000001", "name": "USPS COLLECTION BOX - PO LOBBY", "address": {"city": "LA MOILLE", "state": "IL", "street": "98 FRANKLIN ST", "postcode": "61330"}}},
{"geometry": {"type": "Point", "coordinates": [-89.2794413181, 41.7478743542]}, "type": "Feature", "properties": {"collection_times": [{"days": "Mon-Fri", "time": "4:00pm"}, {"days": "Sat", "time": "11:15am"}, {"days": "Sun", "time": "Closed"}], "id": "6133100000", "name": "USPS COLLECTION BOX - BLUE BOX", "address": {"city": "LEE CENTER", "state": "IL", "street": "1132 INLET RD", "postcode": "61331"}}},
{"geometry": {"type": "Point", "coordinates": [-89.2794413181, 41.7478743542]}, "type": "Feature", "properties": {"collection_times": [{"days": "Mon-Fri", "time": "4:00pm"}, {"days": "Sat", "time": "11:15am"}, {"days": "Sun", "time": "Closed"}], "id": "6133100001", "name": "USPS COLLECTION BOX - PO LOBBY", "address": {"city": "LEE CENTER", "state": "IL", "street": "1132 INLET RD", "postcode": "61331"}}},
{"geometry": {"type": "Point", "coordinates": [-88.9812810585, 41.1888224467]}, "type": "Feature", "properties": {"collection_times": [{"days": "Mon-Fri", "time": "3:45pm"}, {"days": "Sat", "time": "1:30pm"}, {"days": "Sun", "time": "Closed"}], "id": "6133200000", "name": "USPS COLLECTION BOX - BLUE BOX", "address": {"city": "LEONORE", "state": "IL", "street": "402 GARY ST", "postcode": "61332"}}},
{"geometry": {"type": "Point", "coordinates": [-88.9812810585, 41.1888224467]}, "type": "Feature", "properties": {"collection_times": [{"days": "Mon-Fri", "time": "3:45pm"}, {"days": "Sat", "time": "1:30pm"}, {"days": "Sun", "time": "Closed"}], "id": "6133200001", "name": "USPS COLLECTION BOX - PO LOBBY", "address": {"city": "LEONORE", "state": "IL", "street": "402 GARY ST", "postcode": "61332"}}},
{"geometry": {"type": "Point", "coordinates": [-88.8940031, 41.0050435092]}, "type": "Feature", "properties": {"collection_times": [{"days": "Mon-Fri", "time": "3:00pm"}, {"days": "Sat", "time": "10:30am"}, {"days": "Sun", "time": "Closed"}], "id": "6133300000", "name": "USPS COLLECTION BOX - BLUE BOX", "address": {"city": "LONG POINT", "state": "IL", "street": "414 MAIN ST", "postcode": "61333"}}},
{"geometry": {"type": "Point", "coordinates": [-88.8940031, 41.0050435092]}, "type": "Feature", "properties": {"collection_times": [{"days": "Mon-Fri", "time": "3:45pm"}, {"days": "Sat", "time": "12:45pm"}, {"days": "Sun", "time": "Closed"}], "id": "6133300001", "name": "USPS COLLECTION BOX - PO LOBBY", "address": {"city": "LONG POINT", "state": "IL", "street": "414 MAIN ST", "postcode": "61333"}}},
{"geometry": {"type": "Point", "coordinates": [-89.0596278773, 41.1426812451]}, "type": "Feature", "properties": {"collection_times": [{"days": "Mon-Fri", "time": "3:45pm"}, {"days": "Sat", "time": "10:15am"}, {"days": "Sun", "time": "Closed"}], "id": "6133400001", "name": "USPS COLLECTION BOX - BLUE BOX", "address": {"city": "LOSTANT", "state": "IL", "street": "104 W 2ND ST", "postcode": "61334"}}},
{"geometry": {"type": "Point", "coordinates": [-89.0596278773, 41.1426812451]}, "type": "Feature", "properties": {"collection_times": [{"days": "Mon-Fri", "time": "10:45am"}, {"days": "Sat", "time": "10:15am"}, {"days": "Sun", "time": "Closed"}], "id": "6133400002", "name": "USPS COLLECTION BOX - PO LOBBY", "address": {"city": "LOSTANT", "state": "IL", "street": "104 W 2ND ST", "postcode": "61334"}}},
{"geometry": {"type": "Point", "coordinates": [-89.2081855741, 41.1767340638]}, "type": "Feature", "properties": {"collection_times": [{"days": "Mon-Fri", "time": "4:30pm"}, {"days": "Sat", "time": "10:30am"}, {"days": "Sun", "time": "Closed"}], "id": "6133500000", "name": "USPS COLLECTION BOX - BLUE BOX", "address": {"city": "MC NABB", "state": "IL", "street": "318 W MAIN ST", "postcode": "61335"}}},
{"geometry": {"type": "Point", "coordinates": [-89.2081855741, 41.1767340638]}, "type": "Feature", "properties": {"collection_times": [{"days": "Mon-Fri", "time": "11:15am"}, {"days": "Sat", "time": "10:30am"}, {"days": "Sun", "time": "Closed"}], "id": "6133500001", "name": "USPS COLLECTION BOX - PO LOBBY", "address": {"city": "MC NABB", "state": "IL", "street": "318 W MAIN ST", "postcode": "61335"}}},
{"geometry": {"type": "Point", "coordinates": [-89.1944828759, 41.1123385866]}, "type": "Feature", "properties": {"collection_times": [{"days": "Mon-Fri", "time": "4:00pm"}, {"days": "Sat", "time": "10:15am"}, {"days": "Sun", "time": "Closed"}], "id": "6133600001", "name": "USPS COLLECTION BOX - BLUE BOX", "address": {"city": "MAGNOLIA", "state": "IL", "street": "106 N CHICAGO ST", "postcode": "61336"}}},
{"geometry": {"type": "Point", "coordinates": [-89.1944828759, 41.1123385866]}, "type": "Feature", "properties": {"collection_times": [{"days": "Mon-Fri", "time": "11:00am"}, {"days": "Sat", "time": "9:15am"}, {"days": "Sun", "time": "Closed"}], "id": "6133600002", "name": "USPS COLLECTION BOX - PO LOBBY", "address": {"city": "MAGNOLIA", "state": "IL", "street": "106 N CHICAGO ST", "postcode": "61336"}}},
{"geometry": {"type": "Point", "coordinates": [-89.3680756134, 41.4244569359]}, "type": "Feature", "properties": {"collection_times": [{"days": "Mon-Fri", "time": "4:30pm"}, {"days": "Sat", "time": "10:30am"}, {"days": "Sun", "time": "Closed"}], "id": "6133700000", "name": "USPS COLLECTION BOX - BLUE BOX", "address": {"city": "MALDEN", "state": "IL", "street": "221 W MAIN ST", "postcode": "61337"}}},
{"geometry": {"type": "Point", "coordinates": [-89.3680756134, 41.4244569359]}, "type": "Feature", "properties": {"collection_times": [{"days": "Mon-Fri", "time": "11:30am"}, {"days": "Sat", "time": "9:00am"}, {"days": "Sun", "time": "Closed"}], "id": "6133700001", "name": "USPS COLLECTION BOX - PO LOBBY", "address": {"city": "MALDEN", "state": "IL", "street": "221 W MAIN ST", "postcode": "61337"}}},
{"geometry": {"type": "Point", "coordinates": [-89.6700360979, 41.4561451562]}, "type": "Feature", "properties": {"collection_times": [{"days": "Mon-Fri", "time": "3:00pm"}, {"days": "Sat", "time": "10:30am"}, {"days": "Sun", "time": "Closed"}], "id": "6133800000", "name": "USPS COLLECTION BOX - BLUE BOX", "address": {"city": "MANLIUS", "state": "IL", "street": "107 E MAPLE AVE", "postcode": "61338"}}},
{"geometry": {"type": "Point", "coordinates": [-89.6700360979, 41.4561451562]}, "type": "Feature", "properties": {"collection_times": [{"days": "Mon-Fri", "time": "3:00pm"}, {"days": "Sat", "time": "10:30am"}, {"days": "Sun", "time": "Closed"}], "id": "6133800001", "name": "USPS COLLECTION BOX - PO LOBBY", "address": {"city": "MANLIUS", "state": "IL", "street": "107 E MAPLE AVE", "postcode": "61338"}}},
{"geometry": {"type": "Point", "coordinates": [-89.249974237, 41.2644664616]}, "type": "Feature", "properties": {"collection_times": [{"days": "Mon-Fri", "time": "4:00pm"}, {"days": "Sat", "time": "10:30am"}, {"days": "Sun", "time": "Closed"}], "id": "6134000000", "name": "USPS COLLECTION BOX - BLUE BOX", "address": {"city": "MARK", "state": "IL", "street": "106 W HENNEPIN ST", "postcode": "61340"}}},
{"geometry": {"type": "Point", "coordinates": [-89.249974237, 41.2644664616]}, "type": "Feature", "properties": {"collection_times": [{"days": "Mon-Fri", "time": "11:00am"}, {"days": "Sat", "time": "10:15am"}, {"days": "Sun", "time": "Closed"}], "id": "6134000001", "name": "USPS COLLECTION BOX - PO LOBBY", "address": {"city": "MARK", "state": "IL", "street": "106 W HENNEPIN ST", "postcode": "61340"}}},
{"geometry": {"type": "Point", "coordinates": [-88.7084592408, 41.3293521139]}, "type": "Feature", "properties": {"collection_times": [{"days": "Mon-Fri", "time": "4:30pm"}, {"days": "Sat", "time": "4:00pm"}, {"days": "Sun", "time": "Closed"}], "id": "6134100001", "name": "USPS COLLECTION BOX - PO LOBBY", "address": {"city": "MARSEILLES", "state": "IL", "street": "100 WASHINGTON ST", "postcode": "61341"}}},
{"geometry": {"type": "Point", "coordinates": [-88.7084592408, 41.3293521139]}, "type": "Feature", "properties": {"collection_times": [{"days": "Mon-Fri", "time": "4:30pm"}, {"days": "Sat", "time": "4:00pm"}, {"days": "Sun", "time": "Closed"}], "id": "6134100003", "name": "USPS COLLECTION BOX - BLUE BOX", "address": {"city": "MARSEILLES", "state": "IL", "street": "100 WASHINGTON ST", "postcode": "61341"}}},
{"geometry": {"type": "Point", "coordinates": [-88.7084592408, 41.3293521139]}, "type": "Feature", "properties": {"collection_times": [{"days": "Mon-Fri", "time": "4:30pm"}, {"days": "Sat", "time": "4:00pm"}, {"days": "Sun", "time": "Closed"}], "id": "6134100004", "name": "USPS COLLECTION BOX - BLUE BOX", "address": {"city": "MARSEILLES", "state": "IL", "street": "100 WASHINGTON ST", "postcode": "61341"}}},
{"geometry": {"type": "Point", "coordinates": [-88.7017520042, 41.340005383]}, "type": "Feature", "properties": {"collection_times": [{"days": "Mon-Sat", "time": "11:00am"}, {"days": "Sun", "time": "Closed"}], "id": "6134100015", "name": "USPS COLLECTION BOX - BLUE BOX", "address": {"city": "MARSEILLES", "state": "IL", "street": "1016 BRATTON AVE", "postcode": "61341"}}},
{"geometry": {"type": "Point", "coordinates": [-88.7084592408, 41.3293521139]}, "type": "Feature", "properties": {"collection_times": [{"days": "Mon-Fri", "time": "4:30pm"}, {"days": "Sat", "time": "4:00pm"}, {"days": "Sun", "time": "Closed"}], "id": "6134100016", "name": "USPS COLLECTION BOX - PO LOBBY", "address": {"city": "MARSEILLES", "state": "IL", "street": "100 WASHINGTON ST", "postcode": "61341"}}},
{"geometry": {"type": "Point", "coordinates": [-89.1162291225, 41.5481107307]}, "type": "Feature", "properties": {"collection_times": [{"days": "Mon-Sat", "time": "4:45pm"}, {"days": "Sun", "time": "Closed"}], "id": "6134200012", "name": "USPS COLLECTION BOX - EXPRESS", "address": {"city": "MENDOTA", "state": "IL", "street": "600 VETERANS WAY", "postcode": "61342"}}},
{"geometry": {"type": "Point", "coordinates": [-89.0840535424, 41.5418704729]}, "type": "Feature", "properties": {"collection_times": [{"days": "Mon-Sat", "time": "5:00pm"}, {"days": "Sun", "time": "Closed"}], "id": "6134200013", "name": "USPS COLLECTION BOX - BLUE BOX", "address": {"city": "MENDOTA", "state": "IL", "street": "600 VETERANS WAY", "postcode": "61342"}}},
{"geometry": {"type": "Point", "coordinates": [-89.1241891318, 41.5553024821]}, "type": "Feature", "properties": {"collection_times": [{"days": "Mon-Sat", "time": "4:00pm"}, {"days": "Sun", "time": "Closed"}], "id": "6134200014", "name": "USPS COLLECTION BOX - BLUE BOX", "address": {"city": "MENDOTA", "state": "IL", "street": "1102 MERIDEN ST", "postcode": "61342"}}},
{"geometry": {"type": "Point", "coordinates": [-89.1280598341, 41.5553826517]}, "type": "Feature", "properties": {"collection_times": [{"days": "Mon-Sat", "time": "4:00pm"}, {"days": "Sun", "time": "Closed"}], "id": "6134200015", "name": "USPS COLLECTION BOX - BLUE BOX", "address": {"city": "MENDOTA", "state": "IL", "street": "1310 MERIDEN ST", "postcode": "61342"}}},
{"geometry": {"type": "Point", "coordinates": [-89.1194948225, 41.5540438154]}, "type": "Feature", "properties": {"collection_times": [{"days": "Mon-Sat", "time": "4:00pm"}, {"days": "Sun", "time": "Closed"}], "id": "6134200016", "name": "USPS COLLECTION BOX - BLUE BOX", "address": {"city": "MENDOTA", "state": "IL", "street": "1201 MAIN ST", "postcode": "61342"}}},
{"geometry": {"type": "Point", "coordinates": [-89.1185654789, 41.5481148374]}, "type": "Feature", "properties": {"collection_times": [{"days": "Mon-Sat", "time": "4:00pm"}, {"days": "Sun", "time": "Closed"}], "id": "6134200017", "name": "USPS COLLECTION BOX - BLUE BOX", "address": {"city": "MENDOTA", "state": "IL", "street": "706 WASHINGTON ST", "postcode": "61342"}}},
{"geometry": {"type": "Point", "coordinates": [-89.1194908802, 41.5483003972]}, "type": "Feature", "properties": {"collection_times": [{"days": "Mon-Sat", "time": "4:00pm"}, {"days": "Sun", "time": "Closed"}], "id": "6134200018", "name": "USPS COLLECTION BOX - BLUE BOX", "address": {"city": "MENDOTA", "state": "IL", "street": "720 ILLINOIS AVE", "postcode": "61342"}}},
{"geometry": {"type": "Point", "coordinates": [-89.1131206577, 41.5427204529]}, "type": "Feature", "properties": {"collection_times": [{"days": "Mon-Sat", "time": "4:00pm"}, {"days": "Sun", "time": "Closed"}], "id": "6134200020", "name": "USPS COLLECTION BOX - BLUE BOX", "address": {"city": "MENDOTA", "state": "IL", "street": "405 2ND ST", "postcode": "61342"}}},
{"geometry": {"type": "Point", "coordinates": [-89.1202225826, 41.5481182438]}, "type": "Feature", "properties": {"collection_times": [{"days": "Mon-Sat", "time": "5:00pm"}, {"days": "Sun", "time": "Closed"}], "id": "6134200021", "name": "USPS COLLECTION BOX - PO LOBBY", "address": {"city": "MENDOTA", "state": "IL", "street": "818 WASHINGTON ST", "postcode": "61342"}}},
{"geometry": {"type": "Point", "coordinates": [-89.0674777436, 41.5544050583]}, "type": "Feature", "properties": {"collection_times": [{"days": "Mon-Sat", "time": "4:00pm"}, {"days": "Sun", "time": "Closed"}], "id": "6134200023", "name": "USPS COLLECTION BOX - BLUE BOX", "address": {"city": "MENDOTA", "state": "IL", "street": "1300 RAYMOND DR", "postcode": "61342"}}},
{"geometry": {"type": "Point", "coordinates": [-89.0840535424, 41.5418704729]}, "type": "Feature", "properties": {"collection_times": [{"days": "Mon-Sat", "time": "4:00pm"}, {"days": "Sun", "time": "Closed"}], "id": "6134200024", "name": "USPS COLLECTION BOX - BLUE BOX", "address": {"city": "MENDOTA", "state": "IL", "street": "1401 E 12TH ST", "postcode": "61342"}}},
{"geometry": {"type": "Point", "coordinates": [-89.8374260336, 41.3824685597]}, "type": "Feature", "properties": {"collection_times": [{"days": "Mon-Fri", "time": "4:00pm"}, {"days": "Sat", "time": "2:00pm"}, {"days": "Sun", "time": "Closed"}], "id": "6134400000", "name": "USPS COLLECTION BOX - BLUE BOX", "address": {"city": "MINERAL", "state": "IL", "street": "150 E MAIN ST", "postcode": "61344"}}},
{"geometry": {"type": "Point", "coordinates": [-89.8374260336, 41.3824685597]}, "type": "Feature", "properties": {"collection_times": [{"days": "Mon-Fri", "time": "4:00pm"}, {"days": "Sat", "time": "2:00pm"}, {"days": "Sun", "time": "Closed"}], "id": "6134400001", "name": "USPS COLLECTION BOX - PO LOBBY", "address": {"city": "MINERAL", "state": "IL", "street": "150 E MAIN ST", "postcode": "61344"}}},
{"geometry": {"type": "Point", "coordinates": [-89.7896773063, 41.2965873901]}, "type": "Feature", "properties": {"collection_times": [{"days": "Mon-Fri", "time": "3:00pm"}, {"days": "Sat", "time": "10:30am"}, {"days": "Sun", "time": "Closed"}], "id": "6134500001", "name": "USPS COLLECTION BOX - BLUE BOX", "address": {"city": "NEPONSET", "state": "IL", "street": "118 W COMMERCIAL ST", "postcode": "61345"}}},
{"geometry": {"type": "Point", "coordinates": [-89.7896773063, 41.2965873901]}, "type": "Feature", "properties": {"collection_times": [{"days": "Mon-Fri", "time": "11:00am"}, {"days": "Sat", "time": "9:00am"}, {"days": "Sun", "time": "Closed"}], "id": "6134500002", "name": "USPS COLLECTION BOX - PO LOBBY", "address": {"city": "NEPONSET", "state": "IL", "street": "118 W COMMERCIAL ST", "postcode": "61345"}}},
{"geometry": {"type": "Point", "coordinates": [-89.7200290433, 41.5143907355]}, "type": "Feature", "properties": {"collection_times": [{"days": "Mon-Fri", "time": "12:30pm"}, {"days": "Sat", "time": "11:30am"}, {"days": "Sun", "time": "Closed"}], "id": "6134600000", "name": "USPS COLLECTION BOX - BLUE BOX", "address": {"city": "NEW BEDFORD", "state": "IL", "street": "101 N MAIN ST", "postcode": "61346"}}},
{"geometry": {"type": "Point", "coordinates": [-89.7200290433, 41.5143907355]}, "type": "Feature", "properties": {"collection_times": [{"days": "Mon-Fri", "time": "12:30pm"}, {"days": "Sat", "time": "11:30am"}, {"days": "Sun", "time": "Closed"}], "id": "6134600001", "name": "USPS COLLECTION BOX - PO LOBBY", "address": {"city": "NEW BEDFORD", "state": "IL", "street": "101 N MAIN ST", "postcode": "61346"}}},
{"geometry": {"type": "Point", "coordinates": [-89.0625675755, 41.2950487725]}, "type": "Feature", "properties": {"collection_times": [{"days": "Mon-Fri", "time": "5:00pm"}, {"days": "Sat", "time": "3:00pm"}, {"days": "Sun", "time": "Closed"}], "id": "6134800001", "name": "USPS COLLECTION BOX - BLUE BOX", "address": {"city": "OGLESBY", "state": "IL", "street": "203 W WALNUT ST", "postcode": "61348"}}},
{"geometry": {"type": "Point", "coordinates": [-89.0627066885, 41.2951272576]}, "type": "Feature", "properties": {"collection_times": [{"days": "Mon-Fri", "time": "5:00pm"}, {"days": "Sat", "time": "3:00pm"}, {"days": "Sun", "time": "Closed"}], "id": "6134800009", "name": "USPS COLLECTION BOX - BLUE BOX", "address": {"city": "OGLESBY", "state": "IL", "street": "204 W WALNUT ST", "postcode": "61348"}}},
{"geometry": {"type": "Point", "coordinates": [-89.0681856392, 41.2950316012]}, "type": "Feature", "properties": {"collection_times": [{"days": "Mon-Sat", "time": "1:30pm"}, {"days": "Sun", "time": "Closed"}], "id": "6134800012", "name": "USPS COLLECTION BOX - BLUE BOX", "address": {"city": "OGLESBY", "state": "IL", "street": "501 W WALNUT ST", "postcode": "61348"}}},
{"geometry": {"type": "Point", "coordinates": [-89.0625675755, 41.2950487725]}, "type": "Feature", "properties": {"collection_times": [{"days": "Mon-Fri", "time": "5:00pm"}, {"days": "Sat", "time": "3:00pm"}, {"days": "Sun", "time": "Closed"}], "id": "6134800013", "name": "USPS COLLECTION BOX - PO LOBBY", "address": {"city": "OGLESBY", "state": "IL", "street": "203 W WALNUT ST", "postcode": "61348"}}},
{"geometry": {"type": "Point", "coordinates": [-89.4616679826, 41.5585515686]}, "type": "Feature", "properties": {"collection_times": [{"days": "Mon-Fri", "time": "3:30pm"}, {"days": "Sat", "time": "10:30am"}, {"days": "Sun", "time": "Closed"}], "id": "6134900001", "name": "USPS COLLECTION BOX - BLUE BOX", "address": {"city": "OHIO", "state": "IL", "street": "206 N MAIN ST", "postcode": "61349"}}},
{"geometry": {"type": "Point", "coordinates": [-89.4616679826, 41.5585515686]}, "type": "Feature", "properties": {"collection_times": [{"days": "Mon-Fri", "time": "2:30pm"}, {"days": "Sat", "time": "10:30am"}, {"days": "Sun", "time": "Closed"}], "id": "6134900002", "name": "USPS COLLECTION BOX - PO LOBBY", "address": {"city": "OHIO", "state": "IL", "street": "206 N MAIN ST", "postcode": "61349"}}},
{"geometry": {"type": "Point", "coordinates": [-88.8194317269, 41.3737784438]}, "type": "Feature", "properties": {"collection_times": [{"days": "Mon-Fri", "time": "5:00pm"}, {"days": "Sat", "time": "3:45pm"}, {"days": "Sun", "time": "Closed"}], "id": "6135000001", "name": "USPS COLLECTION BOX - BLUE BOX", "address": {"city": "OTTAWA", "state": "IL", "street": "750 E ETNA RD", "postcode": "61350"}}},
{"geometry": {"type": "Point", "coordinates": [-88.8456461323, 41.3456908893]}, "type": "Feature", "properties": {"collection_times": [{"days": "Mon-Fri", "time": "4:30pm"}, {"days": "Sat", "time": "2:45pm"}, {"days": "Sun", "time": "Closed"}], "id": "6135000002", "name": "USPS COLLECTION BOX - PO LOBBY", "address": {"city": "OTTAWA", "state": "IL", "street": "405 W MAIN ST", "postcode": "61350"}}},
{"geometry": {"type": "Point", "coordinates": [-88.8413013268, 41.3451302864]}, "type": "Feature", "properties": {"collection_times": [{"days": "Mon-Fri", "time": "4:00pm"}, {"days": "Sat", "time": "2:45pm"}, {"days": "Sun", "time": "Closed"}], "id": "6135000005", "name": "USPS COLLECTION BOX - BLUE BOX", "address": {"city": "OTTAWA", "state": "IL", "street": "100 LINCOLN PL", "postcode": "61350"}}},
{"geometry": {"type": "Point", "coordinates": [-88.8194317269, 41.3737784438]}, "type": "Feature", "properties": {"collection_times": [{"days": "Mon-Fri", "time": "5:00pm"}, {"days": "Sat", "time": "4:00pm"}, {"days": "Sun", "time": "Closed"}], "id": "6135000006", "name": "USPS COLLECTION BOX - PO LOBBY", "address": {"city": "OTTAWA", "state": "IL", "street": "750 E ETNA RD", "postcode": "61350"}}},
{"geometry": {"type": "Point", "coordinates": [-88.8194317269, 41.3737784438]}, "type": "Feature", "properties": {"collection_times": [{"days": "Mon-Fri", "time": "5:00pm"}, {"days": "Sat", "time": "4:00pm"}, {"days": "Sun", "time": "Closed"}], "id": "6135000010", "name": "USPS COLLECTION BOX - PO LOBBY", "address": {"city": "OTTAWA", "state": "IL", "street": "750 E ETNA RD", "postcode": "61350"}}},
{"geometry": {"type": "Point", "coordinates": [-88.8366137223, 41.3243865277]}, "type": "Feature", "properties": {"collection_times": [{"days": "Mon-Fri", "time": "2:30pm"}, {"days": "Sat", "time": "3:00pm"}, {"days": "Sun", "time": "Closed"}], "id": "6135000012", "name": "USPS COLLECTION BOX - BLUE BOX", "address": {"city": "OTTAWA", "state": "IL", "street": "301 E MCKINLEY RD", "postcode": "61350"}}},
{"geometry": {"type": "Point", "coordinates": [-88.8487435405, 41.3479340434]}, "type": "Feature", "properties": {"collection_times": [{"days": "Mon-Fri", "time": "3:30pm"}, {"days": "Sat", "time": "2:45pm"}, {"days": "Sun", "time": "Closed"}], "id": "6135000016", "name": "USPS COLLECTION BOX - BLUE BOX", "address": {"city": "OTTAWA", "state": "IL", "street": "800 CHESTNUT ST", "postcode": "61350"}}},
{"geometry": {"type": "Point", "coordinates": [-88.841056119, 41.3462866752]}, "type": "Feature", "properties": {"collection_times": [{"days": "Mon-Fri", "time": "4:00pm"}, {"days": "Sat-Sun", "time": "Closed"}], "id": "6135000017", "name": "USPS COLLECTION BOX - BLUE BOX", "address": {"city": "OTTAWA", "state": "IL", "street": "628 COLUMBUS ST", "postcode": "61350"}}},
{"geometry": {"type": "Point", "coordinates": [-89.1586488725, 40.1140436692]}, "type": "Feature", "properties": {"collection_times": [{"days": "Mon-Fri", "time": "3:30pm"}, {"days": "Sat", "time": "3:00pm"}, {"days": "Sun", "time": "Closed"}], "id": "6135000027", "name": "USPS COLLECTION BOX - BLUE BOX", "address": {"city": "OTTAWA", "state": "IL", "street": "100 W JACKSON ST", "postcode": "61350"}}},
{"geometry": {"type": "Point", "coordinates": [-88.8217965619, 41.3564705608]}, "type": "Feature", "properties": {"collection_times": [{"days": "Mon-Sat", "time": "3:15pm"}, {"days": "Sun", "time": "Closed"}], "id": "6135000028", "name": "USPS COLLECTION BOX - BLUE BOX", "address": {"city": "OTTAWA", "state": "IL", "street": "1311 STARFIRE DR", "postcode": "61350"}}},
{"geometry": {"type": "Point", "coordinates": [-88.8411167958, 41.3500299135]}, "type": "Feature", "properties": {"collection_times": [{"days": "Mon-Fri", "time": "4:00pm"}, {"days": "Sat", "time": "3:00pm"}, {"days": "Sun", "time": "Closed"}], "id": "6135000029", "name": "USPS COLLECTION BOX - BLUE BOX", "address": {"city": "OTTAWA", "state": "IL", "street": "100 E LAFAYETTE ST", "postcode": "61350"}}},
{"geometry": {"type": "Point", "coordinates": [-88.8426690506, 41.3468879822]}, "type": "Feature", "properties": {"collection_times": [{"days": "Mon-Fri", "time": "3:30pm"}, {"days": "Sat", "time": "3:00pm"}, {"days": "Sun", "time": "Closed"}], "id": "6135000032", "name": "USPS COLLECTION BOX - BLUE BOX", "address": {"city": "OTTAWA", "state": "IL", "street": "701 LA SALLE ST", "postcode": "61350"}}},
{"geometry": {"type": "Point", "coordinates": [-88.8440865684, 41.346785144]}, "type": "Feature", "properties": {"collection_times": [{"days": "Mon-Fri", "time": "3:30pm"}, {"days": "Sat", "time": "2:45pm"}, {"days": "Sun", "time": "Closed"}], "id": "6135000039", "name": "USPS COLLECTION BOX - BLUE BOX", "address": {"city": "OTTAWA", "state": "IL", "street": "301 W MADISON ST", "postcode": "61350"}}},
{"geometry": {"type": "Point", "coordinates": [-88.8398520379, 41.3360414277]}, "type": "Feature", "properties": {"collection_times": [{"days": "Mon-Fri", "time": "2:30pm"}, {"days": "Sat", "time": "3:00pm"}, {"days": "Sun", "time": "Closed"}], "id": "6135000046", "name": "USPS COLLECTION BOX - BLUE BOX", "address": {"city": "OTTAWA", "state": "IL", "street": "538 STATE ST", "postcode": "61350"}}},
{"geometry": {"type": "Point", "coordinates": [-88.834282568, 41.356239256]}, "type": "Feature", "properties": {"collection_times": [{"days": "Mon-Sat", "time": "3:15pm"}, {"days": "Sun", "time": "Closed"}], "id": "6135000057", "name": "USPS COLLECTION BOX - BLUE BOX", "address": {"city": "OTTAWA", "state": "IL", "street": "545 E NORRIS DR", "postcode": "61350"}}},
{"geometry": {"type": "Point", "coordinates": [-88.9789976956, 41.6886319171]}, "type": "Feature", "properties": {"collection_times": [{"days": "Mon-Fri", "time": "4:00pm"}, {"days": "Sat", "time": "10:30am"}, {"days": "Sun", "time": "Closed"}], "id": "6135300000", "name": "USPS COLLECTION BOX - PO LOBBY", "address": {"city": "PAW PAW", "state": "IL", "street": "226 CHICAGO RD", "postcode": "61353"}}},
{"geometry": {"type": "Point", "coordinates": [-88.9789976956, 41.6886319171]}, "type": "Feature", "properties": {"collection_times": [{"days": "Mon-Fri", "time": "4:00pm"}, {"days": "Sat", "time": "10:30am"}, {"days": "Sun", "time": "Closed"}], "id": "6135300001", "name": "USPS COLLECTION BOX - BLUE BOX", "address": {"city": "PAW PAW", "state": "IL", "street": "226 CHICAGO RD", "postcode": "61353"}}},
{"geometry": {"type": "Point", "coordinates": [-89.1170826436, 41.340583876]}, "type": "Feature", "properties": {"collection_times": [{"days": "Mon-Sat", "time": "3:45pm"}, {"days": "Sun", "time": "Closed"}], "id": "6135400007", "name": "USPS COLLECTION BOX - BLUE BOX", "address": {"city": "PERU", "state": "IL", "street": "2200 MARQUETTE RD", "postcode": "61354"}}},
{"geometry": {"type": "Point", "coordinates": [-89.1251854536, 41.3273749177]}, "type": "Feature", "properties": {"collection_times": [{"days": "Mon-Sat", "time": "4:15pm"}, {"days": "Sun", "time": "Closed"}], "id": "6135400009", "name": "USPS COLLECTION BOX - BLUE BOX", "address": {"city": "PERU", "state": "IL", "street": "1500 4TH ST", "postcode": "61354"}}},
{"geometry": {"type": "Point", "coordinates": [-89.1216634254, 41.3386426554]}, "type": "Feature", "properties": {"collection_times": [{"days": "Mon-Sat", "time": "4:00pm"}, {"days": "Sun", "time": "Closed"}], "id": "6135400010", "name": "USPS COLLECTION BOX - BLUE BOX", "address": {"city": "PERU", "state": "IL", "street": "2011 ROCK ST", "postcode": "61354"}}},
{"geometry": {"type": "Point", "coordinates": [-89.1171085659, 41.3386241353]}, "type": "Feature", "properties": {"collection_times": [{"days": "Mon-Sat", "time": "3:45pm"}, {"days": "Sun", "time": "Closed"}], "id": "6135400011", "name": "USPS COLLECTION BOX - BLUE BOX", "address": {"city": "PERU", "state": "IL", "street": "925 SHOOTING PARK RD", "postcode": "61354"}}},
{"geometry": {"type": "Point", "coordinates": [-89.1171085659, 41.3386241353]}, "type": "Feature", "properties": {"collection_times": [{"days": "Mon-Sat", "time": "3:45pm"}, {"days": "Sun", "time": "Closed"}], "id": "6135400012", "name": "USPS COLLECTION BOX - BLUE BOX", "address": {"city": "PERU", "state": "IL", "street": "925 SHOOTING PARK RD", "postcode": "61354"}}},
{"geometry": {"type": "Point", "coordinates": [-89.1274696517, 41.335792037]}, "type": "Feature", "properties": {"collection_times": [{"days": "Mon-Sat", "time": "4:15pm"}, {"days": "Sun", "time": "Closed"}], "id": "6135400013", "name": "USPS COLLECTION BOX - EXPRESS", "address": {"city": "PERU", "state": "IL", "street": "1500 4TH ST", "postcode": "61354"}}},
{"geometry": {"type": "Point", "coordinates": [-89.125194422, 41.328828782]}, "type": "Feature", "properties": {"collection_times": [{"days": "Mon-Sat", "time": "4:15pm"}, {"days": "Sun", "time": "Closed"}], "id": "6135400016", "name": "USPS COLLECTION BOX - BLUE BOX", "address": {"city": "PERU", "state": "IL", "street": "925 WEST ST", "postcode": "61354"}}},
{"geometry": {"type": "Point", "coordinates": [-89.1251854536, 41.3273749177]}, "type": "Feature", "properties": {"collection_times": [{"days": "Mon-Sat", "time": "4:15pm"}, {"days": "Sun", "time": "Closed"}], "id": "6135400018", "name": "USPS COLLECTION BOX - BLUE BOX", "address": {"city": "PERU", "state": "IL", "street": "1500 4TH ST", "postcode": "61354"}}},
{"geometry": {"type": "Point", "coordinates": [-89.1227321255, 41.3565337993]}, "type": "Feature", "properties": {"collection_times": [{"days": "Mon-Sat", "time": "3:45pm"}, {"days": "Sun", "time": "Closed"}], "id": "6135400024", "name": "USPS COLLECTION BOX - BLUE BOX", "address": {"city": "PERU", "state": "IL", "street": "1220 37TH ST", "postcode": "61354"}}},
{"geometry": {"type": "Point", "coordinates": [-89.1282223505, 41.3275766086]}, "type": "Feature", "properties": {"collection_times": [{"days": "Mon-Sat", "time": "4:00pm"}, {"days": "Sun", "time": "Closed"}], "id": "6135400028", "name": "USPS COLLECTION BOX - BLUE BOX", "address": {"city": "PERU", "state": "IL", "street": "1730 4TH ST", "postcode": "61354"}}},
{"geometry": {"type": "Point", "coordinates": [-89.1290757225, 41.3278287633]}, "type": "Feature", "properties": {"collection_times": [{"days": "Mon-Sat", "time": "4:00pm"}, {"days": "Sun", "time": "Closed"}], "id": "6135400031", "name": "USPS COLLECTION BOX - BLUE BOX", "address": {"city": "PERU", "state": "IL", "street": "821 PEORIA ST", "postcode": "61354"}}},
{"geometry": {"type": "Point", "coordinates": [-89.1251854536, 41.3273749177]}, "type": "Feature", "properties": {"collection_times": [{"days": "Mon-Fri", "time": "4:45pm"}, {"days": "Sat", "time": "12:00pm"}, {"days": "Sun", "time": "Closed"}], "id": "6135400032", "name": "USPS COLLECTION BOX - PO LOBBY", "address": {"city": "PERU", "state": "IL", "street": "1500 4TH ST", "postcode": "61354"}}},
{"geometry": {"type": "Point", "coordinates": [-89.1283493488, 41.3456898499]}, "type": "Feature", "properties": {"collection_times": [{"days": "Mon-Sat", "time": "4:00pm"}, {"days": "Sun", "time": "Closed"}], "id": "6135400033", "name": "USPS COLLECTION BOX - BLUE BOX", "address": {"city": "PERU", "state": "IL", "street": "1651 MIDTOWN RD", "postcode": "61354"}}},
{"geometry": {"type": "Point", "coordinates": [-89.1269330891, 41.3594822649]}, "type": "Feature", "properties": {"collection_times": [{"days": "Mon-Sat", "time": "4:00pm"}, {"days": "Sun", "time": "Closed"}], "id": "6135400034", "name": "USPS COLLECTION BOX - BLUE BOX", "address": {"city": "PERU", "state": "IL", "street": "4141 VENTURE DR", "postcode": "61354"}}},
{"geometry": {"type": "Point", "coordinates": [-89.4651110413, 41.3725001376]}, "type": "Feature", "properties": {"collection_times": [{"days": "Mon-Sat", "time": "5:00pm"}, {"days": "Sun", "time": "Closed"}], "id": "6135600002", "name": "USPS COLLECTION BOX - BLUE BOX", "address": {"city": "PRINCETON", "state": "IL", "street": "326 S MAIN ST", "postcode": "61356"}}},
{"geometry": {"type": "Point", "coordinates": [-89.4651110413, 41.3725001376]}, "type": "Feature", "properties": {"collection_times": [{"days": "Mon-Sat", "time": "5:00pm"}, {"days": "Sun", "time": "Closed"}], "id": "6135600003", "name": "USPS COLLECTION BOX - BLUE BOX", "address": {"city": "PRINCETON", "state": "IL", "street": "326 S MAIN ST", "postcode": "61356"}}},
{"geometry": {"type": "Point", "coordinates": [-89.4651101901, 41.3752913364]}, "type": "Feature", "properties": {"collection_times": [{"days": "Mon-Sat", "time": "4:00pm"}, {"days": "Sun", "time": "Closed"}], "id": "6135600005", "name": "USPS COLLECTION BOX - BLUE BOX", "address": {"city": "PRINCETON", "state": "IL", "street": "2 S MAIN ST", "postcode": "61356"}}},
{"geometry": {"type": "Point", "coordinates": [-89.4651132099, 41.3702754038]}, "type": "Feature", "properties": {"collection_times": [{"days": "Mon-Sat", "time": "4:15pm"}, {"days": "Sun", "time": "Closed"}], "id": "6135600009", "name": "USPS COLLECTION BOX - BLUE BOX", "address": {"city": "PRINCETON", "state": "IL", "street": "606 S MAIN ST", "postcode": "61356"}}},
{"geometry": {"type": "Point", "coordinates": [-89.4649479198, 41.3683359643]}, "type": "Feature", "properties": {"collection_times": [{"days": "Mon-Sat", "time": "4:15pm"}, {"days": "Sun", "time": "Closed"}], "id": "6135600011", "name": "USPS COLLECTION BOX - BLUE BOX", "address": {"city": "PRINCETON", "state": "IL", "street": "815 S MAIN ST", "postcode": "61356"}}},
{"geometry": {"type": "Point", "coordinates": [-89.4651340932, 41.3830976931]}, "type": "Feature", "properties": {"collection_times": [{"days": "Mon-Sat", "time": "4:00pm"}, {"days": "Sun", "time": "Closed"}], "id": "6135600013", "name": "USPS COLLECTION BOX - BLUE BOX", "address": {"city": "PRINCETON", "state": "IL", "street": "918 N MAIN ST", "postcode": "61356"}}},
{"geometry": {"type": "Point", "coordinates": [-89.4650792536, 41.3881326727]}, "type": "Feature", "properties": {"collection_times": [{"days": "Mon-Sat", "time": "4:00pm"}, {"days": "Sun", "time": "Closed"}], "id": "6135600014", "name": "USPS COLLECTION BOX - BLUE BOX", "address": {"city": "PRINCETON", "state": "IL", "street": "1407 N MAIN ST", "postcode": "61356"}}},
{"geometry": {"type": "Point", "coordinates": [-89.4647021693, 41.3934134485]}, "type": "Feature", "properties": {"collection_times": [{"days": "Mon-Sat", "time": "4:00pm"}, {"days": "Sun", "time": "Closed"}], "id": "6135600016", "name": "USPS COLLECTION BOX - BLUE BOX", "address": {"city": "PRINCETON", "state": "IL", "street": "125 BACKBONE RD E", "postcode": "61356"}}},
{"geometry": {"type": "Point", "coordinates": [-89.4666299011, 41.3925463788]}, "type": "Feature", "properties": {"collection_times": [{"days": "Mon-Sat", "time": "4:00pm"}, {"days": "Sun", "time": "Closed"}], "id": "6135600017", "name": "USPS COLLECTION BOX - BLUE BOX", "address": {"city": "PRINCETON", "state": "IL", "street": "2101 N MAIN ST", "postcode": "61356"}}},
{"geometry": {"type": "Point", "coordinates": [-89.4663726473, 41.368333369]}, "type": "Feature", "properties": {"collection_times": [{"days": "Mon-Sat", "time": "4:15pm"}, {"days": "Sun", "time": "Closed"}], "id": "6135600018", "name": "USPS COLLECTION BOX - BLUE BOX", "address": {"city": "PRINCETON", "state": "IL", "street": "700 S PLEASANT ST", "postcode": "61356"}}},
{"geometry": {"type": "Point", "coordinates": [-89.4663726473, 41.368333369]}, "type": "Feature", "properties": {"collection_times": [{"days": "Mon-Sat", "time": "4:15pm"}, {"days": "Sun", "time": "Closed"}], "id": "6135600019", "name": "USPS COLLECTION BOX - BLUE BOX", "address": {"city": "PRINCETON", "state": "IL", "street": "700 S PLEASANT ST", "postcode": "61356"}}},
{"geometry": {"type": "Point", "coordinates": [-89.4650267897, 41.3853765794]}, "type": "Feature", "properties": {"collection_times": [{"days": "Mon-Sat", "time": "4:00pm"}, {"days": "Sun", "time": "Closed"}], "id": "6135600020", "name": "USPS COLLECTION BOX - BLUE BOX", "address": {"city": "PRINCETON", "state": "IL", "street": "1155 N MAIN ST", "postcode": "61356"}}},
{"geometry": {"type": "Point", "coordinates": [-89.4564639592, 41.3715437952]}, "type": "Feature", "properties": {"collection_times": [{"days": "Mon-Sat", "time": "4:15pm"}, {"days": "Sun", "time": "Closed"}], "id": "6135600024", "name": "USPS COLLECTION BOX - BLUE BOX", "address": {"city": "PRINCETON", "state": "IL", "street": "698 E PERU ST", "postcode": "61356"}}},
{"geometry": {"type": "Point", "coordinates": [-89.4651110413, 41.3725001376]}, "type": "Feature", "properties": {"collection_times": [{"days": "Mon-Sat", "time": "5:00pm"}, {"days": "Sun", "time": "Closed"}], "id": "6135600025", "name": "USPS COLLECTION BOX - PO LOBBY", "address": {"city": "PRINCETON", "state": "IL", "street": "326 S MAIN ST", "postcode": "61356"}}},
{"geometry": {"type": "Point", "coordinates": [-89.0417347443, 40.9847002195]}, "type": "Feature", "properties": {"collection_times": [{"days": "Mon-Fri", "time": "4:00pm"}, {"days": "Sat", "time": "10:30am"}, {"days": "Sun", "time": "Closed"}], "id": "6135800000", "name": "USPS COLLECTION BOX - BLUE BOX", "address": {"city": "RUTLAND", "state": "IL", "street": "118 SW FRONT ST", "postcode": "61358"}}},
{"geometry": {"type": "Point", "coordinates": [-89.0417347443, 40.9847002195]}, "type": "Feature", "properties": {"collection_times": [{"days": "Mon-Fri", "time": "4:00pm"}, {"days": "Sat", "time": "2:00pm"}, {"days": "Sun", "time": "Closed"}], "id": "6135800001", "name": "USPS COLLECTION BOX - PO LOBBY", "address": {"city": "RUTLAND", "state": "IL", "street": "118 SW FRONT ST", "postcode": "61358"}}},
{"geometry": {"type": "Point", "coordinates": [-89.2776227133, 41.3648008784]}, "type": "Feature", "properties": {"collection_times": [{"days": "Mon-Fri", "time": "4:00pm"}, {"days": "Sat", "time": "10:30am"}, {"days": "Sun", "time": "Closed"}], "id": "6135900000", "name": "USPS COLLECTION BOX - BLUE BOX", "address": {"city": "SEATONVILLE", "state": "IL", "street": "114 US ROUTE 6", "postcode": "61359"}}},
{"geometry": {"type": "Point", "coordinates": [-89.2776227133, 41.3648008784]}, "type": "Feature", "properties": {"collection_times": [{"days": "Mon-Fri", "time": "11:15am"}, {"days": "Sat", "time": "10:15am"}, {"days": "Sun", "time": "Closed"}], "id": "6135900001", "name": "USPS COLLECTION BOX - PO LOBBY", "address": {"city": "SEATONVILLE", "state": "IL", "street": "114 US ROUTE 6", "postcode": "61359"}}},
{"geometry": {"type": "Point", "coordinates": [-88.6095584952, 41.3162790944]}, "type": "Feature", "properties": {"collection_times": [{"days": "Mon-Fri", "time": "4:00pm"}, {"days": "Sat", "time": "11:00am"}, {"days": "Sun", "time": "Closed"}], "id": "6136000000", "name": "USPS COLLECTION BOX - BLUE BOX", "address": {"city": "SENECA", "state": "IL", "street": "121 E ARMOUR ST", "postcode": "61360"}}},
{"geometry": {"type": "Point", "coordinates": [-88.6095584952, 41.3162790944]}, "type": "Feature", "properties": {"collection_times": [{"days": "Mon-Fri", "time": "4:00pm"}, {"days": "Sat", "time": "11:00am"}, {"days": "Sun", "time": "Closed"}], "id": "6136000001", "name": "USPS COLLECTION BOX - PO LOBBY", "address": {"city": "SENECA", "state": "IL", "street": "121 E ARMOUR ST", "postcode": "61360"}}},
{"geometry": {"type": "Point", "coordinates": [-88.6059250386, 41.2939689232]}, "type": "Feature", "properties": {"collection_times": [{"days": "Mon-Sat", "time": "1:00pm"}, {"days": "Sun", "time": "Closed"}], "id": "6136000002", "name": "USPS COLLECTION BOX - BLUE BOX", "address": {"city": "SENECA", "state": "IL", "street": "2464 E 29TH RD", "postcode": "61360"}}},
{"geometry": {"type": "Point", "coordinates": [-88.6104791723, 41.321622974]}, "type": "Feature", "properties": {"collection_times": [{"days": "Mon-Fri", "time": "4:00pm"}, {"days": "Sat", "time": "11:00am"}, {"days": "Sun", "time": "Closed"}], "id": "6136000003", "name": "USPS COLLECTION BOX - EXPRESS", "address": {"city": "SENECA", "state": "IL", "street": "121 E ARMOUR ST", "postcode": "61360"}}},
{"geometry": {"type": "Point", "coordinates": [-88.6096027692, 41.3065225288]}, "type": "Feature", "properties": {"collection_times": [{"days": "Mon-Sat", "time": "1:00pm"}, {"days": "Sun", "time": "Closed"}], "id": "6136000004", "name": "USPS COLLECTION BOX - BLUE BOX", "address": {"city": "SENECA", "state": "IL", "street": "271 S MAIN ST", "postcode": "61360"}}},
{"geometry": {"type": "Point", "coordinates": [-89.7372776064, 41.3585325805]}, "type": "Feature", "properties": {"collection_times": [{"days": "Mon-Fri", "time": "3:30pm"}, {"days": "Sat", "time": "10:30am"}, {"days": "Sun", "time": "Closed"}], "id": "6136100000", "name": "USPS COLLECTION BOX - BLUE BOX", "address": {"city": "SHEFFIELD", "state": "IL", "street": "116 S MAIN ST", "postcode": "61361"}}},
{"geometry": {"type": "Point", "coordinates": [-89.7372776064, 41.3585325805]}, "type": "Feature", "properties": {"collection_times": [{"days": "Mon-Fri", "time": "2:30pm"}, {"days": "Sat", "time": "11:00am"}, {"days": "Sun", "time": "Closed"}], "id": "6136100002", "name": "USPS COLLECTION BOX - PO LOBBY", "address": {"city": "SHEFFIELD", "state": "IL", "street": "116 S MAIN ST", "postcode": "61361"}}},
{"geometry": {"type": "Point", "coordinates": [-89.1997596751, 41.3256833565]}, "type": "Feature", "properties": {"collection_times": [{"days": "Mon-Fri", "time": "4:45pm"}, {"days": "Sat", "time": "1:00pm"}, {"days": "Sun", "time": "Closed"}], "id": "6136200001", "name": "USPS COLLECTION BOX - PO LOBBY", "address": {"city": "SPRING VALLEY", "state": "IL", "street": "100 E ERIE ST", "postcode": "61362"}}},
{"geometry": {"type": "Point", "coordinates": [-89.206718207, 41.3300435947]}, "type": "Feature", "properties": {"collection_times": [{"days": "Mon-Fri", "time": "4:30pm"}, {"days": "Sat", "time": "1:00pm"}, {"days": "Sun", "time": "Closed"}], "id": "6136200003", "name": "USPS COLLECTION BOX - EXPRESS", "address": {"city": "SPRING VALLEY", "state": "IL", "street": "100 E ERIE ST", "postcode": "61362"}}},
{"geometry": {"type": "Point", "coordinates": [-89.1997596751, 41.3256833565]}, "type": "Feature", "properties": {"collection_times": [{"days": "Mon-Fri", "time": "4:45pm"}, {"days": "Sat", "time": "1:00pm"}, {"days": "Sun", "time": "Closed"}], "id": "6136200012", "name": "USPS COLLECTION BOX - PO LOBBY", "address": {"city": "SPRING VALLEY", "state": "IL", "street": "100 E ERIE ST", "postcode": "61362"}}},
{"geometry": {"type": "Point", "coordinates": [-89.1997596751, 41.3256833565]}, "type": "Feature", "properties": {"collection_times": [{"days": "Mon-Fri", "time": "4:30pm"}, {"days": "Sat", "time": "1:00pm"}, {"days": "Sun", "time": "Closed"}], "id": "6136200013", "name": "USPS COLLECTION BOX - BLUE BOX", "address": {"city": "SPRING VALLEY", "state": "IL", "street": "100 E ERIE ST", "postcode": "61362"}}},
{"geometry": {"type": "Point", "coordinates": [-89.1997596751, 41.3256833565]}, "type": "Feature", "properties": {"collection_times": [{"days": "Mon-Fri", "time": "4:30pm"}, {"days": "Sat", "time": "1:00pm"}, {"days": "Sun", "time": "Closed"}], "id": "6136200014", "name": "USPS COLLECTION BOX - BLUE BOX", "address": {"city": "SPRING VALLEY", "state": "IL", "street": "100 E ERIE ST", "postcode": "61362"}}},
{"geometry": {"type": "Point", "coordinates": [-89.1810808684, 41.2577713738]}, "type": "Feature", "properties": {"collection_times": [{"days": "Mon-Fri", "time": "4:00pm"}, {"days": "Sat", "time": "10:30am"}, {"days": "Sun", "time": "Closed"}], "id": "6136300000", "name": "USPS COLLECTION BOX - BLUE BOX", "address": {"city": "STANDARD", "state": "IL", "street": "106 S SECOND ST", "postcode": "61363"}}},
{"geometry": {"type": "Point", "coordinates": [-89.1810808684, 41.2577713738]}, "type": "Feature", "properties": {"collection_times": [{"days": "Mon-Fri", "time": "3:45pm"}, {"days": "Sat", "time": "12:30pm"}, {"days": "Sun", "time": "Closed"}], "id": "6136300001", "name": "USPS COLLECTION BOX - PO LOBBY", "address": {"city": "STANDARD", "state": "IL", "street": "106 S SECOND ST", "postcode": "61363"}}},
{"geometry": {"type": "Point", "coordinates": [-88.8359510876, 41.1489094494]}, "type": "Feature", "properties": {"collection_times": [{"days": "Mon-Fri", "time": "3:30pm"}, {"days": "Sat", "time": "1:30pm"}, {"days": "Sun", "time": "Closed"}], "id": "6136400004", "name": "USPS COLLECTION BOX - BLUE BOX", "address": {"city": "STREATOR", "state": "IL", "street": "2324 N BLOOMINGTON ST", "postcode": "61364"}}},
{"geometry": {"type": "Point", "coordinates": [-88.8327958857, 41.1211451972]}, "type": "Feature", "properties": {"collection_times": [{"days": "Mon-Fri", "time": "5:00pm"}, {"days": "Sat", "time": "3:30pm"}, {"days": "Sun", "time": "Closed"}], "id": "6136400009", "name": "USPS COLLECTION BOX - BLUE BOX", "address": {"city": "STREATOR", "state": "IL", "street": "117 N MONROE ST", "postcode": "61364"}}},
{"geometry": {"type": "Point", "coordinates": [-88.8327958857, 41.1211451972]}, "type": "Feature", "properties": {"collection_times": [{"days": "Mon-Fri", "time": "5:00pm"}, {"days": "Sat", "time": "3:30pm"}, {"days": "Sun", "time": "Closed"}], "id": "6136400010", "name": "USPS COLLECTION BOX - BLUE BOX", "address": {"city": "STREATOR", "state": "IL", "street": "117 N MONROE ST", "postcode": "61364"}}},
{"geometry": {"type": "Point", "coordinates": [-88.8327958857, 41.1211451972]}, "type": "Feature", "properties": {"collection_times": [{"days": "Mon-Fri", "time": "5:00pm"}, {"days": "Sat", "time": "3:30pm"}, {"days": "Sun", "time": "Closed"}], "id": "6136400012", "name": "USPS COLLECTION BOX - BLUE BOX", "address": {"city": "STREATOR", "state": "IL", "street": "117 N MONROE ST", "postcode": "61364"}}},
{"geometry": {"type": "Point", "coordinates": [-88.8359735612, 41.1434467907]}, "type": "Feature", "properties": {"collection_times": [{"days": "Mon-Fri", "time": "3:30pm"}, {"days": "Sat", "time": "1:30pm"}, {"days": "Sun", "time": "Closed"}], "id": "6136400013", "name": "USPS COLLECTION BOX - BLUE BOX", "address": {"city": "STREATOR", "state": "IL", "street": "7 NORTH POINT DR", "postcode": "61364"}}},
{"geometry": {"type": "Point", "coordinates": [-88.8409580811, 41.1208326059]}, "type": "Feature", "properties": {"collection_times": [{"days": "Mon-Fri", "time": "3:45pm"}, {"days": "Sat", "time": "1:45pm"}, {"days": "Sun", "time": "Closed"}], "id": "6136400020", "name": "USPS COLLECTION BOX - BLUE BOX", "address": {"city": "STREATOR", "state": "IL", "street": "104 ARMORY CT", "postcode": "61364"}}},
{"geometry": {"type": "Point", "coordinates": [-88.8356511671, 41.1499397714]}, "type": "Feature", "properties": {"collection_times": [{"days": "Mon-Fri", "time": "3:30pm"}, {"days": "Sat", "time": "1:45pm"}, {"days": "Sun", "time": "Closed"}], "id": "6136400021", "name": "USPS COLLECTION BOX - BLUE BOX", "address": {"city": "STREATOR", "state": "IL", "street": "2399 N BLOOMINGTON ST", "postcode": "61364"}}},
{"geometry": {"type": "Point", "coordinates": [-88.8339024242, 41.121956795]}, "type": "Feature", "properties": {"collection_times": [{"days": "Mon-Fri", "time": "5:00pm"}, {"days": "Sat", "time": "3:45pm"}, {"days": "Sun", "time": "Closed"}], "id": "6136400022", "name": "USPS COLLECTION BOX - PO LOBBY", "address": {"city": "STREATOR", "state": "IL", "street": "221 E HICKORY ST", "postcode": "61364"}}},
{"geometry": {"type": "Point", "coordinates": [-88.8328457635, 41.1220777553]}, "type": "Feature", "properties": {"collection_times": [{"days": "Mon-Fri", "time": "4:45pm"}, {"days": "Sat", "time": "3:30pm"}, {"days": "Sun", "time": "Closed"}], "id": "6136400023", "name": "USPS COLLECTION BOX - BLUE BOX", "address": {"city": "STREATOR", "state": "IL", "street": "300 E HICKORY ST", "postcode": "61364"}}},
{"geometry": {"type": "Point", "coordinates": [-88.8328457635, 41.1220777553]}, "type": "Feature", "properties": {"collection_times": [{"days": "Mon-Fri", "time": "4:45pm"}, {"days": "Sat", "time": "3:30pm"}, {"days": "Sun", "time": "Closed"}], "id": "6136400024", "name": "USPS COLLECTION BOX - BLUE BOX", "address": {"city": "STREATOR", "state": "IL", "street": "300 E HICKORY ST", "postcode": "61364"}}},
{"geometry": {"type": "Point", "coordinates": [-89.2292375984, 41.6431518358]}, "type": "Feature", "properties": {"collection_times": [{"days": "Mon-Fri", "time": "4:00pm"}, {"days": "Sat", "time": "11:00am"}, {"days": "Sun", "time": "Closed"}], "id": "6136700000", "name": "USPS COLLECTION BOX - BLUE BOX", "address": {"city": "SUBLETTE", "state": "IL", "street": "105 W MAIN ST", "postcode": "61367"}}},
{"geometry": {"type": "Point", "coordinates": [-89.2292375984, 41.6431518358]}, "type": "Feature", "properties": {"collection_times": [{"days": "Mon-Fri", "time": "4:00pm"}, {"days": "Sat", "time": "11:00am"}, {"days": "Sun", "time": "Closed"}], "id": "6136700001", "name": "USPS COLLECTION BOX - PO LOBBY", "address": {"city": "SUBLETTE", "state": "IL", "street": "105 W MAIN ST", "postcode": "61367"}}},
{"geometry": {"type": "Point", "coordinates": [-89.5056410888, 41.2922037706]}, "type": "Feature", "properties": {"collection_times": [{"days": "Mon-Fri", "time": "4:15pm"}, {"days": "Sat", "time": "11:00am"}, {"days": "Sun", "time": "Closed"}], "id": "6136800001", "name": "USPS COLLECTION BOX - BLUE BOX", "address": {"city": "TISKILWA", "state": "IL", "street": "200 E MAIN ST", "postcode": "61368"}}},
{"geometry": {"type": "Point", "coordinates": [-89.5056410888, 41.2922037706]}, "type": "Feature", "properties": {"collection_times": [{"days": "Mon-Fri", "time": "4:15pm"}, {"days": "Sat", "time": "11:00am"}, {"days": "Sun", "time": "Closed"}], "id": "6136800002", "name": "USPS COLLECTION BOX - BLUE BOX", "address": {"city": "TISKILWA", "state": "IL", "street": "200 E MAIN ST", "postcode": "61368"}}},
{"geometry": {"type": "Point", "coordinates": [-89.5056410888, 41.2922037706]}, "type": "Feature", "properties": {"collection_times": [{"days": "Mon-Fri", "time": "4:00pm"}, {"days": "Sat", "time": "11:00am"}, {"days": "Sun", "time": "Closed"}], "id": "6136800003", "name": "USPS COLLECTION BOX - PO LOBBY", "address": {"city": "TISKILWA", "state": "IL", "street": "200 E MAIN ST", "postcode": "61368"}}},
{"geometry": {"type": "Point", "coordinates": [-89.1343326003, 41.0018430011]}, "type": "Feature", "properties": {"collection_times": [{"days": "Mon-Fri", "time": "4:30pm"}, {"days": "Sat", "time": "11:00am"}, {"days": "Sun", "time": "Closed"}], "id": "6136900001", "name": "USPS COLLECTION BOX - BLUE BOX", "address": {"city": "TOLUCA", "state": "IL", "street": "120 W SANTA FE AVE", "postcode": "61369"}}},
{"geometry": {"type": "Point", "coordinates": [-89.1343326003, 41.0018430011]}, "type": "Feature", "properties": {"collection_times": [{"days": "Mon-Fri", "time": "4:30pm"}, {"days": "Sat", "time": "11:00am"}, {"days": "Sun", "time": "Closed"}], "id": "6136900003", "name": "USPS COLLECTION BOX - PO LOBBY", "address": {"city": "TOLUCA", "state": "IL", "street": "120 W SANTA FE AVE", "postcode": "61369"}}},
{"geometry": {"type": "Point", "coordinates": [-89.064925587, 41.2167566233]}, "type": "Feature", "properties": {"collection_times": [{"days": "Mon-Fri", "time": "3:30pm"}, {"days": "Sat", "time": "10:30am"}, {"days": "Sun", "time": "Closed"}], "id": "6137000002", "name": "USPS COLLECTION BOX - PO LOBBY", "address": {"city": "TONICA", "state": "IL", "street": "110 S ONECA ST", "postcode": "61370"}}},
{"geometry": {"type": "Point", "coordinates": [-89.064925587, 41.2167566233]}, "type": "Feature", "properties": {"collection_times": [{"days": "Mon-Fri", "time": "4:15pm"}, {"days": "Sat", "time": "10:15am"}, {"days": "Sun", "time": "Closed"}], "id": "6137000003", "name": "USPS COLLECTION BOX - BLUE BOX", "address": {"city": "TONICA", "state": "IL", "street": "110 S ONECA ST", "postcode": "61370"}}},
{"geometry": {"type": "Point", "coordinates": [-89.0217023921, 41.4985834159]}, "type": "Feature", "properties": {"collection_times": [{"days": "Mon-Fri", "time": "4:15pm"}, {"days": "Sat", "time": "10:30am"}, {"days": "Sun", "time": "Closed"}], "id": "6137100000", "name": "USPS COLLECTION BOX - BLUE BOX", "address": {"city": "TRIUMPH", "state": "IL", "street": "3906 E 752ND RD", "postcode": "61371"}}},
{"geometry": {"type": "Point", "coordinates": [-89.0217023921, 41.4985834159]}, "type": "Feature", "properties": {"collection_times": [{"days": "Mon-Fri", "time": "12:30pm"}, {"days": "Sat", "time": "10:30am"}, {"days": "Sun", "time": "Closed"}], "id": "6137100001", "name": "USPS COLLECTION BOX - PO LOBBY", "address": {"city": "TRIUMPH", "state": "IL", "street": "3906 E 752ND RD", "postcode": "61371"}}},
{"geometry": {"type": "Point", "coordinates": [-89.0830291564, 41.4677339109]}, "type": "Feature", "properties": {"collection_times": [{"days": "Mon-Fri", "time": "4:15pm"}, {"days": "Sat", "time": "10:30am"}, {"days": "Sun", "time": "Closed"}], "id": "6137200000", "name": "USPS COLLECTION BOX - BLUE BOX", "address": {"city": "TROY GROVE", "state": "IL", "street": "107 E OTTAWA ST", "postcode": "61372"}}},
{"geometry": {"type": "Point", "coordinates": [-89.0830291564, 41.4677339109]}, "type": "Feature", "properties": {"collection_times": [{"days": "Mon-Fri", "time": "4:00pm"}, {"days": "Sat", "time": "10:30am"}, {"days": "Sun", "time": "Closed"}], "id": "6137200002", "name": "USPS COLLECTION BOX - PO LOBBY", "address": {"city": "TROY GROVE", "state": "IL", "street": "107 E OTTAWA ST", "postcode": "61372"}}},
{"geometry": {"type": "Point", "coordinates": [-89.0090488601, 41.342860132]}, "type": "Feature", "properties": {"collection_times": [{"days": "Mon-Fri", "time": "4:30pm"}, {"days": "Sat", "time": "11:00am"}, {"days": "Sun", "time": "Closed"}], "id": "6137300001", "name": "USPS COLLECTION BOX - BLUE BOX", "address": {"city": "UTICA", "state": "IL", "street": "310 N MILL ST", "postcode": "61373"}}},
{"geometry": {"type": "Point", "coordinates": [-89.0090488601, 41.342860132]}, "type": "Feature", "properties": {"collection_times": [{"days": "Mon-Fri", "time": "4:30pm"}, {"days": "Sat", "time": "11:00am"}, {"days": "Sun", "time": "Closed"}], "id": "6137300002", "name": "USPS COLLECTION BOX - PO LOBBY", "address": {"city": "UTICA", "state": "IL", "street": "310 N MILL ST", "postcode": "61373"}}},
{"geometry": {"type": "Point", "coordinates": [-89.3540041156, 41.551359896]}, "type": "Feature", "properties": {"collection_times": [{"days": "Mon-Fri", "time": "4:00pm"}, {"days": "Sat", "time": "11:00am"}, {"days": "Sun", "time": "Closed"}], "id": "6137400000", "name": "USPS COLLECTION BOX - BLUE BOX", "address": {"city": "VAN ORIN", "state": "IL", "street": "27861 2600 EAST ST", "postcode": "61374"}}},
{"geometry": {"type": "Point", "coordinates": [-89.3540041156, 41.551359896]}, "type": "Feature", "properties": {"collection_times": [{"days": "Mon-Fri", "time": "3:00pm"}, {"days": "Sat", "time": "2:30pm"}, {"days": "Sun", "time": "Closed"}], "id": "6137400001", "name": "USPS COLLECTION BOX - PO LOBBY", "address": {"city": "VAN ORIN", "state": "IL", "street": "27861 2600 EAST ST", "postcode": "61374"}}},
{"geometry": {"type": "Point", "coordinates": [-89.2267997886, 41.0360831982]}, "type": "Feature", "properties": {"collection_times": [{"days": "Mon-Fri", "time": "4:00pm"}, {"days": "Sat", "time": "10:30am"}, {"days": "Sun", "time": "Closed"}], "id": "6137500000", "name": "USPS COLLECTION BOX - BLUE BOX", "address": {"city": "VARNA", "state": "IL", "street": "304 WALNUT ST", "postcode": "61375"}}},
{"geometry": {"type": "Point", "coordinates": [-89.2267997886, 41.0360831982]}, "type": "Feature", "properties": {"collection_times": [{"days": "Mon-Fri", "time": "12:00pm"}, {"days": "Sat", "time": "10:30am"}, {"days": "Sun", "time": "Closed"}], "id": "6137500001", "name": "USPS COLLECTION BOX - PO LOBBY", "address": {"city": "VARNA", "state": "IL", "street": "304 WALNUT ST", "postcode": "61375"}}},
{"geometry": {"type": "Point", "coordinates": [-89.5926303088, 41.557852056]}, "type": "Feature", "properties": {"collection_times": [{"days": "Mon-Fri", "time": "3:30pm"}, {"days": "Sat", "time": "11:00am"}, {"days": "Sun", "time": "Closed"}], "id": "6137600001", "name": "USPS COLLECTION BOX - BLUE BOX", "address": {"city": "WALNUT", "state": "IL", "street": "104 N MAIN ST", "postcode": "61376"}}},
{"geometry": {"type": "Point", "coordinates": [-89.5926303088, 41.557852056]}, "type": "Feature", "properties": {"collection_times": [{"days": "Mon-Fri", "time": "3:30pm"}, {"days": "Sat", "time": "11:00am"}, {"days": "Sun", "time": "Closed"}], "id": "6137600002", "name": "USPS COLLECTION BOX - BLUE BOX", "address": {"city": "WALNUT", "state": "IL", "street": "104 N MAIN ST", "postcode": "61376"}}},
{"geometry": {"type": "Point", "coordinates": [-89.5926303088, 41.557852056]}, "type": "Feature", "properties": {"collection_times": [{"days": "Mon-Fri", "time": "3:45pm"}, {"days": "Sat", "time": "11:00am"}, {"days": "Sun", "time": "Closed"}], "id": "6137600003", "name": "USPS COLLECTION BOX - PO LOBBY", "address": {"city": "WALNUT", "state": "IL", "street": "104 N MAIN ST", "postcode": "61376"}}},
{"geometry": {"type": "Point", "coordinates": [-89.0501615224, 41.054137856]}, "type": "Feature", "properties": {"collection_times": [{"days": "Mon-Fri", "time": "4:30pm"}, {"days": "Sat", "time": "10:00am"}, {"days": "Sun", "time": "Closed"}], "id": "6137700001", "name": "USPS COLLECTION BOX - BLUE BOX", "address": {"city": "WENONA", "state": "IL", "street": "212 N CHESTNUT ST", "postcode": "61377"}}},
{"geometry": {"type": "Point", "coordinates": [-89.0501615224, 41.054137856]}, "type": "Feature", "properties": {"collection_times": [{"days": "Mon-Fri", "time": "3:00pm"}, {"days": "Sat", "time": "10:00am"}, {"days": "Sun", "time": "Closed"}], "id": "6137700002", "name": "USPS COLLECTION BOX - PO LOBBY", "address": {"city": "WENONA", "state": "IL", "street": "212 N CHESTNUT ST", "postcode": "61377"}}},
{"geometry": {"type": "Point", "coordinates": [-89.1481003144, 41.6935946366]}, "type": "Feature", "properties": {"collection_times": [{"days": "Mon-Fri", "time": "3:30pm"}, {"days": "Sat", "time": "10:30am"}, {"days": "Sun", "time": "Closed"}], "id": "6137800001", "name": "USPS COLLECTION BOX - BLUE BOX", "address": {"city": "WEST BROOKLYN", "state": "IL", "street": "2521 JOHNSON ST", "postcode": "61378"}}},
{"geometry": {"type": "Point", "coordinates": [-89.1481003144, 41.6935946366]}, "type": "Feature", "properties": {"collection_times": [{"days": "Mon-Fri", "time": "11:15am"}, {"days": "Sat", "time": "10:30am"}, {"days": "Sun", "time": "Closed"}], "id": "6137800002", "name": "USPS COLLECTION BOX - PO LOBBY", "address": {"city": "WEST BROOKLYN", "state": "IL", "street": "2521 JOHNSON ST", "postcode": "61378"}}},
{"geometry": {"type": "Point", "coordinates": [-89.5837835965, 41.3652800941]}, "type": "Feature", "properties": {"collection_times": [{"days": "Mon-Fri", "time": "3:45pm"}, {"days": "Sat", "time": "10:30am"}, {"days": "Sun", "time": "Closed"}], "id": "6137900001", "name": "USPS COLLECTION BOX - BLUE BOX", "address": {"city": "WYANET", "state": "IL", "street": "106 W MAIN ST", "postcode": "61379"}}},
{"geometry": {"type": "Point", "coordinates": [-89.5837835965, 41.3652800941]}, "type": "Feature", "properties": {"collection_times": [{"days": "Mon-Fri", "time": "3:15pm"}, {"days": "Sat", "time": "10:30am"}, {"days": "Sun", "time": "Closed"}], "id": "6137900002", "name": "USPS COLLECTION BOX - PO LOBBY", "address": {"city": "WYANET", "state": "IL", "street": "106 W MAIN ST", "postcode": "61379"}}}
]}
