{"type": "FeatureCollection", "features": [
{"geometry": {"type": "Point", "coordinates": [-90.366066834, 40.947492238]}, "type": "Feature", "properties": {"collection_times": [{"days": "Mon-Sat", "time": "4:15pm"}, {"days": "Sun", "time": "Closed"}], "id": "6140100000", "name": "USPS COLLECTION BOX - BLUE BOX", "address": {"city": "GALESBURG", "state": "IL", "street": "311 E MAIN ST", "postcode": "61401"}}},
{"geometry": {"type": "Point", "coordinates": [-90.3709309231, 40.9506355306]}, "type": "Feature", "properties": {"collection_times": [{"days": "Mon-Sat", "time": "4:00pm"}, {"days": "Sun", "time": "Closed"}], "id": "6140100003", "name": "USPS COLLECTION BOX - BLUE BOX", "address": {"city": "GALESBURG", "state": "IL", "street": "261 N BROAD ST", "postcode": "61401"}}},
{"geometry": {"type": "Point", "coordinates": [-90.3819364553, 40.9718495039]}, "type": "Feature", "properties": {"collection_times": [{"days": "Mon-Sat", "time": "3:45pm"}, {"days": "Sun", "time": "Closed"}], "id": "6140100005", "name": "USPS COLLECTION BOX - BLUE BOX", "address": {"city": "GALESBURG", "state": "IL", "street": "1975 NATIONAL BLVD", "postcode": "61401"}}},
{"geometry": {"type": "Point", "coordinates": [-90.3831924598, 40.9654270135]}, "type": "Feature", "properties": {"collection_times": [{"days": "Mon-Sat", "time": "4:00pm"}, {"days": "Sun", "time": "Closed"}], "id": "6140100007", "name": "USPS COLLECTION BOX - BLUE BOX", "address": {"city": "GALESBURG", "state": "IL", "street": "1440 N HENDERSON ST", "postcode": "61401"}}},
{"geometry": {"type": "Point", "coordinates": [-90.3831924598, 40.9654270135]}, "type": "Feature", "properties": {"collection_times": [{"days": "Mon-Sat", "time": "4:00pm"}, {"days": "Sun", "time": "Closed"}], "id": "6140100008", "name": "USPS COLLECTION BOX - BLUE BOX", "address": {"city": "GALESBURG", "state": "IL", "street": "1440 N HENDERSON ST", "postcode": "61401"}}},
{"geometry": {"type": "Point", "coordinates": [-90.3831924598, 40.9654270135]}, "type": "Feature", "properties": {"collection_times": [{"days": "Mon-Sat", "time": "4:00pm"}, {"days": "Sun", "time": "Closed"}], "id": "6140100009", "name": "USPS COLLECTION BOX - BLUE BOX", "address": {"city": "GALESBURG", "state": "IL", "street": "1440 N HENDERSON ST", "postcode": "61401"}}},
{"geometry": {"type": "Point", "coordinates": [-90.3831924598, 40.9654270135]}, "type": "Feature", "properties": {"collection_times": [{"days": "Mon-Sat", "time": "4:00pm"}, {"days": "Sun", "time": "Closed"}], "id": "6140100010", "name": "USPS COLLECTION BOX - BLUE BOX", "address": {"city": "GALESBURG", "state": "IL", "street": "1440 N HENDERSON ST", "postcode": "61401"}}},
{"geometry": {"type": "Point", "coordinates": [-90.3291683457, 40.9450333748]}, "type": "Feature", "properties": {"collection_times": [{"days": "Mon-Sat", "time": "3:30pm"}, {"days": "Sun", "time": "Closed"}], "id": "6140100015", "name": "USPS COLLECTION BOX - BLUE BOX", "address": {"city": "GALESBURG", "state": "IL", "street": "180 S SOANGETAHA RD", "postcode": "61401"}}},
{"geometry": {"type": "Point", "coordinates": [-90.3704607264, 40.9463230813]}, "type": "Feature", "properties": {"collection_times": [{"days": "Mon-Sat", "time": "4:15pm"}, {"days": "Sun", "time": "Closed"}], "id": "6140100022", "name": "USPS COLLECTION BOX - BLUE BOX", "address": {"city": "GALESBURG", "state": "IL", "street": "40 E SIMMONS ST", "postcode": "61401"}}},
{"geometry": {"type": "Point", "coordinates": [-90.3689072431, 40.9510331099]}, "type": "Feature", "properties": {"collection_times": [{"days": "Mon-Fri", "time": "5:30pm"}, {"days": "Sat", "time": "5:00pm"}, {"days": "Sun", "time": "Closed"}], "id": "6140100024", "name": "USPS COLLECTION BOX - EXPRESS", "address": {"city": "GALESBURG", "state": "IL", "street": "476 E MAIN ST", "postcode": "61401"}}},
{"geometry": {"type": "Point", "coordinates": [-90.3628775014, 40.9473588541]}, "type": "Feature", "properties": {"collection_times": [{"days": "Mon-Fri", "time": "5:30pm"}, {"days": "Sat", "time": "5:00pm"}, {"days": "Sun", "time": "Closed"}], "id": "6140100025", "name": "USPS COLLECTION BOX - BLUE BOX", "address": {"city": "GALESBURG", "state": "IL", "street": "476 E MAIN ST", "postcode": "61401"}}},
{"geometry": {"type": "Point", "coordinates": [-90.3628775014, 40.9473588541]}, "type": "Feature", "properties": {"collection_times": [{"days": "Mon-Fri", "time": "5:30pm"}, {"days": "Sat", "time": "5:00pm"}, {"days": "Sun", "time": "Closed"}], "id": "6140100026", "name": "USPS COLLECTION BOX - BLUE BOX", "address": {"city": "GALESBURG", "state": "IL", "street": "476 E MAIN ST", "postcode": "61401"}}},
{"geometry": {"type": "Point", "coordinates": [-90.3628775014, 40.9473588541]}, "type": "Feature", "properties": {"collection_times": [{"days": "Mon-Fri", "time": "5:30pm"}, {"days": "Sat", "time": "4:30pm"}, {"days": "Sun", "time": "Closed"}], "id": "6140100029", "name": "USPS COLLECTION BOX - PO LOBBY", "address": {"city": "GALESBURG", "state": "IL", "street": "476 E MAIN ST", "postcode": "61401"}}},
{"geometry": {"type": "Point", "coordinates": [-90.3628775014, 40.9473588541]}, "type": "Feature", "properties": {"collection_times": [{"days": "Mon-Fri", "time": "5:30pm"}, {"days": "Sat", "time": "4:30pm"}, {"days": "Sun", "time": "Closed"}], "id": "6140100030", "name": "USPS COLLECTION BOX - PO LOBBY", "address": {"city": "GALESBURG", "state": "IL", "street": "476 E MAIN ST", "postcode": "61401"}}},
{"geometry": {"type": "Point", "coordinates": [-90.3628775014, 40.9473588541]}, "type": "Feature", "properties": {"collection_times": [{"days": "Mon-Fri", "time": "5:30pm"}, {"days": "Sat", "time": "4:30pm"}, {"days": "Sun", "time": "Closed"}], "id": "6140100031", "name": "USPS COLLECTION BOX - PO LOBBY", "address": {"city": "GALESBURG", "state": "IL", "street": "476 E MAIN ST", "postcode": "61401"}}},
{"geometry": {"type": "Point", "coordinates": [-90.3661264779, 40.9561259387]}, "type": "Feature", "properties": {"collection_times": [{"days": "Mon-Sat", "time": "4:00pm"}, {"days": "Sun", "time": "Closed"}], "id": "6140100033", "name": "USPS COLLECTION BOX - BLUE BOX", "address": {"city": "GALESBURG", "state": "IL", "street": "765 N KELLOGG ST", "postcode": "61401"}}},
{"geometry": {"type": "Point", "coordinates": [-90.3989530813, 40.8024648567]}, "type": "Feature", "properties": {"collection_times": [{"days": "Mon-Fri", "time": "5:00pm"}, {"days": "Sat", "time": "2:30pm"}, {"days": "Sun", "time": "Closed"}], "id": "6141000000", "name": "USPS COLLECTION BOX - BLUE BOX", "address": {"city": "ABINGDON", "state": "IL", "street": "123 W MEEK ST", "postcode": "61410"}}},
{"geometry": {"type": "Point", "coordinates": [-90.3989530813, 40.8024648567]}, "type": "Feature", "properties": {"collection_times": [{"days": "Mon-Fri", "time": "5:00pm"}, {"days": "Sat", "time": "2:30pm"}, {"days": "Sun", "time": "Closed"}], "id": "6141000001", "name": "USPS COLLECTION BOX - BLUE BOX", "address": {"city": "ABINGDON", "state": "IL", "street": "123 W MEEK ST", "postcode": "61410"}}},
{"geometry": {"type": "Point", "coordinates": [-90.3989530813, 40.8024648567]}, "type": "Feature", "properties": {"collection_times": [{"days": "Mon-Fri", "time": "5:00pm"}, {"days": "Sat", "time": "2:30pm"}, {"days": "Sun", "time": "Closed"}], "id": "6141000012", "name": "USPS COLLECTION BOX - PO LOBBY", "address": {"city": "ABINGDON", "state": "IL", "street": "123 W MEEK ST", "postcode": "61410"}}},
{"geometry": {"type": "Point", "coordinates": [-90.4967958884, 40.4210731726]}, "type": "Feature", "properties": {"collection_times": [{"days": "Mon-Fri", "time": "4:00pm"}, {"days": "Sat", "time": "9:15am"}, {"days": "Sun", "time": "Closed"}], "id": "6141100000", "name": "USPS COLLECTION BOX - BLUE BOX", "address": {"city": "ADAIR", "state": "IL", "street": "201 W MAIN ST", "postcode": "61411"}}},
{"geometry": {"type": "Point", "coordinates": [-90.4967958884, 40.4210731726]}, "type": "Feature", "properties": {"collection_times": [{"days": "Mon-Fri", "time": "12:00pm"}, {"days": "Sat", "time": "9:15am"}, {"days": "Sun", "time": "Closed"}], "id": "6141100001", "name": "USPS COLLECTION BOX - PO LOBBY", "address": {"city": "ADAIR", "state": "IL", "street": "201 W MAIN ST", "postcode": "61411"}}},
{"geometry": {"type": "Point", "coordinates": [-90.5557613561, 41.0617918725]}, "type": "Feature", "properties": {"collection_times": [{"days": "Mon-Fri", "time": "4:00pm"}, {"days": "Sat", "time": "11:00am"}, {"days": "Sun", "time": "Closed"}], "id": "6141200002", "name": "USPS COLLECTION BOX - BLUE BOX", "address": {"city": "ALEXIS", "state": "IL", "street": "101 S MAIN ST", "postcode": "61412"}}},
{"geometry": {"type": "Point", "coordinates": [-90.5557613561, 41.0617918725]}, "type": "Feature", "properties": {"collection_times": [{"days": "Mon-Fri", "time": "3:00pm"}, {"days": "Sat", "time": "11:00am"}, {"days": "Sun", "time": "Closed"}], "id": "6141200003", "name": "USPS COLLECTION BOX - PO LOBBY", "address": {"city": "ALEXIS", "state": "IL", "street": "101 S MAIN ST", "postcode": "61412"}}},
{"geometry": {"type": "Point", "coordinates": [-90.3801610552, 41.191533825]}, "type": "Feature", "properties": {"collection_times": [{"days": "Mon-Fri", "time": "3:30pm"}, {"days": "Sat", "time": "11:00am"}, {"days": "Sun", "time": "Closed"}], "id": "6141300001", "name": "USPS COLLECTION BOX - BLUE BOX", "address": {"city": "ALPHA", "state": "IL", "street": "108 W D ST", "postcode": "61413"}}},
{"geometry": {"type": "Point", "coordinates": [-90.3801610552, 41.191533825]}, "type": "Feature", "properties": {"collection_times": [{"days": "Mon-Fri", "time": "2:15pm"}, {"days": "Sat", "time": "11:00am"}, {"days": "Sun", "time": "Closed"}], "id": "6141300002", "name": "USPS COLLECTION BOX - PO LOBBY", "address": {"city": "ALPHA", "state": "IL", "street": "108 W D ST", "postcode": "61413"}}},
{"geometry": {"type": "Point", "coordinates": [-90.1640542419, 41.1143644021]}, "type": "Feature", "properties": {"collection_times": [{"days": "Mon-Fri", "time": "3:45pm"}, {"days": "Sat", "time": "9:30am"}, {"days": "Sun", "time": "Closed"}], "id": "6141400001", "name": "USPS COLLECTION BOX - BLUE BOX", "address": {"city": "ALTONA", "state": "IL", "street": "111 S DEPOT ST", "postcode": "61414"}}},
{"geometry": {"type": "Point", "coordinates": [-90.1640542419, 41.1143644021]}, "type": "Feature", "properties": {"collection_times": [{"days": "Mon-Fri", "time": "11:00am"}, {"days": "Sat", "time": "8:45am"}, {"days": "Sun", "time": "Closed"}], "id": "6141400002", "name": "USPS COLLECTION BOX - PO LOBBY", "address": {"city": "ALTONA", "state": "IL", "street": "111 S DEPOT ST", "postcode": "61414"}}},
{"geometry": {"type": "Point", "coordinates": [-90.4364614357, 40.6619192256]}, "type": "Feature", "properties": {"collection_times": [{"days": "Mon-Fri", "time": "4:00pm"}, {"days": "Sat", "time": "10:45am"}, {"days": "Sun", "time": "Closed"}], "id": "6141500001", "name": "USPS COLLECTION BOX - BLUE BOX", "address": {"city": "AVON", "state": "IL", "street": "101 E WASHINGTON ST", "postcode": "61415"}}},
{"geometry": {"type": "Point", "coordinates": [-90.4364614357, 40.6619192256]}, "type": "Feature", "properties": {"collection_times": [{"days": "Mon-Fri", "time": "2:30pm"}, {"days": "Sat", "time": "10:30am"}, {"days": "Sun", "time": "Closed"}], "id": "6141500002", "name": "USPS COLLECTION BOX - PO LOBBY", "address": {"city": "AVON", "state": "IL", "street": "101 E WASHINGTON ST", "postcode": "61415"}}},
{"geometry": {"type": "Point", "coordinates": [-90.5643399987, 40.4949244003]}, "type": "Feature", "properties": {"collection_times": [{"days": "Mon-Fri", "time": "4:00pm"}, {"days": "Sat", "time": "9:45am"}, {"days": "Sun", "time": "Closed"}], "id": "6141600000", "name": "USPS COLLECTION BOX - BLUE BOX", "address": {"city": "BARDOLPH", "state": "IL", "street": "202 S CHESTNUT ST", "postcode": "61416"}}},
{"geometry": {"type": "Point", "coordinates": [-90.5643399987, 40.4949244003]}, "type": "Feature", "properties": {"collection_times": [{"days": "Mon-Sat", "time": "3:00pm"}, {"days": "Sun", "time": "Closed"}], "id": "6141600001", "name": "USPS COLLECTION BOX - PO LOBBY", "address": {"city": "BARDOLPH", "state": "IL", "street": "202 S CHESTNUT ST", "postcode": "61416"}}},
{"geometry": {"type": "Point", "coordinates": [-90.5381332384, 40.7992302626]}, "type": "Feature", "properties": {"collection_times": [{"days": "Mon-Sat", "time": "10:00am"}, {"days": "Sun", "time": "Closed"}], "id": "6141700000", "name": "USPS COLLECTION BOX - BLUE BOX", "address": {"city": "BERWICK", "state": "IL", "street": "1162 130TH ST", "postcode": "61417"}}},
{"geometry": {"type": "Point", "coordinates": [-90.5381332384, 40.7992302626]}, "type": "Feature", "properties": {"collection_times": [{"days": "Mon-Sat", "time": "10:00am"}, {"days": "Sun", "time": "Closed"}], "id": "6141700001", "name": "USPS COLLECTION BOX - PO LOBBY", "address": {"city": "BERWICK", "state": "IL", "street": "1162 130TH ST", "postcode": "61417"}}},
{"geometry": {"type": "Point", "coordinates": [-90.8628684017, 40.8549011846]}, "type": "Feature", "properties": {"collection_times": [{"days": "Mon-Fri", "time": "4:00pm"}, {"days": "Sat", "time": "12:30pm"}, {"days": "Sun", "time": "Closed"}], "id": "6141800001", "name": "USPS COLLECTION BOX - BLUE BOX", "address": {"city": "BIGGSVILLE", "state": "IL", "street": "202 E MAIN ST", "postcode": "61418"}}},
{"geometry": {"type": "Point", "coordinates": [-90.8628684017, 40.8549011846]}, "type": "Feature", "properties": {"collection_times": [{"days": "Mon-Fri", "time": "4:00pm"}, {"days": "Sat", "time": "12:30pm"}, {"days": "Sun", "time": "Closed"}], "id": "6141800002", "name": "USPS COLLECTION BOX - PO LOBBY", "address": {"city": "BIGGSVILLE", "state": "IL", "street": "202 E MAIN ST", "postcode": "61418"}}},
{"geometry": {"type": "Point", "coordinates": [-90.1187757474, 41.2003052312]}, "type": "Feature", "properties": {"collection_times": [{"days": "Mon-Fri", "time": "4:00pm"}, {"days": "Sat", "time": "1:00pm"}, {"days": "Sun", "time": "Closed"}], "id": "6141900001", "name": "USPS COLLECTION BOX - PO LOBBY", "address": {"city": "BISHOP HILL", "state": "IL", "street": "107 N BISHOP HILL ST", "postcode": "61419"}}},
{"geometry": {"type": "Point", "coordinates": [-90.8666087684, 40.5542525901]}, "type": "Feature", "properties": {"collection_times": [{"days": "Mon-Fri", "time": "4:15pm"}, {"days": "Sat", "time": "10:00am"}, {"days": "Sun", "time": "Closed"}], "id": "6142000001", "name": "USPS COLLECTION BOX - BLUE BOX", "address": {"city": "BLANDINSVILLE", "state": "IL", "street": "123 E JEFFERSON ST", "postcode": "61420"}}},
{"geometry": {"type": "Point", "coordinates": [-90.8666087684, 40.5542525901]}, "type": "Feature", "properties": {"collection_times": [{"days": "Mon-Fri", "time": "2:15pm"}, {"days": "Sat", "time": "10:00am"}, {"days": "Sun", "time": "Closed"}], "id": "6142000002", "name": "USPS COLLECTION BOX - PO LOBBY", "address": {"city": "BLANDINSVILLE", "state": "IL", "street": "123 E JEFFERSON ST", "postcode": "61420"}}},
{"geometry": {"type": "Point", "coordinates": [-89.6583063516, 41.177382462]}, "type": "Feature", "properties": {"collection_times": [{"days": "Mon-Fri", "time": "3:15pm"}, {"days": "Sat", "time": "10:30am"}, {"days": "Sun", "time": "Closed"}], "id": "6142100001", "name": "USPS COLLECTION BOX - BLUE BOX", "address": {"city": "BRADFORD", "state": "IL", "street": "129 W MAIN ST", "postcode": "61421"}}},
{"geometry": {"type": "Point", "coordinates": [-89.6583063516, 41.177382462]}, "type": "Feature", "properties": {"collection_times": [{"days": "Mon-Fri", "time": "3:00pm"}, {"days": "Sat", "time": "10:30am"}, {"days": "Sun", "time": "Closed"}], "id": "6142100003", "name": "USPS COLLECTION BOX - PO LOBBY", "address": {"city": "BRADFORD", "state": "IL", "street": "129 W MAIN ST", "postcode": "61421"}}},
{"geometry": {"type": "Point", "coordinates": [-90.5067668106, 40.5518068293]}, "type": "Feature", "properties": {"collection_times": [{"days": "Mon-Fri", "time": "5:00pm"}, {"days": "Sat", "time": "11:30am"}, {"days": "Sun", "time": "Closed"}], "id": "6142200001", "name": "USPS COLLECTION BOX - BLUE BOX", "address": {"city": "BUSHNELL", "state": "IL", "street": "223 E HAIL ST", "postcode": "61422"}}},
{"geometry": {"type": "Point", "coordinates": [-90.5067668106, 40.5518068293]}, "type": "Feature", "properties": {"collection_times": [{"days": "Mon-Fri", "time": "5:00pm"}, {"days": "Sat", "time": "11:30am"}, {"days": "Sun", "time": "Closed"}], "id": "6142200002", "name": "USPS COLLECTION BOX - BLUE BOX", "address": {"city": "BUSHNELL", "state": "IL", "street": "223 E HAIL ST", "postcode": "61422"}}},
{"geometry": {"type": "Point", "coordinates": [-90.4992624478, 40.5553725256]}, "type": "Feature", "properties": {"collection_times": [{"days": "Mon-Sat", "time": "9:00am"}, {"days": "Sun", "time": "Closed"}], "id": "6142200004", "name": "USPS COLLECTION BOX - BLUE BOX", "address": {"city": "BUSHNELL", "state": "IL", "street": "1001 COLE ST", "postcode": "61422"}}},
{"geometry": {"type": "Point", "coordinates": [-90.5087500941, 40.5521966863]}, "type": "Feature", "properties": {"collection_times": [{"days": "Mon-Fri", "time": "3:00pm"}, {"days": "Sat", "time": "2:00pm"}, {"days": "Sun", "time": "Closed"}], "id": "6142200010", "name": "USPS COLLECTION BOX - BLUE BOX", "address": {"city": "BUSHNELL", "state": "IL", "street": "458 E MAIN ST", "postcode": "61422"}}},
{"geometry": {"type": "Point", "coordinates": [-90.5067668106, 40.5518068293]}, "type": "Feature", "properties": {"collection_times": [{"days": "Mon-Sat", "time": "5:15pm"}, {"days": "Sun", "time": "Closed"}], "id": "6142200011", "name": "USPS COLLECTION BOX - PO LOBBY", "address": {"city": "BUSHNELL", "state": "IL", "street": "223 E HAIL ST", "postcode": "61422"}}},
{"geometry": {"type": "Point", "coordinates": [-90.5138789087, 40.8887020922]}, "type": "Feature", "properties": {"collection_times": [{"days": "Mon-Fri", "time": "4:00pm"}, {"days": "Sat", "time": "12:30pm"}, {"days": "Sun", "time": "Closed"}], "id": "6142300001", "name": "USPS COLLECTION BOX - BLUE BOX", "address": {"city": "CAMERON", "state": "IL", "street": "559 CARE ST", "postcode": "61423"}}},
{"geometry": {"type": "Point", "coordinates": [-90.5138789087, 40.8887020922]}, "type": "Feature", "properties": {"collection_times": [{"days": "Mon-Fri", "time": "4:00pm"}, {"days": "Sat", "time": "12:30pm"}, {"days": "Sun", "time": "Closed"}], "id": "6142300002", "name": "USPS COLLECTION BOX - PO LOBBY", "address": {"city": "CAMERON", "state": "IL", "street": "559 CARE ST", "postcode": "61423"}}},
{"geometry": {"type": "Point", "coordinates": [-89.6331713211, 41.077027978]}, "type": "Feature", "properties": {"collection_times": [{"days": "Mon-Sat", "time": "12:00pm"}, {"days": "Sun", "time": "Closed"}], "id": "6142400000", "name": "USPS COLLECTION BOX - BLUE BOX", "address": {"city": "CAMP GROVE", "state": "IL", "street": "1060 2ND ST", "postcode": "61424"}}},
{"geometry": {"type": "Point", "coordinates": [-89.6331713211, 41.077027978]}, "type": "Feature", "properties": {"collection_times": [{"days": "Mon-Fri", "time": "9:30am"}, {"days": "Sat", "time": "12:00pm"}, {"days": "Sun", "time": "Closed"}], "id": "6142400001", "name": "USPS COLLECTION BOX - PO LOBBY", "address": {"city": "CAMP GROVE", "state": "IL", "street": "1060 2ND ST", "postcode": "61424"}}},
{"geometry": {"type": "Point", "coordinates": [-91.0609622245, 40.7624121864]}, "type": "Feature", "properties": {"collection_times": [{"days": "Mon-Fri", "time": "3:45pm"}, {"days": "Sat", "time": "9:30am"}, {"days": "Sun", "time": "Closed"}], "id": "6142500000", "name": "USPS COLLECTION BOX - BLUE BOX", "address": {"city": "CARMAN", "state": "IL", "street": "1 MAIN ST", "postcode": "61425"}}},
{"geometry": {"type": "Point", "coordinates": [-91.0609622245, 40.7624121864]}, "type": "Feature", "properties": {"collection_times": [{"days": "Mon-Sat", "time": "9:30am"}, {"days": "Sun", "time": "Closed"}], "id": "6142500001", "name": "USPS COLLECTION BOX - PO LOBBY", "address": {"city": "CARMAN", "state": "IL", "street": "1 MAIN ST", "postcode": "61425"}}},
{"geometry": {"type": "Point", "coordinates": [-89.7063119128, 41.1170955361]}, "type": "Feature", "properties": {"collection_times": [{"days": "Mon-Sat", "time": "10:00am"}, {"days": "Sun", "time": "Closed"}], "id": "6142600000", "name": "USPS COLLECTION BOX - BLUE BOX", "address": {"city": "CASTLETON", "state": "IL", "street": "219 MAIN ST", "postcode": "61426"}}},
{"geometry": {"type": "Point", "coordinates": [-89.7063119128, 41.1170955361]}, "type": "Feature", "properties": {"collection_times": [{"days": "Mon-Sat", "time": "10:00am"}, {"days": "Sun", "time": "Closed"}], "id": "6142600001", "name": "USPS COLLECTION BOX - PO LOBBY", "address": {"city": "CASTLETON", "state": "IL", "street": "219 MAIN ST", "postcode": "61426"}}},
{"geometry": {"type": "Point", "coordinates": [-90.1958138901, 40.4936456777]}, "type": "Feature", "properties": {"collection_times": [{"days": "Mon-Fri", "time": "3:45pm"}, {"days": "Sat", "time": "10:15am"}, {"days": "Sun", "time": "Closed"}], "id": "6142700000", "name": "USPS COLLECTION BOX - BLUE BOX", "address": {"city": "CUBA", "state": "IL", "street": "200 S 3RD ST", "postcode": "61427"}}},
{"geometry": {"type": "Point", "coordinates": [-90.1956611304, 40.492131192]}, "type": "Feature", "properties": {"collection_times": [{"days": "Mon-Fri", "time": "4:00pm"}, {"days": "Sat", "time": "10:15am"}, {"days": "Sun", "time": "Closed"}], "id": "6142700002", "name": "USPS COLLECTION BOX - PO LOBBY", "address": {"city": "CUBA", "state": "IL", "street": "307 E JEFFERSON ST", "postcode": "61427"}}},
{"geometry": {"type": "Point", "coordinates": [-90.1098951848, 40.9388204856]}, "type": "Feature", "properties": {"collection_times": [{"days": "Mon-Fri", "time": "4:00pm"}, {"days": "Sat", "time": "12:45pm"}, {"days": "Sun", "time": "Closed"}], "id": "6142800001", "name": "USPS COLLECTION BOX - BLUE BOX", "address": {"city": "DAHINDA", "state": "IL", "street": "1453 KNOX HIGHWAY 15", "postcode": "61428"}}},
{"geometry": {"type": "Point", "coordinates": [-90.1098951848, 40.9388204856]}, "type": "Feature", "properties": {"collection_times": [{"days": "Mon-Fri", "time": "4:00pm"}, {"days": "Sat", "time": "12:45pm"}, {"days": "Sun", "time": "Closed"}], "id": "6142800002", "name": "USPS COLLECTION BOX - PO LOBBY", "address": {"city": "DAHINDA", "state": "IL", "street": "1453 KNOX HIGHWAY 15", "postcode": "61428"}}},
{"geometry": {"type": "Point", "coordinates": [-90.3049284205, 40.9411512033]}, "type": "Feature", "properties": {"collection_times": [{"days": "Mon-Fri", "time": "4:00pm"}, {"days": "Sat", "time": "9:30am"}, {"days": "Sun", "time": "Closed"}], "id": "6143000000", "name": "USPS COLLECTION BOX - BLUE BOX", "address": {"city": "EAST GALESBURG", "state": "IL", "street": "4071/2 S STATE ST", "postcode": "61430"}}},
{"geometry": {"type": "Point", "coordinates": [-90.3049284205, 40.9411512033]}, "type": "Feature", "properties": {"collection_times": [{"days": "Mon-Fri", "time": "4:00pm"}, {"days": "Sat", "time": "12:00pm"}, {"days": "Sun", "time": "Closed"}], "id": "6143000001", "name": "USPS COLLECTION BOX - PO LOBBY", "address": {"city": "EAST GALESBURG", "state": "IL", "street": "4071/2 S STATE ST", "postcode": "61430"}}},
{"geometry": {"type": "Point", "coordinates": [-90.3052845865, 40.6267878184]}, "type": "Feature", "properties": {"collection_times": [{"days": "Mon-Fri", "time": "3:30pm"}, {"days": "Sat", "time": "9:00am"}, {"days": "Sun", "time": "Closed"}], "id": "6143100000", "name": "USPS COLLECTION BOX - BLUE BOX", "address": {"city": "ELLISVILLE", "state": "IL", "street": "100 E MAIN ST", "postcode": "61431"}}},
{"geometry": {"type": "Point", "coordinates": [-90.3052845865, 40.6267878184]}, "type": "Feature", "properties": {"collection_times": [{"days": "Mon-Fri", "time": "10:30am"}, {"days": "Sat", "time": "9:00am"}, {"days": "Sun", "time": "Closed"}], "id": "6143100001", "name": "USPS COLLECTION BOX - PO LOBBY", "address": {"city": "ELLISVILLE", "state": "IL", "street": "100 E MAIN ST", "postcode": "61431"}}},
{"geometry": {"type": "Point", "coordinates": [-90.1643351261, 40.633401074]}, "type": "Feature", "properties": {"collection_times": [{"days": "Mon-Fri", "time": "3:45pm"}, {"days": "Sat", "time": "1:00pm"}, {"days": "Sun", "time": "Closed"}], "id": "6143200001", "name": "USPS COLLECTION BOX - BLUE BOX", "address": {"city": "FAIRVIEW", "state": "IL", "street": "520 CARTER ST", "postcode": "61432"}}},
{"geometry": {"type": "Point", "coordinates": [-90.1643351261, 40.633401074]}, "type": "Feature", "properties": {"collection_times": [{"days": "Mon-Fri", "time": "3:45pm"}, {"days": "Sat", "time": "1:00pm"}, {"days": "Sun", "time": "Closed"}], "id": "6143200002", "name": "USPS COLLECTION BOX - PO LOBBY", "address": {"city": "FAIRVIEW", "state": "IL", "street": "520 CARTER ST", "postcode": "61432"}}},
{"geometry": {"type": "Point", "coordinates": [-90.1895649399, 40.625654525]}, "type": "Feature", "properties": {"collection_times": [{"days": "Mon-Fri", "time": "3:00pm"}, {"days": "Sat", "time": "9:30am"}, {"days": "Sun", "time": "Closed"}], "id": "6143300000", "name": "USPS COLLECTION BOX - BLUE BOX", "address": {"city": "FIATT", "state": "IL", "street": "14279 E STATE ROUTE 9", "postcode": "61433"}}},
{"geometry": {"type": "Point", "coordinates": [-90.1895649399, 40.625654525]}, "type": "Feature", "properties": {"collection_times": [{"days": "Mon-Fri", "time": "3:00pm"}, {"days": "Sat", "time": "9:30am"}, {"days": "Sun", "time": "Closed"}], "id": "6143300001", "name": "USPS COLLECTION BOX - PO LOBBY", "address": {"city": "FIATT", "state": "IL", "street": "14279 E STATE ROUTE 9", "postcode": "61433"}}},
{"geometry": {"type": "Point", "coordinates": [-90.0463510269, 41.166258442]}, "type": "Feature", "properties": {"collection_times": [{"days": "Mon-Fri", "time": "4:15pm"}, {"days": "Sat", "time": "3:00pm"}, {"days": "Sun", "time": "Closed"}], "id": "6143400000", "name": "USPS COLLECTION BOX - BLUE BOX", "address": {"city": "GALVA", "state": "IL", "street": "116 EXCHANGE ST", "postcode": "61434"}}},
{"geometry": {"type": "Point", "coordinates": [-90.0463510269, 41.166258442]}, "type": "Feature", "properties": {"collection_times": [{"days": "Mon-Fri", "time": "4:15pm"}, {"days": "Sat", "time": "3:00pm"}, {"days": "Sun", "time": "Closed"}], "id": "6143400001", "name": "USPS COLLECTION BOX - PO LOBBY", "address": {"city": "GALVA", "state": "IL", "street": "116 EXCHANGE ST", "postcode": "61434"}}},
{"geometry": {"type": "Point", "coordinates": [-90.0402466821, 41.171533449]}, "type": "Feature", "properties": {"collection_times": [{"days": "Mon-Fri", "time": "4:15pm"}, {"days": "Sat", "time": "3:00pm"}, {"days": "Sun", "time": "Closed"}], "id": "6143400002", "name": "USPS COLLECTION BOX - EXPRESS", "address": {"city": "GALVA", "state": "IL", "street": "116 EXCHANGE ST", "postcode": "61434"}}},
{"geometry": {"type": "Point", "coordinates": [-90.0470568133, 41.1652557195]}, "type": "Feature", "properties": {"collection_times": [{"days": "Mon-Fri", "time": "4:00pm"}, {"days": "Sat", "time": "3:00pm"}, {"days": "Sun", "time": "Closed"}], "id": "6143400003", "name": "USPS COLLECTION BOX - BLUE BOX", "address": {"city": "GALVA", "state": "IL", "street": "109 SW 4TH AVE", "postcode": "61434"}}},
{"geometry": {"type": "Point", "coordinates": [-90.0470568133, 41.1652557195]}, "type": "Feature", "properties": {"collection_times": [{"days": "Mon-Fri", "time": "4:00pm"}, {"days": "Sat", "time": "3:00pm"}, {"days": "Sun", "time": "Closed"}], "id": "6143400004", "name": "USPS COLLECTION BOX - BLUE BOX", "address": {"city": "GALVA", "state": "IL", "street": "109 SW 4TH AVE", "postcode": "61434"}}},
{"geometry": {"type": "Point", "coordinates": [-90.0125337065, 41.127214367]}, "type": "Feature", "properties": {"collection_times": [{"days": "Mon-Sat", "time": "9:30am"}, {"days": "Sun", "time": "Closed"}], "id": "6143400013", "name": "USPS COLLECTION BOX - BLUE BOX", "address": {"city": "GALVA", "state": "IL", "street": "26228 BLACK HAWK RD", "postcode": "61434"}}},
{"geometry": {"type": "Point", "coordinates": [-90.0463510269, 41.166258442]}, "type": "Feature", "properties": {"collection_times": [{"days": "Mon-Fri", "time": "4:15pm"}, {"days": "Sat", "time": "3:00pm"}, {"days": "Sun", "time": "Closed"}], "id": "6143400014", "name": "USPS COLLECTION BOX - PO LOBBY", "address": {"city": "GALVA", "state": "IL", "street": "116 EXCHANGE ST", "postcode": "61434"}}},
{"geometry": {"type": "Point", "coordinates": [-90.2017707877, 40.8605753896]}, "type": "Feature", "properties": {"collection_times": [{"days": "Mon-Fri", "time": "3:45pm"}, {"days": "Sat", "time": "10:00am"}, {"days": "Sun", "time": "Closed"}], "id": "6143600001", "name": "USPS COLLECTION BOX - BLUE BOX", "address": {"city": "GILSON", "state": "IL", "street": "1016 MOSS ST", "postcode": "61436"}}},
{"geometry": {"type": "Point", "coordinates": [-90.2017707877, 40.8605753896]}, "type": "Feature", "properties": {"collection_times": [{"days": "Mon-Fri", "time": "11:00am"}, {"days": "Sat", "time": "9:45am"}, {"days": "Sun", "time": "Closed"}], "id": "6143600002", "name": "USPS COLLECTION BOX - PO LOBBY", "address": {"city": "GILSON", "state": "IL", "street": "1016 MOSS ST", "postcode": "61436"}}},
{"geometry": {"type": "Point", "coordinates": [-90.9821512799, 40.8474134913]}, "type": "Feature", "properties": {"collection_times": [{"days": "Mon-Fri", "time": "4:00pm"}, {"days": "Sat", "time": "12:30pm"}, {"days": "Sun", "time": "Closed"}], "id": "6143700001", "name": "USPS COLLECTION BOX - BLUE BOX", "address": {"city": "GLADSTONE", "state": "IL", "street": "306 S MAIN ST", "postcode": "61437"}}},
{"geometry": {"type": "Point", "coordinates": [-90.9821512799, 40.8474134913]}, "type": "Feature", "properties": {"collection_times": [{"days": "Mon-Fri", "time": "4:00pm"}, {"days": "Sat", "time": "12:30pm"}, {"days": "Sun", "time": "Closed"}], "id": "6143700002", "name": "USPS COLLECTION BOX - PO LOBBY", "address": {"city": "GLADSTONE", "state": "IL", "street": "306 S MAIN ST", "postcode": "61437"}}},
{"geometry": {"type": "Point", "coordinates": [-90.676684498, 40.5576438956]}, "type": "Feature", "properties": {"collection_times": [{"days": "Mon-Fri", "time": "4:00pm"}, {"days": "Sat", "time": "12:30pm"}, {"days": "Sun", "time": "Closed"}], "id": "6143800000", "name": "USPS COLLECTION BOX - BLUE BOX", "address": {"city": "GOOD HOPE", "state": "IL", "street": "125 W MAIN ST", "postcode": "61438"}}},
{"geometry": {"type": "Point", "coordinates": [-90.676684498, 40.5576438956]}, "type": "Feature", "properties": {"collection_times": [{"days": "Mon-Fri", "time": "4:00pm"}, {"days": "Sat", "time": "12:30pm"}, {"days": "Sun", "time": "Closed"}], "id": "6143800001", "name": "USPS COLLECTION BOX - PO LOBBY", "address": {"city": "GOOD HOPE", "state": "IL", "street": "125 W MAIN ST", "postcode": "61438"}}},
{"geometry": {"type": "Point", "coordinates": [-90.3551122184, 41.0260915764]}, "type": "Feature", "properties": {"collection_times": [{"days": "Mon-Fri", "time": "3:15pm"}, {"days": "Sat", "time": "9:00am"}, {"days": "Sun", "time": "Closed"}], "id": "6143900000", "name": "USPS COLLECTION BOX - BLUE BOX", "address": {"city": "HENDERSON", "state": "IL", "street": "206 N MAIN ST", "postcode": "61439"}}},
{"geometry": {"type": "Point", "coordinates": [-90.3551122184, 41.0260915764]}, "type": "Feature", "properties": {"collection_times": [{"days": "Mon-Fri", "time": "1:00pm"}, {"days": "Sat", "time": "9:30am"}, {"days": "Sun", "time": "Closed"}], "id": "6143900001", "name": "USPS COLLECTION BOX - PO LOBBY", "address": {"city": "HENDERSON", "state": "IL", "street": "206 N MAIN ST", "postcode": "61439"}}},
{"geometry": {"type": "Point", "coordinates": [-90.6071782346, 40.3275584063]}, "type": "Feature", "properties": {"collection_times": [{"days": "Mon-Fri", "time": "3:45pm"}, {"days": "Sat", "time": "11:00am"}, {"days": "Sun", "time": "Closed"}], "id": "6144000001", "name": "USPS COLLECTION BOX - BLUE BOX", "address": {"city": "INDUSTRY", "state": "IL", "street": "101 E MAIN ST", "postcode": "61440"}}},
{"geometry": {"type": "Point", "coordinates": [-90.6071782346, 40.3275584063]}, "type": "Feature", "properties": {"collection_times": [{"days": "Mon-Fri", "time": "4:00pm"}, {"days": "Sat", "time": "1:00pm"}, {"days": "Sun", "time": "Closed"}], "id": "6144000002", "name": "USPS COLLECTION BOX - PO LOBBY", "address": {"city": "INDUSTRY", "state": "IL", "street": "101 E MAIN ST", "postcode": "61440"}}},
{"geometry": {"type": "Point", "coordinates": [-90.3250766424, 40.3515148992]}, "type": "Feature", "properties": {"collection_times": [{"days": "Mon-Fri", "time": "4:00pm"}, {"days": "Sat", "time": "12:45pm"}, {"days": "Sun", "time": "Closed"}], "id": "6144100001", "name": "USPS COLLECTION BOX - PO LOBBY", "address": {"city": "IPAVA", "state": "IL", "street": "40 E MAIN ST", "postcode": "61441"}}},
{"geometry": {"type": "Point", "coordinates": [-90.3250766424, 40.3515148992]}, "type": "Feature", "properties": {"collection_times": [{"days": "Mon-Fri", "time": "4:00pm"}, {"days": "Sat", "time": "10:00am"}, {"days": "Sun", "time": "Closed"}], "id": "6144100002", "name": "USPS COLLECTION BOX - BLUE BOX", "address": {"city": "IPAVA", "state": "IL", "street": "40 E MAIN ST", "postcode": "61441"}}},
{"geometry": {"type": "Point", "coordinates": [-90.9428205184, 41.1005558566]}, "type": "Feature", "properties": {"collection_times": [{"days": "Mon-Fri", "time": "3:30pm"}, {"days": "Sat", "time": "12:45pm"}, {"days": "Sun", "time": "Closed"}], "id": "6144200001", "name": "USPS COLLECTION BOX - BLUE BOX", "address": {"city": "KEITHSBURG", "state": "IL", "street": "103 S 4TH ST", "postcode": "61442"}}},
{"geometry": {"type": "Point", "coordinates": [-90.9428205184, 41.1005558566]}, "type": "Feature", "properties": {"collection_times": [{"days": "Mon-Fri", "time": "3:30pm"}, {"days": "Sat", "time": "12:45pm"}, {"days": "Sun", "time": "Closed"}], "id": "6144200002", "name": "USPS COLLECTION BOX - PO LOBBY", "address": {"city": "KEITHSBURG", "state": "IL", "street": "103 S 4TH ST", "postcode": "61442"}}},
{"geometry": {"type": "Point", "coordinates": [-89.92630776, 41.2432449335]}, "type": "Feature", "properties": {"collection_times": [{"days": "Mon-Fri", "time": "5:00pm"}, {"days": "Sat", "time": "4:30pm"}, {"days": "Sun", "time": "Closed"}], "id": "6144300001", "name": "USPS COLLECTION BOX - BLUE BOX", "address": {"city": "KEWANEE", "state": "IL", "street": "116 S TREMONT ST", "postcode": "61443"}}},
{"geometry": {"type": "Point", "coordinates": [-89.9252412717, 41.2444909869]}, "type": "Feature", "properties": {"collection_times": [{"days": "Mon-Sat", "time": "9:00am"}, {"days": "Sun", "time": "Closed"}], "id": "6144300004", "name": "USPS COLLECTION BOX - BLUE BOX", "address": {"city": "KEWANEE", "state": "IL", "street": "123 W 2ND ST", "postcode": "61443"}}},
{"geometry": {"type": "Point", "coordinates": [-89.9277588347, 41.2448641069]}, "type": "Feature", "properties": {"collection_times": [{"days": "Mon-Sat", "time": "3:00pm"}, {"days": "Sun", "time": "Closed"}], "id": "6144300014", "name": "USPS COLLECTION BOX - EXPRESS", "address": {"city": "KEWANEE", "state": "IL", "street": "116 S TREMONT ST", "postcode": "61443"}}},
{"geometry": {"type": "Point", "coordinates": [-89.927314608, 41.2235387793]}, "type": "Feature", "properties": {"collection_times": [{"days": "Mon-Sat", "time": "10:00am"}, {"days": "Sun", "time": "Closed"}], "id": "6144300015", "name": "USPS COLLECTION BOX - BLUE BOX", "address": {"city": "KEWANEE", "state": "IL", "street": "635 TENNEY ST", "postcode": "61443"}}},
{"geometry": {"type": "Point", "coordinates": [-89.9255814053, 41.2213352464]}, "type": "Feature", "properties": {"collection_times": [{"days": "Mon-Sat", "time": "10:00am"}, {"days": "Sun", "time": "Closed"}], "id": "6144300019", "name": "USPS COLLECTION BOX - BLUE BOX", "address": {"city": "KEWANEE", "state": "IL", "street": "730 TENNEY ST", "postcode": "61443"}}},
{"geometry": {"type": "Point", "coordinates": [-89.92630776, 41.2432449335]}, "type": "Feature", "properties": {"collection_times": [{"days": "Mon-Fri", "time": "5:00pm"}, {"days": "Sat", "time": "4:30pm"}, {"days": "Sun", "time": "Closed"}], "id": "6144300020", "name": "USPS COLLECTION BOX - PO LOBBY", "address": {"city": "KEWANEE", "state": "IL", "street": "116 S TREMONT ST", "postcode": "61443"}}},
{"geometry": {"type": "Point", "coordinates": [-89.92630776, 41.2432449335]}, "type": "Feature", "properties": {"collection_times": [{"days": "Mon-Fri", "time": "5:00pm"}, {"days": "Sat", "time": "4:30pm"}, {"days": "Sun", "time": "Closed"}], "id": "6144300021", "name": "USPS COLLECTION BOX - BLUE BOX", "address": {"city": "KEWANEE", "state": "IL", "street": "116 S TREMONT ST", "postcode": "61443"}}},
{"geometry": {"type": "Point", "coordinates": [-90.7348608069, 40.8582214029]}, "type": "Feature", "properties": {"collection_times": [{"days": "Mon-Fri", "time": "4:00pm"}, {"days": "Sat", "time": "12:30pm"}, {"days": "Sun", "time": "Closed"}], "id": "6144700001", "name": "USPS COLLECTION BOX - BLUE BOX", "address": {"city": "KIRKWOOD", "state": "IL", "street": "131 S KIRK ST", "postcode": "61447"}}},
{"geometry": {"type": "Point", "coordinates": [-90.7348608069, 40.8582214029]}, "type": "Feature", "properties": {"collection_times": [{"days": "Mon-Fri", "time": "4:00pm"}, {"days": "Sat", "time": "12:30pm"}, {"days": "Sun", "time": "Closed"}], "id": "6144700002", "name": "USPS COLLECTION BOX - PO LOBBY", "address": {"city": "KIRKWOOD", "state": "IL", "street": "131 S KIRK ST", "postcode": "61447"}}},
{"geometry": {"type": "Point", "coordinates": [-90.284678912, 40.908581916]}, "type": "Feature", "properties": {"collection_times": [{"days": "Mon-Fri", "time": "4:30pm"}, {"days": "Sat", "time": "11:30am"}, {"days": "Sun", "time": "Closed"}], "id": "6144800005", "name": "USPS COLLECTION BOX - BLUE BOX", "address": {"city": "KNOXVILLE", "state": "IL", "street": "33 N PUBLIC SQ", "postcode": "61448"}}},
{"geometry": {"type": "Point", "coordinates": [-90.2840622653, 40.908574464]}, "type": "Feature", "properties": {"collection_times": [{"days": "Mon-Fri", "time": "4:30pm"}, {"days": "Sat", "time": "11:30am"}, {"days": "Sun", "time": "Closed"}], "id": "6144800007", "name": "USPS COLLECTION BOX - PO LOBBY", "address": {"city": "KNOXVILLE", "state": "IL", "street": "121 N PUBLIC SQ", "postcode": "61448"}}},
{"geometry": {"type": "Point", "coordinates": [-89.9503345802, 41.1048824682]}, "type": "Feature", "properties": {"collection_times": [{"days": "Mon-Fri", "time": "3:45pm"}, {"days": "Sat", "time": "10:00am"}, {"days": "Sun", "time": "Closed"}], "id": "6144900000", "name": "USPS COLLECTION BOX - BLUE BOX", "address": {"city": "LAFAYETTE", "state": "IL", "street": "301 COMMERCIAL ST", "postcode": "61449"}}},
{"geometry": {"type": "Point", "coordinates": [-89.9503345802, 41.1048824682]}, "type": "Feature", "properties": {"collection_times": [{"days": "Mon-Sat", "time": "10:00am"}, {"days": "Sun", "time": "Closed"}], "id": "6144900001", "name": "USPS COLLECTION BOX - PO LOBBY", "address": {"city": "LAFAYETTE", "state": "IL", "street": "301 COMMERCIAL ST", "postcode": "61449"}}},
{"geometry": {"type": "Point", "coordinates": [-90.9679718096, 40.5834077134]}, "type": "Feature", "properties": {"collection_times": [{"days": "Mon-Fri", "time": "4:00pm"}, {"days": "Sat", "time": "10:00am"}, {"days": "Sun", "time": "Closed"}], "id": "6145000002", "name": "USPS COLLECTION BOX - BLUE BOX", "address": {"city": "LA HARPE", "state": "IL", "street": "205 E MAIN ST", "postcode": "61450"}}},
{"geometry": {"type": "Point", "coordinates": [-90.9679718096, 40.5834077134]}, "type": "Feature", "properties": {"collection_times": [{"days": "Mon-Fri", "time": "4:00pm"}, {"days": "Sat", "time": "10:00am"}, {"days": "Sun", "time": "Closed"}], "id": "6145000004", "name": "USPS COLLECTION BOX - PO LOBBY", "address": {"city": "LA HARPE", "state": "IL", "street": "205 E MAIN ST", "postcode": "61450"}}},
{"geometry": {"type": "Point", "coordinates": [-89.9264546046, 40.9217696973]}, "type": "Feature", "properties": {"collection_times": [{"days": "Mon-Fri", "time": "3:45pm"}, {"days": "Sat", "time": "9:00am"}, {"days": "Sun", "time": "Closed"}], "id": "6145100000", "name": "USPS COLLECTION BOX - BLUE BOX", "address": {"city": "LAURA", "state": "IL", "street": "21014 MAPLE ST", "postcode": "61451"}}},
{"geometry": {"type": "Point", "coordinates": [-89.9264546046, 40.9217696973]}, "type": "Feature", "properties": {"collection_times": [{"days": "Mon-Fri", "time": "12:00pm"}, {"days": "Sat", "time": "9:00am"}, {"days": "Sun", "time": "Closed"}], "id": "6145100001", "name": "USPS COLLECTION BOX - PO LOBBY", "address": {"city": "LAURA", "state": "IL", "street": "21014 MAPLE ST", "postcode": "61451"}}},
{"geometry": {"type": "Point", "coordinates": [-90.6216270141, 40.2361162408]}, "type": "Feature", "properties": {"collection_times": [{"days": "Mon-Fri", "time": "3:30pm"}, {"days": "Sat", "time": "10:00am"}, {"days": "Sun", "time": "Closed"}], "id": "6145200000", "name": "USPS COLLECTION BOX - BLUE BOX", "address": {"city": "LITTLETON", "state": "IL", "street": "117 S MAIN ST", "postcode": "61452"}}},
{"geometry": {"type": "Point", "coordinates": [-90.6216270141, 40.2361162408]}, "type": "Feature", "properties": {"collection_times": [{"days": "Mon-Fri", "time": "11:00am"}, {"days": "Sat", "time": "8:45am"}, {"days": "Sun", "time": "Closed"}], "id": "6145200001", "name": "USPS COLLECTION BOX - PO LOBBY", "address": {"city": "LITTLETON", "state": "IL", "street": "117 S MAIN ST", "postcode": "61452"}}},
{"geometry": {"type": "Point", "coordinates": [-90.7214230222, 41.028282265]}, "type": "Feature", "properties": {"collection_times": [{"days": "Mon-Fri", "time": "3:00pm"}, {"days": "Sat", "time": "10:00am"}, {"days": "Sun", "time": "Closed"}], "id": "6145300000", "name": "USPS COLLECTION BOX - BLUE BOX", "address": {"city": "LITTLE YORK", "state": "IL", "street": "102 N WALNUT", "postcode": "61453"}}},
{"geometry": {"type": "Point", "coordinates": [-90.7214230222, 41.028282265]}, "type": "Feature", "properties": {"collection_times": [{"days": "Mon-Fri", "time": "11:00am"}, {"days": "Sat", "time": "9:30am"}, {"days": "Sun", "time": "Closed"}], "id": "6145300001", "name": "USPS COLLECTION BOX - PO LOBBY", "address": {"city": "LITTLE YORK", "state": "IL", "street": "102 N WALNUT", "postcode": "61453"}}},
{"geometry": {"type": "Point", "coordinates": [-91.0105271981, 40.6785943954]}, "type": "Feature", "properties": {"collection_times": [{"days": "Mon-Fri", "time": "3:30pm"}, {"days": "Sat", "time": "9:30am"}, {"days": "Sun", "time": "Closed"}], "id": "6145400001", "name": "USPS COLLECTION BOX - BLUE BOX", "address": {"city": "LOMAX", "state": "IL", "street": "100 MAIN ST", "postcode": "61454"}}},
{"geometry": {"type": "Point", "coordinates": [-91.0105271981, 40.6785943954]}, "type": "Feature", "properties": {"collection_times": [{"days": "Mon-Fri", "time": "11:15am"}, {"days": "Sat", "time": "9:30am"}, {"days": "Sun", "time": "Closed"}], "id": "6145400002", "name": "USPS COLLECTION BOX - PO LOBBY", "address": {"city": "LOMAX", "state": "IL", "street": "100 MAIN ST", "postcode": "61454"}}},
{"geometry": {"type": "Point", "coordinates": [-90.6703484043, 40.4575076739]}, "type": "Feature", "properties": {"collection_times": [{"days": "Mon-Fri", "time": "5:00pm"}, {"days": "Sat", "time": "4:00pm"}, {"days": "Sun", "time": "Closed"}], "id": "6145500000", "name": "USPS COLLECTION BOX - PO LOBBY", "address": {"city": "MACOMB", "state": "IL", "street": "205 S RANDOLPH ST", "postcode": "61455"}}},
{"geometry": {"type": "Point", "coordinates": [-90.6703484043, 40.4575076739]}, "type": "Feature", "properties": {"collection_times": [{"days": "Mon-Fri", "time": "5:00pm"}, {"days": "Sat", "time": "3:00pm"}, {"days": "Sun", "time": "Closed"}], "id": "6145500001", "name": "USPS COLLECTION BOX - BLUE BOX", "address": {"city": "MACOMB", "state": "IL", "street": "205 S RANDOLPH ST", "postcode": "61455"}}},
{"geometry": {"type": "Point", "coordinates": [-90.6524828763, 40.4586187705]}, "type": "Feature", "properties": {"collection_times": [{"days": "Mon-Fri", "time": "3:00pm"}, {"days": "Sat", "time": "2:30pm"}, {"days": "Sun", "time": "Closed"}], "id": "6145500021", "name": "USPS COLLECTION BOX - BLUE BOX", "address": {"city": "MACOMB", "state": "IL", "street": "1400 E JACKSON ST", "postcode": "61455"}}},
{"geometry": {"type": "Point", "coordinates": [-90.671441746, 40.4564946706]}, "type": "Feature", "properties": {"collection_times": [{"days": "Mon-Fri", "time": "4:00pm"}, {"days": "Sat", "time": "3:00pm"}, {"days": "Sun", "time": "Closed"}], "id": "6145500022", "name": "USPS COLLECTION BOX - BLUE BOX", "address": {"city": "MACOMB", "state": "IL", "street": "120 E JEFFERSON ST", "postcode": "61455"}}},
{"geometry": {"type": "Point", "coordinates": [-90.6716664505, 40.459308155]}, "type": "Feature", "properties": {"collection_times": [{"days": "Mon-Fri", "time": "3:45pm"}, {"days": "Sat", "time": "2:30pm"}, {"days": "Sun", "time": "Closed"}], "id": "6145500024", "name": "USPS COLLECTION BOX - BLUE BOX", "address": {"city": "MACOMB", "state": "IL", "street": "108 N SIDE SQ", "postcode": "61455"}}},
{"geometry": {"type": "Point", "coordinates": [-90.6714533807, 40.458181622]}, "type": "Feature", "properties": {"collection_times": [{"days": "Mon-Fri", "time": "3:45pm"}, {"days": "Sat", "time": "2:30pm"}, {"days": "Sun", "time": "Closed"}], "id": "6145500029", "name": "USPS COLLECTION BOX - BLUE BOX", "address": {"city": "MACOMB", "state": "IL", "street": "121 S SIDE SQ", "postcode": "61455"}}},
{"geometry": {"type": "Point", "coordinates": [-90.6681521463, 40.458761467]}, "type": "Feature", "properties": {"collection_times": [{"days": "Mon-Fri", "time": "3:00pm"}, {"days": "Sat", "time": "2:30pm"}, {"days": "Sun", "time": "Closed"}], "id": "6145500046", "name": "USPS COLLECTION BOX - BLUE BOX", "address": {"city": "MACOMB", "state": "IL", "street": "300 E JACKSON ST", "postcode": "61455"}}},
{"geometry": {"type": "Point", "coordinates": [-90.6695077586, 40.4564715489]}, "type": "Feature", "properties": {"collection_times": [{"days": "Mon-Fri", "time": "5:00pm"}, {"days": "Sat", "time": "3:00pm"}, {"days": "Sun", "time": "Closed"}], "id": "6145500047", "name": "USPS COLLECTION BOX - EXPRESS", "address": {"city": "MACOMB", "state": "IL", "street": "205 S RANDOLPH ST", "postcode": "61455"}}},
{"geometry": {"type": "Point", "coordinates": [-90.671441746, 40.4564946706]}, "type": "Feature", "properties": {"collection_times": [{"days": "Mon-Fri", "time": "4:00pm"}, {"days": "Sat", "time": "3:00pm"}, {"days": "Sun", "time": "Closed"}], "id": "6145500052", "name": "USPS COLLECTION BOX - BLUE BOX", "address": {"city": "MACOMB", "state": "IL", "street": "120 E JEFFERSON ST", "postcode": "61455"}}},
{"geometry": {"type": "Point", "coordinates": [-90.6703484043, 40.4575076739]}, "type": "Feature", "properties": {"collection_times": [{"days": "Mon-Fri", "time": "5:00pm"}, {"days": "Sat", "time": "3:00pm"}, {"days": "Sun", "time": "Closed"}], "id": "6145500053", "name": "USPS COLLECTION BOX - BLUE BOX", "address": {"city": "MACOMB", "state": "IL", "street": "205 S RANDOLPH ST", "postcode": "61455"}}},
{"geometry": {"type": "Point", "coordinates": [-90.6703484043, 40.4575076739]}, "type": "Feature", "properties": {"collection_times": [{"days": "Mon-Fri", "time": "5:00pm"}, {"days": "Sat", "time": "3:00pm"}, {"days": "Sun", "time": "Closed"}], "id": "6145500054", "name": "USPS COLLECTION BOX - BLUE BOX", "address": {"city": "MACOMB", "state": "IL", "street": "205 S RANDOLPH ST", "postcode": "61455"}}},
{"geometry": {"type": "Point", "coordinates": [-90.6818024686, 40.4625601462]}, "type": "Feature", "properties": {"collection_times": [{"days": "Mon-Fri", "time": "2:45pm"}, {"days": "Sat", "time": "2:30pm"}, {"days": "Sun", "time": "Closed"}], "id": "6145500056", "name": "USPS COLLECTION BOX - BLUE BOX", "address": {"city": "MACOMB", "state": "IL", "street": "1 UNIVERSITY CIR", "postcode": "61455"}}},
{"geometry": {"type": "Point", "coordinates": [-90.1651294111, 40.7987578458]}, "type": "Feature", "properties": {"collection_times": [{"days": "Mon-Fri", "time": "3:45pm"}, {"days": "Sat", "time": "9:30am"}, {"days": "Sun", "time": "Closed"}], "id": "6145800001", "name": "USPS COLLECTION BOX - BLUE BOX", "address": {"city": "MAQUON", "state": "IL", "street": "300 MAIN ST", "postcode": "61458"}}},
{"geometry": {"type": "Point", "coordinates": [-90.1651294111, 40.7987578458]}, "type": "Feature", "properties": {"collection_times": [{"days": "Mon-Fri", "time": "11:00am"}, {"days": "Sat", "time": "9:30am"}, {"days": "Sun", "time": "Closed"}], "id": "6145800002", "name": "USPS COLLECTION BOX - PO LOBBY", "address": {"city": "MAQUON", "state": "IL", "street": "300 MAIN ST", "postcode": "61458"}}},
{"geometry": {"type": "Point", "coordinates": [-90.3944316422, 40.5012838179]}, "type": "Feature", "properties": {"collection_times": [{"days": "Mon-Fri", "time": "4:00pm"}, {"days": "Sat", "time": "9:30am"}, {"days": "Sun", "time": "Closed"}], "id": "6145900000", "name": "USPS COLLECTION BOX - BLUE BOX", "address": {"city": "MARIETTA", "state": "IL", "street": "107 W COAL ST", "postcode": "61459"}}},
{"geometry": {"type": "Point", "coordinates": [-90.3944316422, 40.5012838179]}, "type": "Feature", "properties": {"collection_times": [{"days": "Mon-Fri", "time": "12:35pm"}, {"days": "Sat", "time": "9:30am"}, {"days": "Sun", "time": "Closed"}], "id": "6145900001", "name": "USPS COLLECTION BOX - PO LOBBY", "address": {"city": "MARIETTA", "state": "IL", "street": "107 W COAL ST", "postcode": "61459"}}},
{"geometry": {"type": "Point", "coordinates": [-90.8463100248, 40.7632817068]}, "type": "Feature", "properties": {"collection_times": [{"days": "Mon-Fri", "time": "4:00pm"}, {"days": "Sat", "time": "9:30am"}, {"days": "Sun", "time": "Closed"}], "id": "6146000000", "name": "USPS COLLECTION BOX - BLUE BOX", "address": {"city": "MEDIA", "state": "IL", "street": "103 S MAIN ST", "postcode": "61460"}}},
{"geometry": {"type": "Point", "coordinates": [-90.8463100248, 40.7632817068]}, "type": "Feature", "properties": {"collection_times": [{"days": "Mon-Fri", "time": "1:15pm"}, {"days": "Sat", "time": "11:00am"}, {"days": "Sun", "time": "Closed"}], "id": "6146000001", "name": "USPS COLLECTION BOX - PO LOBBY", "address": {"city": "MEDIA", "state": "IL", "street": "103 S MAIN ST", "postcode": "61460"}}},
{"geometry": {"type": "Point", "coordinates": [-90.6441763766, 40.9121105506]}, "type": "Feature", "properties": {"collection_times": [{"days": "Mon-Fri", "time": "5:00pm"}, {"days": "Sat", "time": "4:00pm"}, {"days": "Sun", "time": "Closed"}], "id": "6146200001", "name": "USPS COLLECTION BOX - EXPRESS", "address": {"city": "MONMOUTH", "state": "IL", "street": "235 S 1ST ST", "postcode": "61462"}}},
{"geometry": {"type": "Point", "coordinates": [-90.646985068, 40.9104879754]}, "type": "Feature", "properties": {"collection_times": [{"days": "Mon-Fri", "time": "5:00pm"}, {"days": "Sat", "time": "4:00pm"}, {"days": "Sun", "time": "Closed"}], "id": "6146200002", "name": "USPS COLLECTION BOX - BLUE BOX", "address": {"city": "MONMOUTH", "state": "IL", "street": "235 S 1ST ST", "postcode": "61462"}}},
{"geometry": {"type": "Point", "coordinates": [-90.646985068, 40.9104879754]}, "type": "Feature", "properties": {"collection_times": [{"days": "Mon-Fri", "time": "5:00pm"}, {"days": "Sat", "time": "4:00pm"}, {"days": "Sun", "time": "Closed"}], "id": "6146200003", "name": "USPS COLLECTION BOX - BLUE BOX", "address": {"city": "MONMOUTH", "state": "IL", "street": "235 S 1ST ST", "postcode": "61462"}}},
{"geometry": {"type": "Point", "coordinates": [-90.646985068, 40.9104879754]}, "type": "Feature", "properties": {"collection_times": [{"days": "Mon-Fri", "time": "5:00pm"}, {"days": "Sat", "time": "4:00pm"}, {"days": "Sun", "time": "Closed"}], "id": "6146200004", "name": "USPS COLLECTION BOX - BLUE BOX", "address": {"city": "MONMOUTH", "state": "IL", "street": "235 S 1ST ST", "postcode": "61462"}}},
{"geometry": {"type": "Point", "coordinates": [-90.646985068, 40.9104879754]}, "type": "Feature", "properties": {"collection_times": [{"days": "Mon-Fri", "time": "5:00pm"}, {"days": "Sat", "time": "4:00pm"}, {"days": "Sun", "time": "Closed"}], "id": "6146200005", "name": "USPS COLLECTION BOX - BLUE BOX", "address": {"city": "MONMOUTH", "state": "IL", "street": "235 S 1ST ST", "postcode": "61462"}}},
{"geometry": {"type": "Point", "coordinates": [-90.6478870438, 40.9121153434]}, "type": "Feature", "properties": {"collection_times": [{"days": "Mon-Sat", "time": "9:00am"}, {"days": "Sun", "time": "Closed"}], "id": "6146200007", "name": "USPS COLLECTION BOX - BLUE BOX", "address": {"city": "MONMOUTH", "state": "IL", "street": "100 E BROADWAY", "postcode": "61462"}}},
{"geometry": {"type": "Point", "coordinates": [-90.6485625623, 40.9121213635]}, "type": "Feature", "properties": {"collection_times": [{"days": "Mon-Sat", "time": "9:00am"}, {"days": "Sun", "time": "Closed"}], "id": "6146200009", "name": "USPS COLLECTION BOX - BLUE BOX", "address": {"city": "MONMOUTH", "state": "IL", "street": "100 W BROADWAY", "postcode": "61462"}}},
{"geometry": {"type": "Point", "coordinates": [-90.6483130494, 40.9132691736]}, "type": "Feature", "properties": {"collection_times": [{"days": "Mon-Sat", "time": "9:00am"}, {"days": "Sun", "time": "Closed"}], "id": "6146200010", "name": "USPS COLLECTION BOX - BLUE BOX", "address": {"city": "MONMOUTH", "state": "IL", "street": "220 N MAIN ST", "postcode": "61462"}}},
{"geometry": {"type": "Point", "coordinates": [-90.6466932233, 40.9210613261]}, "type": "Feature", "properties": {"collection_times": [{"days": "Mon-Sat", "time": "10:00am"}, {"days": "Sun", "time": "Closed"}], "id": "6146200012", "name": "USPS COLLECTION BOX - BLUE BOX", "address": {"city": "MONMOUTH", "state": "IL", "street": "200 E HARLEM AVE", "postcode": "61462"}}},
{"geometry": {"type": "Point", "coordinates": [-90.6405974044, 40.9135268803]}, "type": "Feature", "properties": {"collection_times": [{"days": "Mon-Sat", "time": "5:00pm"}, {"days": "Sun", "time": "Closed"}], "id": "6146200020", "name": "USPS COLLECTION BOX - PO LOBBY", "address": {"city": "MONMOUTH", "state": "IL", "street": "235 IST ST", "postcode": "61462"}}},
{"geometry": {"type": "Point", "coordinates": [-90.441018101, 41.2024245792]}, "type": "Feature", "properties": {"collection_times": [{"days": "Mon-Fri", "time": "4:00pm"}, {"days": "Sat", "time": "10:30am"}, {"days": "Sun", "time": "Closed"}], "id": "6146500001", "name": "USPS COLLECTION BOX - BLUE BOX", "address": {"city": "NEW WINDSOR", "state": "IL", "street": "315 MAIN ST", "postcode": "61465"}}},
{"geometry": {"type": "Point", "coordinates": [-90.441018101, 41.2024245792]}, "type": "Feature", "properties": {"collection_times": [{"days": "Mon-Fri", "time": "2:30pm"}, {"days": "Sat", "time": "10:30am"}, {"days": "Sun", "time": "Closed"}], "id": "6146500002", "name": "USPS COLLECTION BOX - PO LOBBY", "address": {"city": "NEW WINDSOR", "state": "IL", "street": "315 MAIN ST", "postcode": "61465"}}},
{"geometry": {"type": "Point", "coordinates": [-90.4757415933, 41.0905081406]}, "type": "Feature", "properties": {"collection_times": [{"days": "Mon-Fri", "time": "3:45pm"}, {"days": "Sat", "time": "12:30pm"}, {"days": "Sun", "time": "Closed"}], "id": "6146600000", "name": "USPS COLLECTION BOX - BLUE BOX", "address": {"city": "NORTH HENDERSON", "state": "IL", "street": "401 MAIN ST", "postcode": "61466"}}},
{"geometry": {"type": "Point", "coordinates": [-90.4757415933, 41.0905081406]}, "type": "Feature", "properties": {"collection_times": [{"days": "Mon-Fri", "time": "3:45pm"}, {"days": "Sat", "time": "12:30pm"}, {"days": "Sun", "time": "Closed"}], "id": "6146600001", "name": "USPS COLLECTION BOX - PO LOBBY", "address": {"city": "NORTH HENDERSON", "state": "IL", "street": "401 MAIN ST", "postcode": "61466"}}},
{"geometry": {"type": "Point", "coordinates": [-90.2453719544, 41.0823005112]}, "type": "Feature", "properties": {"collection_times": [{"days": "Mon-Fri", "time": "2:30pm"}, {"days": "Sat", "time": "10:30am"}, {"days": "Sun", "time": "Closed"}], "id": "6146700001", "name": "USPS COLLECTION BOX - PO LOBBY", "address": {"city": "ONEIDA", "state": "IL", "street": "126 E HOLMES ST", "postcode": "61467"}}},
{"geometry": {"type": "Point", "coordinates": [-90.2453719544, 41.0823005112]}, "type": "Feature", "properties": {"collection_times": [{"days": "Mon-Fri", "time": "3:30pm"}, {"days": "Sat", "time": "10:30am"}, {"days": "Sun", "time": "Closed"}], "id": "6146700003", "name": "USPS COLLECTION BOX - BLUE BOX", "address": {"city": "ONEIDA", "state": "IL", "street": "126 E HOLMES ST", "postcode": "61467"}}},
{"geometry": {"type": "Point", "coordinates": [-90.884044654, 40.9446520176]}, "type": "Feature", "properties": {"collection_times": [{"days": "Mon-Fri", "time": "3:45pm"}, {"days": "Sat", "time": "10:30am"}, {"days": "Sun", "time": "Closed"}], "id": "6146900000", "name": "USPS COLLECTION BOX - BLUE BOX", "address": {"city": "OQUAWKA", "state": "IL", "street": "403 SCHUYLER ST", "postcode": "61469"}}},
{"geometry": {"type": "Point", "coordinates": [-90.884044654, 40.9446520176]}, "type": "Feature", "properties": {"collection_times": [{"days": "Mon-Fri", "time": "3:45pm"}, {"days": "Sat", "time": "10:30am"}, {"days": "Sun", "time": "Closed"}], "id": "6146900001", "name": "USPS COLLECTION BOX - PO LOBBY", "address": {"city": "OQUAWKA", "state": "IL", "street": "403 SCHUYLER ST", "postcode": "61469"}}},
{"geometry": {"type": "Point", "coordinates": [-90.4620947863, 40.6209819357]}, "type": "Feature", "properties": {"collection_times": [{"days": "Mon-Fri", "time": "3:45pm"}, {"days": "Sat", "time": "9:45am"}, {"days": "Sun", "time": "Closed"}], "id": "6147000000", "name": "USPS COLLECTION BOX - BLUE BOX", "address": {"city": "PRAIRIE CITY", "state": "IL", "street": "325 E MAIN ST", "postcode": "61470"}}},
{"geometry": {"type": "Point", "coordinates": [-90.4620947863, 40.6209819357]}, "type": "Feature", "properties": {"collection_times": [{"days": "Mon-Fri", "time": "11:00am"}, {"days": "Sat", "time": "8:45am"}, {"days": "Sun", "time": "Closed"}], "id": "6147000001", "name": "USPS COLLECTION BOX - PO LOBBY", "address": {"city": "PRAIRIE CITY", "state": "IL", "street": "325 E MAIN ST", "postcode": "61470"}}},
{"geometry": {"type": "Point", "coordinates": [-90.8462460895, 40.6784935196]}, "type": "Feature", "properties": {"collection_times": [{"days": "Mon-Fri", "time": "3:30pm"}, {"days": "Sat", "time": "9:00am"}, {"days": "Sun", "time": "Closed"}], "id": "6147100000", "name": "USPS COLLECTION BOX - BLUE BOX", "address": {"city": "RARITAN", "state": "IL", "street": "101 E MAIN ST", "postcode": "61471"}}},
{"geometry": {"type": "Point", "coordinates": [-90.8462460895, 40.6784935196]}, "type": "Feature", "properties": {"collection_times": [{"days": "Mon-Fri", "time": "11:00am"}, {"days": "Sat", "time": "8:30am"}, {"days": "Sun", "time": "Closed"}], "id": "6147100001", "name": "USPS COLLECTION BOX - PO LOBBY", "address": {"city": "RARITAN", "state": "IL", "street": "101 E MAIN ST", "postcode": "61471"}}},
{"geometry": {"type": "Point", "coordinates": [-90.3994900328, 41.107844714]}, "type": "Feature", "properties": {"collection_times": [{"days": "Mon-Fri", "time": "3:30pm"}, {"days": "Sat", "time": "9:00am"}, {"days": "Sun", "time": "Closed"}], "id": "6147200000", "name": "USPS COLLECTION BOX - BLUE BOX", "address": {"city": "RIO", "state": "IL", "street": "110 E CENTER AVE", "postcode": "61472"}}},
{"geometry": {"type": "Point", "coordinates": [-90.3994900328, 41.107844714]}, "type": "Feature", "properties": {"collection_times": [{"days": "Mon-Fri", "time": "11:00am"}, {"days": "Sat", "time": "9:00am"}, {"days": "Sun", "time": "Closed"}], "id": "6147200001", "name": "USPS COLLECTION BOX - PO LOBBY", "address": {"city": "RIO", "state": "IL", "street": "110 E CENTER AVE", "postcode": "61472"}}},
{"geometry": {"type": "Point", "coordinates": [-90.6542326782, 40.7012814904]}, "type": "Feature", "properties": {"collection_times": [{"days": "Mon-Fri", "time": "3:30pm"}, {"days": "Sat", "time": "9:00am"}, {"days": "Sun", "time": "Closed"}], "id": "6147300000", "name": "USPS COLLECTION BOX - BLUE BOX", "address": {"city": "ROSEVILLE", "state": "IL", "street": "140 N ARBITRARY ST", "postcode": "61473"}}},
{"geometry": {"type": "Point", "coordinates": [-90.6542326782, 40.7012814904]}, "type": "Feature", "properties": {"collection_times": [{"days": "Mon-Fri", "time": "3:30pm"}, {"days": "Sat", "time": "9:00am"}, {"days": "Sun", "time": "Closed"}], "id": "6147300001", "name": "USPS COLLECTION BOX - PO LOBBY", "address": {"city": "ROSEVILLE", "state": "IL", "street": "140 N ARBITRARY ST", "postcode": "61473"}}},
{"geometry": {"type": "Point", "coordinates": [-90.3825842669, 40.7369588229]}, "type": "Feature", "properties": {"collection_times": [{"days": "Mon-Fri", "time": "4:00pm"}, {"days": "Sat", "time": "9:00am"}, {"days": "Sun", "time": "Closed"}], "id": "6147400001", "name": "USPS COLLECTION BOX - BLUE BOX", "address": {"city": "ST AUGUSTINE", "state": "IL", "street": "34 N MAIN ST", "postcode": "61474"}}},
{"geometry": {"type": "Point", "coordinates": [-90.3825842669, 40.7369588229]}, "type": "Feature", "properties": {"collection_times": [{"days": "Mon-Fri", "time": "12:00pm"}, {"days": "Sat", "time": "9:00am"}, {"days": "Sun", "time": "Closed"}], "id": "6147400002", "name": "USPS COLLECTION BOX - PO LOBBY", "address": {"city": "ST AUGUSTINE", "state": "IL", "street": "34 N MAIN ST", "postcode": "61474"}}},
{"geometry": {"type": "Point", "coordinates": [-90.7999757151, 41.1022604632]}, "type": "Feature", "properties": {"collection_times": [{"days": "Mon-Fri", "time": "3:15pm"}, {"days": "Sat", "time": "9:30am"}, {"days": "Sun", "time": "Closed"}], "id": "6147600001", "name": "USPS COLLECTION BOX - BLUE BOX", "address": {"city": "SEATON", "state": "IL", "street": "304 3RD ST", "postcode": "61476"}}},
{"geometry": {"type": "Point", "coordinates": [-90.7999757151, 41.1022604632]}, "type": "Feature", "properties": {"collection_times": [{"days": "Mon-Fri", "time": "11:00am"}, {"days": "Sat", "time": "8:45am"}, {"days": "Sun", "time": "Closed"}], "id": "6147600002", "name": "USPS COLLECTION BOX - PO LOBBY", "address": {"city": "SEATON", "state": "IL", "street": "304 3RD ST", "postcode": "61476"}}},
{"geometry": {"type": "Point", "coordinates": [-90.2915200765, 40.4722145339]}, "type": "Feature", "properties": {"collection_times": [{"days": "Mon-Fri", "time": "11:15am"}, {"days": "Sat", "time": "9:30am"}, {"days": "Sun", "time": "Closed"}], "id": "6147700000", "name": "USPS COLLECTION BOX - PO LOBBY", "address": {"city": "SMITHFIELD", "state": "IL", "street": "148 S MAIN ST", "postcode": "61477"}}},
{"geometry": {"type": "Point", "coordinates": [-90.2915200765, 40.4722145339]}, "type": "Feature", "properties": {"collection_times": [{"days": "Mon-Fri", "time": "4:00pm"}, {"days": "Sat", "time": "9:30am"}, {"days": "Sun", "time": "Closed"}], "id": "6147700001", "name": "USPS COLLECTION BOX - BLUE BOX", "address": {"city": "SMITHFIELD", "state": "IL", "street": "148 S MAIN ST", "postcode": "61477"}}},
{"geometry": {"type": "Point", "coordinates": [-90.7785991496, 40.7919318153]}, "type": "Feature", "properties": {"collection_times": [{"days": "Mon-Fri", "time": "3:30pm"}, {"days": "Sat", "time": "9:00am"}, {"days": "Sun", "time": "Closed"}], "id": "6147800001", "name": "USPS COLLECTION BOX - BLUE BOX", "address": {"city": "SMITHSHIRE", "state": "IL", "street": "124 E STATE ST", "postcode": "61478"}}},
{"geometry": {"type": "Point", "coordinates": [-90.7785991496, 40.7919318153]}, "type": "Feature", "properties": {"collection_times": [{"days": "Mon-Fri", "time": "11:00am"}, {"days": "Sat", "time": "8:30am"}, {"days": "Sun", "time": "Closed"}], "id": "6147800002", "name": "USPS COLLECTION BOX - PO LOBBY", "address": {"city": "SMITHSHIRE", "state": "IL", "street": "124 E STATE ST", "postcode": "61478"}}},
{"geometry": {"type": "Point", "coordinates": [-89.6962357055, 41.0175738084]}, "type": "Feature", "properties": {"collection_times": [{"days": "Mon-Fri", "time": "3:30pm"}, {"days": "Sat", "time": "9:00am"}, {"days": "Sun", "time": "Closed"}], "id": "6147900000", "name": "USPS COLLECTION BOX - BLUE BOX", "address": {"city": "SPEER", "state": "IL", "street": "100 MAIN ST", "postcode": "61479"}}},
{"geometry": {"type": "Point", "coordinates": [-89.6962357055, 41.0175738084]}, "type": "Feature", "properties": {"collection_times": [{"days": "Mon-Fri", "time": "10:30am"}, {"days": "Sat", "time": "9:00am"}, {"days": "Sun", "time": "Closed"}], "id": "6147900001", "name": "USPS COLLECTION BOX - PO LOBBY", "address": {"city": "SPEER", "state": "IL", "street": "100 MAIN ST", "postcode": "61479"}}},
{"geometry": {"type": "Point", "coordinates": [-89.6508069083, 40.9883123603]}, "type": "Feature", "properties": {"collection_times": [{"days": "Mon-Fri", "time": "3:30pm"}, {"days": "Sat", "time": "9:00am"}, {"days": "Sun", "time": "Closed"}], "id": "6147900002", "name": "USPS COLLECTION BOX - BLUE BOX", "address": {"city": "SPEER", "state": "IL", "street": "100 MAIN ST", "postcode": "61479"}}},
{"geometry": {"type": "Point", "coordinates": [-89.6516967209, 40.9867062611]}, "type": "Feature", "properties": {"collection_times": [{"days": "Mon-Fri", "time": "3:30pm"}, {"days": "Sat", "time": "9:00am"}, {"days": "Sun", "time": "Closed"}], "id": "6147900003", "name": "USPS COLLECTION BOX - BLUE BOX", "address": {"city": "SPEER", "state": "IL", "street": "100 MAIN ST", "postcode": "61479"}}},
{"geometry": {"type": "Point", "coordinates": [-90.9083919295, 40.7451805896]}, "type": "Feature", "properties": {"collection_times": [{"days": "Mon-Fri", "time": "4:00pm"}, {"days": "Sat", "time": "10:30am"}, {"days": "Sun", "time": "Closed"}], "id": "6148000001", "name": "USPS COLLECTION BOX - BLUE BOX", "address": {"city": "STRONGHURST", "state": "IL", "street": "106 S BROADWAY ST", "postcode": "61480"}}},
{"geometry": {"type": "Point", "coordinates": [-90.9083919295, 40.7451805896]}, "type": "Feature", "properties": {"collection_times": [{"days": "Mon-Fri", "time": "3:00pm"}, {"days": "Sat", "time": "10:30am"}, {"days": "Sun", "time": "Closed"}], "id": "6148000002", "name": "USPS COLLECTION BOX - PO LOBBY", "address": {"city": "STRONGHURST", "state": "IL", "street": "106 S BROADWAY ST", "postcode": "61480"}}},
{"geometry": {"type": "Point", "coordinates": [-90.4054930045, 40.3967873713]}, "type": "Feature", "properties": {"collection_times": [{"days": "Mon-Fri", "time": "4:00pm"}, {"days": "Sat", "time": "10:30am"}, {"days": "Sun", "time": "Closed"}], "id": "6148200001", "name": "USPS COLLECTION BOX - BLUE BOX", "address": {"city": "TABLE GROVE", "state": "IL", "street": "123 E SIDE SQ", "postcode": "61482"}}},
{"geometry": {"type": "Point", "coordinates": [-90.4054930045, 40.3967873713]}, "type": "Feature", "properties": {"collection_times": [{"days": "Mon-Fri", "time": "12:30pm"}, {"days": "Sat", "time": "10:30am"}, {"days": "Sun", "time": "Closed"}], "id": "6148200002", "name": "USPS COLLECTION BOX - PO LOBBY", "address": {"city": "TABLE GROVE", "state": "IL", "street": "123 E SIDE SQ", "postcode": "61482"}}},
{"geometry": {"type": "Point", "coordinates": [-89.8651602528, 41.0950492523]}, "type": "Feature", "properties": {"collection_times": [{"days": "Mon-Fri", "time": "4:00pm"}, {"days": "Sat", "time": "10:30am"}, {"days": "Sun", "time": "Closed"}], "id": "6148300001", "name": "USPS COLLECTION BOX - BLUE BOX", "address": {"city": "TOULON", "state": "IL", "street": "111 W VINE ST", "postcode": "61483"}}},
{"geometry": {"type": "Point", "coordinates": [-89.8651602528, 41.0950492523]}, "type": "Feature", "properties": {"collection_times": [{"days": "Mon-Fri", "time": "4:00pm"}, {"days": "Sat", "time": "10:30am"}, {"days": "Sun", "time": "Closed"}], "id": "6148300003", "name": "USPS COLLECTION BOX - PO LOBBY", "address": {"city": "TOULON", "state": "IL", "street": "111 W VINE ST", "postcode": "61483"}}},
{"geometry": {"type": "Point", "coordinates": [-90.430034224, 40.3042715344]}, "type": "Feature", "properties": {"collection_times": [{"days": "Mon-Fri", "time": "4:00pm"}, {"days": "Sat", "time": "10:00am"}, {"days": "Sun", "time": "Closed"}], "id": "6148400000", "name": "USPS COLLECTION BOX - BLUE BOX", "address": {"city": "VERMONT", "state": "IL", "street": "100 W 2ND ST", "postcode": "61484"}}},
{"geometry": {"type": "Point", "coordinates": [-90.430034224, 40.3042715344]}, "type": "Feature", "properties": {"collection_times": [{"days": "Mon-Fri", "time": "11:00am"}, {"days": "Sat", "time": "9:15am"}, {"days": "Sun", "time": "Closed"}], "id": "6148400001", "name": "USPS COLLECTION BOX - PO LOBBY", "address": {"city": "VERMONT", "state": "IL", "street": "100 W 2ND ST", "postcode": "61484"}}},
{"geometry": {"type": "Point", "coordinates": [-90.0996155147, 41.0334001783]}, "type": "Feature", "properties": {"collection_times": [{"days": "Mon-Fri", "time": "4:00pm"}, {"days": "Sat", "time": "12:30pm"}, {"days": "Sun", "time": "Closed"}], "id": "6148500001", "name": "USPS COLLECTION BOX - PO LOBBY", "address": {"city": "VICTORIA", "state": "IL", "street": "229 MAIN ST", "postcode": "61485"}}},
{"geometry": {"type": "Point", "coordinates": [-90.099640919, 41.0333966217]}, "type": "Feature", "properties": {"collection_times": [{"days": "Mon-Fri", "time": "4:00pm"}, {"days": "Sat", "time": "12:30pm"}, {"days": "Sun", "time": "Closed"}], "id": "6148500002", "name": "USPS COLLECTION BOX - BLUE BOX", "address": {"city": "VICTORIA", "state": "IL", "street": "229 MAIN ST", "postcode": "61485"}}},
{"geometry": {"type": "Point", "coordinates": [-90.5867652811, 41.204772767]}, "type": "Feature", "properties": {"collection_times": [{"days": "Mon-Fri", "time": "4:00pm"}, {"days": "Sat", "time": "11:00am"}, {"days": "Sun", "time": "Closed"}], "id": "6148600000", "name": "USPS COLLECTION BOX - BLUE BOX", "address": {"city": "VIOLA", "state": "IL", "street": "1508 13TH ST", "postcode": "61486"}}},
{"geometry": {"type": "Point", "coordinates": [-90.5867652811, 41.204772767]}, "type": "Feature", "properties": {"collection_times": [{"days": "Mon-Fri", "time": "2:15pm"}, {"days": "Sat", "time": "11:00am"}, {"days": "Sun", "time": "Closed"}], "id": "6148600001", "name": "USPS COLLECTION BOX - PO LOBBY", "address": {"city": "VIOLA", "state": "IL", "street": "1508 13TH ST", "postcode": "61486"}}},
{"geometry": {"type": "Point", "coordinates": [-90.2807573894, 41.0238770301]}, "type": "Feature", "properties": {"collection_times": [{"days": "Mon-Fri", "time": "4:00pm"}, {"days": "Sat", "time": "10:30am"}, {"days": "Sun", "time": "Closed"}], "id": "6148800001", "name": "USPS COLLECTION BOX - BLUE BOX", "address": {"city": "WATAGA", "state": "IL", "street": "140 S MAIN ST", "postcode": "61488"}}},
{"geometry": {"type": "Point", "coordinates": [-90.2807573894, 41.0238770301]}, "type": "Feature", "properties": {"collection_times": [{"days": "Mon-Fri", "time": "11:00am"}, {"days": "Sat", "time": "9:00am"}, {"days": "Sun", "time": "Closed"}], "id": "6148800002", "name": "USPS COLLECTION BOX - PO LOBBY", "address": {"city": "WATAGA", "state": "IL", "street": "140 S MAIN ST", "postcode": "61488"}}},
{"geometry": {"type": "Point", "coordinates": [-90.0169553612, 40.9231749907]}, "type": "Feature", "properties": {"collection_times": [{"days": "Mon-Fri", "time": "3:45pm"}, {"days": "Sat", "time": "10:00am"}, {"days": "Sun", "time": "Closed"}], "id": "6148900001", "name": "USPS COLLECTION BOX - BLUE BOX", "address": {"city": "WILLIAMSFIELD", "state": "IL", "street": "107 E GALE ST", "postcode": "61489"}}},
{"geometry": {"type": "Point", "coordinates": [-90.0169553612, 40.9231749907]}, "type": "Feature", "properties": {"collection_times": [{"days": "Mon-Fri", "time": "11:00am"}, {"days": "Sat", "time": "8:45am"}, {"days": "Sun", "time": "Closed"}], "id": "6148900002", "name": "USPS COLLECTION BOX - PO LOBBY", "address": {"city": "WILLIAMSFIELD", "state": "IL", "street": "107 E GALE ST", "postcode": "61489"}}},
{"geometry": {"type": "Point", "coordinates": [-90.3155395702, 41.1781349455]}, "type": "Feature", "properties": {"collection_times": [{"days": "Mon-Fri", "time": "4:00pm"}, {"days": "Sat", "time": "10:00am"}, {"days": "Sun", "time": "Closed"}], "id": "6149000000", "name": "USPS COLLECTION BOX - BLUE BOX", "address": {"city": "WOODHULL", "state": "IL", "street": "205 E 2ND AVE", "postcode": "61490"}}},
{"geometry": {"type": "Point", "coordinates": [-90.3155107857, 41.1788866867]}, "type": "Feature", "properties": {"collection_times": [{"days": "Mon-Fri", "time": "3:30pm"}, {"days": "Sat", "time": "10:00am"}, {"days": "Sun", "time": "Closed"}], "id": "6149000001", "name": "USPS COLLECTION BOX - PO LOBBY", "address": {"city": "WOODHULL", "state": "IL", "street": "212 N DIVISION ST", "postcode": "61490"}}},
{"geometry": {"type": "Point", "coordinates": [-89.7730377904, 41.0615576977]}, "type": "Feature", "properties": {"collection_times": [{"days": "Mon-Fri", "time": "4:00pm"}, {"days": "Sat", "time": "11:00am"}, {"days": "Sun", "time": "Closed"}], "id": "6149100002", "name": "USPS COLLECTION BOX - BLUE BOX", "address": {"city": "WYOMING", "state": "IL", "street": "101 E WILLIAMS ST", "postcode": "61491"}}},
{"geometry": {"type": "Point", "coordinates": [-89.7730377904, 41.0615576977]}, "type": "Feature", "properties": {"collection_times": [{"days": "Mon-Fri", "time": "4:00pm"}, {"days": "Sat", "time": "11:00am"}, {"days": "Sun", "time": "Closed"}], "id": "6149100010", "name": "USPS COLLECTION BOX - PO LOBBY", "address": {"city": "WYOMING", "state": "IL", "street": "101 E WILLIAMS ST", "postcode": "61491"}}}
]}
