{"type": "FeatureCollection", "features": [
{"geometry": {"type": "Point", "coordinates": [-90.3599421898, 40.2270224848]}, "type": "Feature", "properties": {"collection_times": [{"days": "Mon-Fri", "time": "4:00pm"}, {"days": "Sat", "time": "10:30am"}, {"days": "Sun", "time": "Closed"}], "id": "6150100001", "name": "USPS COLLECTION BOX - BLUE BOX", "address": {"city": "ASTORIA", "state": "IL", "street": "214 W BROADWAY", "postcode": "61501"}}},
{"geometry": {"type": "Point", "coordinates": [-90.3599421898, 40.2270224848]}, "type": "Feature", "properties": {"collection_times": [{"days": "Mon-Fri", "time": "4:00pm"}, {"days": "Sat", "time": "10:30am"}, {"days": "Sun", "time": "Closed"}], "id": "6150100003", "name": "USPS COLLECTION BOX - PO LOBBY", "address": {"city": "ASTORIA", "state": "IL", "street": "214 W BROADWAY", "postcode": "61501"}}},
{"geometry": {"type": "Point", "coordinates": [-89.1214961332, 40.8494663823]}, "type": "Feature", "properties": {"collection_times": [{"days": "Mon-Fri", "time": "4:30pm"}, {"days": "Sat", "time": "10:00am"}, {"days": "Sun", "time": "Closed"}], "id": "6151600000", "name": "USPS COLLECTION BOX - BLUE BOX", "address": {"city": "BENSON", "state": "IL", "street": "320 FRONT ST", "postcode": "61516"}}},
{"geometry": {"type": "Point", "coordinates": [-89.1214961332, 40.8494663823]}, "type": "Feature", "properties": {"collection_times": [{"days": "Mon-Fri", "time": "11:00am"}, {"days": "Sat", "time": "10:00am"}, {"days": "Sun", "time": "Closed"}], "id": "6151600001", "name": "USPS COLLECTION BOX - PO LOBBY", "address": {"city": "BENSON", "state": "IL", "street": "320 FRONT ST", "postcode": "61516"}}},
{"geometry": {"type": "Point", "coordinates": [-89.8845400026, 40.8395540492]}, "type": "Feature", "properties": {"collection_times": [{"days": "Mon-Fri", "time": "4:30pm"}, {"days": "Sat", "time": "10:30am"}, {"days": "Sun", "time": "Closed"}], "id": "6151700000", "name": "USPS COLLECTION BOX - BLUE BOX", "address": {"city": "BRIMFIELD", "state": "IL", "street": "123 N GALENA AVE", "postcode": "61517"}}},
{"geometry": {"type": "Point", "coordinates": [-89.8845400026, 40.8395540492]}, "type": "Feature", "properties": {"collection_times": [{"days": "Mon-Fri", "time": "4:30pm"}, {"days": "Sat", "time": "10:30am"}, {"days": "Sun", "time": "Closed"}], "id": "6151700001", "name": "USPS COLLECTION BOX - PO LOBBY", "address": {"city": "BRIMFIELD", "state": "IL", "street": "123 N GALENA AVE", "postcode": "61517"}}},
{"geometry": {"type": "Point", "coordinates": [-90.0490336735, 40.4716357465]}, "type": "Feature", "properties": {"collection_times": [{"days": "Mon-Fri", "time": "4:00pm"}, {"days": "Sat", "time": "10:00am"}, {"days": "Sun", "time": "Closed"}], "id": "6151900000", "name": "USPS COLLECTION BOX - BLUE BOX", "address": {"city": "BRYANT", "state": "IL", "street": "103 E MAIN ST", "postcode": "61519"}}},
{"geometry": {"type": "Point", "coordinates": [-90.0490336735, 40.4716357465]}, "type": "Feature", "properties": {"collection_times": [{"days": "Mon-Fri", "time": "10:00am"}, {"days": "Sat", "time": "9:45am"}, {"days": "Sun", "time": "Closed"}], "id": "6151900001", "name": "USPS COLLECTION BOX - PO LOBBY", "address": {"city": "BRYANT", "state": "IL", "street": "103 E MAIN ST", "postcode": "61519"}}},
{"geometry": {"type": "Point", "coordinates": [-90.0361345482, 40.5557727346]}, "type": "Feature", "properties": {"collection_times": [{"days": "Mon-Fri", "time": "5:00pm"}, {"days": "Sat", "time": "4:00pm"}, {"days": "Sun", "time": "Closed"}], "id": "6152000004", "name": "USPS COLLECTION BOX - BLUE BOX", "address": {"city": "CANTON", "state": "IL", "street": "60 W ELM ST", "postcode": "61520"}}},
{"geometry": {"type": "Point", "coordinates": [-90.0361345482, 40.5557727346]}, "type": "Feature", "properties": {"collection_times": [{"days": "Mon-Fri", "time": "5:00pm"}, {"days": "Sat", "time": "4:00pm"}, {"days": "Sun", "time": "Closed"}], "id": "6152000008", "name": "USPS COLLECTION BOX - PO LOBBY", "address": {"city": "CANTON", "state": "IL", "street": "60 W ELM ST", "postcode": "61520"}}},
{"geometry": {"type": "Point", "coordinates": [-90.0274779666, 40.5555020924]}, "type": "Feature", "properties": {"collection_times": [{"days": "Mon-Sat", "time": "10:00am"}, {"days": "Sun", "time": "Closed"}], "id": "6152000009", "name": "USPS COLLECTION BOX - BLUE BOX", "address": {"city": "CANTON", "state": "IL", "street": "20 S 5TH AVE", "postcode": "61520"}}},
{"geometry": {"type": "Point", "coordinates": [-90.0063477907, 40.5568933533]}, "type": "Feature", "properties": {"collection_times": [{"days": "Mon-Sat", "time": "11:00am"}, {"days": "Sun", "time": "Closed"}], "id": "6152000013", "name": "USPS COLLECTION BOX - BLUE BOX", "address": {"city": "CANTON", "state": "IL", "street": "1741 E CHESTNUT ST", "postcode": "61520"}}},
{"geometry": {"type": "Point", "coordinates": [-90.0349659796, 40.5658935204]}, "type": "Feature", "properties": {"collection_times": [{"days": "Mon-Sat", "time": "10:00am"}, {"days": "Sun", "time": "Closed"}], "id": "6152000016", "name": "USPS COLLECTION BOX - BLUE BOX", "address": {"city": "CANTON", "state": "IL", "street": "825 N MAIN ST", "postcode": "61520"}}},
{"geometry": {"type": "Point", "coordinates": [-89.4846572859, 40.9187649815]}, "type": "Feature", "properties": {"collection_times": [{"days": "Mon-Fri", "time": "5:00pm"}, {"days": "Sat", "time": "1:00pm"}, {"days": "Sun", "time": "Closed"}], "id": "6152300001", "name": "USPS COLLECTION BOX - BLUE BOX", "address": {"city": "CHILLICOTHE", "state": "IL", "street": "1114 N 2ND ST", "postcode": "61523"}}},
{"geometry": {"type": "Point", "coordinates": [-89.4846572859, 40.9187649815]}, "type": "Feature", "properties": {"collection_times": [{"days": "Mon-Fri", "time": "5:00pm"}, {"days": "Sat", "time": "1:00pm"}, {"days": "Sun", "time": "Closed"}], "id": "6152300002", "name": "USPS COLLECTION BOX - BLUE BOX", "address": {"city": "CHILLICOTHE", "state": "IL", "street": "1114 N 2ND ST", "postcode": "61523"}}},
{"geometry": {"type": "Point", "coordinates": [-89.4948257854, 40.9018450634]}, "type": "Feature", "properties": {"collection_times": [{"days": "Mon-Sat", "time": "12:00pm"}, {"days": "Sun", "time": "Closed"}], "id": "6152300012", "name": "USPS COLLECTION BOX - BLUE BOX", "address": {"city": "CHILLICOTHE", "state": "IL", "street": "603 S 4TH ST", "postcode": "61523"}}},
{"geometry": {"type": "Point", "coordinates": [-89.4846572859, 40.9187649815]}, "type": "Feature", "properties": {"collection_times": [{"days": "Mon-Fri", "time": "5:00pm"}, {"days": "Sat", "time": "1:00pm"}, {"days": "Sun", "time": "Closed"}], "id": "6152300015", "name": "USPS COLLECTION BOX - BLUE BOX", "address": {"city": "CHILLICOTHE", "state": "IL", "street": "1114 N 2ND ST", "postcode": "61523"}}},
{"geometry": {"type": "Point", "coordinates": [-89.4846572859, 40.9187649815]}, "type": "Feature", "properties": {"collection_times": [{"days": "Mon-Fri", "time": "5:00pm"}, {"days": "Sat", "time": "1:00pm"}, {"days": "Sun", "time": "Closed"}], "id": "6152300017", "name": "USPS COLLECTION BOX - PO LOBBY", "address": {"city": "CHILLICOTHE", "state": "IL", "street": "1114 N 2ND ST", "postcode": "61523"}}},
{"geometry": {"type": "Point", "coordinates": [-90.0319966226, 40.4897916414]}, "type": "Feature", "properties": {"collection_times": [{"days": "Mon-Fri", "time": "4:00pm"}, {"days": "Sat", "time": "9:00am"}, {"days": "Sun", "time": "Closed"}], "id": "6152400000", "name": "USPS COLLECTION BOX - BLUE BOX", "address": {"city": "DUNFERMLINE", "state": "IL", "street": "316 CENTER ST", "postcode": "61524"}}},
{"geometry": {"type": "Point", "coordinates": [-90.0319966226, 40.4897916414]}, "type": "Feature", "properties": {"collection_times": [{"days": "Mon-Fri", "time": "10:00am"}, {"days": "Sat", "time": "8:30am"}, {"days": "Sun", "time": "Closed"}], "id": "6152400001", "name": "USPS COLLECTION BOX - PO LOBBY", "address": {"city": "DUNFERMLINE", "state": "IL", "street": "316 CENTER ST", "postcode": "61524"}}},
{"geometry": {"type": "Point", "coordinates": [-89.6753974031, 40.8608529557]}, "type": "Feature", "properties": {"collection_times": [{"days": "Mon-Fri", "time": "4:45pm"}, {"days": "Sat", "time": "10:30am"}, {"days": "Sun", "time": "Closed"}], "id": "6152500000", "name": "USPS COLLECTION BOX - BLUE BOX", "address": {"city": "DUNLAP", "state": "IL", "street": "114 N 2ND ST", "postcode": "61525"}}},
{"geometry": {"type": "Point", "coordinates": [-89.6179297334, 40.836083038]}, "type": "Feature", "properties": {"collection_times": [{"days": "Mon-Sat", "time": "12:00pm"}, {"days": "Sun", "time": "Closed"}], "id": "6152500002", "name": "USPS COLLECTION BOX - BLUE BOX", "address": {"city": "DUNLAP", "state": "IL", "street": "12200 N BRENTFIELD DR", "postcode": "61525"}}},
{"geometry": {"type": "Point", "coordinates": [-89.6753974031, 40.8608529557]}, "type": "Feature", "properties": {"collection_times": [{"days": "Mon-Fri", "time": "4:45pm"}, {"days": "Sat", "time": "10:30am"}, {"days": "Sun", "time": "Closed"}], "id": "6152500003", "name": "USPS COLLECTION BOX - PO LOBBY", "address": {"city": "DUNLAP", "state": "IL", "street": "114 N 2ND ST", "postcode": "61525"}}},
{"geometry": {"type": "Point", "coordinates": [-89.6343493743, 40.9403512311]}, "type": "Feature", "properties": {"collection_times": [{"days": "Mon-Fri", "time": "3:30pm"}, {"days": "Sat", "time": "8:30am"}, {"days": "Sun", "time": "Closed"}], "id": "6152600000", "name": "USPS COLLECTION BOX - BLUE BOX", "address": {"city": "EDELSTEIN", "state": "IL", "street": "2809 W MAIN ST", "postcode": "61526"}}},
{"geometry": {"type": "Point", "coordinates": [-89.6343493743, 40.9403512311]}, "type": "Feature", "properties": {"collection_times": [{"days": "Mon-Fri", "time": "11:00am"}, {"days": "Sat", "time": "8:30am"}, {"days": "Sun", "time": "Closed"}], "id": "6152600001", "name": "USPS COLLECTION BOX - PO LOBBY", "address": {"city": "EDELSTEIN", "state": "IL", "street": "2809 W MAIN ST", "postcode": "61526"}}},
{"geometry": {"type": "Point", "coordinates": [-89.7231394907, 40.7852841851]}, "type": "Feature", "properties": {"collection_times": [{"days": "Mon-Fri", "time": "4:30pm"}, {"days": "Sat", "time": "10:00am"}, {"days": "Sun", "time": "Closed"}], "id": "6152800000", "name": "USPS COLLECTION BOX - BLUE BOX", "address": {"city": "EDWARDS", "state": "IL", "street": "10112 W DUBOIS RD", "postcode": "61528"}}},
{"geometry": {"type": "Point", "coordinates": [-89.7522238554, 40.776919158]}, "type": "Feature", "properties": {"collection_times": [{"days": "Mon-Sat", "time": "2:00pm"}, {"days": "Sun", "time": "Closed"}], "id": "6152800001", "name": "USPS COLLECTION BOX - BLUE BOX", "address": {"city": "EDWARDS", "state": "IL", "street": "7200 N KICKAPOO EDWARDS RD", "postcode": "61528"}}},
{"geometry": {"type": "Point", "coordinates": [-89.7231394907, 40.7852841851]}, "type": "Feature", "properties": {"collection_times": [{"days": "Mon-Fri", "time": "2:00pm"}, {"days": "Sat", "time": "10:00am"}, {"days": "Sun", "time": "Closed"}], "id": "6152800002", "name": "USPS COLLECTION BOX - PO LOBBY", "address": {"city": "EDWARDS", "state": "IL", "street": "10112 W DUBOIS RD", "postcode": "61528"}}},
{"geometry": {"type": "Point", "coordinates": [-89.9661948512, 40.7781359025]}, "type": "Feature", "properties": {"collection_times": [{"days": "Mon-Fri", "time": "4:30pm"}, {"days": "Sat", "time": "10:30am"}, {"days": "Sun", "time": "Closed"}], "id": "6152900001", "name": "USPS COLLECTION BOX - BLUE BOX", "address": {"city": "ELMWOOD", "state": "IL", "street": "114 N MAGNOLIA ST", "postcode": "61529"}}},
{"geometry": {"type": "Point", "coordinates": [-89.9661948512, 40.7781359025]}, "type": "Feature", "properties": {"collection_times": [{"days": "Mon-Fri", "time": "4:30pm"}, {"days": "Sat", "time": "10:30am"}, {"days": "Sun", "time": "Closed"}], "id": "6152900003", "name": "USPS COLLECTION BOX - PO LOBBY", "address": {"city": "ELMWOOD", "state": "IL", "street": "114 N MAGNOLIA ST", "postcode": "61529"}}},
{"geometry": {"type": "Point", "coordinates": [-89.2729484982, 40.7204387796]}, "type": "Feature", "properties": {"collection_times": [{"days": "Mon-Fri", "time": "5:00pm"}, {"days": "Sat", "time": "3:00pm"}, {"days": "Sun", "time": "Closed"}], "id": "6153000001", "name": "USPS COLLECTION BOX - PO LOBBY", "address": {"city": "EUREKA", "state": "IL", "street": "106 W EUREKA AVE", "postcode": "61530"}}},
{"geometry": {"type": "Point", "coordinates": [-89.2729484982, 40.7204387796]}, "type": "Feature", "properties": {"collection_times": [{"days": "Mon-Fri", "time": "5:00pm"}, {"days": "Sat", "time": "3:00pm"}, {"days": "Sun", "time": "Closed"}], "id": "6153000002", "name": "USPS COLLECTION BOX - BLUE BOX", "address": {"city": "EUREKA", "state": "IL", "street": "106 W EUREKA AVE", "postcode": "61530"}}},
{"geometry": {"type": "Point", "coordinates": [-89.2729484982, 40.7204387796]}, "type": "Feature", "properties": {"collection_times": [{"days": "Mon-Fri", "time": "5:00pm"}, {"days": "Sat", "time": "3:00pm"}, {"days": "Sun", "time": "Closed"}], "id": "6153000003", "name": "USPS COLLECTION BOX - BLUE BOX", "address": {"city": "EUREKA", "state": "IL", "street": "106 W EUREKA AVE", "postcode": "61530"}}},
{"geometry": {"type": "Point", "coordinates": [-89.2729484982, 40.7204387796]}, "type": "Feature", "properties": {"collection_times": [{"days": "Mon-Fri", "time": "5:00pm"}, {"days": "Sat", "time": "3:00pm"}, {"days": "Sun", "time": "Closed"}], "id": "6153000004", "name": "USPS COLLECTION BOX - BLUE BOX", "address": {"city": "EUREKA", "state": "IL", "street": "106 W EUREKA AVE", "postcode": "61530"}}},
{"geometry": {"type": "Point", "coordinates": [-89.2729484982, 40.7204387796]}, "type": "Feature", "properties": {"collection_times": [{"days": "Mon-Fri", "time": "5:00pm"}, {"days": "Sat", "time": "3:00pm"}, {"days": "Sun", "time": "Closed"}], "id": "6153000005", "name": "USPS COLLECTION BOX - BLUE BOX", "address": {"city": "EUREKA", "state": "IL", "street": "106 W EUREKA AVE", "postcode": "61530"}}},
{"geometry": {"type": "Point", "coordinates": [-89.2729484982, 40.7204387796]}, "type": "Feature", "properties": {"collection_times": [{"days": "Mon-Fri", "time": "5:00pm"}, {"days": "Sat", "time": "3:00pm"}, {"days": "Sun", "time": "Closed"}], "id": "6153000007", "name": "USPS COLLECTION BOX - PO LOBBY", "address": {"city": "EUREKA", "state": "IL", "street": "106 W EUREKA AVE", "postcode": "61530"}}},
{"geometry": {"type": "Point", "coordinates": [-90.0064648588, 40.698284716]}, "type": "Feature", "properties": {"collection_times": [{"days": "Mon-Fri", "time": "4:30pm"}, {"days": "Sat", "time": "3:00pm"}, {"days": "Sun", "time": "Closed"}], "id": "6153100001", "name": "USPS COLLECTION BOX - BLUE BOX", "address": {"city": "FARMINGTON", "state": "IL", "street": "67 W FORT ST", "postcode": "61531"}}},
{"geometry": {"type": "Point", "coordinates": [-90.0058508799, 40.6984595742]}, "type": "Feature", "properties": {"collection_times": [{"days": "Mon-Fri", "time": "4:00pm"}, {"days": "Sat", "time": "3:00pm"}, {"days": "Sun", "time": "Closed"}], "id": "6153100005", "name": "USPS COLLECTION BOX - BLUE BOX", "address": {"city": "FARMINGTON", "state": "IL", "street": "16 N MAIN ST", "postcode": "61531"}}},
{"geometry": {"type": "Point", "coordinates": [-90.0064648588, 40.698284716]}, "type": "Feature", "properties": {"collection_times": [{"days": "Mon-Fri", "time": "4:30pm"}, {"days": "Sat", "time": "3:00pm"}, {"days": "Sun", "time": "Closed"}], "id": "6153100008", "name": "USPS COLLECTION BOX - PO LOBBY", "address": {"city": "FARMINGTON", "state": "IL", "street": "67 W FORT ST", "postcode": "61531"}}},
{"geometry": {"type": "Point", "coordinates": [-89.8282940196, 40.3702443371]}, "type": "Feature", "properties": {"collection_times": [{"days": "Mon-Fri", "time": "4:00pm"}, {"days": "Sat", "time": "10:00am"}, {"days": "Sun", "time": "Closed"}], "id": "6153200000", "name": "USPS COLLECTION BOX - BLUE BOX", "address": {"city": "FOREST CITY", "state": "IL", "street": "101 N MAIN ST", "postcode": "61532"}}},
{"geometry": {"type": "Point", "coordinates": [-89.8282940196, 40.3702443371]}, "type": "Feature", "properties": {"collection_times": [{"days": "Mon-Fri", "time": "11:00am"}, {"days": "Sat", "time": "10:15am"}, {"days": "Sun", "time": "Closed"}], "id": "6153200001", "name": "USPS COLLECTION BOX - PO LOBBY", "address": {"city": "FOREST CITY", "state": "IL", "street": "101 N MAIN ST", "postcode": "61532"}}},
{"geometry": {"type": "Point", "coordinates": [-89.812170122, 40.5728559506]}, "type": "Feature", "properties": {"collection_times": [{"days": "Mon-Fri", "time": "4:00pm"}, {"days": "Sat", "time": "10:45am"}, {"days": "Sun", "time": "Closed"}], "id": "6153300001", "name": "USPS COLLECTION BOX - BLUE BOX", "address": {"city": "GLASFORD", "state": "IL", "street": "205 E MAIN ST", "postcode": "61533"}}},
{"geometry": {"type": "Point", "coordinates": [-89.812170122, 40.5728559506]}, "type": "Feature", "properties": {"collection_times": [{"days": "Mon-Fri", "time": "4:00pm"}, {"days": "Sat", "time": "10:45am"}, {"days": "Sun", "time": "Closed"}], "id": "6153300003", "name": "USPS COLLECTION BOX - PO LOBBY", "address": {"city": "GLASFORD", "state": "IL", "street": "205 E MAIN ST", "postcode": "61533"}}},
{"geometry": {"type": "Point", "coordinates": [-89.643274733, 40.4071865559]}, "type": "Feature", "properties": {"collection_times": [{"days": "Mon-Fri", "time": "4:15pm"}, {"days": "Sat", "time": "9:45am"}, {"days": "Sun", "time": "Closed"}], "id": "6153400001", "name": "USPS COLLECTION BOX - BLUE BOX", "address": {"city": "GREEN VALLEY", "state": "IL", "street": "105 W MAIN ST", "postcode": "61534"}}},
{"geometry": {"type": "Point", "coordinates": [-89.643274733, 40.4071865559]}, "type": "Feature", "properties": {"collection_times": [{"days": "Mon-Fri", "time": "3:00pm"}, {"days": "Sat", "time": "9:45am"}, {"days": "Sun", "time": "Closed"}], "id": "6153400002", "name": "USPS COLLECTION BOX - PO LOBBY", "address": {"city": "GREEN VALLEY", "state": "IL", "street": "105 W MAIN ST", "postcode": "61534"}}},
{"geometry": {"type": "Point", "coordinates": [-89.533322815, 40.5939688038]}, "type": "Feature", "properties": {"collection_times": [{"days": "Mon-Fri", "time": "4:00pm"}, {"days": "Sat", "time": "10:00am"}, {"days": "Sun", "time": "Closed"}], "id": "6153500000", "name": "USPS COLLECTION BOX - BLUE BOX", "address": {"city": "GROVELAND", "state": "IL", "street": "18769 SPRINGFIELD RD", "postcode": "61535"}}},
{"geometry": {"type": "Point", "coordinates": [-89.533322815, 40.5939688038]}, "type": "Feature", "properties": {"collection_times": [{"days": "Mon-Fri", "time": "4:00pm"}, {"days": "Sat", "time": "11:00am"}, {"days": "Sun", "time": "Closed"}], "id": "6153500001", "name": "USPS COLLECTION BOX - PO LOBBY", "address": {"city": "GROVELAND", "state": "IL", "street": "18769 SPRINGFIELD RD", "postcode": "61535"}}},
{"geometry": {"type": "Point", "coordinates": [-89.7952798339, 40.691673532]}, "type": "Feature", "properties": {"collection_times": [{"days": "Mon-Fri", "time": "4:30pm"}, {"days": "Sat", "time": "10:30am"}, {"days": "Sun", "time": "Closed"}], "id": "6153600001", "name": "USPS COLLECTION BOX - BLUE BOX", "address": {"city": "HANNA CITY", "state": "IL", "street": "213 N MAIN ST", "postcode": "61536"}}},
{"geometry": {"type": "Point", "coordinates": [-89.7952798339, 40.691673532]}, "type": "Feature", "properties": {"collection_times": [{"days": "Mon-Fri", "time": "4:30pm"}, {"days": "Sat", "time": "10:30am"}, {"days": "Sun", "time": "Closed"}], "id": "6153600004", "name": "USPS COLLECTION BOX - PO LOBBY", "address": {"city": "HANNA CITY", "state": "IL", "street": "213 N MAIN ST", "postcode": "61536"}}},
{"geometry": {"type": "Point", "coordinates": [-89.3576148624, 41.1111413478]}, "type": "Feature", "properties": {"collection_times": [{"days": "Mon-Fri", "time": "4:30pm"}, {"days": "Sat", "time": "11:15am"}, {"days": "Sun", "time": "Closed"}], "id": "6153700000", "name": "USPS COLLECTION BOX - PO LOBBY", "address": {"city": "HENRY", "state": "IL", "street": "505 MAIN ST", "postcode": "61537"}}},
{"geometry": {"type": "Point", "coordinates": [-89.3576148624, 41.1111413478]}, "type": "Feature", "properties": {"collection_times": [{"days": "Mon-Fri", "time": "4:30pm"}, {"days": "Sat", "time": "11:15am"}, {"days": "Sun", "time": "Closed"}], "id": "6153700001", "name": "USPS COLLECTION BOX - BLUE BOX", "address": {"city": "HENRY", "state": "IL", "street": "505 MAIN ST", "postcode": "61537"}}},
{"geometry": {"type": "Point", "coordinates": [-89.3576148624, 41.1111413478]}, "type": "Feature", "properties": {"collection_times": [{"days": "Mon-Fri", "time": "4:30pm"}, {"days": "Sat", "time": "11:15am"}, {"days": "Sun", "time": "Closed"}], "id": "6153700004", "name": "USPS COLLECTION BOX - BLUE BOX", "address": {"city": "HENRY", "state": "IL", "street": "505 MAIN ST", "postcode": "61537"}}},
{"geometry": {"type": "Point", "coordinates": [-89.7751917695, 40.556910304]}, "type": "Feature", "properties": {"collection_times": [{"days": "Mon-Fri", "time": "4:00pm"}, {"days": "Sat", "time": "9:00am"}, {"days": "Sun", "time": "Closed"}], "id": "6153900000", "name": "USPS COLLECTION BOX - BLUE BOX", "address": {"city": "KINGSTON MINES", "state": "IL", "street": "209 WASHINGTON ST", "postcode": "61539"}}},
{"geometry": {"type": "Point", "coordinates": [-89.4107699528, 41.0257820205]}, "type": "Feature", "properties": {"collection_times": [{"days": "Mon-Fri", "time": "4:30pm"}, {"days": "Sat", "time": "12:00pm"}, {"days": "Sun", "time": "Closed"}], "id": "6154000001", "name": "USPS COLLECTION BOX - BLUE BOX", "address": {"city": "LACON", "state": "IL", "street": "209 N WASHINGTON ST", "postcode": "61540"}}},
{"geometry": {"type": "Point", "coordinates": [-89.4107699528, 41.0257820205]}, "type": "Feature", "properties": {"collection_times": [{"days": "Mon-Fri", "time": "4:30pm"}, {"days": "Sat", "time": "12:00pm"}, {"days": "Sun", "time": "Closed"}], "id": "6154000002", "name": "USPS COLLECTION BOX - PO LOBBY", "address": {"city": "LACON", "state": "IL", "street": "209 N WASHINGTON ST", "postcode": "61540"}}},
{"geometry": {"type": "Point", "coordinates": [-89.408018432, 41.0245148106]}, "type": "Feature", "properties": {"collection_times": [{"days": "Mon-Sat", "time": "1:45pm"}, {"days": "Sun", "time": "Closed"}], "id": "6154000003", "name": "USPS COLLECTION BOX - BLUE BOX", "address": {"city": "LACON", "state": "IL", "street": "515 5TH ST", "postcode": "61540"}}},
{"geometry": {"type": "Point", "coordinates": [-89.2375066717, 40.9771564138]}, "type": "Feature", "properties": {"collection_times": [{"days": "Mon-Fri", "time": "4:30pm"}, {"days": "Sat", "time": "10:15am"}, {"days": "Sun", "time": "Closed"}], "id": "6154100000", "name": "USPS COLLECTION BOX - BLUE BOX", "address": {"city": "LA ROSE", "state": "IL", "street": "111 S MAIN ST", "postcode": "61541"}}},
{"geometry": {"type": "Point", "coordinates": [-89.2375066717, 40.9771564138]}, "type": "Feature", "properties": {"collection_times": [{"days": "Mon-Fri", "time": "3:00pm"}, {"days": "Sat", "time": "2:45pm"}, {"days": "Sun", "time": "Closed"}], "id": "6154100001", "name": "USPS COLLECTION BOX - PO LOBBY", "address": {"city": "LA ROSE", "state": "IL", "street": "111 S MAIN ST", "postcode": "61541"}}},
{"geometry": {"type": "Point", "coordinates": [-90.1551198004, 40.397296991]}, "type": "Feature", "properties": {"collection_times": [{"days": "Mon-Fri", "time": "4:30pm"}, {"days": "Sat", "time": "11:30am"}, {"days": "Sun", "time": "Closed"}], "id": "6154200002", "name": "USPS COLLECTION BOX - PO LOBBY", "address": {"city": "LEWISTOWN", "state": "IL", "street": "301 N MAIN ST", "postcode": "61542"}}},
{"geometry": {"type": "Point", "coordinates": [-90.1551198004, 40.397296991]}, "type": "Feature", "properties": {"collection_times": [{"days": "Mon-Fri", "time": "4:30pm"}, {"days": "Sat", "time": "11:30am"}, {"days": "Sun", "time": "Closed"}], "id": "6154200005", "name": "USPS COLLECTION BOX - BLUE BOX", "address": {"city": "LEWISTOWN", "state": "IL", "street": "301 N MAIN ST", "postcode": "61542"}}},
{"geometry": {"type": "Point", "coordinates": [-90.1561525943, 40.3959142104]}, "type": "Feature", "properties": {"collection_times": [{"days": "Mon-Fri", "time": "4:00pm"}, {"days": "Sat", "time": "11:30am"}, {"days": "Sun", "time": "Closed"}], "id": "6154200007", "name": "USPS COLLECTION BOX - BLUE BOX", "address": {"city": "LEWISTOWN", "state": "IL", "street": "100 N ADAMS ST", "postcode": "61542"}}},
{"geometry": {"type": "Point", "coordinates": [-90.1551198004, 40.397296991]}, "type": "Feature", "properties": {"collection_times": [{"days": "Mon-Fri", "time": "4:30pm"}, {"days": "Sat", "time": "11:30am"}, {"days": "Sun", "time": "Closed"}], "id": "6154200008", "name": "USPS COLLECTION BOX - BLUE BOX", "address": {"city": "LEWISTOWN", "state": "IL", "street": "301 N MAIN ST", "postcode": "61542"}}},
{"geometry": {"type": "Point", "coordinates": [-90.0017145376, 40.3902282933]}, "type": "Feature", "properties": {"collection_times": [{"days": "Mon-Sat", "time": "10:45am"}, {"days": "Sun", "time": "Closed"}], "id": "6154300000", "name": "USPS COLLECTION BOX - BLUE BOX", "address": {"city": "LIVERPOOL", "state": "IL", "street": "145 W CHESTNUT ST", "postcode": "61543"}}},
{"geometry": {"type": "Point", "coordinates": [-90.0017145376, 40.3902282933]}, "type": "Feature", "properties": {"collection_times": [{"days": "Mon-Sat", "time": "10:45am"}, {"days": "Sun", "time": "Closed"}], "id": "6154300001", "name": "USPS COLLECTION BOX - PO LOBBY", "address": {"city": "LIVERPOOL", "state": "IL", "street": "145 W CHESTNUT ST", "postcode": "61543"}}},
{"geometry": {"type": "Point", "coordinates": [-90.265908818, 40.7120916764]}, "type": "Feature", "properties": {"collection_times": [{"days": "Mon-Fri", "time": "4:15pm"}, {"days": "Sat", "time": "10:15am"}, {"days": "Sun", "time": "Closed"}], "id": "6154400001", "name": "USPS COLLECTION BOX - BLUE BOX", "address": {"city": "LONDON MILLS", "state": "IL", "street": "102 S 2ND ST", "postcode": "61544"}}},
{"geometry": {"type": "Point", "coordinates": [-90.265908818, 40.7120916764]}, "type": "Feature", "properties": {"collection_times": [{"days": "Mon-Fri", "time": "11:00am"}, {"days": "Sat", "time": "8:45am"}, {"days": "Sun", "time": "Closed"}], "id": "6154400002", "name": "USPS COLLECTION BOX - PO LOBBY", "address": {"city": "LONDON MILLS", "state": "IL", "street": "102 S 2ND ST", "postcode": "61544"}}},
{"geometry": {"type": "Point", "coordinates": [-89.3156864768, 40.8727930508]}, "type": "Feature", "properties": {"collection_times": [{"days": "Mon-Fri", "time": "11:00am"}, {"days": "Sat", "time": "8:30am"}, {"days": "Sun", "time": "Closed"}], "id": "6154500001", "name": "USPS COLLECTION BOX - PO LOBBY", "address": {"city": "LOWPOINT", "state": "IL", "street": "1954 N GRANT ST", "postcode": "61545"}}},
{"geometry": {"type": "Point", "coordinates": [-89.3156864768, 40.8727930508]}, "type": "Feature", "properties": {"collection_times": [{"days": "Mon-Fri", "time": "4:30pm"}, {"days": "Sat", "time": "9:00am"}, {"days": "Sun", "time": "Closed"}], "id": "6154500002", "name": "USPS COLLECTION BOX - BLUE BOX", "address": {"city": "LOWPOINT", "state": "IL", "street": "1954 N GRANT ST", "postcode": "61545"}}},
{"geometry": {"type": "Point", "coordinates": [-89.7785377825, 40.425341644]}, "type": "Feature", "properties": {"collection_times": [{"days": "Mon-Fri", "time": "4:00pm"}, {"days": "Sat", "time": "11:00am"}, {"days": "Sun", "time": "Closed"}], "id": "6154600001", "name": "USPS COLLECTION BOX - PO LOBBY", "address": {"city": "MANITO", "state": "IL", "street": "201 N WASHINGTON ST", "postcode": "61546"}}},
{"geometry": {"type": "Point", "coordinates": [-89.7785377825, 40.425341644]}, "type": "Feature", "properties": {"collection_times": [{"days": "Mon-Fri", "time": "4:00pm"}, {"days": "Sat", "time": "11:00am"}, {"days": "Sun", "time": "Closed"}], "id": "6154600002", "name": "USPS COLLECTION BOX - BLUE BOX", "address": {"city": "MANITO", "state": "IL", "street": "201 N WASHINGTON ST", "postcode": "61546"}}},
{"geometry": {"type": "Point", "coordinates": [-89.7294387038, 40.5671978578]}, "type": "Feature", "properties": {"collection_times": [{"days": "Mon-Fri", "time": "4:15pm"}, {"days": "Sat", "time": "7:45am"}, {"days": "Sun", "time": "Closed"}], "id": "6154700000", "name": "USPS COLLECTION BOX - BLUE BOX", "address": {"city": "MAPLETON", "state": "IL", "street": "8607 W MAIN ST", "postcode": "61547"}}},
{"geometry": {"type": "Point", "coordinates": [-89.7294387038, 40.5671978578]}, "type": "Feature", "properties": {"collection_times": [{"days": "Mon-Fri", "time": "2:00pm"}, {"days": "Sat", "time": "7:45am"}, {"days": "Sun", "time": "Closed"}], "id": "6154700002", "name": "USPS COLLECTION BOX - PO LOBBY", "address": {"city": "MAPLETON", "state": "IL", "street": "8607 W MAIN ST", "postcode": "61547"}}},
{"geometry": {"type": "Point", "coordinates": [-89.3617768646, 40.7895125596]}, "type": "Feature", "properties": {"collection_times": [{"days": "Mon-Fri", "time": "4:30pm"}, {"days": "Sat", "time": "11:30am"}, {"days": "Sun", "time": "Closed"}], "id": "6154800001", "name": "USPS COLLECTION BOX - BLUE BOX", "address": {"city": "METAMORA", "state": "IL", "street": "204 S DAVENPORT ST", "postcode": "61548"}}},
{"geometry": {"type": "Point", "coordinates": [-89.3629017316, 40.79159409]}, "type": "Feature", "properties": {"collection_times": [{"days": "Mon-Fri", "time": "5:00pm"}, {"days": "Sat", "time": "11:30am"}, {"days": "Sun", "time": "Closed"}], "id": "6154800002", "name": "USPS COLLECTION BOX - PO LOBBY", "address": {"city": "METAMORA", "state": "IL", "street": "123 E PARTRIDGE ST", "postcode": "61548"}}},
{"geometry": {"type": "Point", "coordinates": [-89.4763181779, 40.7577812531]}, "type": "Feature", "properties": {"collection_times": [{"days": "Mon-Sat", "time": "10:30am"}, {"days": "Sun", "time": "Closed"}], "id": "6154800003", "name": "USPS COLLECTION BOX - BLUE BOX", "address": {"city": "METAMORA", "state": "IL", "street": "605 TEN MILE CREEK RD", "postcode": "61548"}}},
{"geometry": {"type": "Point", "coordinates": [-89.4734942497, 40.7657296566]}, "type": "Feature", "properties": {"collection_times": [{"days": "Mon-Sat", "time": "10:30am"}, {"days": "Sun", "time": "Closed"}], "id": "6154800005", "name": "USPS COLLECTION BOX - BLUE BOX", "address": {"city": "METAMORA", "state": "IL", "street": "410 JUBILEE LN", "postcode": "61548"}}},
{"geometry": {"type": "Point", "coordinates": [-89.4706041973, 40.6193390144]}, "type": "Feature", "properties": {"collection_times": [{"days": "Mon-Sat", "time": "2:00pm"}, {"days": "Sun", "time": "Closed"}], "id": "6155000000", "name": "USPS COLLECTION BOX - BLUE BOX", "address": {"city": "MORTON", "state": "IL", "street": "1015 W JACKSON ST", "postcode": "61550"}}},
{"geometry": {"type": "Point", "coordinates": [-89.4755767371, 40.5888718191]}, "type": "Feature", "properties": {"collection_times": [{"days": "Mon-Sat", "time": "12:00pm"}, {"days": "Sun", "time": "Closed"}], "id": "6155000001", "name": "USPS COLLECTION BOX - BLUE BOX", "address": {"city": "MORTON", "state": "IL", "street": "2109 S MAIN ST", "postcode": "61550"}}},
{"geometry": {"type": "Point", "coordinates": [-89.461609994, 40.6104488427]}, "type": "Feature", "properties": {"collection_times": [{"days": "Mon-Sat", "time": "2:00pm"}, {"days": "Sun", "time": "Closed"}], "id": "6155000004", "name": "USPS COLLECTION BOX - BLUE BOX", "address": {"city": "MORTON", "state": "IL", "street": "120 N MAIN ST", "postcode": "61550"}}},
{"geometry": {"type": "Point", "coordinates": [-89.4641712951, 40.6183028215]}, "type": "Feature", "properties": {"collection_times": [{"days": "Mon-Sat", "time": "2:00pm"}, {"days": "Sun", "time": "Closed"}], "id": "6155000005", "name": "USPS COLLECTION BOX - BLUE BOX", "address": {"city": "MORTON", "state": "IL", "street": "500 N MORTON AVE", "postcode": "61550"}}},
{"geometry": {"type": "Point", "coordinates": [-89.4796224853, 40.622337278]}, "type": "Feature", "properties": {"collection_times": [{"days": "Mon-Sat", "time": "9:30am"}, {"days": "Sun", "time": "Closed"}], "id": "6155000012", "name": "USPS COLLECTION BOX - BLUE BOX", "address": {"city": "MORTON", "state": "IL", "street": "1301 W JEFFERSON ST", "postcode": "61550"}}},
{"geometry": {"type": "Point", "coordinates": [-89.4668938025, 40.6147283902]}, "type": "Feature", "properties": {"collection_times": [{"days": "Mon-Fri", "time": "5:00pm"}, {"days": "Sat", "time": "1:00pm"}, {"days": "Sun", "time": "Closed"}], "id": "6155000013", "name": "USPS COLLECTION BOX - BLUE BOX", "address": {"city": "MORTON", "state": "IL", "street": "600 W JEFFERSON ST", "postcode": "61550"}}},
{"geometry": {"type": "Point", "coordinates": [-89.4668938025, 40.6147283902]}, "type": "Feature", "properties": {"collection_times": [{"days": "Mon-Fri", "time": "5:00pm"}, {"days": "Sat", "time": "1:00pm"}, {"days": "Sun", "time": "Closed"}], "id": "6155000014", "name": "USPS COLLECTION BOX - BLUE BOX", "address": {"city": "MORTON", "state": "IL", "street": "600 W JEFFERSON ST", "postcode": "61550"}}},
{"geometry": {"type": "Point", "coordinates": [-89.4668938025, 40.6147283902]}, "type": "Feature", "properties": {"collection_times": [{"days": "Mon-Fri", "time": "5:00pm"}, {"days": "Sat", "time": "1:00pm"}, {"days": "Sun", "time": "Closed"}], "id": "6155000015", "name": "USPS COLLECTION BOX - BLUE BOX", "address": {"city": "MORTON", "state": "IL", "street": "600 W JEFFERSON ST", "postcode": "61550"}}},
{"geometry": {"type": "Point", "coordinates": [-89.4668938025, 40.6147283902]}, "type": "Feature", "properties": {"collection_times": [{"days": "Mon-Fri", "time": "5:00pm"}, {"days": "Sat", "time": "1:00pm"}, {"days": "Sun", "time": "Closed"}], "id": "6155000016", "name": "USPS COLLECTION BOX - PO LOBBY", "address": {"city": "MORTON", "state": "IL", "street": "600 W JEFFERSON ST", "postcode": "61550"}}},
{"geometry": {"type": "Point", "coordinates": [-89.4600798227, 40.6139823433]}, "type": "Feature", "properties": {"collection_times": [{"days": "Mon-Fri", "time": "5:00pm"}, {"days": "Sat", "time": "12:00pm"}, {"days": "Sun", "time": "Closed"}], "id": "6155000017", "name": "USPS COLLECTION BOX - EXPRESS", "address": {"city": "MORTON", "state": "IL", "street": "600 W JEFFERSON ST", "postcode": "61550"}}},
{"geometry": {"type": "Point", "coordinates": [-89.4668938025, 40.6147283902]}, "type": "Feature", "properties": {"collection_times": [{"days": "Mon-Fri", "time": "5:00pm"}, {"days": "Sat", "time": "1:00pm"}, {"days": "Sun", "time": "Closed"}], "id": "6155000018", "name": "USPS COLLECTION BOX - BLUE BOX", "address": {"city": "MORTON", "state": "IL", "street": "600 W JEFFERSON ST", "postcode": "61550"}}},
{"geometry": {"type": "Point", "coordinates": [-89.4628148445, 40.6284087023]}, "type": "Feature", "properties": {"collection_times": [{"days": "Mon-Sat", "time": "11:00am"}, {"days": "Sun", "time": "Closed"}], "id": "6155000019", "name": "USPS COLLECTION BOX - BLUE BOX", "address": {"city": "MORTON", "state": "IL", "street": "155 E COURTLAND ST", "postcode": "61550"}}},
{"geometry": {"type": "Point", "coordinates": [-89.5686236372, 40.8204810906]}, "type": "Feature", "properties": {"collection_times": [{"days": "Mon-Fri", "time": "4:30pm"}, {"days": "Sat", "time": "10:30am"}, {"days": "Sun", "time": "Closed"}], "id": "6155200000", "name": "USPS COLLECTION BOX - BLUE BOX", "address": {"city": "MOSSVILLE", "state": "IL", "street": "10420 STATE ST", "postcode": "61552"}}},
{"geometry": {"type": "Point", "coordinates": [-89.5686236372, 40.8204810906]}, "type": "Feature", "properties": {"collection_times": [{"days": "Mon-Fri", "time": "4:30pm"}, {"days": "Sat", "time": "10:30am"}, {"days": "Sun", "time": "Closed"}], "id": "6155200001", "name": "USPS COLLECTION BOX - PO LOBBY", "address": {"city": "MOSSVILLE", "state": "IL", "street": "10420 STATE ST", "postcode": "61552"}}},
{"geometry": {"type": "Point", "coordinates": [-90.0342195754, 40.6258006129]}, "type": "Feature", "properties": {"collection_times": [{"days": "Mon-Fri", "time": "4:00pm"}, {"days": "Sat", "time": "10:00am"}, {"days": "Sun", "time": "Closed"}], "id": "6155300000", "name": "USPS COLLECTION BOX - BLUE BOX", "address": {"city": "NORRIS", "state": "IL", "street": "205 W DIVISION ST", "postcode": "61553"}}},
{"geometry": {"type": "Point", "coordinates": [-90.0342195754, 40.6258006129]}, "type": "Feature", "properties": {"collection_times": [{"days": "Mon-Fri", "time": "4:00pm"}, {"days": "Sat", "time": "9:30am"}, {"days": "Sun", "time": "Closed"}], "id": "6155300001", "name": "USPS COLLECTION BOX - PO LOBBY", "address": {"city": "NORRIS", "state": "IL", "street": "205 W DIVISION ST", "postcode": "61553"}}},
{"geometry": {"type": "Point", "coordinates": [-89.6282032395, 40.5678442972]}, "type": "Feature", "properties": {"collection_times": [{"days": "Mon-Sat", "time": "1:00pm"}, {"days": "Sun", "time": "Closed"}], "id": "6155400003", "name": "USPS COLLECTION BOX - BLUE BOX", "address": {"city": "NORTH PEKIN", "state": "IL", "street": "1607 BROADWAY ST", "postcode": "61554"}}},
{"geometry": {"type": "Point", "coordinates": [-89.6375923833, 40.5657177326]}, "type": "Feature", "properties": {"collection_times": [{"days": "Mon-Sat", "time": "5:15pm"}, {"days": "Sun", "time": "Closed"}], "id": "6155400007", "name": "USPS COLLECTION BOX - BLUE BOX", "address": {"city": "NORTH PEKIN", "state": "IL", "street": "1001 COURT ST", "postcode": "61554"}}},
{"geometry": {"type": "Point", "coordinates": [-89.6167638889, 40.5587969939]}, "type": "Feature", "properties": {"collection_times": [{"days": "Mon-Sat", "time": "5:00pm"}, {"days": "Sun", "time": "Closed"}], "id": "6155400008", "name": "USPS COLLECTION BOX - BLUE BOX", "address": {"city": "NORTH PEKIN", "state": "IL", "street": "2105 COURT ST", "postcode": "61554"}}},
{"geometry": {"type": "Point", "coordinates": [-89.6085559481, 40.5508767362]}, "type": "Feature", "properties": {"collection_times": [{"days": "Mon-Sat", "time": "5:00pm"}, {"days": "Sun", "time": "Closed"}], "id": "6155400009", "name": "USPS COLLECTION BOX - BLUE BOX", "address": {"city": "NORTH PEKIN", "state": "IL", "street": "2910 COURT ST", "postcode": "61554"}}},
{"geometry": {"type": "Point", "coordinates": [-89.6043143475, 40.5469899627]}, "type": "Feature", "properties": {"collection_times": [{"days": "Mon-Sat", "time": "5:00pm"}, {"days": "Sun", "time": "Closed"}], "id": "6155400010", "name": "USPS COLLECTION BOX - BLUE BOX", "address": {"city": "NORTH PEKIN", "state": "IL", "street": "3269 COURT ST", "postcode": "61554"}}},
{"geometry": {"type": "Point", "coordinates": [-89.6458495131, 40.5680404537]}, "type": "Feature", "properties": {"collection_times": [{"days": "Mon-Sat", "time": "5:30pm"}, {"days": "Sun", "time": "Closed"}], "id": "6155400016", "name": "USPS COLLECTION BOX - BLUE BOX", "address": {"city": "NORTH PEKIN", "state": "IL", "street": "500 ELIZABETH ST", "postcode": "61554"}}},
{"geometry": {"type": "Point", "coordinates": [-89.6458495131, 40.5680404537]}, "type": "Feature", "properties": {"collection_times": [{"days": "Mon-Sat", "time": "5:30pm"}, {"days": "Sun", "time": "Closed"}], "id": "6155400017", "name": "USPS COLLECTION BOX - BLUE BOX", "address": {"city": "NORTH PEKIN", "state": "IL", "street": "500 ELIZABETH ST", "postcode": "61554"}}},
{"geometry": {"type": "Point", "coordinates": [-89.6026012802, 40.6195657368]}, "type": "Feature", "properties": {"collection_times": [{"days": "Mon-Sat", "time": "1:00pm"}, {"days": "Sun", "time": "Closed"}], "id": "6155400019", "name": "USPS COLLECTION BOX - BLUE BOX", "address": {"city": "NORTH PEKIN", "state": "IL", "street": "104 JOLIET RD", "postcode": "61554"}}},
{"geometry": {"type": "Point", "coordinates": [-89.6328390398, 40.5622277401]}, "type": "Feature", "properties": {"collection_times": [{"days": "Mon-Sat", "time": "1:00pm"}, {"days": "Sun", "time": "Closed"}], "id": "6155400021", "name": "USPS COLLECTION BOX - BLUE BOX", "address": {"city": "NORTH PEKIN", "state": "IL", "street": "1317 PARK AVE", "postcode": "61554"}}},
{"geometry": {"type": "Point", "coordinates": [-89.652428036, 40.5691007928]}, "type": "Feature", "properties": {"collection_times": [{"days": "Mon-Sat", "time": "5:15pm"}, {"days": "Sun", "time": "Closed"}], "id": "6155400022", "name": "USPS COLLECTION BOX - BLUE BOX", "address": {"city": "NORTH PEKIN", "state": "IL", "street": "206 SABELLA ST", "postcode": "61554"}}},
{"geometry": {"type": "Point", "coordinates": [-89.6346460597, 40.5823545349]}, "type": "Feature", "properties": {"collection_times": [{"days": "Mon-Sat", "time": "1:00pm"}, {"days": "Sun", "time": "Closed"}], "id": "6155400023", "name": "USPS COLLECTION BOX - BLUE BOX", "address": {"city": "NORTH PEKIN", "state": "IL", "street": "1201 SHERIDAN RD", "postcode": "61554"}}},
{"geometry": {"type": "Point", "coordinates": [-89.6215058476, 40.5824173577]}, "type": "Feature", "properties": {"collection_times": [{"days": "Mon-Sat", "time": "1:00pm"}, {"days": "Sun", "time": "Closed"}], "id": "6155400024", "name": "USPS COLLECTION BOX - BLUE BOX", "address": {"city": "NORTH PEKIN", "state": "IL", "street": "2015 SHERIDAN RD", "postcode": "61554"}}},
{"geometry": {"type": "Point", "coordinates": [-89.6471830554, 40.5689480061]}, "type": "Feature", "properties": {"collection_times": [{"days": "Mon-Sat", "time": "5:15pm"}, {"days": "Sun", "time": "Closed"}], "id": "6155400026", "name": "USPS COLLECTION BOX - BLUE BOX", "address": {"city": "NORTH PEKIN", "state": "IL", "street": "11 S 4TH ST", "postcode": "61554"}}},
{"geometry": {"type": "Point", "coordinates": [-89.6409811169, 40.578984244]}, "type": "Feature", "properties": {"collection_times": [{"days": "Mon-Sat", "time": "1:00pm"}, {"days": "Sun", "time": "Closed"}], "id": "6155400031", "name": "USPS COLLECTION BOX - BLUE BOX", "address": {"city": "NORTH PEKIN", "state": "IL", "street": "1414 N 8TH ST", "postcode": "61554"}}},
{"geometry": {"type": "Point", "coordinates": [-89.6458666381, 40.5675792634]}, "type": "Feature", "properties": {"collection_times": [{"days": "Mon-Sat", "time": "5:30pm"}, {"days": "Sun", "time": "Closed"}], "id": "6155400035", "name": "USPS COLLECTION BOX - PO LOBBY", "address": {"city": "NORTH PEKIN", "state": "IL", "street": "514 BROADWAY ST", "postcode": "61554"}}},
{"geometry": {"type": "Point", "coordinates": [-89.6458666381, 40.5675792634]}, "type": "Feature", "properties": {"collection_times": [{"days": "Mon-Sat", "time": "5:30pm"}, {"days": "Sun", "time": "Closed"}], "id": "6155400036", "name": "USPS COLLECTION BOX - PO LOBBY", "address": {"city": "NORTH PEKIN", "state": "IL", "street": "514 BROADWAY ST", "postcode": "61554"}}},
{"geometry": {"type": "Point", "coordinates": [-89.6458666381, 40.5675792634]}, "type": "Feature", "properties": {"collection_times": [{"days": "Mon-Sat", "time": "5:30pm"}, {"days": "Sun", "time": "Closed"}], "id": "6155400038", "name": "USPS COLLECTION BOX - BLUE BOX", "address": {"city": "NORTH PEKIN", "state": "IL", "street": "514 BROADWAY ST", "postcode": "61554"}}},
{"geometry": {"type": "Point", "coordinates": [-89.6085559481, 40.5508767362]}, "type": "Feature", "properties": {"collection_times": [{"days": "Mon-Sat", "time": "5:00pm"}, {"days": "Sun", "time": "Closed"}], "id": "6155400039", "name": "USPS COLLECTION BOX - BLUE BOX", "address": {"city": "NORTH PEKIN", "state": "IL", "street": "2910 COURT ST", "postcode": "61554"}}},
{"geometry": {"type": "Point", "coordinates": [-89.6458666381, 40.5675792634]}, "type": "Feature", "properties": {"collection_times": [{"days": "Mon-Sat", "time": "5:30pm"}, {"days": "Sun", "time": "Closed"}], "id": "6155400040", "name": "USPS COLLECTION BOX - APC", "address": {"city": "NORTH PEKIN", "state": "IL", "street": "514 BROADWAY ST", "postcode": "61554"}}},
{"geometry": {"type": "Point", "coordinates": [-89.7569005642, 40.9309502081]}, "type": "Feature", "properties": {"collection_times": [{"days": "Mon-Fri", "time": "4:30pm"}, {"days": "Sat", "time": "10:00am"}, {"days": "Sun", "time": "Closed"}], "id": "6155900001", "name": "USPS COLLECTION BOX - BLUE BOX", "address": {"city": "PRINCEVILLE", "state": "IL", "street": "133 E EVANS ST", "postcode": "61559"}}},
{"geometry": {"type": "Point", "coordinates": [-89.7569005642, 40.9309502081]}, "type": "Feature", "properties": {"collection_times": [{"days": "Mon-Fri", "time": "4:30pm"}, {"days": "Sat", "time": "10:00am"}, {"days": "Sun", "time": "Closed"}], "id": "6155900004", "name": "USPS COLLECTION BOX - PO LOBBY", "address": {"city": "PRINCEVILLE", "state": "IL", "street": "133 E EVANS ST", "postcode": "61559"}}},
{"geometry": {"type": "Point", "coordinates": [-89.3950605564, 41.1808752397]}, "type": "Feature", "properties": {"collection_times": [{"days": "Mon-Fri", "time": "4:00pm"}, {"days": "Sat", "time": "2:00pm"}, {"days": "Sun", "time": "Closed"}], "id": "6156000001", "name": "USPS COLLECTION BOX - BLUE BOX", "address": {"city": "PUTNAM", "state": "IL", "street": "107 CENTER ST", "postcode": "61560"}}},
{"geometry": {"type": "Point", "coordinates": [-89.3950605564, 41.1808752397]}, "type": "Feature", "properties": {"collection_times": [{"days": "Mon-Fri", "time": "4:00pm"}, {"days": "Sat", "time": "2:00pm"}, {"days": "Sun", "time": "Closed"}], "id": "6156000002", "name": "USPS COLLECTION BOX - PO LOBBY", "address": {"city": "PUTNAM", "state": "IL", "street": "107 CENTER ST", "postcode": "61560"}}},
{"geometry": {"type": "Point", "coordinates": [-89.1966161098, 40.7990835233]}, "type": "Feature", "properties": {"collection_times": [{"days": "Mon-Fri", "time": "4:30pm"}, {"days": "Sat", "time": "10:00am"}, {"days": "Sun", "time": "Closed"}], "id": "6156100000", "name": "USPS COLLECTION BOX - BLUE BOX", "address": {"city": "ROANOKE", "state": "IL", "street": "413 N MAIN ST", "postcode": "61561"}}},
{"geometry": {"type": "Point", "coordinates": [-89.1966161098, 40.7990835233]}, "type": "Feature", "properties": {"collection_times": [{"days": "Mon-Fri", "time": "4:30pm"}, {"days": "Sat", "time": "10:00am"}, {"days": "Sun", "time": "Closed"}], "id": "6156100001", "name": "USPS COLLECTION BOX - PO LOBBY", "address": {"city": "ROANOKE", "state": "IL", "street": "413 N MAIN ST", "postcode": "61561"}}},
{"geometry": {"type": "Point", "coordinates": [-89.1966161098, 40.7990835233]}, "type": "Feature", "properties": {"collection_times": [{"days": "Mon-Fri", "time": "4:30pm"}, {"days": "Sat", "time": "10:00am"}, {"days": "Sun", "time": "Closed"}], "id": "6156100002", "name": "USPS COLLECTION BOX - BLUE BOX", "address": {"city": "ROANOKE", "state": "IL", "street": "413 N MAIN ST", "postcode": "61561"}}},
{"geometry": {"type": "Point", "coordinates": [-89.5023153713, 40.8789789294]}, "type": "Feature", "properties": {"collection_times": [{"days": "Mon-Fri", "time": "4:00pm"}, {"days": "Sat", "time": "9:45am"}, {"days": "Sun", "time": "Closed"}], "id": "6156200000", "name": "USPS COLLECTION BOX - BLUE BOX", "address": {"city": "ROME", "state": "IL", "street": "15715 RIVER BEACH RD", "postcode": "61562"}}},
{"geometry": {"type": "Point", "coordinates": [-89.5023153713, 40.8789789294]}, "type": "Feature", "properties": {"collection_times": [{"days": "Mon-Fri", "time": "4:00pm"}, {"days": "Sat", "time": "12:30pm"}, {"days": "Sun", "time": "Closed"}], "id": "6156200001", "name": "USPS COLLECTION BOX - PO LOBBY", "address": {"city": "ROME", "state": "IL", "street": "15715 RIVER BEACH RD", "postcode": "61562"}}},
{"geometry": {"type": "Point", "coordinates": [-90.0531895458, 40.4904089821]}, "type": "Feature", "properties": {"collection_times": [{"days": "Mon-Fri", "time": "4:00pm"}, {"days": "Sat", "time": "10:00am"}, {"days": "Sun", "time": "Closed"}], "id": "6156300000", "name": "USPS COLLECTION BOX - BLUE BOX", "address": {"city": "SAINT DAVID", "state": "IL", "street": "305 MAIN ST", "postcode": "61563"}}},
{"geometry": {"type": "Point", "coordinates": [-90.0531895458, 40.4904089821]}, "type": "Feature", "properties": {"collection_times": [{"days": "Mon-Fri", "time": "4:00pm"}, {"days": "Sat", "time": "12:45pm"}, {"days": "Sun", "time": "Closed"}], "id": "6156300001", "name": "USPS COLLECTION BOX - PO LOBBY", "address": {"city": "SAINT DAVID", "state": "IL", "street": "305 MAIN ST", "postcode": "61563"}}},
{"geometry": {"type": "Point", "coordinates": [-89.6521327465, 40.4946479899]}, "type": "Feature", "properties": {"collection_times": [{"days": "Mon-Fri", "time": "5:00pm"}, {"days": "Sat", "time": "10:00am"}, {"days": "Sun", "time": "Closed"}], "id": "6156400000", "name": "USPS COLLECTION BOX - BLUE BOX", "address": {"city": "SOUTH PEKIN", "state": "IL", "street": "306 MAIN ST", "postcode": "61564"}}},
{"geometry": {"type": "Point", "coordinates": [-89.6521327465, 40.4946479899]}, "type": "Feature", "properties": {"collection_times": [{"days": "Mon-Fri", "time": "4:30pm"}, {"days": "Sat", "time": "10:00am"}, {"days": "Sun", "time": "Closed"}], "id": "6156400001", "name": "USPS COLLECTION BOX - PO LOBBY", "address": {"city": "SOUTH PEKIN", "state": "IL", "street": "306 MAIN ST", "postcode": "61564"}}},
{"geometry": {"type": "Point", "coordinates": [-89.436608991, 41.0313453215]}, "type": "Feature", "properties": {"collection_times": [{"days": "Mon-Fri", "time": "4:00pm"}, {"days": "Sat", "time": "9:45am"}, {"days": "Sun", "time": "Closed"}], "id": "6156500000", "name": "USPS COLLECTION BOX - BLUE BOX", "address": {"city": "SPARLAND", "state": "IL", "street": "115 CENTER ST", "postcode": "61565"}}},
{"geometry": {"type": "Point", "coordinates": [-89.436608991, 41.0313453215]}, "type": "Feature", "properties": {"collection_times": [{"days": "Mon-Fri", "time": "11:00am"}, {"days": "Sat", "time": "9:45am"}, {"days": "Sun", "time": "Closed"}], "id": "6156500001", "name": "USPS COLLECTION BOX - PO LOBBY", "address": {"city": "SPARLAND", "state": "IL", "street": "115 CENTER ST", "postcode": "61565"}}},
{"geometry": {"type": "Point", "coordinates": [-89.9302978111, 40.3294904093]}, "type": "Feature", "properties": {"collection_times": [{"days": "Mon-Fri", "time": "4:00pm"}, {"days": "Sat", "time": "9:45am"}, {"days": "Sun", "time": "Closed"}], "id": "6156700000", "name": "USPS COLLECTION BOX - BLUE BOX", "address": {"city": "TOPEKA", "state": "IL", "street": "111 E 4TH ST", "postcode": "61567"}}},
{"geometry": {"type": "Point", "coordinates": [-89.9302978111, 40.3294904093]}, "type": "Feature", "properties": {"collection_times": [{"days": "Mon-Fri", "time": "4:00pm"}, {"days": "Sat", "time": "9:45am"}, {"days": "Sun", "time": "Closed"}], "id": "6156700001", "name": "USPS COLLECTION BOX - PO LOBBY", "address": {"city": "TOPEKA", "state": "IL", "street": "111 E 4TH ST", "postcode": "61567"}}},
{"geometry": {"type": "Point", "coordinates": [-89.4913053465, 40.5261657781]}, "type": "Feature", "properties": {"collection_times": [{"days": "Mon-Fri", "time": "4:30pm"}, {"days": "Sat", "time": "11:00am"}, {"days": "Sun", "time": "Closed"}], "id": "6156800001", "name": "USPS COLLECTION BOX - BLUE BOX", "address": {"city": "TREMONT", "state": "IL", "street": "108 W WALNUT ST", "postcode": "61568"}}},
{"geometry": {"type": "Point", "coordinates": [-89.4913033438, 40.5260561431]}, "type": "Feature", "properties": {"collection_times": [{"days": "Mon-Fri", "time": "4:30pm"}, {"days": "Sat", "time": "11:00am"}, {"days": "Sun", "time": "Closed"}], "id": "6156800003", "name": "USPS COLLECTION BOX - PO LOBBY", "address": {"city": "TREMONT", "state": "IL", "street": "109 W WALNUT ST", "postcode": "61568"}}},
{"geometry": {"type": "Point", "coordinates": [-89.4913053465, 40.5261657781]}, "type": "Feature", "properties": {"collection_times": [{"days": "Mon-Fri", "time": "4:30pm"}, {"days": "Sat", "time": "11:00am"}, {"days": "Sun", "time": "Closed"}], "id": "6156800004", "name": "USPS COLLECTION BOX - BLUE BOX", "address": {"city": "TREMONT", "state": "IL", "street": "108 W WALNUT ST", "postcode": "61568"}}},
{"geometry": {"type": "Point", "coordinates": [-89.8899981752, 40.6909909647]}, "type": "Feature", "properties": {"collection_times": [{"days": "Mon-Fri", "time": "4:00pm"}, {"days": "Sat", "time": "10:00am"}, {"days": "Sun", "time": "Closed"}], "id": "6156900001", "name": "USPS COLLECTION BOX - BLUE BOX", "address": {"city": "TRIVOLI", "state": "IL", "street": "18610 W MAIN ST", "postcode": "61569"}}},
{"geometry": {"type": "Point", "coordinates": [-89.8899981752, 40.6909909647]}, "type": "Feature", "properties": {"collection_times": [{"days": "Mon-Fri", "time": "12:00pm"}, {"days": "Sat", "time": "10:00am"}, {"days": "Sun", "time": "Closed"}], "id": "6156900002", "name": "USPS COLLECTION BOX - PO LOBBY", "address": {"city": "TRIVOLI", "state": "IL", "street": "18610 W MAIN ST", "postcode": "61569"}}},
{"geometry": {"type": "Point", "coordinates": [-89.8899804796, 40.6909535583]}, "type": "Feature", "properties": {"collection_times": [{"days": "Mon-Fri", "time": "4:00pm"}, {"days": "Sat", "time": "10:00am"}, {"days": "Sun", "time": "Closed"}], "id": "6156900003", "name": "USPS COLLECTION BOX - BLUE BOX", "address": {"city": "TRIVOLI", "state": "IL", "street": "18610 W MAIN ST", "postcode": "61569"}}},
{"geometry": {"type": "Point", "coordinates": [-89.2912113019, 40.9175399869]}, "type": "Feature", "properties": {"collection_times": [{"days": "Mon-Fri", "time": "4:00pm"}, {"days": "Sat", "time": "10:30am"}, {"days": "Sun", "time": "Closed"}], "id": "6157000002", "name": "USPS COLLECTION BOX - BLUE BOX", "address": {"city": "WASHBURN", "state": "IL", "street": "139 S JEFFERSON ST", "postcode": "61570"}}},
{"geometry": {"type": "Point", "coordinates": [-89.2912113019, 40.9175399869]}, "type": "Feature", "properties": {"collection_times": [{"days": "Mon-Fri", "time": "2:00pm"}, {"days": "Sat", "time": "10:30am"}, {"days": "Sun", "time": "Closed"}], "id": "6157000003", "name": "USPS COLLECTION BOX - PO LOBBY", "address": {"city": "WASHBURN", "state": "IL", "street": "139 S JEFFERSON ST", "postcode": "61570"}}},
{"geometry": {"type": "Point", "coordinates": [-89.4052449483, 40.7033283478]}, "type": "Feature", "properties": {"collection_times": [{"days": "Mon-Fri", "time": "5:00pm"}, {"days": "Sat", "time": "3:30pm"}, {"days": "Sun", "time": "Closed"}], "id": "6157100001", "name": "USPS COLLECTION BOX - BLUE BOX", "address": {"city": "WASHINGTON", "state": "IL", "street": "106 S HIGH ST", "postcode": "61571"}}},
{"geometry": {"type": "Point", "coordinates": [-89.4052449483, 40.7033283478]}, "type": "Feature", "properties": {"collection_times": [{"days": "Mon-Fri", "time": "5:00pm"}, {"days": "Sat", "time": "3:30pm"}, {"days": "Sun", "time": "Closed"}], "id": "6157100003", "name": "USPS COLLECTION BOX - BLUE BOX", "address": {"city": "WASHINGTON", "state": "IL", "street": "106 S HIGH ST", "postcode": "61571"}}},
{"geometry": {"type": "Point", "coordinates": [-89.4052449483, 40.7033283478]}, "type": "Feature", "properties": {"collection_times": [{"days": "Mon-Fri", "time": "5:00pm"}, {"days": "Sat", "time": "3:30pm"}, {"days": "Sun", "time": "Closed"}], "id": "6157100004", "name": "USPS COLLECTION BOX - BLUE BOX", "address": {"city": "WASHINGTON", "state": "IL", "street": "106 S HIGH ST", "postcode": "61571"}}},
{"geometry": {"type": "Point", "coordinates": [-89.4440467524, 40.7029506759]}, "type": "Feature", "properties": {"collection_times": [{"days": "Mon-Fri", "time": "5:00pm"}, {"days": "Sat", "time": "3:30pm"}, {"days": "Sun", "time": "Closed"}], "id": "6157100005", "name": "USPS COLLECTION BOX - EXPRESS", "address": {"city": "WASHINGTON", "state": "IL", "street": "106 S HIGH ST", "postcode": "61571"}}},
{"geometry": {"type": "Point", "coordinates": [-89.4834932571, 40.6907823448]}, "type": "Feature", "properties": {"collection_times": [{"days": "Mon-Sat", "time": "2:00pm"}, {"days": "Sun", "time": "Closed"}], "id": "6157100006", "name": "USPS COLLECTION BOX - BLUE BOX", "address": {"city": "WASHINGTON", "state": "IL", "street": "16 WASHINGTON PLZ", "postcode": "61571"}}},
{"geometry": {"type": "Point", "coordinates": [-89.4160199606, 40.7030659964]}, "type": "Feature", "properties": {"collection_times": [{"days": "Mon-Sat", "time": "1:00pm"}, {"days": "Sun", "time": "Closed"}], "id": "6157100016", "name": "USPS COLLECTION BOX - BLUE BOX", "address": {"city": "WASHINGTON", "state": "IL", "street": "100 CHERRY TREE SHOPPING CTR", "postcode": "61571"}}},
{"geometry": {"type": "Point", "coordinates": [-89.4052449483, 40.7033283478]}, "type": "Feature", "properties": {"collection_times": [{"days": "Mon-Fri", "time": "5:00pm"}, {"days": "Sat", "time": "3:30pm"}, {"days": "Sun", "time": "Closed"}], "id": "6157100020", "name": "USPS COLLECTION BOX - PO LOBBY", "address": {"city": "WASHINGTON", "state": "IL", "street": "106 S HIGH ST", "postcode": "61571"}}},
{"geometry": {"type": "Point", "coordinates": [-89.4229406551, 40.7020732069]}, "type": "Feature", "properties": {"collection_times": [{"days": "Mon-Sat", "time": "2:00pm"}, {"days": "Sun", "time": "Closed"}], "id": "6157100021", "name": "USPS COLLECTION BOX - BLUE BOX", "address": {"city": "WASHINGTON", "state": "IL", "street": "40 VALLEY FORGE RD", "postcode": "61571"}}},
{"geometry": {"type": "Point", "coordinates": [-90.0147442983, 40.7787152393]}, "type": "Feature", "properties": {"collection_times": [{"days": "Mon-Fri", "time": "4:15pm"}, {"days": "Sat", "time": "12:45pm"}, {"days": "Sun", "time": "Closed"}], "id": "6157200001", "name": "USPS COLLECTION BOX - BLUE BOX", "address": {"city": "YATES CITY", "state": "IL", "street": "109 W MAIN ST", "postcode": "61572"}}},
{"geometry": {"type": "Point", "coordinates": [-90.0147442983, 40.7787152393]}, "type": "Feature", "properties": {"collection_times": [{"days": "Mon-Fri", "time": "4:00pm"}, {"days": "Sat", "time": "12:45pm"}, {"days": "Sun", "time": "Closed"}], "id": "6157200002", "name": "USPS COLLECTION BOX - PO LOBBY", "address": {"city": "YATES CITY", "state": "IL", "street": "109 W MAIN ST", "postcode": "61572"}}}
]}
