{"type": "FeatureCollection", "features": [
{"geometry": {"type": "Point", "coordinates": [-89.6138062889, 40.6759203053]}, "type": "Feature", "properties": {"collection_times": [{"days": "Mon-Sat", "time": "12:00pm"}, {"days": "Sun", "time": "Closed"}], "id": "6160200006", "name": "USPS COLLECTION BOX - BLUE BOX", "address": {"city": "PEORIA", "state": "IL", "street": "2207 SW ADAMS ST", "postcode": "61602"}}},
{"geometry": {"type": "Point", "coordinates": [-89.5935620321, 40.672173114]}, "type": "Feature", "properties": {"collection_times": [{"days": "Mon-Fri", "time": "11:30am"}, {"days": "Sat-Sun", "time": "Closed"}], "id": "6160200008", "name": "USPS COLLECTION BOX - BLUE BOX", "address": {"city": "PEORIA", "state": "IL", "street": "400 RICHLAND ST", "postcode": "61602"}}},
{"geometry": {"type": "Point", "coordinates": [-89.6043861454, 40.6792617059]}, "type": "Feature", "properties": {"collection_times": [{"days": "Mon-Sat", "time": "7:00pm"}, {"days": "Sun", "time": "Closed"}], "id": "6160200010", "name": "USPS COLLECTION BOX - EXPRESS", "address": {"city": "PEORIA", "state": "IL", "street": "95 STATE ST", "postcode": "61602"}}},
{"geometry": {"type": "Point", "coordinates": [-89.5900234409, 40.6922378034]}, "type": "Feature", "properties": {"collection_times": [{"days": "Mon-Fri", "time": "4:45pm"}, {"days": "Sat-Sun", "time": "Closed"}], "id": "6160200012", "name": "USPS COLLECTION BOX - BLUE BOX", "address": {"city": "PEORIA", "state": "IL", "street": "324 MAIN ST", "postcode": "61602"}}},
{"geometry": {"type": "Point", "coordinates": [-89.5916120833, 40.6917083026]}, "type": "Feature", "properties": {"collection_times": [{"days": "Mon-Fri", "time": "5:00pm"}, {"days": "Sat-Sun", "time": "Closed"}], "id": "6160200013", "name": "USPS COLLECTION BOX - BLUE BOX", "address": {"city": "PEORIA", "state": "IL", "street": "331 FULTON ST", "postcode": "61602"}}},
{"geometry": {"type": "Point", "coordinates": [-89.5888747877, 40.693172341]}, "type": "Feature", "properties": {"collection_times": [{"days": "Mon-Fri", "time": "4:30pm"}, {"days": "Sat-Sun", "time": "Closed"}], "id": "6160200015", "name": "USPS COLLECTION BOX - BLUE BOX", "address": {"city": "PEORIA", "state": "IL", "street": "300 HAMILTON BLVD", "postcode": "61602"}}},
{"geometry": {"type": "Point", "coordinates": [-89.5924160115, 40.6899468178]}, "type": "Feature", "properties": {"collection_times": [{"days": "Mon-Fri", "time": "5:00pm"}, {"days": "Sat-Sun", "time": "Closed"}], "id": "6160200033", "name": "USPS COLLECTION BOX - BLUE BOX", "address": {"city": "PEORIA", "state": "IL", "street": "324 SW ADAMS ST", "postcode": "61602"}}},
{"geometry": {"type": "Point", "coordinates": [-89.6043861454, 40.6792617059]}, "type": "Feature", "properties": {"collection_times": [{"days": "Mon-Fri", "time": "4:45pm"}, {"days": "Sat-Sun", "time": "Closed"}], "id": "6160200036", "name": "USPS COLLECTION BOX - EXPRESS", "address": {"city": "PEORIA", "state": "IL", "street": "324 MAIN ST", "postcode": "61602"}}},
{"geometry": {"type": "Point", "coordinates": [-89.5916229691, 40.6938449303]}, "type": "Feature", "properties": {"collection_times": [{"days": "Mon-Sat", "time": "12:30pm"}, {"days": "Sun", "time": "Closed"}], "id": "6160200041", "name": "USPS COLLECTION BOX - BLUE BOX", "address": {"city": "PEORIA", "state": "IL", "street": "500 MAIN ST", "postcode": "61602"}}},
{"geometry": {"type": "Point", "coordinates": [-89.588670031, 40.6908679747]}, "type": "Feature", "properties": {"collection_times": [{"days": "Mon-Sat", "time": "11:30am"}, {"days": "Sun", "time": "Closed"}], "id": "6160200042", "name": "USPS COLLECTION BOX - BLUE BOX", "address": {"city": "PEORIA", "state": "IL", "street": "207 MAIN ST", "postcode": "61602"}}},
{"geometry": {"type": "Point", "coordinates": [-89.5947375324, 40.6849318488]}, "type": "Feature", "properties": {"collection_times": [{"days": "Mon-Sat", "time": "7:00pm"}, {"days": "Sun", "time": "Closed"}], "id": "6160200045", "name": "USPS COLLECTION BOX - BLUE BOX", "address": {"city": "PEORIA", "state": "IL", "street": "95 STATE ST", "postcode": "61602"}}},
{"geometry": {"type": "Point", "coordinates": [-89.5947375324, 40.6849318488]}, "type": "Feature", "properties": {"collection_times": [{"days": "Mon-Sat", "time": "7:00pm"}, {"days": "Sun", "time": "Closed"}], "id": "6160200046", "name": "USPS COLLECTION BOX - BLUE BOX", "address": {"city": "PEORIA", "state": "IL", "street": "95 STATE ST", "postcode": "61602"}}},
{"geometry": {"type": "Point", "coordinates": [-89.5947375324, 40.6849318488]}, "type": "Feature", "properties": {"collection_times": [{"days": "Mon-Sat", "time": "7:00pm"}, {"days": "Sun", "time": "Closed"}], "id": "6160200049", "name": "USPS COLLECTION BOX - PO LOBBY", "address": {"city": "PEORIA", "state": "IL", "street": "95 STATE ST", "postcode": "61602"}}},
{"geometry": {"type": "Point", "coordinates": [-89.5921403796, 40.692155049]}, "type": "Feature", "properties": {"collection_times": [{"days": "Mon-Sat", "time": "8:00am"}, {"days": "Sun", "time": "Closed"}], "id": "6160200054", "name": "USPS COLLECTION BOX - BLUE BOX", "address": {"city": "PEORIA", "state": "IL", "street": "419 FULTON ST", "postcode": "61602"}}},
{"geometry": {"type": "Point", "coordinates": [-89.5916229691, 40.6938449303]}, "type": "Feature", "properties": {"collection_times": [{"days": "Mon-Sat", "time": "12:30pm"}, {"days": "Sun", "time": "Closed"}], "id": "6160200061", "name": "USPS COLLECTION BOX - BLUE BOX", "address": {"city": "PEORIA", "state": "IL", "street": "500 MAIN ST", "postcode": "61602"}}},
{"geometry": {"type": "Point", "coordinates": [-89.5947375324, 40.6849318488]}, "type": "Feature", "properties": {"collection_times": [{"days": "Mon-Sat", "time": "7:00pm"}, {"days": "Sun", "time": "Closed"}], "id": "6160200062", "name": "USPS COLLECTION BOX - APC", "address": {"city": "PEORIA", "state": "IL", "street": "95 STATE ST", "postcode": "61602"}}},
{"geometry": {"type": "Point", "coordinates": [-89.6043861454, 40.6792617059]}, "type": "Feature", "properties": {"collection_times": [{"days": "Mon-Sat", "time": "7:00pm"}, {"days": "Sun", "time": "Closed"}], "id": "6160200063", "name": "USPS COLLECTION BOX - EXPRESS", "address": {"city": "PEORIA", "state": "IL", "street": "95 STATE ST", "postcode": "61602"}}},
{"geometry": {"type": "Point", "coordinates": [-89.5867738526, 40.6952141282]}, "type": "Feature", "properties": {"collection_times": [{"days": "Mon-Fri", "time": "5:00pm"}, {"days": "Sat-Sun", "time": "Closed"}], "id": "6160300006", "name": "USPS COLLECTION BOX - BLUE BOX", "address": {"city": "PEORIA", "state": "IL", "street": "400 NE JEFFERSON AVE", "postcode": "61603"}}},
{"geometry": {"type": "Point", "coordinates": [-89.5911003621, 40.6996572405]}, "type": "Feature", "properties": {"collection_times": [{"days": "Mon-Fri", "time": "3:30pm"}, {"days": "Sat", "time": "2:45pm"}, {"days": "Sun", "time": "Closed"}], "id": "6160300008", "name": "USPS COLLECTION BOX - BLUE BOX", "address": {"city": "PEORIA", "state": "IL", "street": "416 NE SAINT MARK CT", "postcode": "61603"}}},
{"geometry": {"type": "Point", "coordinates": [-89.5920202756, 40.7014838107]}, "type": "Feature", "properties": {"collection_times": [{"days": "Mon-Fri", "time": "4:15pm"}, {"days": "Sat-Sun", "time": "Closed"}], "id": "6160300009", "name": "USPS COLLECTION BOX - BLUE BOX", "address": {"city": "PEORIA", "state": "IL", "street": "420 NE GLEN OAK AVE", "postcode": "61603"}}},
{"geometry": {"type": "Point", "coordinates": [-89.5900743081, 40.7027117221]}, "type": "Feature", "properties": {"collection_times": [{"days": "Mon-Fri", "time": "4:15pm"}, {"days": "Sat", "time": "2:45pm"}, {"days": "Sun", "time": "Closed"}], "id": "6160300010", "name": "USPS COLLECTION BOX - BLUE BOX", "address": {"city": "PEORIA", "state": "IL", "street": "530 NE GLEN OAK AVE", "postcode": "61603"}}},
{"geometry": {"type": "Point", "coordinates": [-89.5917597493, 40.7051130952]}, "type": "Feature", "properties": {"collection_times": [{"days": "Mon-Sat", "time": "9:00am"}, {"days": "Sun", "time": "Closed"}], "id": "6160300011", "name": "USPS COLLECTION BOX - BLUE BOX", "address": {"city": "PEORIA", "state": "IL", "street": "200 E PENNSYLVANIA AVE", "postcode": "61603"}}},
{"geometry": {"type": "Point", "coordinates": [-89.5744373439, 40.7274275535]}, "type": "Feature", "properties": {"collection_times": [{"days": "Mon-Fri", "time": "2:00pm"}, {"days": "Sat", "time": "3:00pm"}, {"days": "Sun", "time": "Closed"}], "id": "6160300016", "name": "USPS COLLECTION BOX - BLUE BOX", "address": {"city": "PEORIA", "state": "IL", "street": "3309 N PROSPECT RD", "postcode": "61603"}}},
{"geometry": {"type": "Point", "coordinates": [-89.5928682109, 40.7254049262]}, "type": "Feature", "properties": {"collection_times": [{"days": "Mon-Fri", "time": "3:45pm"}, {"days": "Sat", "time": "2:45pm"}, {"days": "Sun", "time": "Closed"}], "id": "6160300017", "name": "USPS COLLECTION BOX - BLUE BOX", "address": {"city": "PEORIA", "state": "IL", "street": "3100 N KNOXVILLE AVE", "postcode": "61603"}}},
{"geometry": {"type": "Point", "coordinates": [-89.584197368, 40.7161643314]}, "type": "Feature", "properties": {"collection_times": [{"days": "Mon-Fri", "time": "4:00pm"}, {"days": "Sat", "time": "3:15pm"}, {"days": "Sun", "time": "Closed"}], "id": "6160300025", "name": "USPS COLLECTION BOX - BLUE BOX", "address": {"city": "PEORIA", "state": "IL", "street": "2321 N WISCONSIN AVE", "postcode": "61603"}}},
{"geometry": {"type": "Point", "coordinates": [-89.5887411134, 40.7305869671]}, "type": "Feature", "properties": {"collection_times": [{"days": "Mon-Fri", "time": "3:45pm"}, {"days": "Sat", "time": "3:00pm"}, {"days": "Sun", "time": "Closed"}], "id": "6160300026", "name": "USPS COLLECTION BOX - BLUE BOX", "address": {"city": "PEORIA", "state": "IL", "street": "3521 N CALIFORNIA AVE", "postcode": "61603"}}},
{"geometry": {"type": "Point", "coordinates": [-89.5823093655, 40.7247703579]}, "type": "Feature", "properties": {"collection_times": [{"days": "Mon-Fri", "time": "3:45pm"}, {"days": "Sat", "time": "3:00pm"}, {"days": "Sun", "time": "Closed"}], "id": "6160300027", "name": "USPS COLLECTION BOX - BLUE BOX", "address": {"city": "PEORIA", "state": "IL", "street": "801 E FORREST HILL AVE", "postcode": "61603"}}},
{"geometry": {"type": "Point", "coordinates": [-89.5931239763, 40.6961084451]}, "type": "Feature", "properties": {"collection_times": [{"days": "Mon-Fri", "time": "4:30pm"}, {"days": "Sat", "time": "2:30pm"}, {"days": "Sun", "time": "Closed"}], "id": "6160300043", "name": "USPS COLLECTION BOX - BLUE BOX", "address": {"city": "PEORIA", "state": "IL", "street": "109 NE PERRY AVE", "postcode": "61603"}}},
{"geometry": {"type": "Point", "coordinates": [-89.5669432871, 40.7129775899]}, "type": "Feature", "properties": {"collection_times": [{"days": "Mon-Fri", "time": "4:15pm"}, {"days": "Sat", "time": "4:00pm"}, {"days": "Sun", "time": "Closed"}], "id": "6160300044", "name": "USPS COLLECTION BOX - BLUE BOX", "address": {"city": "PEORIA", "state": "IL", "street": "309 NE ROCK ISLAND AVE", "postcode": "61603"}}},
{"geometry": {"type": "Point", "coordinates": [-89.6422653719, 40.6815350198]}, "type": "Feature", "properties": {"collection_times": [{"days": "Mon-Fri", "time": "4:30pm"}, {"days": "Sat", "time": "3:15pm"}, {"days": "Sun", "time": "Closed"}], "id": "6160400014", "name": "USPS COLLECTION BOX - BLUE BOX", "address": {"city": "PEORIA", "state": "IL", "street": "3103 W HARMON HWY", "postcode": "61604"}}},
{"geometry": {"type": "Point", "coordinates": [-89.5968739563, 40.7236737549]}, "type": "Feature", "properties": {"collection_times": [{"days": "Mon-Fri", "time": "3:15pm"}, {"days": "Sat", "time": "2:45pm"}, {"days": "Sun", "time": "Closed"}], "id": "6160400016", "name": "USPS COLLECTION BOX - BLUE BOX", "address": {"city": "PEORIA", "state": "IL", "street": "3002 N BIGELOW ST", "postcode": "61604"}}},
{"geometry": {"type": "Point", "coordinates": [-89.6314318291, 40.6960585012]}, "type": "Feature", "properties": {"collection_times": [{"days": "Mon-Fri", "time": "4:00pm"}, {"days": "Sat", "time": "3:15pm"}, {"days": "Sun", "time": "Closed"}], "id": "6160400023", "name": "USPS COLLECTION BOX - BLUE BOX", "address": {"city": "PEORIA", "state": "IL", "street": "2427 W ROHMANN AVE", "postcode": "61604"}}},
{"geometry": {"type": "Point", "coordinates": [-89.6130026157, 40.7095718362]}, "type": "Feature", "properties": {"collection_times": [{"days": "Mon-Fri", "time": "3:30pm"}, {"days": "Sat", "time": "3:00pm"}, {"days": "Sun", "time": "Closed"}], "id": "6160400024", "name": "USPS COLLECTION BOX - BLUE BOX", "address": {"city": "PEORIA", "state": "IL", "street": "1716 N UNIVERSITY ST", "postcode": "61604"}}},
{"geometry": {"type": "Point", "coordinates": [-89.6131952411, 40.7095149191]}, "type": "Feature", "properties": {"collection_times": [{"days": "Mon-Fri", "time": "3:30pm"}, {"days": "Sat", "time": "3:00pm"}, {"days": "Sun", "time": "Closed"}], "id": "6160400025", "name": "USPS COLLECTION BOX - BLUE BOX", "address": {"city": "PEORIA", "state": "IL", "street": "1815 N UNIVERSITY ST", "postcode": "61604"}}},
{"geometry": {"type": "Point", "coordinates": [-89.6128600477, 40.72925713]}, "type": "Feature", "properties": {"collection_times": [{"days": "Mon-Sat", "time": "3:30pm"}, {"days": "Sun", "time": "Closed"}], "id": "6160400027", "name": "USPS COLLECTION BOX - BLUE BOX", "address": {"city": "PEORIA", "state": "IL", "street": "3433 N UNIVERSITY ST", "postcode": "61604"}}},
{"geometry": {"type": "Point", "coordinates": [-89.6034512081, 40.7144052714]}, "type": "Feature", "properties": {"collection_times": [{"days": "Mon-Fri", "time": "3:30pm"}, {"days": "Sat", "time": "2:30pm"}, {"days": "Sun", "time": "Closed"}], "id": "6160400030", "name": "USPS COLLECTION BOX - BLUE BOX", "address": {"city": "PEORIA", "state": "IL", "street": "2203 N SHERIDAN RD", "postcode": "61604"}}},
{"geometry": {"type": "Point", "coordinates": [-89.6321840772, 40.7241569382]}, "type": "Feature", "properties": {"collection_times": [{"days": "Mon-Fri", "time": "3:30pm"}, {"days": "Sat", "time": "3:45pm"}, {"days": "Sun", "time": "Closed"}], "id": "6160400033", "name": "USPS COLLECTION BOX - BLUE BOX", "address": {"city": "PEORIA", "state": "IL", "street": "3011 N STERLING AVE", "postcode": "61604"}}},
{"geometry": {"type": "Point", "coordinates": [-89.5939020361, 40.7178236407]}, "type": "Feature", "properties": {"collection_times": [{"days": "Mon-Fri", "time": "3:30pm"}, {"days": "Sat", "time": "2:45pm"}, {"days": "Sun", "time": "Closed"}], "id": "6160400034", "name": "USPS COLLECTION BOX - BLUE BOX", "address": {"city": "PEORIA", "state": "IL", "street": "2515 N KNOXVILLE AVE", "postcode": "61604"}}},
{"geometry": {"type": "Point", "coordinates": [-89.6126250549, 40.7309051831]}, "type": "Feature", "properties": {"collection_times": [{"days": "Mon-Fri", "time": "3:15pm"}, {"days": "Sat", "time": "2:45pm"}, {"days": "Sun", "time": "Closed"}], "id": "6160400040", "name": "USPS COLLECTION BOX - BLUE BOX", "address": {"city": "PEORIA", "state": "IL", "street": "3524 N UNIVERSITY ST", "postcode": "61604"}}},
{"geometry": {"type": "Point", "coordinates": [-89.6354572797, 40.7099113747]}, "type": "Feature", "properties": {"collection_times": [{"days": "Mon-Fri", "time": "5:00pm"}, {"days": "Sat", "time": "2:15pm"}, {"days": "Sun", "time": "Closed"}], "id": "6160400042", "name": "USPS COLLECTION BOX - EXPRESS", "address": {"city": "PEORIA", "state": "IL", "street": "715 W GLEN AVE", "postcode": "61604"}}},
{"geometry": {"type": "Point", "coordinates": [-89.6037848025, 40.7468147982]}, "type": "Feature", "properties": {"collection_times": [{"days": "Mon-Fri", "time": "5:00pm"}, {"days": "Sat", "time": "2:15pm"}, {"days": "Sun", "time": "Closed"}], "id": "6160400043", "name": "USPS COLLECTION BOX - BLUE BOX", "address": {"city": "PEORIA", "state": "IL", "street": "715 W GLEN AVE", "postcode": "61604"}}},
{"geometry": {"type": "Point", "coordinates": [-89.6037848025, 40.7468147982]}, "type": "Feature", "properties": {"collection_times": [{"days": "Mon-Fri", "time": "5:00pm"}, {"days": "Sat", "time": "2:15pm"}, {"days": "Sun", "time": "Closed"}], "id": "6160400044", "name": "USPS COLLECTION BOX - BLUE BOX", "address": {"city": "PEORIA", "state": "IL", "street": "715 W GLEN AVE", "postcode": "61604"}}},
{"geometry": {"type": "Point", "coordinates": [-89.693679636, 40.690609332]}, "type": "Feature", "properties": {"collection_times": [{"days": "Mon-Fri", "time": "3:30pm"}, {"days": "Sat-Sun", "time": "Closed"}], "id": "6160400046", "name": "USPS COLLECTION BOX - BLUE BOX", "address": {"city": "PEORIA", "state": "IL", "street": "6303 W DEVELOPMENT DR", "postcode": "61604"}}},
{"geometry": {"type": "Point", "coordinates": [-89.6218925417, 40.6814171767]}, "type": "Feature", "properties": {"collection_times": [{"days": "Mon-Sat", "time": "3:15pm"}, {"days": "Sun", "time": "Closed"}], "id": "6160500005", "name": "USPS COLLECTION BOX - BLUE BOX", "address": {"city": "PEORIA", "state": "IL", "street": "1823 W LINCOLN AVE", "postcode": "61605"}}},
{"geometry": {"type": "Point", "coordinates": [-89.6330007819, 40.6677514268]}, "type": "Feature", "properties": {"collection_times": [{"days": "Mon-Sat", "time": "3:15pm"}, {"days": "Sun", "time": "Closed"}], "id": "6160500011", "name": "USPS COLLECTION BOX - BLUE BOX", "address": {"city": "PEORIA", "state": "IL", "street": "1833 S GRISWOLD ST", "postcode": "61605"}}},
{"geometry": {"type": "Point", "coordinates": [-89.6119164625, 40.6997756179]}, "type": "Feature", "properties": {"collection_times": [{"days": "Mon-Fri", "time": "4:15pm"}, {"days": "Sat", "time": "3:30pm"}, {"days": "Sun", "time": "Closed"}], "id": "6160600000", "name": "USPS COLLECTION BOX - BLUE BOX", "address": {"city": "PEORIA", "state": "IL", "street": "1200 W MAIN ST", "postcode": "61606"}}},
{"geometry": {"type": "Point", "coordinates": [-89.6160071346, 40.6953099478]}, "type": "Feature", "properties": {"collection_times": [{"days": "Mon-Fri", "time": "4:00pm"}, {"days": "Sat", "time": "3:15pm"}, {"days": "Sun", "time": "Closed"}], "id": "6160600004", "name": "USPS COLLECTION BOX - BLUE BOX", "address": {"city": "PEORIA", "state": "IL", "street": "617 N INSTITUTE PL", "postcode": "61606"}}},
{"geometry": {"type": "Point", "coordinates": [-89.6180631172, 40.6928375636]}, "type": "Feature", "properties": {"collection_times": [{"days": "Mon-Fri", "time": "3:45pm"}, {"days": "Sat-Sun", "time": "Closed"}], "id": "6160600007", "name": "USPS COLLECTION BOX - BLUE BOX", "address": {"city": "PEORIA", "state": "IL", "street": "402 N GLENWOOD AVE", "postcode": "61606"}}},
{"geometry": {"type": "Point", "coordinates": [-89.6145556439, 40.6974274444]}, "type": "Feature", "properties": {"collection_times": [{"days": "Mon-Fri", "time": "4:00pm"}, {"days": "Sat", "time": "3:15pm"}, {"days": "Sun", "time": "Closed"}], "id": "6160600010", "name": "USPS COLLECTION BOX - BLUE BOX", "address": {"city": "PEORIA", "state": "IL", "street": "830 N ELMWOOD AVE", "postcode": "61606"}}},
{"geometry": {"type": "Point", "coordinates": [-89.6712371227, 40.6451785128]}, "type": "Feature", "properties": {"collection_times": [{"days": "Mon-Fri", "time": "3:45pm"}, {"days": "Sat", "time": "4:15pm"}, {"days": "Sun", "time": "Closed"}], "id": "6160700011", "name": "USPS COLLECTION BOX - BLUE BOX", "address": {"city": "BARTONVILLE", "state": "IL", "street": "1101 W GARFIELD AVE", "postcode": "61607"}}},
{"geometry": {"type": "Point", "coordinates": [-89.687376618, 40.6707755846]}, "type": "Feature", "properties": {"collection_times": [{"days": "Mon-Fri", "time": "3:30pm"}, {"days": "Sat", "time": "4:00pm"}, {"days": "Sun", "time": "Closed"}], "id": "6160700015", "name": "USPS COLLECTION BOX - BLUE BOX", "address": {"city": "BARTONVILLE", "state": "IL", "street": "6100 W EVERETT M DIRKSEN PKWY", "postcode": "61607"}}},
{"geometry": {"type": "Point", "coordinates": [-89.648882244, 40.6565838547]}, "type": "Feature", "properties": {"collection_times": [{"days": "Mon-Fri", "time": "4:45pm"}, {"days": "Sat", "time": "4:15pm"}, {"days": "Sun", "time": "Closed"}], "id": "6160700025", "name": "USPS COLLECTION BOX - BLUE BOX", "address": {"city": "BARTONVILLE", "state": "IL", "street": "2500 KICKAPOO CREEK RD", "postcode": "61607"}}},
{"geometry": {"type": "Point", "coordinates": [-89.6744537273, 40.6452126985]}, "type": "Feature", "properties": {"collection_times": [{"days": "Mon-Fri", "time": "3:45pm"}, {"days": "Sat", "time": "4:15pm"}, {"days": "Sun", "time": "Closed"}], "id": "6160700026", "name": "USPS COLLECTION BOX - BLUE BOX", "address": {"city": "BARTONVILLE", "state": "IL", "street": "1399 W GARFIELD AVE", "postcode": "61607"}}},
{"geometry": {"type": "Point", "coordinates": [-89.6804358116, 40.6869594405]}, "type": "Feature", "properties": {"collection_times": [{"days": "Mon-Fri", "time": "4:30pm"}, {"days": "Sat", "time": "2:45pm"}, {"days": "Sun", "time": "Closed"}], "id": "6161000001", "name": "USPS COLLECTION BOX - BLUE BOX", "address": {"city": "CREVE COEUR", "state": "IL", "street": "216 N MAIN ST", "postcode": "61610"}}},
{"geometry": {"type": "Point", "coordinates": [-89.5456110783, 40.6896252098]}, "type": "Feature", "properties": {"collection_times": [{"days": "Mon-Fri", "time": "4:45pm"}, {"days": "Sat", "time": "3:00pm"}, {"days": "Sun", "time": "Closed"}], "id": "6161100013", "name": "USPS COLLECTION BOX - BLUE BOX", "address": {"city": "SPRING BAY", "state": "IL", "street": "2500 N MAIN ST", "postcode": "61611"}}},
{"geometry": {"type": "Point", "coordinates": [-89.5374423973, 40.6752351398]}, "type": "Feature", "properties": {"collection_times": [{"days": "Mon-Fri", "time": "4:45pm"}, {"days": "Sat", "time": "3:00pm"}, {"days": "Sun", "time": "Closed"}], "id": "6161100015", "name": "USPS COLLECTION BOX - BLUE BOX", "address": {"city": "SPRING BAY", "state": "IL", "street": "2490 E WASHINGTON ST", "postcode": "61611"}}},
{"geometry": {"type": "Point", "coordinates": [-89.5861318059, 40.6623354922]}, "type": "Feature", "properties": {"collection_times": [{"days": "Mon-Fri", "time": "4:30pm"}, {"days": "Sat", "time": "2:45pm"}, {"days": "Sun", "time": "Closed"}], "id": "6161100022", "name": "USPS COLLECTION BOX - BLUE BOX", "address": {"city": "SPRING BAY", "state": "IL", "street": "201 S MAIN ST", "postcode": "61611"}}},
{"geometry": {"type": "Point", "coordinates": [-89.5334346542, 40.6898153956]}, "type": "Feature", "properties": {"collection_times": [{"days": "Mon-Fri", "time": "4:45pm"}, {"days": "Sat", "time": "3:00pm"}, {"days": "Sun", "time": "Closed"}], "id": "6161100038", "name": "USPS COLLECTION BOX - BLUE BOX", "address": {"city": "SPRING BAY", "state": "IL", "street": "100 ILLINI DR", "postcode": "61611"}}},
{"geometry": {"type": "Point", "coordinates": [-89.5173261144, 40.8280353425]}, "type": "Feature", "properties": {"collection_times": [{"days": "Mon-Sat", "time": "9:30am"}, {"days": "Sun", "time": "Closed"}], "id": "6161100039", "name": "USPS COLLECTION BOX - BLUE BOX", "address": {"city": "SPRING BAY", "state": "IL", "street": "1605 N TREMONT ST", "postcode": "61611"}}},
{"geometry": {"type": "Point", "coordinates": [-89.5730933755, 40.6634947992]}, "type": "Feature", "properties": {"collection_times": [{"days": "Mon-Fri", "time": "5:00pm"}, {"days": "Sat", "time": "3:15pm"}, {"days": "Sun", "time": "Closed"}], "id": "6161100040", "name": "USPS COLLECTION BOX - BLUE BOX", "address": {"city": "SPRING BAY", "state": "IL", "street": "501 E WASHINGTON ST", "postcode": "61611"}}},
{"geometry": {"type": "Point", "coordinates": [-89.5730933755, 40.6634947992]}, "type": "Feature", "properties": {"collection_times": [{"days": "Mon-Fri", "time": "5:00pm"}, {"days": "Sat", "time": "3:15pm"}, {"days": "Sun", "time": "Closed"}], "id": "6161100041", "name": "USPS COLLECTION BOX - BLUE BOX", "address": {"city": "SPRING BAY", "state": "IL", "street": "501 E WASHINGTON ST", "postcode": "61611"}}},
{"geometry": {"type": "Point", "coordinates": [-89.5730933755, 40.6634947992]}, "type": "Feature", "properties": {"collection_times": [{"days": "Mon-Fri", "time": "5:00pm"}, {"days": "Sat", "time": "3:15pm"}, {"days": "Sun", "time": "Closed"}], "id": "6161100042", "name": "USPS COLLECTION BOX - BLUE BOX", "address": {"city": "SPRING BAY", "state": "IL", "street": "501 E WASHINGTON ST", "postcode": "61611"}}},
{"geometry": {"type": "Point", "coordinates": [-89.5730933755, 40.6634947992]}, "type": "Feature", "properties": {"collection_times": [{"days": "Mon-Fri", "time": "5:00pm"}, {"days": "Sat", "time": "3:15pm"}, {"days": "Sun", "time": "Closed"}], "id": "6161100043", "name": "USPS COLLECTION BOX - BLUE BOX", "address": {"city": "SPRING BAY", "state": "IL", "street": "501 E WASHINGTON ST", "postcode": "61611"}}},
{"geometry": {"type": "Point", "coordinates": [-89.5748890603, 40.6637840341]}, "type": "Feature", "properties": {"collection_times": [{"days": "Mon-Fri", "time": "5:00pm"}, {"days": "Sat", "time": "3:00pm"}, {"days": "Sun", "time": "Closed"}], "id": "6161100045", "name": "USPS COLLECTION BOX - PO LOBBY", "address": {"city": "SPRING BAY", "state": "IL", "street": "401 E WASHINGTON ST", "postcode": "61611"}}},
{"geometry": {"type": "Point", "coordinates": [-89.6044094049, 40.7395455154]}, "type": "Feature", "properties": {"collection_times": [{"days": "Mon-Sat", "time": "2:30pm"}, {"days": "Sun", "time": "Closed"}], "id": "6161400002", "name": "USPS COLLECTION BOX - BLUE BOX", "address": {"city": "PEORIA", "state": "IL", "street": "801 W LAKE AVE", "postcode": "61614"}}},
{"geometry": {"type": "Point", "coordinates": [-89.5933250794, 40.7521700534]}, "type": "Feature", "properties": {"collection_times": [{"days": "Mon-Fri", "time": "2:30pm"}, {"days": "Sat", "time": "2:15pm"}, {"days": "Sun", "time": "Closed"}], "id": "6161400008", "name": "USPS COLLECTION BOX - BLUE BOX", "address": {"city": "PEORIA", "state": "IL", "street": "5409 N KNOXVILLE AVE", "postcode": "61614"}}},
{"geometry": {"type": "Point", "coordinates": [-89.6030667464, 40.7381283305]}, "type": "Feature", "properties": {"collection_times": [{"days": "Mon-Sat", "time": "2:30pm"}, {"days": "Sun", "time": "Closed"}], "id": "6161400014", "name": "USPS COLLECTION BOX - BLUE BOX", "address": {"city": "PEORIA", "state": "IL", "street": "4125 N SHERIDAN RD", "postcode": "61614"}}},
{"geometry": {"type": "Point", "coordinates": [-89.5916145207, 40.7591282181]}, "type": "Feature", "properties": {"collection_times": [{"days": "Mon-Sat", "time": "2:15pm"}, {"days": "Sun", "time": "Closed"}], "id": "6161400021", "name": "USPS COLLECTION BOX - BLUE BOX", "address": {"city": "PEORIA", "state": "IL", "street": "5901 N PROSPECT RD", "postcode": "61614"}}},
{"geometry": {"type": "Point", "coordinates": [-89.6123547473, 40.7460673836]}, "type": "Feature", "properties": {"collection_times": [{"days": "Mon-Fri", "time": "3:00pm"}, {"days": "Sat", "time": "2:30pm"}, {"days": "Sun", "time": "Closed"}], "id": "6161400029", "name": "USPS COLLECTION BOX - BLUE BOX", "address": {"city": "PEORIA", "state": "IL", "street": "4800 N UNIVERSITY ST", "postcode": "61614"}}},
{"geometry": {"type": "Point", "coordinates": [-89.6039955009, 40.7617458382]}, "type": "Feature", "properties": {"collection_times": [{"days": "Mon-Sat", "time": "2:00pm"}, {"days": "Sun", "time": "Closed"}], "id": "6161400034", "name": "USPS COLLECTION BOX - BLUE BOX", "address": {"city": "PEORIA", "state": "IL", "street": "4700 N PROSPECT RD", "postcode": "61614"}}},
{"geometry": {"type": "Point", "coordinates": [-89.6312365483, 40.7758954784]}, "type": "Feature", "properties": {"collection_times": [{"days": "Mon-Fri", "time": "4:15pm"}, {"days": "Sat", "time": "4:00pm"}, {"days": "Sun", "time": "Closed"}], "id": "6161400041", "name": "USPS COLLECTION BOX - BLUE BOX", "address": {"city": "PEORIA", "state": "IL", "street": "7225 N ALLEN RD", "postcode": "61614"}}},
{"geometry": {"type": "Point", "coordinates": [-89.6039955009, 40.7617458382]}, "type": "Feature", "properties": {"collection_times": [{"days": "Mon-Fri", "time": "4:30pm"}, {"days": "Sat", "time": "2:00pm"}, {"days": "Sun", "time": "Closed"}], "id": "6161400042", "name": "USPS COLLECTION BOX - BLUE BOX", "address": {"city": "PEORIA", "state": "IL", "street": "# 1 NEWS PLZ", "postcode": "61614"}}},
{"geometry": {"type": "Point", "coordinates": [-89.612073796, 40.7645816589]}, "type": "Feature", "properties": {"collection_times": [{"days": "Mon-Sat", "time": "5:00pm"}, {"days": "Sun", "time": "Closed"}], "id": "6161400043", "name": "USPS COLLECTION BOX - BLUE BOX", "address": {"city": "PEORIA", "state": "IL", "street": "6310 N UNIVERSITY ST", "postcode": "61614"}}},
{"geometry": {"type": "Point", "coordinates": [-89.6026444301, 40.7717740494]}, "type": "Feature", "properties": {"collection_times": [{"days": "Mon-Fri", "time": "2:15pm"}, {"days": "Sat-Sun", "time": "Closed"}], "id": "6161400047", "name": "USPS COLLECTION BOX - BLUE BOX", "address": {"city": "PEORIA", "state": "IL", "street": "6907 N KNOXVILLE AVE", "postcode": "61614"}}},
{"geometry": {"type": "Point", "coordinates": [-89.612073796, 40.7645816589]}, "type": "Feature", "properties": {"collection_times": [{"days": "Mon-Sat", "time": "5:00pm"}, {"days": "Sun", "time": "Closed"}], "id": "6161400058", "name": "USPS COLLECTION BOX - BLUE BOX", "address": {"city": "PEORIA", "state": "IL", "street": "6310 N UNIVERSITY ST", "postcode": "61614"}}},
{"geometry": {"type": "Point", "coordinates": [-89.612073796, 40.7645816589]}, "type": "Feature", "properties": {"collection_times": [{"days": "Mon-Sat", "time": "5:00pm"}, {"days": "Sun", "time": "Closed"}], "id": "6161400068", "name": "USPS COLLECTION BOX - BLUE BOX", "address": {"city": "PEORIA", "state": "IL", "street": "6310 N UNIVERSITY ST", "postcode": "61614"}}},
{"geometry": {"type": "Point", "coordinates": [-89.612073796, 40.7645816589]}, "type": "Feature", "properties": {"collection_times": [{"days": "Mon-Sat", "time": "5:00pm"}, {"days": "Sun", "time": "Closed"}], "id": "6161400069", "name": "USPS COLLECTION BOX - BLUE BOX", "address": {"city": "PEORIA", "state": "IL", "street": "6310 N UNIVERSITY ST", "postcode": "61614"}}},
{"geometry": {"type": "Point", "coordinates": [-89.6186253749, 40.7488987681]}, "type": "Feature", "properties": {"collection_times": [{"days": "Mon-Fri", "time": "3:00pm"}, {"days": "Sat-Sun", "time": "Closed"}], "id": "6161400080", "name": "USPS COLLECTION BOX - BLUE BOX", "address": {"city": "PEORIA", "state": "IL", "street": "5105 N GLEN PARK PLACE RD", "postcode": "61614"}}},
{"geometry": {"type": "Point", "coordinates": [-89.6651657231, 40.7735426708]}, "type": "Feature", "properties": {"collection_times": [{"days": "Mon-Sat", "time": "3:45pm"}, {"days": "Sun", "time": "Closed"}], "id": "6161400081", "name": "USPS COLLECTION BOX - BLUE BOX", "address": {"city": "PEORIA", "state": "IL", "street": "4501 N WAR MEMORIAL DR", "postcode": "61614"}}},
{"geometry": {"type": "Point", "coordinates": [-89.6039955009, 40.7617458382]}, "type": "Feature", "properties": {"collection_times": [{"days": "Mon-Sat", "time": "2:00pm"}, {"days": "Sun", "time": "Closed"}], "id": "6161400082", "name": "USPS COLLECTION BOX - BLUE BOX", "address": {"city": "PEORIA", "state": "IL", "street": "4901 N PROSPECT RD", "postcode": "61614"}}},
{"geometry": {"type": "Point", "coordinates": [-89.6121246632, 40.7537942561]}, "type": "Feature", "properties": {"collection_times": [{"days": "Mon-Fri", "time": "3:00pm"}, {"days": "Sat-Sun", "time": "Closed"}], "id": "6161400096", "name": "USPS COLLECTION BOX - BLUE BOX", "address": {"city": "PEORIA", "state": "IL", "street": "5415 N UNIVERSITY ST", "postcode": "61614"}}},
{"geometry": {"type": "Point", "coordinates": [-89.612073796, 40.7645816589]}, "type": "Feature", "properties": {"collection_times": [{"days": "Mon-Sat", "time": "5:00pm"}, {"days": "Sun", "time": "Closed"}], "id": "6161400097", "name": "USPS COLLECTION BOX - BLUE BOX", "address": {"city": "PEORIA", "state": "IL", "street": "6310 N UNIVERSITY ST", "postcode": "61614"}}},
{"geometry": {"type": "Point", "coordinates": [-89.612073796, 40.7645816589]}, "type": "Feature", "properties": {"collection_times": [{"days": "Mon-Fri", "time": "6:00pm"}, {"days": "Sat", "time": "4:30pm"}, {"days": "Sun", "time": "Closed"}], "id": "6161400098", "name": "USPS COLLECTION BOX - PO LOBBY", "address": {"city": "PEORIA", "state": "IL", "street": "6310 N UNIVERSITY ST", "postcode": "61614"}}},
{"geometry": {"type": "Point", "coordinates": [-89.612073796, 40.7645816589]}, "type": "Feature", "properties": {"collection_times": [{"days": "Mon-Fri", "time": "6:00pm"}, {"days": "Sat", "time": "4:30pm"}, {"days": "Sun", "time": "Closed"}], "id": "6161400099", "name": "USPS COLLECTION BOX - PO LOBBY", "address": {"city": "PEORIA", "state": "IL", "street": "6310 N UNIVERSITY ST", "postcode": "61614"}}},
{"geometry": {"type": "Point", "coordinates": [-89.6104778431, 40.7582930109]}, "type": "Feature", "properties": {"collection_times": [{"days": "Mon-Sat", "time": "5:00pm"}, {"days": "Sun", "time": "Closed"}], "id": "6161400102", "name": "USPS COLLECTION BOX - EXPRESS", "address": {"city": "PEORIA", "state": "IL", "street": "6310 N UNIVERSITY ST", "postcode": "61614"}}},
{"geometry": {"type": "Point", "coordinates": [-89.612073796, 40.7645816589]}, "type": "Feature", "properties": {"collection_times": [{"days": "Mon-Fri", "time": "6:00pm"}, {"days": "Sat", "time": "4:30pm"}, {"days": "Sun", "time": "Closed"}], "id": "6161400103", "name": "USPS COLLECTION BOX - PO LOBBY", "address": {"city": "PEORIA", "state": "IL", "street": "6310 N UNIVERSITY ST", "postcode": "61614"}}},
{"geometry": {"type": "Point", "coordinates": [-89.612073796, 40.7645816589]}, "type": "Feature", "properties": {"collection_times": [{"days": "Mon-Fri", "time": "6:00pm"}, {"days": "Sat", "time": "4:30pm"}, {"days": "Sun", "time": "Closed"}], "id": "6161400104", "name": "USPS COLLECTION BOX - APC", "address": {"city": "PEORIA", "state": "IL", "street": "6310 N UNIVERSITY ST", "postcode": "61614"}}},
{"geometry": {"type": "Point", "coordinates": [-89.6350397613, 40.7501862313]}, "type": "Feature", "properties": {"collection_times": [{"days": "Mon-Sat", "time": "4:00pm"}, {"days": "Sun", "time": "Closed"}], "id": "6161500003", "name": "USPS COLLECTION BOX - BLUE BOX", "address": {"city": "PEORIA", "state": "IL", "street": "5001 N BIG HOLLOW RD", "postcode": "61615"}}},
{"geometry": {"type": "Point", "coordinates": [-89.6319344412, 40.7337535648]}, "type": "Feature", "properties": {"collection_times": [{"days": "Mon-Sat", "time": "3:45pm"}, {"days": "Sun", "time": "Closed"}], "id": "6161500005", "name": "USPS COLLECTION BOX - BLUE BOX", "address": {"city": "PEORIA", "state": "IL", "street": "3805 N STERLING AVE", "postcode": "61615"}}},
{"geometry": {"type": "Point", "coordinates": [-89.6317759776, 40.7428578005]}, "type": "Feature", "properties": {"collection_times": [{"days": "Mon-Fri", "time": "4:00pm"}, {"days": "Sat-Sun", "time": "Closed"}], "id": "6161500006", "name": "USPS COLLECTION BOX - BLUE BOX", "address": {"city": "PEORIA", "state": "IL", "street": "4507 N STERLING AVE", "postcode": "61615"}}},
{"geometry": {"type": "Point", "coordinates": [-89.6232444775, 40.7833540347]}, "type": "Feature", "properties": {"collection_times": [{"days": "Mon-Fri", "time": "4:15pm"}, {"days": "Sat", "time": "4:00pm"}, {"days": "Sun", "time": "Closed"}], "id": "6161500012", "name": "USPS COLLECTION BOX - BLUE BOX", "address": {"city": "PEORIA", "state": "IL", "street": "2000 W PIONEER PKWY", "postcode": "61615"}}},
{"geometry": {"type": "Point", "coordinates": [-89.656556602, 40.7749656727]}, "type": "Feature", "properties": {"collection_times": [{"days": "Mon-Fri", "time": "4:15pm"}, {"days": "Sat", "time": "4:00pm"}, {"days": "Sun", "time": "Closed"}], "id": "6161500025", "name": "USPS COLLECTION BOX - BLUE BOX", "address": {"city": "PEORIA", "state": "IL", "street": "4100 W WILLOW KNOLLS DR", "postcode": "61615"}}},
{"geometry": {"type": "Point", "coordinates": [-89.6536701593, 40.7700050781]}, "type": "Feature", "properties": {"collection_times": [{"days": "Mon-Sat", "time": "4:00pm"}, {"days": "Sun", "time": "Closed"}], "id": "6161500026", "name": "USPS COLLECTION BOX - BLUE BOX", "address": {"city": "PEORIA", "state": "IL", "street": "3915 BARRING TRCE", "postcode": "61615"}}},
{"geometry": {"type": "Point", "coordinates": [-89.6102082697, 40.7996067079]}, "type": "Feature", "properties": {"collection_times": [{"days": "Mon-Sat", "time": "4:15pm"}, {"days": "Sun", "time": "Closed"}], "id": "6161500027", "name": "USPS COLLECTION BOX - BLUE BOX", "address": {"city": "PEORIA", "state": "IL", "street": "9219 N LINDBERGH DR", "postcode": "61615"}}}
]}
