{"type": "FeatureCollection", "features": [
{"geometry": {"type": "Point", "coordinates": [-88.9946486308, 40.4813146684]}, "type": "Feature", "properties": {"collection_times": [{"days": "Mon-Fri", "time": "5:30pm"}, {"days": "Sat", "time": "2:30pm"}, {"days": "Sun", "time": "Closed"}], "id": "6170100000", "name": "USPS COLLECTION BOX - BLUE BOX", "address": {"city": "BLOOMINGTON", "state": "IL", "street": "401 N CENTER ST", "postcode": "61701"}}},
{"geometry": {"type": "Point", "coordinates": [-88.987899385, 40.4788700522]}, "type": "Feature", "properties": {"collection_times": [{"days": "Mon-Fri", "time": "5:30pm"}, {"days": "Sat", "time": "2:30pm"}, {"days": "Sun", "time": "Closed"}], "id": "6170100001", "name": "USPS COLLECTION BOX - EXPRESS", "address": {"city": "BLOOMINGTON", "state": "IL", "street": "401 N CENTER ST", "postcode": "61701"}}},
{"geometry": {"type": "Point", "coordinates": [-88.9944964954, 40.4787217769]}, "type": "Feature", "properties": {"collection_times": [{"days": "Mon-Fri", "time": "4:30pm"}, {"days": "Sat", "time": "2:30pm"}, {"days": "Sun", "time": "Closed"}], "id": "6170100004", "name": "USPS COLLECTION BOX - BLUE BOX", "address": {"city": "BLOOMINGTON", "state": "IL", "street": "101 N CENTER ST", "postcode": "61701"}}},
{"geometry": {"type": "Point", "coordinates": [-88.9939428448, 40.4881928137]}, "type": "Feature", "properties": {"collection_times": [{"days": "Mon-Fri", "time": "4:30pm"}, {"days": "Sat", "time": "2:30pm"}, {"days": "Sun", "time": "Closed"}], "id": "6170100008", "name": "USPS COLLECTION BOX - BLUE BOX", "address": {"city": "BLOOMINGTON", "state": "IL", "street": "1001 N MAIN ST", "postcode": "61701"}}},
{"geometry": {"type": "Point", "coordinates": [-88.9937686573, 40.4806485886]}, "type": "Feature", "properties": {"collection_times": [{"days": "Mon-Fri", "time": "5:00pm"}, {"days": "Sat", "time": "3:00pm"}, {"days": "Sun", "time": "Closed"}], "id": "6170100010", "name": "USPS COLLECTION BOX - BLUE BOX", "address": {"city": "BLOOMINGTON", "state": "IL", "street": "320 N MAIN ST", "postcode": "61701"}}},
{"geometry": {"type": "Point", "coordinates": [-88.987899385, 40.4788700522]}, "type": "Feature", "properties": {"collection_times": [{"days": "Mon-Fri", "time": "6:30pm"}, {"days": "Sat", "time": "3:30pm"}, {"days": "Sun", "time": "Closed"}], "id": "6170100017", "name": "USPS COLLECTION BOX - EXPRESS", "address": {"city": "BLOOMINGTON", "state": "IL", "street": "1511 E EMPIRE ST", "postcode": "61701"}}},
{"geometry": {"type": "Point", "coordinates": [-89.0160116575, 40.483071949]}, "type": "Feature", "properties": {"collection_times": [{"days": "Mon-Fri", "time": "4:00pm"}, {"days": "Sat", "time": "2:00pm"}, {"days": "Sun", "time": "Closed"}], "id": "6170100030", "name": "USPS COLLECTION BOX - BLUE BOX", "address": {"city": "BLOOMINGTON", "state": "IL", "street": "1522 W MARKET ST", "postcode": "61701"}}},
{"geometry": {"type": "Point", "coordinates": [-89.0018118804, 40.471923879]}, "type": "Feature", "properties": {"collection_times": [{"days": "Mon-Fri", "time": "4:00pm"}, {"days": "Sat", "time": "2:00pm"}, {"days": "Sun", "time": "Closed"}], "id": "6170100033", "name": "USPS COLLECTION BOX - BLUE BOX", "address": {"city": "BLOOMINGTON", "state": "IL", "street": "906 S ALLIN ST", "postcode": "61701"}}},
{"geometry": {"type": "Point", "coordinates": [-88.9606884547, 40.4883850333]}, "type": "Feature", "properties": {"collection_times": [{"days": "Mon-Fri", "time": "4:15pm"}, {"days": "Sat", "time": "2:15pm"}, {"days": "Sun", "time": "Closed"}], "id": "6170100054", "name": "USPS COLLECTION BOX - BLUE BOX", "address": {"city": "BLOOMINGTON", "state": "IL", "street": "1404 E EMPIRE ST", "postcode": "61701"}}},
{"geometry": {"type": "Point", "coordinates": [-88.9551486265, 40.4881006133]}, "type": "Feature", "properties": {"collection_times": [{"days": "Mon-Fri", "time": "4:15pm"}, {"days": "Sat", "time": "2:15pm"}, {"days": "Sun", "time": "Closed"}], "id": "6170100057", "name": "USPS COLLECTION BOX - BLUE BOX", "address": {"city": "BLOOMINGTON", "state": "IL", "street": "1631 E EMPIRE ST", "postcode": "61701"}}},
{"geometry": {"type": "Point", "coordinates": [-88.9618184891, 40.4665292366]}, "type": "Feature", "properties": {"collection_times": [{"days": "Mon-Fri", "time": "4:30pm"}, {"days": "Sat", "time": "2:30pm"}, {"days": "Sun", "time": "Closed"}], "id": "6170100058", "name": "USPS COLLECTION BOX - BLUE BOX", "address": {"city": "BLOOMINGTON", "state": "IL", "street": "2025 E LINCOLN ST", "postcode": "61701"}}},
{"geometry": {"type": "Point", "coordinates": [-88.9955840442, 40.4796075332]}, "type": "Feature", "properties": {"collection_times": [{"days": "Mon-Fri", "time": "5:00pm"}, {"days": "Sat", "time": "3:00pm"}, {"days": "Sun", "time": "Closed"}], "id": "6170100061", "name": "USPS COLLECTION BOX - BLUE BOX", "address": {"city": "BLOOMINGTON", "state": "IL", "street": "301 W WASHINGTON ST", "postcode": "61701"}}},
{"geometry": {"type": "Point", "coordinates": [-88.9941577953, 40.4902428286]}, "type": "Feature", "properties": {"collection_times": [{"days": "Mon-Fri", "time": "4:30pm"}, {"days": "Sat", "time": "2:30pm"}, {"days": "Sun", "time": "Closed"}], "id": "6170100062", "name": "USPS COLLECTION BOX - BLUE BOX", "address": {"city": "BLOOMINGTON", "state": "IL", "street": "1110 N MAIN ST", "postcode": "61701"}}},
{"geometry": {"type": "Point", "coordinates": [-88.9551949968, 40.4735396941]}, "type": "Feature", "properties": {"collection_times": [{"days": "Mon-Fri", "time": "5:00pm"}, {"days": "Sat", "time": "3:00pm"}, {"days": "Sun", "time": "Closed"}], "id": "6170100065", "name": "USPS COLLECTION BOX - BLUE BOX", "address": {"city": "BLOOMINGTON", "state": "IL", "street": "2507 E OAKLAND AVE", "postcode": "61701"}}},
{"geometry": {"type": "Point", "coordinates": [-88.991981704, 40.4786917796]}, "type": "Feature", "properties": {"collection_times": [{"days": "Mon-Fri", "time": "4:30pm"}, {"days": "Sat", "time": "2:30pm"}, {"days": "Sun", "time": "Closed"}], "id": "6170100068", "name": "USPS COLLECTION BOX - BLUE BOX", "address": {"city": "BLOOMINGTON", "state": "IL", "street": "237 E FRONT ST", "postcode": "61701"}}},
{"geometry": {"type": "Point", "coordinates": [-88.9931891296, 40.4715117078]}, "type": "Feature", "properties": {"collection_times": [{"days": "Mon-Fri", "time": "4:00pm"}, {"days": "Sat", "time": "2:00pm"}, {"days": "Sun", "time": "Closed"}], "id": "6170100070", "name": "USPS COLLECTION BOX - BLUE BOX", "address": {"city": "BLOOMINGTON", "state": "IL", "street": "104 E WOOD ST", "postcode": "61701"}}},
{"geometry": {"type": "Point", "coordinates": [-88.9606568508, 40.4737402712]}, "type": "Feature", "properties": {"collection_times": [{"days": "Mon-Fri", "time": "5:00pm"}, {"days": "Sat", "time": "3:00pm"}, {"days": "Sun", "time": "Closed"}], "id": "6170100076", "name": "USPS COLLECTION BOX - BLUE BOX", "address": {"city": "BLOOMINGTON", "state": "IL", "street": "2203 E OAKLAND AVE", "postcode": "61701"}}},
{"geometry": {"type": "Point", "coordinates": [-89.0228225497, 40.4844298226]}, "type": "Feature", "properties": {"collection_times": [{"days": "Mon-Fri", "time": "4:00pm"}, {"days": "Sat", "time": "2:00pm"}, {"days": "Sun", "time": "Closed"}], "id": "6170100078", "name": "USPS COLLECTION BOX - BLUE BOX", "address": {"city": "BLOOMINGTON", "state": "IL", "street": "505 TRUCKERS LN", "postcode": "61701"}}},
{"geometry": {"type": "Point", "coordinates": [-88.9645921007, 40.4937728183]}, "type": "Feature", "properties": {"collection_times": [{"days": "Mon-Fri", "time": "6:00pm"}, {"days": "Sat", "time": "3:00pm"}, {"days": "Sun", "time": "Closed"}], "id": "6170100083", "name": "USPS COLLECTION BOX - PO LOBBY", "address": {"city": "BLOOMINGTON", "state": "IL", "street": "1211 TOWANDA AVE", "postcode": "61701"}}},
{"geometry": {"type": "Point", "coordinates": [-88.9946486308, 40.4813146684]}, "type": "Feature", "properties": {"collection_times": [{"days": "Mon-Fri", "time": "5:30pm"}, {"days": "Sat", "time": "2:30pm"}, {"days": "Sun", "time": "Closed"}], "id": "6170100084", "name": "USPS COLLECTION BOX - BLUE BOX", "address": {"city": "BLOOMINGTON", "state": "IL", "street": "401 N CENTER ST", "postcode": "61701"}}},
{"geometry": {"type": "Point", "coordinates": [-88.9946486308, 40.4813146684]}, "type": "Feature", "properties": {"collection_times": [{"days": "Mon-Fri", "time": "5:30pm"}, {"days": "Sat", "time": "2:30pm"}, {"days": "Sun", "time": "Closed"}], "id": "6170100085", "name": "USPS COLLECTION BOX - BLUE BOX", "address": {"city": "BLOOMINGTON", "state": "IL", "street": "401 N CENTER ST", "postcode": "61701"}}},
{"geometry": {"type": "Point", "coordinates": [-88.9579579777, 40.4880933088]}, "type": "Feature", "properties": {"collection_times": [{"days": "Mon-Fri", "time": "6:30pm"}, {"days": "Sat", "time": "3:30pm"}, {"days": "Sun", "time": "Closed"}], "id": "6170100086", "name": "USPS COLLECTION BOX - BLUE BOX", "address": {"city": "BLOOMINGTON", "state": "IL", "street": "1511 E EMPIRE ST", "postcode": "61701"}}},
{"geometry": {"type": "Point", "coordinates": [-88.987899385, 40.4788700522]}, "type": "Feature", "properties": {"collection_times": [{"days": "Mon-Fri", "time": "6:00pm"}, {"days": "Sat", "time": "3:00pm"}, {"days": "Sun", "time": "Closed"}], "id": "6170100094", "name": "USPS COLLECTION BOX - EXPRESS", "address": {"city": "BLOOMINGTON", "state": "IL", "street": "1211 TOWANDA AVE", "postcode": "61701"}}},
{"geometry": {"type": "Point", "coordinates": [-89.0059659822, 40.4602569358]}, "type": "Feature", "properties": {"collection_times": [{"days": "Mon-Fri", "time": "4:00pm"}, {"days": "Sat", "time": "2:00pm"}, {"days": "Sun", "time": "Closed"}], "id": "6170100099", "name": "USPS COLLECTION BOX - BLUE BOX", "address": {"city": "BLOOMINGTON", "state": "IL", "street": "1810 S MORRIS AVE", "postcode": "61701"}}},
{"geometry": {"type": "Point", "coordinates": [-88.9645921007, 40.4937728183]}, "type": "Feature", "properties": {"collection_times": [{"days": "Mon-Fri", "time": "6:00pm"}, {"days": "Sat", "time": "3:00pm"}, {"days": "Sun", "time": "Closed"}], "id": "6170100100", "name": "USPS COLLECTION BOX - BLUE BOX", "address": {"city": "BLOOMINGTON", "state": "IL", "street": "1211 TOWANDA AVE", "postcode": "61701"}}},
{"geometry": {"type": "Point", "coordinates": [-88.9645921007, 40.4937728183]}, "type": "Feature", "properties": {"collection_times": [{"days": "Mon-Fri", "time": "6:00pm"}, {"days": "Sat", "time": "3:00pm"}, {"days": "Sun", "time": "Closed"}], "id": "6170100101", "name": "USPS COLLECTION BOX - BLUE BOX", "address": {"city": "BLOOMINGTON", "state": "IL", "street": "1211 TOWANDA AVE", "postcode": "61701"}}},
{"geometry": {"type": "Point", "coordinates": [-88.991884784, 40.4768545332]}, "type": "Feature", "properties": {"collection_times": [{"days": "Mon-Fri", "time": "4:30pm"}, {"days": "Sat", "time": "2:30pm"}, {"days": "Sun", "time": "Closed"}], "id": "6170100103", "name": "USPS COLLECTION BOX - BLUE BOX", "address": {"city": "BLOOMINGTON", "state": "IL", "street": "209 E OLIVE ST", "postcode": "61701"}}},
{"geometry": {"type": "Point", "coordinates": [-88.9645921007, 40.4937728183]}, "type": "Feature", "properties": {"collection_times": [{"days": "Mon-Fri", "time": "6:00pm"}, {"days": "Sat", "time": "3:00pm"}, {"days": "Sun", "time": "Closed"}], "id": "6170100105", "name": "USPS COLLECTION BOX - BLUE BOX", "address": {"city": "BLOOMINGTON", "state": "IL", "street": "1211 TOWANDA AVE", "postcode": "61701"}}},
{"geometry": {"type": "Point", "coordinates": [-88.9645921007, 40.4937728183]}, "type": "Feature", "properties": {"collection_times": [{"days": "Mon-Fri", "time": "6:00pm"}, {"days": "Sat", "time": "3:00pm"}, {"days": "Sun", "time": "Closed"}], "id": "6170100106", "name": "USPS COLLECTION BOX - BLUE BOX", "address": {"city": "BLOOMINGTON", "state": "IL", "street": "1211 TOWANDA AVE", "postcode": "61701"}}},
{"geometry": {"type": "Point", "coordinates": [-88.9665940916, 40.4607474603]}, "type": "Feature", "properties": {"collection_times": [{"days": "Mon-Fri", "time": "5:00pm"}, {"days": "Sat", "time": "2:45pm"}, {"days": "Sun", "time": "Closed"}], "id": "6170100108", "name": "USPS COLLECTION BOX - BLUE BOX", "address": {"city": "BLOOMINGTON", "state": "IL", "street": "1 BRICKYARD DR", "postcode": "61701"}}},
{"geometry": {"type": "Point", "coordinates": [-88.992572037, 40.477263476]}, "type": "Feature", "properties": {"collection_times": [{"days": "Mon-Sat", "time": "11:30am"}, {"days": "Sun", "time": "Closed"}], "id": "6170100109", "name": "USPS COLLECTION BOX - BLUE BOX", "address": {"city": "BLOOMINGTON", "state": "IL", "street": "1710 ROUTE DUNN DR", "postcode": "61701"}}},
{"geometry": {"type": "Point", "coordinates": [-88.9947926538, 40.4813099874]}, "type": "Feature", "properties": {"collection_times": [{"days": "Mon-Fri", "time": "5:00pm"}, {"days": "Sat", "time": "2:30pm"}, {"days": "Sun", "time": "Closed"}], "id": "6170100110", "name": "USPS COLLECTION BOX - BLUE BOX", "address": {"city": "BLOOMINGTON", "state": "IL", "street": "400 N CENTER ST", "postcode": "61701"}}},
{"geometry": {"type": "Point", "coordinates": [-88.9645921007, 40.4937728183]}, "type": "Feature", "properties": {"collection_times": [{"days": "Mon-Fri", "time": "6:00pm"}, {"days": "Sat", "time": "3:00pm"}, {"days": "Sun", "time": "Closed"}], "id": "6170100111", "name": "USPS COLLECTION BOX - APC", "address": {"city": "BLOOMINGTON", "state": "IL", "street": "1211 TOWANDA AVE", "postcode": "61701"}}},
{"geometry": {"type": "Point", "coordinates": [-88.9449663857, 40.4799823736]}, "type": "Feature", "properties": {"collection_times": [{"days": "Mon-Fri", "time": "4:00pm"}, {"days": "Sat", "time": "2:00pm"}, {"days": "Sun", "time": "Closed"}], "id": "6170400001", "name": "USPS COLLECTION BOX - BLUE BOX", "address": {"city": "BLOOMINGTON", "state": "IL", "street": "1919 S MAIN ST", "postcode": "61704"}}},
{"geometry": {"type": "Point", "coordinates": [-88.9449663857, 40.4799823736]}, "type": "Feature", "properties": {"collection_times": [{"days": "Mon-Fri", "time": "4:30pm"}, {"days": "Sat", "time": "2:30pm"}, {"days": "Sun", "time": "Closed"}], "id": "6170400002", "name": "USPS COLLECTION BOX - BLUE BOX", "address": {"city": "BLOOMINGTON", "state": "IL", "street": "1701 E EMPIRE ST", "postcode": "61704"}}},
{"geometry": {"type": "Point", "coordinates": [-88.9449663857, 40.4799823736]}, "type": "Feature", "properties": {"collection_times": [{"days": "Mon-Fri", "time": "4:30pm"}, {"days": "Sat", "time": "2:30pm"}, {"days": "Sun", "time": "Closed"}], "id": "6170400003", "name": "USPS COLLECTION BOX - BLUE BOX", "address": {"city": "BLOOMINGTON", "state": "IL", "street": "403 N VETERANS PKWY", "postcode": "61704"}}},
{"geometry": {"type": "Point", "coordinates": [-88.9449663857, 40.4799823736]}, "type": "Feature", "properties": {"collection_times": [{"days": "Mon-Fri", "time": "3:15pm"}, {"days": "Sat", "time": "1:45pm"}, {"days": "Sun", "time": "Closed"}], "id": "6170400004", "name": "USPS COLLECTION BOX - BLUE BOX", "address": {"city": "BLOOMINGTON", "state": "IL", "street": "1407 N VETERANS PKWY", "postcode": "61704"}}},
{"geometry": {"type": "Point", "coordinates": [-88.9449663857, 40.4799823736]}, "type": "Feature", "properties": {"collection_times": [{"days": "Mon-Fri", "time": "3:15pm"}, {"days": "Sat", "time": "1:45pm"}, {"days": "Sun", "time": "Closed"}], "id": "6170400005", "name": "USPS COLLECTION BOX - BLUE BOX", "address": {"city": "BLOOMINGTON", "state": "IL", "street": "2103 N VETERANS PKWY", "postcode": "61704"}}},
{"geometry": {"type": "Point", "coordinates": [-88.9449663857, 40.4799823736]}, "type": "Feature", "properties": {"collection_times": [{"days": "Mon-Fri", "time": "4:30pm"}, {"days": "Sat", "time": "2:30pm"}, {"days": "Sun", "time": "Closed"}], "id": "6170400006", "name": "USPS COLLECTION BOX - BLUE BOX", "address": {"city": "BLOOMINGTON", "state": "IL", "street": "200 S PROSPECT RD", "postcode": "61704"}}},
{"geometry": {"type": "Point", "coordinates": [-88.9449663857, 40.4799823736]}, "type": "Feature", "properties": {"collection_times": [{"days": "Mon-Fri", "time": "5:00pm"}, {"days": "Sat", "time": "3:00pm"}, {"days": "Sun", "time": "Closed"}], "id": "6170400007", "name": "USPS COLLECTION BOX - BLUE BOX", "address": {"city": "BLOOMINGTON", "state": "IL", "street": "1601 MORRISSEY DR", "postcode": "61704"}}},
{"geometry": {"type": "Point", "coordinates": [-88.9449663857, 40.4799823736]}, "type": "Feature", "properties": {"collection_times": [{"days": "Mon-Fri", "time": "4:30pm"}, {"days": "Sat", "time": "2:30pm"}, {"days": "Sun", "time": "Closed"}], "id": "6170400008", "name": "USPS COLLECTION BOX - BLUE BOX", "address": {"city": "BLOOMINGTON", "state": "IL", "street": "816 S ELDORADO RD", "postcode": "61704"}}},
{"geometry": {"type": "Point", "coordinates": [-88.9449663857, 40.4799823736]}, "type": "Feature", "properties": {"collection_times": [{"days": "Mon-Fri", "time": "3:15pm"}, {"days": "Sat", "time": "1:45pm"}, {"days": "Sun", "time": "Closed"}], "id": "6170400009", "name": "USPS COLLECTION BOX - BLUE BOX", "address": {"city": "BLOOMINGTON", "state": "IL", "street": "3007 GILL ST", "postcode": "61704"}}},
{"geometry": {"type": "Point", "coordinates": [-88.9449663857, 40.4799823736]}, "type": "Feature", "properties": {"collection_times": [{"days": "Mon-Fri", "time": "4:30pm"}, {"days": "Sat", "time": "2:30pm"}, {"days": "Sun", "time": "Closed"}], "id": "6170400010", "name": "USPS COLLECTION BOX - BLUE BOX", "address": {"city": "BLOOMINGTON", "state": "IL", "street": "1011 N HERSHEY RD", "postcode": "61704"}}},
{"geometry": {"type": "Point", "coordinates": [-88.9449663857, 40.4799823736]}, "type": "Feature", "properties": {"collection_times": [{"days": "Mon-Fri", "time": "5:00pm"}, {"days": "Sat", "time": "3:00pm"}, {"days": "Sun", "time": "Closed"}], "id": "6170400011", "name": "USPS COLLECTION BOX - BLUE BOX", "address": {"city": "BLOOMINGTON", "state": "IL", "street": "1601 MORRISSEY DR", "postcode": "61704"}}},
{"geometry": {"type": "Point", "coordinates": [-88.9449663857, 40.4799823736]}, "type": "Feature", "properties": {"collection_times": [{"days": "Mon-Fri", "time": "4:00pm"}, {"days": "Sat", "time": "2:00pm"}, {"days": "Sun", "time": "Closed"}], "id": "6170400012", "name": "USPS COLLECTION BOX - BLUE BOX", "address": {"city": "BLOOMINGTON", "state": "IL", "street": "2412 S MAIN ST", "postcode": "61704"}}},
{"geometry": {"type": "Point", "coordinates": [-88.5377942386, 40.5681248949]}, "type": "Feature", "properties": {"collection_times": [{"days": "Mon-Fri", "time": "3:45pm"}, {"days": "Sat", "time": "9:45am"}, {"days": "Sun", "time": "Closed"}], "id": "6172000001", "name": "USPS COLLECTION BOX - BLUE BOX", "address": {"city": "ANCHOR", "state": "IL", "street": "239 2ND ST", "postcode": "61720"}}},
{"geometry": {"type": "Point", "coordinates": [-88.5377942386, 40.5681248949]}, "type": "Feature", "properties": {"collection_times": [{"days": "Mon-Fri", "time": "12:00pm"}, {"days": "Sat", "time": "9:45am"}, {"days": "Sun", "time": "Closed"}], "id": "6172000002", "name": "USPS COLLECTION BOX - PO LOBBY", "address": {"city": "ANCHOR", "state": "IL", "street": "239 2ND ST", "postcode": "61720"}}},
{"geometry": {"type": "Point", "coordinates": [-89.3128694101, 40.3395161703]}, "type": "Feature", "properties": {"collection_times": [{"days": "Mon-Fri", "time": "4:00pm"}, {"days": "Sat", "time": "10:00am"}, {"days": "Sun", "time": "Closed"}], "id": "6172100000", "name": "USPS COLLECTION BOX - BLUE BOX", "address": {"city": "ARMINGTON", "state": "IL", "street": "104 N GRIFFIN ST", "postcode": "61721"}}},
{"geometry": {"type": "Point", "coordinates": [-89.3128694101, 40.3395161703]}, "type": "Feature", "properties": {"collection_times": [{"days": "Mon-Fri", "time": "11:00am"}, {"days": "Sat", "time": "10:00am"}, {"days": "Sun", "time": "Closed"}], "id": "6172100001", "name": "USPS COLLECTION BOX - PO LOBBY", "address": {"city": "ARMINGTON", "state": "IL", "street": "104 N GRIFFIN ST", "postcode": "61721"}}},
{"geometry": {"type": "Point", "coordinates": [-88.6304786759, 40.4505025425]}, "type": "Feature", "properties": {"collection_times": [{"days": "Mon-Fri", "time": "3:45pm"}, {"days": "Sat", "time": "9:00am"}, {"days": "Sun", "time": "Closed"}], "id": "6172200001", "name": "USPS COLLECTION BOX - BLUE BOX", "address": {"city": "ARROWSMITH", "state": "IL", "street": "103 W CROSSON ST", "postcode": "61722"}}},
{"geometry": {"type": "Point", "coordinates": [-88.6304786759, 40.4505025425]}, "type": "Feature", "properties": {"collection_times": [{"days": "Mon-Fri", "time": "10:45am"}, {"days": "Sat", "time": "8:45am"}, {"days": "Sun", "time": "Closed"}], "id": "6172200002", "name": "USPS COLLECTION BOX - PO LOBBY", "address": {"city": "ARROWSMITH", "state": "IL", "street": "103 W CROSSON ST", "postcode": "61722"}}},
{"geometry": {"type": "Point", "coordinates": [-89.2299458997, 40.2601075701]}, "type": "Feature", "properties": {"collection_times": [{"days": "Mon-Fri", "time": "4:00pm"}, {"days": "Sat", "time": "11:00am"}, {"days": "Sun", "time": "Closed"}], "id": "6172300000", "name": "USPS COLLECTION BOX - BLUE BOX", "address": {"city": "ATLANTA", "state": "IL", "street": "330 SE VINE ST", "postcode": "61723"}}},
{"geometry": {"type": "Point", "coordinates": [-89.2303545734, 40.2604389199]}, "type": "Feature", "properties": {"collection_times": [{"days": "Mon-Fri", "time": "4:00pm"}, {"days": "Sat", "time": "11:00am"}, {"days": "Sun", "time": "Closed"}], "id": "6172300002", "name": "USPS COLLECTION BOX - PO LOBBY", "address": {"city": "ATLANTA", "state": "IL", "street": "100 SW CHURCH ST", "postcode": "61723"}}},
{"geometry": {"type": "Point", "coordinates": [-88.5256777785, 40.3414046169]}, "type": "Feature", "properties": {"collection_times": [{"days": "Mon-Fri", "time": "4:00pm"}, {"days": "Sat", "time": "10:45am"}, {"days": "Sun", "time": "Closed"}], "id": "6172400000", "name": "USPS COLLECTION BOX - BLUE BOX", "address": {"city": "BELLFLOWER", "state": "IL", "street": "204 N LATCHA ST", "postcode": "61724"}}},
{"geometry": {"type": "Point", "coordinates": [-88.5256777785, 40.3414046169]}, "type": "Feature", "properties": {"collection_times": [{"days": "Mon-Fri", "time": "5:00pm"}, {"days": "Sat", "time": "10:45am"}, {"days": "Sun", "time": "Closed"}], "id": "6172400001", "name": "USPS COLLECTION BOX - PO LOBBY", "address": {"city": "BELLFLOWER", "state": "IL", "street": "204 N LATCHA ST", "postcode": "61724"}}},
{"geometry": {"type": "Point", "coordinates": [-89.1319278914, 40.5823712076]}, "type": "Feature", "properties": {"collection_times": [{"days": "Mon-Fri", "time": "4:00pm"}, {"days": "Sat", "time": "10:00am"}, {"days": "Sun", "time": "Closed"}], "id": "6172500001", "name": "USPS COLLECTION BOX - BLUE BOX", "address": {"city": "CARLOCK", "state": "IL", "street": "210 E WASHINGTON ST", "postcode": "61725"}}},
{"geometry": {"type": "Point", "coordinates": [-89.1319278914, 40.5823712076]}, "type": "Feature", "properties": {"collection_times": [{"days": "Mon-Fri", "time": "2:45pm"}, {"days": "Sat", "time": "10:00am"}, {"days": "Sun", "time": "Closed"}], "id": "6172500002", "name": "USPS COLLECTION BOX - PO LOBBY", "address": {"city": "CARLOCK", "state": "IL", "street": "210 E WASHINGTON ST", "postcode": "61725"}}},
{"geometry": {"type": "Point", "coordinates": [-88.7187430832, 40.7440142217]}, "type": "Feature", "properties": {"collection_times": [{"days": "Mon-Fri", "time": "4:30pm"}, {"days": "Sat", "time": "10:30am"}, {"days": "Sun", "time": "Closed"}], "id": "6172600001", "name": "USPS COLLECTION BOX - BLUE BOX", "address": {"city": "CHENOA", "state": "IL", "street": "213 E OWSLEY ST", "postcode": "61726"}}},
{"geometry": {"type": "Point", "coordinates": [-88.7187430832, 40.7440142217]}, "type": "Feature", "properties": {"collection_times": [{"days": "Mon-Fri", "time": "4:30pm"}, {"days": "Sat", "time": "10:30am"}, {"days": "Sun", "time": "Closed"}], "id": "6172600005", "name": "USPS COLLECTION BOX - PO LOBBY", "address": {"city": "CHENOA", "state": "IL", "street": "213 E OWSLEY ST", "postcode": "61726"}}},
{"geometry": {"type": "Point", "coordinates": [-88.9616806547, 40.152760238]}, "type": "Feature", "properties": {"collection_times": [{"days": "Mon-Fri", "time": "5:15pm"}, {"days": "Sat", "time": "2:00pm"}, {"days": "Sun", "time": "Closed"}], "id": "6172700001", "name": "USPS COLLECTION BOX - BLUE BOX", "address": {"city": "CLINTON", "state": "IL", "street": "105 N QUINCY ST", "postcode": "61727"}}},
{"geometry": {"type": "Point", "coordinates": [-88.9652488713, 40.1466900368]}, "type": "Feature", "properties": {"collection_times": [{"days": "Mon-Fri", "time": "5:15pm"}, {"days": "Sat", "time": "2:00pm"}, {"days": "Sun", "time": "Closed"}], "id": "6172700002", "name": "USPS COLLECTION BOX - EXPRESS", "address": {"city": "CLINTON", "state": "IL", "street": "105 N QUINCY ST", "postcode": "61727"}}},
{"geometry": {"type": "Point", "coordinates": [-88.9616806547, 40.152760238]}, "type": "Feature", "properties": {"collection_times": [{"days": "Mon-Fri", "time": "5:15pm"}, {"days": "Sat", "time": "2:00pm"}, {"days": "Sun", "time": "Closed"}], "id": "6172700003", "name": "USPS COLLECTION BOX - BLUE BOX", "address": {"city": "CLINTON", "state": "IL", "street": "105 N QUINCY ST", "postcode": "61727"}}},
{"geometry": {"type": "Point", "coordinates": [-88.9589858542, 40.1481291789]}, "type": "Feature", "properties": {"collection_times": [{"days": "Mon-Sat", "time": "1:45pm"}, {"days": "Sun", "time": "Closed"}], "id": "6172700011", "name": "USPS COLLECTION BOX - BLUE BOX", "address": {"city": "CLINTON", "state": "IL", "street": "220 E VAN BUREN ST", "postcode": "61727"}}},
{"geometry": {"type": "Point", "coordinates": [-88.9600331883, 40.1525660905]}, "type": "Feature", "properties": {"collection_times": [{"days": "Mon-Sat", "time": "1:45pm"}, {"days": "Sun", "time": "Closed"}], "id": "6172700013", "name": "USPS COLLECTION BOX - BLUE BOX", "address": {"city": "CLINTON", "state": "IL", "street": "205 E SIDE SQ", "postcode": "61727"}}},
{"geometry": {"type": "Point", "coordinates": [-88.9609045809, 40.152379402]}, "type": "Feature", "properties": {"collection_times": [{"days": "Mon-Sat", "time": "1:45pm"}, {"days": "Sun", "time": "Closed"}], "id": "6172700014", "name": "USPS COLLECTION BOX - BLUE BOX", "address": {"city": "CLINTON", "state": "IL", "street": "500 W SIDE SQ", "postcode": "61727"}}},
{"geometry": {"type": "Point", "coordinates": [-88.9616806547, 40.152760238]}, "type": "Feature", "properties": {"collection_times": [{"days": "Mon-Fri", "time": "5:00pm"}, {"days": "Sat", "time": "12:30pm"}, {"days": "Sun", "time": "Closed"}], "id": "6172700015", "name": "USPS COLLECTION BOX - PO LOBBY", "address": {"city": "CLINTON", "state": "IL", "street": "105 N QUINCY ST", "postcode": "61727"}}},
{"geometry": {"type": "Point", "coordinates": [-88.6163351891, 40.5670545715]}, "type": "Feature", "properties": {"collection_times": [{"days": "Mon-Fri", "time": "3:45pm"}, {"days": "Sat", "time": "10:00am"}, {"days": "Sun", "time": "Closed"}], "id": "6172800001", "name": "USPS COLLECTION BOX - BLUE BOX", "address": {"city": "COLFAX", "state": "IL", "street": "115 W MAIN ST", "postcode": "61728"}}},
{"geometry": {"type": "Point", "coordinates": [-88.6163351891, 40.5670545715]}, "type": "Feature", "properties": {"collection_times": [{"days": "Mon-Fri", "time": "2:00pm"}, {"days": "Sat", "time": "10:00am"}, {"days": "Sun", "time": "Closed"}], "id": "6172800002", "name": "USPS COLLECTION BOX - PO LOBBY", "address": {"city": "COLFAX", "state": "IL", "street": "115 W MAIN ST", "postcode": "61728"}}},
{"geometry": {"type": "Point", "coordinates": [-89.2045496151, 40.616942377]}, "type": "Feature", "properties": {"collection_times": [{"days": "Mon-Fri", "time": "4:15pm"}, {"days": "Sat", "time": "1:15pm"}, {"days": "Sun", "time": "Closed"}], "id": "6172900000", "name": "USPS COLLECTION BOX - BLUE BOX", "address": {"city": "CONGERVILLE", "state": "IL", "street": "115 MAIN ST", "postcode": "61729"}}},
{"geometry": {"type": "Point", "coordinates": [-89.2045496151, 40.616942377]}, "type": "Feature", "properties": {"collection_times": [{"days": "Mon-Fri", "time": "4:15pm"}, {"days": "Sat", "time": "1:15pm"}, {"days": "Sun", "time": "Closed"}], "id": "6172900001", "name": "USPS COLLECTION BOX - PO LOBBY", "address": {"city": "CONGERVILLE", "state": "IL", "street": "115 MAIN ST", "postcode": "61729"}}},
{"geometry": {"type": "Point", "coordinates": [-88.7167679794, 40.5429133072]}, "type": "Feature", "properties": {"collection_times": [{"days": "Mon-Fri", "time": "3:45pm"}, {"days": "Sat", "time": "10:30am"}, {"days": "Sun", "time": "Closed"}], "id": "6173000000", "name": "USPS COLLECTION BOX - BLUE BOX", "address": {"city": "COOKSVILLE", "state": "IL", "street": "105 N KOCH ST", "postcode": "61730"}}},
{"geometry": {"type": "Point", "coordinates": [-88.7167679794, 40.5429133072]}, "type": "Feature", "properties": {"collection_times": [{"days": "Mon-Fri", "time": "11:00am"}, {"days": "Sat", "time": "10:30am"}, {"days": "Sun", "time": "Closed"}], "id": "6173000001", "name": "USPS COLLECTION BOX - PO LOBBY", "address": {"city": "COOKSVILLE", "state": "IL", "street": "105 N KOCH ST", "postcode": "61730"}}},
{"geometry": {"type": "Point", "coordinates": [-88.4803093735, 40.6085837001]}, "type": "Feature", "properties": {"collection_times": [{"days": "Mon-Fri", "time": "4:00pm"}, {"days": "Sat", "time": "12:15pm"}, {"days": "Sun", "time": "Closed"}], "id": "6173100000", "name": "USPS COLLECTION BOX - BLUE BOX", "address": {"city": "CROPSEY", "state": "IL", "street": "146 MAIN ST", "postcode": "61731"}}},
{"geometry": {"type": "Point", "coordinates": [-88.4803093735, 40.6085837001]}, "type": "Feature", "properties": {"collection_times": [{"days": "Mon-Fri", "time": "3:45pm"}, {"days": "Sat", "time": "12:15pm"}, {"days": "Sun", "time": "Closed"}], "id": "6173100002", "name": "USPS COLLECTION BOX - PO LOBBY", "address": {"city": "CROPSEY", "state": "IL", "street": "146 MAIN ST", "postcode": "61731"}}},
{"geometry": {"type": "Point", "coordinates": [-89.1770797015, 40.5285234338]}, "type": "Feature", "properties": {"collection_times": [{"days": "Mon-Fri", "time": "4:00pm"}, {"days": "Sat", "time": "10:00am"}, {"days": "Sun", "time": "Closed"}], "id": "6173200001", "name": "USPS COLLECTION BOX - BLUE BOX", "address": {"city": "DANVERS", "state": "IL", "street": "119 E EXCHANGE ST", "postcode": "61732"}}},
{"geometry": {"type": "Point", "coordinates": [-89.1770797015, 40.5285234338]}, "type": "Feature", "properties": {"collection_times": [{"days": "Mon-Fri", "time": "4:00pm"}, {"days": "Sat", "time": "10:00am"}, {"days": "Sun", "time": "Closed"}], "id": "6173200002", "name": "USPS COLLECTION BOX - PO LOBBY", "address": {"city": "DANVERS", "state": "IL", "street": "119 E EXCHANGE ST", "postcode": "61732"}}},
{"geometry": {"type": "Point", "coordinates": [-89.3323574801, 40.6275113461]}, "type": "Feature", "properties": {"collection_times": [{"days": "Mon-Fri", "time": "4:00pm"}, {"days": "Sat", "time": "10:00am"}, {"days": "Sun", "time": "Closed"}], "id": "6173300000", "name": "USPS COLLECTION BOX - BLUE BOX", "address": {"city": "DEER CREEK", "state": "IL", "street": "104 E 1ST AVE", "postcode": "61733"}}},
{"geometry": {"type": "Point", "coordinates": [-89.3323574801, 40.6275113461]}, "type": "Feature", "properties": {"collection_times": [{"days": "Mon-Fri", "time": "11:30am"}, {"days": "Sat", "time": "10:00am"}, {"days": "Sun", "time": "Closed"}], "id": "6173300001", "name": "USPS COLLECTION BOX - PO LOBBY", "address": {"city": "DEER CREEK", "state": "IL", "street": "104 E 1ST AVE", "postcode": "61733"}}},
{"geometry": {"type": "Point", "coordinates": [-89.5473677319, 40.3713789421]}, "type": "Feature", "properties": {"collection_times": [{"days": "Mon-Fri", "time": "4:30pm"}, {"days": "Sat", "time": "11:00am"}, {"days": "Sun", "time": "Closed"}], "id": "6173400001", "name": "USPS COLLECTION BOX - BLUE BOX", "address": {"city": "DELAVAN", "state": "IL", "street": "114 E 5TH ST", "postcode": "61734"}}},
{"geometry": {"type": "Point", "coordinates": [-89.5473677319, 40.3713789421]}, "type": "Feature", "properties": {"collection_times": [{"days": "Mon-Fri", "time": "4:45pm"}, {"days": "Sat", "time": "11:00am"}, {"days": "Sun", "time": "Closed"}], "id": "6173400002", "name": "USPS COLLECTION BOX - PO LOBBY", "address": {"city": "DELAVAN", "state": "IL", "street": "114 E 5TH ST", "postcode": "61734"}}},
{"geometry": {"type": "Point", "coordinates": [-88.7869806402, 40.1849931058]}, "type": "Feature", "properties": {"collection_times": [{"days": "Mon-Fri", "time": "3:30pm"}, {"days": "Sat", "time": "1:00pm"}, {"days": "Sun", "time": "Closed"}], "id": "6173500000", "name": "USPS COLLECTION BOX - BLUE BOX", "address": {"city": "DEWITT", "state": "IL", "street": "1005 CHICAGO ST", "postcode": "61735"}}},
{"geometry": {"type": "Point", "coordinates": [-88.7869806402, 40.1849931058]}, "type": "Feature", "properties": {"collection_times": [{"days": "Mon-Fri", "time": "3:30pm"}, {"days": "Sat", "time": "1:00pm"}, {"days": "Sun", "time": "Closed"}], "id": "6173500001", "name": "USPS COLLECTION BOX - PO LOBBY", "address": {"city": "DEWITT", "state": "IL", "street": "1005 CHICAGO ST", "postcode": "61735"}}},
{"geometry": {"type": "Point", "coordinates": [-88.872320763, 40.3939144119]}, "type": "Feature", "properties": {"collection_times": [{"days": "Mon-Fri", "time": "4:30pm"}, {"days": "Sat", "time": "10:00am"}, {"days": "Sun", "time": "Closed"}], "id": "6173600000", "name": "USPS COLLECTION BOX - BLUE BOX", "address": {"city": "DOWNS", "state": "IL", "street": "403 S SEMINARY ST", "postcode": "61736"}}},
{"geometry": {"type": "Point", "coordinates": [-88.872320763, 40.3939144119]}, "type": "Feature", "properties": {"collection_times": [{"days": "Mon-Fri", "time": "4:30pm"}, {"days": "Sat", "time": "10:00am"}, {"days": "Sun", "time": "Closed"}], "id": "6173600001", "name": "USPS COLLECTION BOX - PO LOBBY", "address": {"city": "DOWNS", "state": "IL", "street": "403 S SEMINARY ST", "postcode": "61736"}}},
{"geometry": {"type": "Point", "coordinates": [-88.7166206193, 40.4490852363]}, "type": "Feature", "properties": {"collection_times": [{"days": "Mon-Fri", "time": "4:00pm"}, {"days": "Sat", "time": "10:00am"}, {"days": "Sun", "time": "Closed"}], "id": "6173700000", "name": "USPS COLLECTION BOX - BLUE BOX", "address": {"city": "ELLSWORTH", "state": "IL", "street": "113 N MAIN ST", "postcode": "61737"}}},
{"geometry": {"type": "Point", "coordinates": [-88.7166206193, 40.4490852363]}, "type": "Feature", "properties": {"collection_times": [{"days": "Mon-Fri", "time": "4:00pm"}, {"days": "Sat", "time": "10:00am"}, {"days": "Sun", "time": "Closed"}], "id": "6173700001", "name": "USPS COLLECTION BOX - PO LOBBY", "address": {"city": "ELLSWORTH", "state": "IL", "street": "113 N MAIN ST", "postcode": "61737"}}},
{"geometry": {"type": "Point", "coordinates": [-89.0221226733, 40.7381227028]}, "type": "Feature", "properties": {"collection_times": [{"days": "Mon-Fri", "time": "5:15pm"}, {"days": "Sat", "time": "11:00am"}, {"days": "Sun", "time": "Closed"}], "id": "6173800006", "name": "USPS COLLECTION BOX - BLUE BOX", "address": {"city": "EL PASO", "state": "IL", "street": "400 W FRONT ST", "postcode": "61738"}}},
{"geometry": {"type": "Point", "coordinates": [-89.0221226733, 40.7381227028]}, "type": "Feature", "properties": {"collection_times": [{"days": "Mon-Fri", "time": "5:15pm"}, {"days": "Sat", "time": "11:00am"}, {"days": "Sun", "time": "Closed"}], "id": "6173800007", "name": "USPS COLLECTION BOX - BLUE BOX", "address": {"city": "EL PASO", "state": "IL", "street": "400 W FRONT ST", "postcode": "61738"}}},
{"geometry": {"type": "Point", "coordinates": [-89.0221285751, 40.7382322571]}, "type": "Feature", "properties": {"collection_times": [{"days": "Mon-Fri", "time": "5:15pm"}, {"days": "Sat", "time": "11:00am"}, {"days": "Sun", "time": "Closed"}], "id": "6173800009", "name": "USPS COLLECTION BOX - PO LOBBY", "address": {"city": "EL PASO", "state": "IL", "street": "401 W FRONT ST", "postcode": "61738"}}},
{"geometry": {"type": "Point", "coordinates": [-88.5128428613, 40.7468634402]}, "type": "Feature", "properties": {"collection_times": [{"days": "Mon-Fri", "time": "4:30pm"}, {"days": "Sat", "time": "2:00pm"}, {"days": "Sun", "time": "Closed"}], "id": "6173900001", "name": "USPS COLLECTION BOX - BLUE BOX", "address": {"city": "FAIRBURY", "state": "IL", "street": "127 E LOCUST ST", "postcode": "61739"}}},
{"geometry": {"type": "Point", "coordinates": [-88.5128428613, 40.7468634402]}, "type": "Feature", "properties": {"collection_times": [{"days": "Mon-Fri", "time": "4:30pm"}, {"days": "Sat", "time": "2:00pm"}, {"days": "Sun", "time": "Closed"}], "id": "6173900002", "name": "USPS COLLECTION BOX - BLUE BOX", "address": {"city": "FAIRBURY", "state": "IL", "street": "127 E LOCUST ST", "postcode": "61739"}}},
{"geometry": {"type": "Point", "coordinates": [-88.5128428613, 40.7468634402]}, "type": "Feature", "properties": {"collection_times": [{"days": "Mon-Fri", "time": "4:30pm"}, {"days": "Sat", "time": "2:00pm"}, {"days": "Sun", "time": "Closed"}], "id": "6173900003", "name": "USPS COLLECTION BOX - PO LOBBY", "address": {"city": "FAIRBURY", "state": "IL", "street": "127 E LOCUST ST", "postcode": "61739"}}},
{"geometry": {"type": "Point", "coordinates": [-88.8614017695, 40.8767151406]}, "type": "Feature", "properties": {"collection_times": [{"days": "Mon-Fri", "time": "4:15pm"}, {"days": "Sat", "time": "10:15am"}, {"days": "Sun", "time": "Closed"}], "id": "6174000001", "name": "USPS COLLECTION BOX - BLUE BOX", "address": {"city": "FLANAGAN", "state": "IL", "street": "203 S MAIN ST", "postcode": "61740"}}},
{"geometry": {"type": "Point", "coordinates": [-88.8614017695, 40.8767151406]}, "type": "Feature", "properties": {"collection_times": [{"days": "Mon-Fri", "time": "2:00pm"}, {"days": "Sat", "time": "10:15am"}, {"days": "Sun", "time": "Closed"}], "id": "6174000002", "name": "USPS COLLECTION BOX - PO LOBBY", "address": {"city": "FLANAGAN", "state": "IL", "street": "203 S MAIN ST", "postcode": "61740"}}},
{"geometry": {"type": "Point", "coordinates": [-88.4091372545, 40.7495250909]}, "type": "Feature", "properties": {"collection_times": [{"days": "Mon-Fri", "time": "4:00pm"}, {"days": "Sat", "time": "10:30am"}, {"days": "Sun", "time": "Closed"}], "id": "6174100001", "name": "USPS COLLECTION BOX - BLUE BOX", "address": {"city": "FORREST", "state": "IL", "street": "202 E KRACK ST", "postcode": "61741"}}},
{"geometry": {"type": "Point", "coordinates": [-88.4091372545, 40.7495250909]}, "type": "Feature", "properties": {"collection_times": [{"days": "Mon-Fri", "time": "4:00pm"}, {"days": "Sat", "time": "10:30am"}, {"days": "Sun", "time": "Closed"}], "id": "6174100003", "name": "USPS COLLECTION BOX - PO LOBBY", "address": {"city": "FORREST", "state": "IL", "street": "202 E KRACK ST", "postcode": "61741"}}},
{"geometry": {"type": "Point", "coordinates": [-89.2748134773, 40.6277899196]}, "type": "Feature", "properties": {"collection_times": [{"days": "Mon-Fri", "time": "4:30pm"}, {"days": "Sat", "time": "10:00am"}, {"days": "Sun", "time": "Closed"}], "id": "6174200000", "name": "USPS COLLECTION BOX - BLUE BOX", "address": {"city": "GOODFIELD", "state": "IL", "street": "208 E PEORIA ST", "postcode": "61742"}}},
{"geometry": {"type": "Point", "coordinates": [-89.2748134773, 40.6277899196]}, "type": "Feature", "properties": {"collection_times": [{"days": "Mon-Fri", "time": "4:00pm"}, {"days": "Sat", "time": "10:00am"}, {"days": "Sun", "time": "Closed"}], "id": "6174200001", "name": "USPS COLLECTION BOX - PO LOBBY", "address": {"city": "GOODFIELD", "state": "IL", "street": "208 E PEORIA ST", "postcode": "61742"}}},
{"geometry": {"type": "Point", "coordinates": [-88.7771824334, 40.8791517808]}, "type": "Feature", "properties": {"collection_times": [{"days": "Mon-Fri", "time": "4:30pm"}, {"days": "Sat", "time": "11:00am"}, {"days": "Sun", "time": "Closed"}], "id": "6174300000", "name": "USPS COLLECTION BOX - BLUE BOX", "address": {"city": "GRAYMONT", "state": "IL", "street": "307 N MAIN ST", "postcode": "61743"}}},
{"geometry": {"type": "Point", "coordinates": [-88.7771824334, 40.8791517808]}, "type": "Feature", "properties": {"collection_times": [{"days": "Mon-Fri", "time": "4:30pm"}, {"days": "Sat", "time": "11:00am"}, {"days": "Sun", "time": "Closed"}], "id": "6174300001", "name": "USPS COLLECTION BOX - PO LOBBY", "address": {"city": "GRAYMONT", "state": "IL", "street": "307 N MAIN ST", "postcode": "61743"}}},
{"geometry": {"type": "Point", "coordinates": [-88.8811541166, 40.742579272]}, "type": "Feature", "properties": {"collection_times": [{"days": "Mon-Fri", "time": "4:30pm"}, {"days": "Sat", "time": "11:00am"}, {"days": "Sun", "time": "Closed"}], "id": "6174400001", "name": "USPS COLLECTION BOX - BLUE BOX", "address": {"city": "GRIDLEY", "state": "IL", "street": "324 N CENTER ST", "postcode": "61744"}}},
{"geometry": {"type": "Point", "coordinates": [-88.8811541166, 40.742579272]}, "type": "Feature", "properties": {"collection_times": [{"days": "Mon-Fri", "time": "4:30pm"}, {"days": "Sat", "time": "11:00am"}, {"days": "Sun", "time": "Closed"}], "id": "6174400002", "name": "USPS COLLECTION BOX - PO LOBBY", "address": {"city": "GRIDLEY", "state": "IL", "street": "324 N CENTER ST", "postcode": "61744"}}},
{"geometry": {"type": "Point", "coordinates": [-88.9759615324, 40.3143191251]}, "type": "Feature", "properties": {"collection_times": [{"days": "Mon-Fri", "time": "4:45pm"}, {"days": "Sat", "time": "10:45am"}, {"days": "Sun", "time": "Closed"}], "id": "6174500001", "name": "USPS COLLECTION BOX - BLUE BOX", "address": {"city": "HEYWORTH", "state": "IL", "street": "102 S WILLIS ST", "postcode": "61745"}}},
{"geometry": {"type": "Point", "coordinates": [-88.9759615324, 40.3143191251]}, "type": "Feature", "properties": {"collection_times": [{"days": "Mon-Fri", "time": "4:45pm"}, {"days": "Sat", "time": "10:45am"}, {"days": "Sun", "time": "Closed"}], "id": "6174500003", "name": "USPS COLLECTION BOX - PO LOBBY", "address": {"city": "HEYWORTH", "state": "IL", "street": "102 S WILLIS ST", "postcode": "61745"}}},
{"geometry": {"type": "Point", "coordinates": [-89.4134187518, 40.4202647412]}, "type": "Feature", "properties": {"collection_times": [{"days": "Mon-Fri", "time": "4:00pm"}, {"days": "Sat", "time": "10:00am"}, {"days": "Sun", "time": "Closed"}], "id": "6174700001", "name": "USPS COLLECTION BOX - BLUE BOX", "address": {"city": "HOPEDALE", "state": "IL", "street": "118 NW MAIN ST", "postcode": "61747"}}},
{"geometry": {"type": "Point", "coordinates": [-89.4134187518, 40.4202647412]}, "type": "Feature", "properties": {"collection_times": [{"days": "Mon-Fri", "time": "4:00pm"}, {"days": "Sat", "time": "10:00am"}, {"days": "Sun", "time": "Closed"}], "id": "6174700002", "name": "USPS COLLECTION BOX - PO LOBBY", "address": {"city": "HOPEDALE", "state": "IL", "street": "118 NW MAIN ST", "postcode": "61747"}}},
{"geometry": {"type": "Point", "coordinates": [-88.993121736, 40.6092318699]}, "type": "Feature", "properties": {"collection_times": [{"days": "Mon-Fri", "time": "4:15pm"}, {"days": "Sat", "time": "10:30am"}, {"days": "Sun", "time": "Closed"}], "id": "6174800001", "name": "USPS COLLECTION BOX - BLUE BOX", "address": {"city": "HUDSON", "state": "IL", "street": "104 E WALNUT ST", "postcode": "61748"}}},
{"geometry": {"type": "Point", "coordinates": [-88.993121736, 40.6092318699]}, "type": "Feature", "properties": {"collection_times": [{"days": "Mon-Fri", "time": "4:15pm"}, {"days": "Sat", "time": "10:30am"}, {"days": "Sun", "time": "Closed"}], "id": "6174800002", "name": "USPS COLLECTION BOX - PO LOBBY", "address": {"city": "HUDSON", "state": "IL", "street": "104 E WALNUT ST", "postcode": "61748"}}},
{"geometry": {"type": "Point", "coordinates": [-89.0855758282, 40.0977598795]}, "type": "Feature", "properties": {"collection_times": [{"days": "Mon-Fri", "time": "4:30pm"}, {"days": "Sat", "time": "10:00am"}, {"days": "Sun", "time": "Closed"}], "id": "6174900001", "name": "USPS COLLECTION BOX - BLUE BOX", "address": {"city": "KENNEY", "state": "IL", "street": "208 S JOHNSTON ST", "postcode": "61749"}}},
{"geometry": {"type": "Point", "coordinates": [-89.0855758282, 40.0977598795]}, "type": "Feature", "properties": {"collection_times": [{"days": "Mon-Fri", "time": "4:30pm"}, {"days": "Sat", "time": "10:00am"}, {"days": "Sun", "time": "Closed"}], "id": "6174900002", "name": "USPS COLLECTION BOX - PO LOBBY", "address": {"city": "KENNEY", "state": "IL", "street": "208 S JOHNSTON ST", "postcode": "61749"}}},
{"geometry": {"type": "Point", "coordinates": [-89.2847159045, 40.2161328401]}, "type": "Feature", "properties": {"collection_times": [{"days": "Mon-Fri", "time": "4:15pm"}, {"days": "Sat", "time": "9:00am"}, {"days": "Sun", "time": "Closed"}], "id": "6175100000", "name": "USPS COLLECTION BOX - BLUE BOX", "address": {"city": "LAWNDALE", "state": "IL", "street": "10 S LINCOLN ST", "postcode": "61751"}}},
{"geometry": {"type": "Point", "coordinates": [-89.2847159045, 40.2161328401]}, "type": "Feature", "properties": {"collection_times": [{"days": "Mon-Fri", "time": "8:15am"}, {"days": "Sat", "time": "9:00am"}, {"days": "Sun", "time": "Closed"}], "id": "6175100001", "name": "USPS COLLECTION BOX - PO LOBBY", "address": {"city": "LAWNDALE", "state": "IL", "street": "10 S LINCOLN ST", "postcode": "61751"}}},
{"geometry": {"type": "Point", "coordinates": [-88.7616415276, 40.3481003951]}, "type": "Feature", "properties": {"collection_times": [{"days": "Mon-Fri", "time": "5:00pm"}, {"days": "Sat", "time": "10:45am"}, {"days": "Sun", "time": "Closed"}], "id": "6175200001", "name": "USPS COLLECTION BOX - BLUE BOX", "address": {"city": "LE ROY", "state": "IL", "street": "104 E CHERRY ST", "postcode": "61752"}}},
{"geometry": {"type": "Point", "coordinates": [-88.7616415276, 40.3481003951]}, "type": "Feature", "properties": {"collection_times": [{"days": "Mon-Fri", "time": "4:30pm"}, {"days": "Sat", "time": "10:45am"}, {"days": "Sun", "time": "Closed"}], "id": "6175200006", "name": "USPS COLLECTION BOX - PO LOBBY", "address": {"city": "LE ROY", "state": "IL", "street": "104 E CHERRY ST", "postcode": "61752"}}},
{"geometry": {"type": "Point", "coordinates": [-88.7834475106, 40.641516345]}, "type": "Feature", "properties": {"collection_times": [{"days": "Mon-Fri", "time": "4:30pm"}, {"days": "Sat", "time": "11:00am"}, {"days": "Sun", "time": "Closed"}], "id": "6175300001", "name": "USPS COLLECTION BOX - BLUE BOX", "address": {"city": "LEXINGTON", "state": "IL", "street": "301 W MAIN ST", "postcode": "61753"}}},
{"geometry": {"type": "Point", "coordinates": [-88.7834475106, 40.641516345]}, "type": "Feature", "properties": {"collection_times": [{"days": "Mon-Fri", "time": "4:30pm"}, {"days": "Sat", "time": "11:00am"}, {"days": "Sun", "time": "Closed"}], "id": "6175300009", "name": "USPS COLLECTION BOX - PO LOBBY", "address": {"city": "LEXINGTON", "state": "IL", "street": "301 W MAIN ST", "postcode": "61753"}}},
{"geometry": {"type": "Point", "coordinates": [-89.1707066298, 40.313645797]}, "type": "Feature", "properties": {"collection_times": [{"days": "Mon-Fri", "time": "4:00pm"}, {"days": "Sat", "time": "10:30am"}, {"days": "Sun", "time": "Closed"}], "id": "6175400001", "name": "USPS COLLECTION BOX - BLUE BOX", "address": {"city": "MC LEAN", "state": "IL", "street": "117 S HAMILTON ST", "postcode": "61754"}}},
{"geometry": {"type": "Point", "coordinates": [-89.1637524777, 40.3313687462]}, "type": "Feature", "properties": {"collection_times": [{"days": "Mon-Sat", "time": "9:30am"}, {"days": "Sun", "time": "Closed"}], "id": "6175400002", "name": "USPS COLLECTION BOX - BLUE BOX", "address": {"city": "MC LEAN", "state": "IL", "street": "501 S MAIN ST", "postcode": "61754"}}},
{"geometry": {"type": "Point", "coordinates": [-89.1707066298, 40.313645797]}, "type": "Feature", "properties": {"collection_times": [{"days": "Mon-Fri", "time": "1:15pm"}, {"days": "Sat", "time": "10:30am"}, {"days": "Sun", "time": "Closed"}], "id": "6175400003", "name": "USPS COLLECTION BOX - PO LOBBY", "address": {"city": "MC LEAN", "state": "IL", "street": "117 S HAMILTON ST", "postcode": "61754"}}},
{"geometry": {"type": "Point", "coordinates": [-89.3592738172, 40.5370751428]}, "type": "Feature", "properties": {"collection_times": [{"days": "Mon-Fri", "time": "4:00pm"}, {"days": "Sat", "time": "11:00am"}, {"days": "Sun", "time": "Closed"}], "id": "6175500001", "name": "USPS COLLECTION BOX - BLUE BOX", "address": {"city": "MACKINAW", "state": "IL", "street": "110 S MAIN ST", "postcode": "61755"}}},
{"geometry": {"type": "Point", "coordinates": [-89.3592738172, 40.5370751428]}, "type": "Feature", "properties": {"collection_times": [{"days": "Mon-Fri", "time": "4:00pm"}, {"days": "Sat", "time": "11:00am"}, {"days": "Sun", "time": "Closed"}], "id": "6175500003", "name": "USPS COLLECTION BOX - PO LOBBY", "address": {"city": "MACKINAW", "state": "IL", "street": "110 S MAIN ST", "postcode": "61755"}}},
{"geometry": {"type": "Point", "coordinates": [-88.9537723508, 40.0364647226]}, "type": "Feature", "properties": {"collection_times": [{"days": "Mon-Fri", "time": "4:30pm"}, {"days": "Sat", "time": "10:00am"}, {"days": "Sun", "time": "Closed"}], "id": "6175600000", "name": "USPS COLLECTION BOX - BLUE BOX", "address": {"city": "MAROA", "state": "IL", "street": "200 E MAIN ST", "postcode": "61756"}}},
{"geometry": {"type": "Point", "coordinates": [-88.9537723508, 40.0364647226]}, "type": "Feature", "properties": {"collection_times": [{"days": "Mon-Fri", "time": "4:30pm"}, {"days": "Sat", "time": "10:00am"}, {"days": "Sun", "time": "Closed"}], "id": "6175600002", "name": "USPS COLLECTION BOX - PO LOBBY", "address": {"city": "MAROA", "state": "IL", "street": "200 E MAIN ST", "postcode": "61756"}}},
{"geometry": {"type": "Point", "coordinates": [-89.3151254858, 40.4325471339]}, "type": "Feature", "properties": {"collection_times": [{"days": "Mon-Fri", "time": "4:00pm"}, {"days": "Sat", "time": "11:00am"}, {"days": "Sun", "time": "Closed"}], "id": "6175900002", "name": "USPS COLLECTION BOX - BLUE BOX", "address": {"city": "MINIER", "state": "IL", "street": "219 W CHICAGO ST", "postcode": "61759"}}},
{"geometry": {"type": "Point", "coordinates": [-89.3151254858, 40.4325471339]}, "type": "Feature", "properties": {"collection_times": [{"days": "Mon-Fri", "time": "4:00pm"}, {"days": "Sat", "time": "11:00am"}, {"days": "Sun", "time": "Closed"}], "id": "6175900003", "name": "USPS COLLECTION BOX - PO LOBBY", "address": {"city": "MINIER", "state": "IL", "street": "219 W CHICAGO ST", "postcode": "61759"}}},
{"geometry": {"type": "Point", "coordinates": [-89.0340666554, 40.9017176294]}, "type": "Feature", "properties": {"collection_times": [{"days": "Mon-Fri", "time": "5:00pm"}, {"days": "Sat", "time": "1:00pm"}, {"days": "Sun", "time": "Closed"}], "id": "6176000005", "name": "USPS COLLECTION BOX - BLUE BOX", "address": {"city": "MINONK", "state": "IL", "street": "160 W 5TH ST", "postcode": "61760"}}},
{"geometry": {"type": "Point", "coordinates": [-89.0340666554, 40.9017176294]}, "type": "Feature", "properties": {"collection_times": [{"days": "Mon-Fri", "time": "4:30pm"}, {"days": "Sat", "time": "10:30am"}, {"days": "Sun", "time": "Closed"}], "id": "6176000006", "name": "USPS COLLECTION BOX - PO LOBBY", "address": {"city": "MINONK", "state": "IL", "street": "160 W 5TH ST", "postcode": "61760"}}},
{"geometry": {"type": "Point", "coordinates": [-88.9858620781, 40.5095467694]}, "type": "Feature", "properties": {"collection_times": [{"days": "Mon-Fri", "time": "5:30pm"}, {"days": "Sat", "time": "3:00pm"}, {"days": "Sun", "time": "Closed"}], "id": "6176100000", "name": "USPS COLLECTION BOX - BLUE BOX", "address": {"city": "NORMAL", "state": "IL", "street": "200 W NORTH ST", "postcode": "61761"}}},
{"geometry": {"type": "Point", "coordinates": [-88.9832067791, 40.5167107051]}, "type": "Feature", "properties": {"collection_times": [{"days": "Mon-Fri", "time": "5:30pm"}, {"days": "Sat", "time": "3:00pm"}, {"days": "Sun", "time": "Closed"}], "id": "6176100001", "name": "USPS COLLECTION BOX - EXPRESS", "address": {"city": "NORMAL", "state": "IL", "street": "200 W NORTH ST", "postcode": "61761"}}},
{"geometry": {"type": "Point", "coordinates": [-88.9895157129, 40.5114733079]}, "type": "Feature", "properties": {"collection_times": [{"days": "Mon-Sat", "time": "10:00am"}, {"days": "Sun", "time": "Closed"}], "id": "6176100002", "name": "USPS COLLECTION BOX - BLUE BOX", "address": {"city": "NORMAL", "state": "IL", "street": "202 N SCHOOL ST", "postcode": "61761"}}},
{"geometry": {"type": "Point", "coordinates": [-88.9937201678, 40.5315229824]}, "type": "Feature", "properties": {"collection_times": [{"days": "Mon-Fri", "time": "4:00pm"}, {"days": "Sat", "time": "2:30pm"}, {"days": "Sun", "time": "Closed"}], "id": "6176100003", "name": "USPS COLLECTION BOX - BLUE BOX", "address": {"city": "NORMAL", "state": "IL", "street": "505 W RAAB RD", "postcode": "61761"}}},
{"geometry": {"type": "Point", "coordinates": [-88.9954227844, 40.5247033279]}, "type": "Feature", "properties": {"collection_times": [{"days": "Mon-Sat", "time": "8:30am"}, {"days": "Sun", "time": "Closed"}], "id": "6176100006", "name": "USPS COLLECTION BOX - BLUE BOX", "address": {"city": "NORMAL", "state": "IL", "street": "1101 N MAIN ST", "postcode": "61761"}}},
{"geometry": {"type": "Point", "coordinates": [-88.9588857174, 40.510487946]}, "type": "Feature", "properties": {"collection_times": [{"days": "Mon-Fri", "time": "4:30pm"}, {"days": "Sat", "time": "3:00pm"}, {"days": "Sun", "time": "Closed"}], "id": "6176100008", "name": "USPS COLLECTION BOX - BLUE BOX", "address": {"city": "NORMAL", "state": "IL", "street": "1540 E COLLEGE AVE", "postcode": "61761"}}},
{"geometry": {"type": "Point", "coordinates": [-88.982828952, 40.5076438517]}, "type": "Feature", "properties": {"collection_times": [{"days": "Mon-Fri", "time": "4:30pm"}, {"days": "Sat", "time": "3:00pm"}, {"days": "Sun", "time": "Closed"}], "id": "6176100011", "name": "USPS COLLECTION BOX - BLUE BOX", "address": {"city": "NORMAL", "state": "IL", "street": "100 E PHOENIX AVE", "postcode": "61761"}}},
{"geometry": {"type": "Point", "coordinates": [-88.990874163, 40.4981692493]}, "type": "Feature", "properties": {"collection_times": [{"days": "Mon-Sat", "time": "8:00am"}, {"days": "Sun", "time": "Closed"}], "id": "6176100014", "name": "USPS COLLECTION BOX - BLUE BOX", "address": {"city": "NORMAL", "state": "IL", "street": "1200 FRANKLIN AVE", "postcode": "61761"}}},
{"geometry": {"type": "Point", "coordinates": [-89.0161752085, 40.5098734059]}, "type": "Feature", "properties": {"collection_times": [{"days": "Mon-Fri", "time": "4:00pm"}, {"days": "Sat", "time": "2:30pm"}, {"days": "Sun", "time": "Closed"}], "id": "6176100022", "name": "USPS COLLECTION BOX - BLUE BOX", "address": {"city": "NORMAL", "state": "IL", "street": "1700 W COLLEGE AVE", "postcode": "61761"}}},
{"geometry": {"type": "Point", "coordinates": [-88.9932218908, 40.5115613665]}, "type": "Feature", "properties": {"collection_times": [{"days": "Mon-Fri", "time": "4:15pm"}, {"days": "Sat", "time": "2:45pm"}, {"days": "Sun", "time": "Closed"}], "id": "6176100028", "name": "USPS COLLECTION BOX - BLUE BOX", "address": {"city": "NORMAL", "state": "IL", "street": "100 N UNIVERSITY ST", "postcode": "61761"}}},
{"geometry": {"type": "Point", "coordinates": [-88.9548123739, 40.5140614563]}, "type": "Feature", "properties": {"collection_times": [{"days": "Mon-Fri", "time": "4:30pm"}, {"days": "Sat", "time": "3:00pm"}, {"days": "Sun", "time": "Closed"}], "id": "6176100032", "name": "USPS COLLECTION BOX - BLUE BOX", "address": {"city": "NORMAL", "state": "IL", "street": "211 LANDMARK DR", "postcode": "61761"}}},
{"geometry": {"type": "Point", "coordinates": [-88.9835410621, 40.5421910359]}, "type": "Feature", "properties": {"collection_times": [{"days": "Mon-Fri", "time": "3:30pm"}, {"days": "Sat", "time": "2:00pm"}, {"days": "Sun", "time": "Closed"}], "id": "6176100035", "name": "USPS COLLECTION BOX - BLUE BOX", "address": {"city": "NORMAL", "state": "IL", "street": "2000 N LINDEN ST", "postcode": "61761"}}},
{"geometry": {"type": "Point", "coordinates": [-88.9548123739, 40.5140614563]}, "type": "Feature", "properties": {"collection_times": [{"days": "Mon-Fri", "time": "4:30pm"}, {"days": "Sat", "time": "3:00pm"}, {"days": "Sun", "time": "Closed"}], "id": "6176100037", "name": "USPS COLLECTION BOX - BLUE BOX", "address": {"city": "NORMAL", "state": "IL", "street": "211 LANDMARK DR", "postcode": "61761"}}},
{"geometry": {"type": "Point", "coordinates": [-88.9858620781, 40.5095467694]}, "type": "Feature", "properties": {"collection_times": [{"days": "Mon-Fri", "time": "5:30pm"}, {"days": "Sat", "time": "3:00pm"}, {"days": "Sun", "time": "Closed"}], "id": "6176100040", "name": "USPS COLLECTION BOX - BLUE BOX", "address": {"city": "NORMAL", "state": "IL", "street": "200 W NORTH ST", "postcode": "61761"}}},
{"geometry": {"type": "Point", "coordinates": [-88.9943513363, 40.5467858487]}, "type": "Feature", "properties": {"collection_times": [{"days": "Mon-Sat", "time": "9:30am"}, {"days": "Sun", "time": "Closed"}], "id": "6176100042", "name": "USPS COLLECTION BOX - BLUE BOX", "address": {"city": "NORMAL", "state": "IL", "street": "414 W NORTHTOWN RD", "postcode": "61761"}}},
{"geometry": {"type": "Point", "coordinates": [-88.9511896892, 40.5160814548]}, "type": "Feature", "properties": {"collection_times": [{"days": "Mon-Fri", "time": "3:15pm"}, {"days": "Sat", "time": "1:45pm"}, {"days": "Sun", "time": "Closed"}], "id": "6176100048", "name": "USPS COLLECTION BOX - BLUE BOX", "address": {"city": "NORMAL", "state": "IL", "street": "300 GREENBRIAR DR", "postcode": "61761"}}},
{"geometry": {"type": "Point", "coordinates": [-88.9858620781, 40.5095467694]}, "type": "Feature", "properties": {"collection_times": [{"days": "Mon-Fri", "time": "5:30pm"}, {"days": "Sat", "time": "3:00pm"}, {"days": "Sun", "time": "Closed"}], "id": "6176100050", "name": "USPS COLLECTION BOX - BLUE BOX", "address": {"city": "NORMAL", "state": "IL", "street": "200 W NORTH ST", "postcode": "61761"}}},
{"geometry": {"type": "Point", "coordinates": [-88.9993024825, 40.5319606772]}, "type": "Feature", "properties": {"collection_times": [{"days": "Mon-Fri", "time": "3:45pm"}, {"days": "Sat", "time": "2:15pm"}, {"days": "Sun", "time": "Closed"}], "id": "6176100051", "name": "USPS COLLECTION BOX - BLUE BOX", "address": {"city": "NORMAL", "state": "IL", "street": "706 W RAAB RD", "postcode": "61761"}}},
{"geometry": {"type": "Point", "coordinates": [-89.0066020627, 40.5319290551]}, "type": "Feature", "properties": {"collection_times": [{"days": "Mon-Sat", "time": "10:00am"}, {"days": "Sun", "time": "Closed"}], "id": "6176100054", "name": "USPS COLLECTION BOX - BLUE BOX", "address": {"city": "NORMAL", "state": "IL", "street": "1500 W RAAB RD", "postcode": "61761"}}},
{"geometry": {"type": "Point", "coordinates": [-88.9858620781, 40.5095467694]}, "type": "Feature", "properties": {"collection_times": [{"days": "Mon-Fri", "time": "5:00pm"}, {"days": "Sat", "time": "12:00pm"}, {"days": "Sun", "time": "Closed"}], "id": "6176100055", "name": "USPS COLLECTION BOX - PO LOBBY", "address": {"city": "NORMAL", "state": "IL", "street": "200 W NORTH ST", "postcode": "61761"}}},
{"geometry": {"type": "Point", "coordinates": [-88.631090065, 40.8802628356]}, "type": "Feature", "properties": {"collection_times": [{"days": "Mon-Fri", "time": "5:00pm"}, {"days": "Sat", "time": "4:00pm"}, {"days": "Sun", "time": "Closed"}], "id": "6176400000", "name": "USPS COLLECTION BOX - EXPRESS", "address": {"city": "PONTIAC", "state": "IL", "street": "302 W MADISON ST", "postcode": "61764"}}},
{"geometry": {"type": "Point", "coordinates": [-88.6309622773, 40.8802570872]}, "type": "Feature", "properties": {"collection_times": [{"days": "Mon-Fri", "time": "5:00pm"}, {"days": "Sat", "time": "4:00pm"}, {"days": "Sun", "time": "Closed"}], "id": "6176400001", "name": "USPS COLLECTION BOX - BLUE BOX", "address": {"city": "PONTIAC", "state": "IL", "street": "302 W MADISON ST", "postcode": "61764"}}},
{"geometry": {"type": "Point", "coordinates": [-88.6309622773, 40.8802570872]}, "type": "Feature", "properties": {"collection_times": [{"days": "Mon-Fri", "time": "5:00pm"}, {"days": "Sat", "time": "4:00pm"}, {"days": "Sun", "time": "Closed"}], "id": "6176400003", "name": "USPS COLLECTION BOX - BLUE BOX", "address": {"city": "PONTIAC", "state": "IL", "street": "302 W MADISON ST", "postcode": "61764"}}},
{"geometry": {"type": "Point", "coordinates": [-88.6361114357, 40.8779445399]}, "type": "Feature", "properties": {"collection_times": [{"days": "Mon-Fri", "time": "4:00pm"}, {"days": "Sat", "time": "3:45pm"}, {"days": "Sun", "time": "Closed"}], "id": "6176400020", "name": "USPS COLLECTION BOX - BLUE BOX", "address": {"city": "PONTIAC", "state": "IL", "street": "1 VERMILLION PLZ", "postcode": "61764"}}},
{"geometry": {"type": "Point", "coordinates": [-88.6285809223, 40.8795471681]}, "type": "Feature", "properties": {"collection_times": [{"days": "Mon-Fri", "time": "4:30pm"}, {"days": "Sat", "time": "4:00pm"}, {"days": "Sun", "time": "Closed"}], "id": "6176400025", "name": "USPS COLLECTION BOX - BLUE BOX", "address": {"city": "PONTIAC", "state": "IL", "street": "202 N MAIN ST", "postcode": "61764"}}},
{"geometry": {"type": "Point", "coordinates": [-88.6298319871, 40.8788585411]}, "type": "Feature", "properties": {"collection_times": [{"days": "Mon-Fri", "time": "4:30pm"}, {"days": "Sat", "time": "4:00pm"}, {"days": "Sun", "time": "Closed"}], "id": "6176400026", "name": "USPS COLLECTION BOX - BLUE BOX", "address": {"city": "PONTIAC", "state": "IL", "street": "123 N MILL ST", "postcode": "61764"}}},
{"geometry": {"type": "Point", "coordinates": [-88.6309622773, 40.8802570872]}, "type": "Feature", "properties": {"collection_times": [{"days": "Mon-Fri", "time": "5:00pm"}, {"days": "Sat", "time": "4:00pm"}, {"days": "Sun", "time": "Closed"}], "id": "6176400030", "name": "USPS COLLECTION BOX - PO LOBBY", "address": {"city": "PONTIAC", "state": "IL", "street": "302 W MADISON ST", "postcode": "61764"}}},
{"geometry": {"type": "Point", "coordinates": [-88.4049616642, 40.8933931196]}, "type": "Feature", "properties": {"collection_times": [{"days": "Mon-Fri", "time": "4:00pm"}, {"days": "Sat", "time": "10:30am"}, {"days": "Sun", "time": "Closed"}], "id": "6176900000", "name": "USPS COLLECTION BOX - BLUE BOX", "address": {"city": "SAUNEMIN", "state": "IL", "street": "76 NORTH ST", "postcode": "61769"}}},
{"geometry": {"type": "Point", "coordinates": [-88.4049616642, 40.8933931196]}, "type": "Feature", "properties": {"collection_times": [{"days": "Mon-Fri", "time": "12:15pm"}, {"days": "Sat", "time": "10:15am"}, {"days": "Sun", "time": "Closed"}], "id": "6176900001", "name": "USPS COLLECTION BOX - PO LOBBY", "address": {"city": "SAUNEMIN", "state": "IL", "street": "76 NORTH ST", "postcode": "61769"}}},
{"geometry": {"type": "Point", "coordinates": [-88.5278774562, 40.4256329074]}, "type": "Feature", "properties": {"collection_times": [{"days": "Mon-Fri", "time": "4:00pm"}, {"days": "Sat", "time": "10:00am"}, {"days": "Sun", "time": "Closed"}], "id": "6177000001", "name": "USPS COLLECTION BOX - BLUE BOX", "address": {"city": "SAYBROOK", "state": "IL", "street": "209 W LINCOLN ST", "postcode": "61770"}}},
{"geometry": {"type": "Point", "coordinates": [-88.5278774562, 40.4256329074]}, "type": "Feature", "properties": {"collection_times": [{"days": "Mon-Fri", "time": "1:00pm"}, {"days": "Sat", "time": "10:00am"}, {"days": "Sun", "time": "Closed"}], "id": "6177000002", "name": "USPS COLLECTION BOX - PO LOBBY", "address": {"city": "SAYBROOK", "state": "IL", "street": "209 W LINCOLN ST", "postcode": "61770"}}},
{"geometry": {"type": "Point", "coordinates": [-89.1338010904, 40.7415893207]}, "type": "Feature", "properties": {"collection_times": [{"days": "Mon-Fri", "time": "4:00pm"}, {"days": "Sat", "time": "10:15am"}, {"days": "Sun", "time": "Closed"}], "id": "6177100000", "name": "USPS COLLECTION BOX - BLUE BOX", "address": {"city": "SECOR", "state": "IL", "street": "103 W GILMAN ST", "postcode": "61771"}}},
{"geometry": {"type": "Point", "coordinates": [-89.1338010904, 40.7415893207]}, "type": "Feature", "properties": {"collection_times": [{"days": "Mon-Fri", "time": "4:00pm"}, {"days": "Sat", "time": "1:10pm"}, {"days": "Sun", "time": "Closed"}], "id": "6177100001", "name": "USPS COLLECTION BOX - PO LOBBY", "address": {"city": "SECOR", "state": "IL", "street": "103 W GILMAN ST", "postcode": "61771"}}},
{"geometry": {"type": "Point", "coordinates": [-89.0770334437, 40.3705824125]}, "type": "Feature", "properties": {"collection_times": [{"days": "Mon-Fri", "time": "4:00pm"}, {"days": "Sat", "time": "10:30am"}, {"days": "Sun", "time": "Closed"}], "id": "6177200000", "name": "USPS COLLECTION BOX - BLUE BOX", "address": {"city": "SHIRLEY", "state": "IL", "street": "8546 FOSTER ST", "postcode": "61772"}}},
{"geometry": {"type": "Point", "coordinates": [-89.0770334437, 40.3705824125]}, "type": "Feature", "properties": {"collection_times": [{"days": "Mon-Fri", "time": "12:30pm"}, {"days": "Sat", "time": "10:30am"}, {"days": "Sun", "time": "Closed"}], "id": "6177200001", "name": "USPS COLLECTION BOX - PO LOBBY", "address": {"city": "SHIRLEY", "state": "IL", "street": "8546 FOSTER ST", "postcode": "61772"}}},
{"geometry": {"type": "Point", "coordinates": [-88.3832162868, 40.5879688113]}, "type": "Feature", "properties": {"collection_times": [{"days": "Mon-Fri", "time": "3:30pm"}, {"days": "Sat", "time": "10:00am"}, {"days": "Sun", "time": "Closed"}], "id": "6177300001", "name": "USPS COLLECTION BOX - BLUE BOX", "address": {"city": "SIBLEY", "state": "IL", "street": "115 S SCIOTA ST", "postcode": "61773"}}},
{"geometry": {"type": "Point", "coordinates": [-88.3832162868, 40.5879688113]}, "type": "Feature", "properties": {"collection_times": [{"days": "Mon-Fri", "time": "12:00pm"}, {"days": "Sat", "time": "10:00am"}, {"days": "Sun", "time": "Closed"}], "id": "6177300002", "name": "USPS COLLECTION BOX - PO LOBBY", "address": {"city": "SIBLEY", "state": "IL", "street": "115 S SCIOTA ST", "postcode": "61773"}}},
{"geometry": {"type": "Point", "coordinates": [-89.2179138855, 40.4346828849]}, "type": "Feature", "properties": {"collection_times": [{"days": "Mon-Fri", "time": "4:15pm"}, {"days": "Sat", "time": "10:15am"}, {"days": "Sun", "time": "Closed"}], "id": "6177400001", "name": "USPS COLLECTION BOX - BLUE BOX", "address": {"city": "STANFORD", "state": "IL", "street": "100 W MAIN ST", "postcode": "61774"}}},
{"geometry": {"type": "Point", "coordinates": [-89.2179138855, 40.4346828849]}, "type": "Feature", "properties": {"collection_times": [{"days": "Mon-Fri", "time": "11:30am"}, {"days": "Sat", "time": "10:15am"}, {"days": "Sun", "time": "Closed"}], "id": "6177400002", "name": "USPS COLLECTION BOX - PO LOBBY", "address": {"city": "STANFORD", "state": "IL", "street": "100 W MAIN ST", "postcode": "61774"}}},
{"geometry": {"type": "Point", "coordinates": [-88.3964299185, 40.6533732999]}, "type": "Feature", "properties": {"collection_times": [{"days": "Mon-Fri", "time": "4:00pm"}, {"days": "Sat", "time": "10:30am"}, {"days": "Sun", "time": "Closed"}], "id": "6177500000", "name": "USPS COLLECTION BOX - BLUE BOX", "address": {"city": "STRAWN", "state": "IL", "street": "205 S 1ST ST", "postcode": "61775"}}},
{"geometry": {"type": "Point", "coordinates": [-88.3964299185, 40.6533732999]}, "type": "Feature", "properties": {"collection_times": [{"days": "Mon-Sat", "time": "10:30am"}, {"days": "Sun", "time": "Closed"}], "id": "6177500001", "name": "USPS COLLECTION BOX - PO LOBBY", "address": {"city": "STRAWN", "state": "IL", "street": "205 S 1ST ST", "postcode": "61775"}}},
{"geometry": {"type": "Point", "coordinates": [-88.8973978037, 40.5648717274]}, "type": "Feature", "properties": {"collection_times": [{"days": "Mon-Fri", "time": "4:30pm"}, {"days": "Sat", "time": "10:30am"}, {"days": "Sun", "time": "Closed"}], "id": "6177600001", "name": "USPS COLLECTION BOX - BLUE BOX", "address": {"city": "TOWANDA", "state": "IL", "street": "104 S MADISON ST", "postcode": "61776"}}},
{"geometry": {"type": "Point", "coordinates": [-88.8973978037, 40.5648717274]}, "type": "Feature", "properties": {"collection_times": [{"days": "Mon-Fri", "time": "2:30pm"}, {"days": "Sat", "time": "10:30am"}, {"days": "Sun", "time": "Closed"}], "id": "6177600002", "name": "USPS COLLECTION BOX - PO LOBBY", "address": {"city": "TOWANDA", "state": "IL", "street": "104 S MADISON ST", "postcode": "61776"}}},
{"geometry": {"type": "Point", "coordinates": [-88.9606255706, 40.2221045348]}, "type": "Feature", "properties": {"collection_times": [{"days": "Mon-Fri", "time": "4:30pm"}, {"days": "Sat", "time": "10:00am"}, {"days": "Sun", "time": "Closed"}], "id": "6177700001", "name": "USPS COLLECTION BOX - BLUE BOX", "address": {"city": "WAPELLA", "state": "IL", "street": "305 MAIN ST", "postcode": "61777"}}},
{"geometry": {"type": "Point", "coordinates": [-88.9606255706, 40.2221045348]}, "type": "Feature", "properties": {"collection_times": [{"days": "Mon-Fri", "time": "11:00am"}, {"days": "Sat", "time": "10:00am"}, {"days": "Sun", "time": "Closed"}], "id": "6177700002", "name": "USPS COLLECTION BOX - PO LOBBY", "address": {"city": "WAPELLA", "state": "IL", "street": "305 MAIN ST", "postcode": "61777"}}},
{"geometry": {"type": "Point", "coordinates": [-89.0909628199, 40.2532610901]}, "type": "Feature", "properties": {"collection_times": [{"days": "Mon-Fri", "time": "4:00pm"}, {"days": "Sat", "time": "10:00am"}, {"days": "Sun", "time": "Closed"}], "id": "6177800000", "name": "USPS COLLECTION BOX - BLUE BOX", "address": {"city": "WAYNESVILLE", "state": "IL", "street": "108 S ISHAM ST", "postcode": "61778"}}},
{"geometry": {"type": "Point", "coordinates": [-89.0909628199, 40.2532610901]}, "type": "Feature", "properties": {"collection_times": [{"days": "Mon-Fri", "time": "1:00pm"}, {"days": "Sat", "time": "10:00am"}, {"days": "Sun", "time": "Closed"}], "id": "6177800001", "name": "USPS COLLECTION BOX - PO LOBBY", "address": {"city": "WAYNESVILLE", "state": "IL", "street": "108 S ISHAM ST", "postcode": "61778"}}}
]}
