{"type": "FeatureCollection", "features": [
{"geometry": {"type": "Point", "coordinates": [-88.2210781445, 40.0992296002]}, "type": "Feature", "properties": {"collection_times": [{"days": "Mon-Fri", "time": "10:00am"}, {"days": "Sat", "time": "12:00pm"}, {"days": "Sun", "time": "Closed"}], "id": "6180100000", "name": "USPS COLLECTION BOX - BLUE BOX", "address": {"city": "URBANA", "state": "IL", "street": "1001 COLLEGE CT", "postcode": "61801"}}},
{"geometry": {"type": "Point", "coordinates": [-88.2239787714, 40.109007032]}, "type": "Feature", "properties": {"collection_times": [{"days": "Mon-Fri", "time": "2:00pm"}, {"days": "Sat", "time": "11:30am"}, {"days": "Sun", "time": "Closed"}], "id": "6180100001", "name": "USPS COLLECTION BOX - BLUE BOX", "address": {"city": "URBANA", "state": "IL", "street": "503 S GOODWIN AVE", "postcode": "61801"}}},
{"geometry": {"type": "Point", "coordinates": [-88.219393177, 40.1064102535]}, "type": "Feature", "properties": {"collection_times": [{"days": "Mon-Fri", "time": "2:15pm"}, {"days": "Sat", "time": "11:15am"}, {"days": "Sun", "time": "Closed"}], "id": "6180100002", "name": "USPS COLLECTION BOX - BLUE BOX", "address": {"city": "URBANA", "state": "IL", "street": "809 S LINCOLN AVE", "postcode": "61801"}}},
{"geometry": {"type": "Point", "coordinates": [-88.1942572558, 40.1077649868]}, "type": "Feature", "properties": {"collection_times": [{"days": "Mon-Fri", "time": "2:00pm"}, {"days": "Sat", "time": "12:00pm"}, {"days": "Sun", "time": "Closed"}], "id": "6180100003", "name": "USPS COLLECTION BOX - BLUE BOX", "address": {"city": "URBANA", "state": "IL", "street": "1201 W OREGON ST", "postcode": "61801"}}},
{"geometry": {"type": "Point", "coordinates": [-88.2212054467, 40.1040637318]}, "type": "Feature", "properties": {"collection_times": [{"days": "Mon-Fri", "time": "1:30pm"}, {"days": "Sat", "time": "11:00am"}, {"days": "Sun", "time": "Closed"}], "id": "6180100004", "name": "USPS COLLECTION BOX - BLUE BOX", "address": {"city": "URBANA", "state": "IL", "street": "1007 W GREGORY DR", "postcode": "61801"}}},
{"geometry": {"type": "Point", "coordinates": [-88.20738673, 40.1116585892]}, "type": "Feature", "properties": {"collection_times": [{"days": "Mon-Fri", "time": "5:00pm"}, {"days": "Sat", "time": "3:00pm"}, {"days": "Sun", "time": "Closed"}], "id": "6180100005", "name": "USPS COLLECTION BOX - BLUE BOX", "address": {"city": "URBANA", "state": "IL", "street": "202 S BROADWAY AVE", "postcode": "61801"}}},
{"geometry": {"type": "Point", "coordinates": [-88.2064255452, 40.1116542672]}, "type": "Feature", "properties": {"collection_times": [{"days": "Mon-Fri", "time": "5:00pm"}, {"days": "Sat", "time": "3:00pm"}, {"days": "Sun", "time": "Closed"}], "id": "6180100010", "name": "USPS COLLECTION BOX - BLUE BOX", "address": {"city": "URBANA", "state": "IL", "street": "199 E ELM ST", "postcode": "61801"}}},
{"geometry": {"type": "Point", "coordinates": [-88.2064255452, 40.1116542672]}, "type": "Feature", "properties": {"collection_times": [{"days": "Mon-Fri", "time": "5:00pm"}, {"days": "Sat", "time": "3:00pm"}, {"days": "Sun", "time": "Closed"}], "id": "6180100011", "name": "USPS COLLECTION BOX - BLUE BOX", "address": {"city": "URBANA", "state": "IL", "street": "199 E ELM ST", "postcode": "61801"}}},
{"geometry": {"type": "Point", "coordinates": [-88.2132054851, 40.1107683957]}, "type": "Feature", "properties": {"collection_times": [{"days": "Mon-Fri", "time": "2:30pm"}, {"days": "Sat", "time": "12:30pm"}, {"days": "Sun", "time": "Closed"}], "id": "6180100013", "name": "USPS COLLECTION BOX - BLUE BOX", "address": {"city": "URBANA", "state": "IL", "street": "500 W GREEN ST", "postcode": "61801"}}},
{"geometry": {"type": "Point", "coordinates": [-88.2177845551, 40.1091683526]}, "type": "Feature", "properties": {"collection_times": [{"days": "Mon-Fri", "time": "2:15pm"}, {"days": "Sat", "time": "12:30pm"}, {"days": "Sun", "time": "Closed"}], "id": "6180100014", "name": "USPS COLLECTION BOX - BLUE BOX", "address": {"city": "URBANA", "state": "IL", "street": "800 W ILLINOIS ST", "postcode": "61801"}}},
{"geometry": {"type": "Point", "coordinates": [-88.2089001465, 40.1124078826]}, "type": "Feature", "properties": {"collection_times": [{"days": "Mon-Fri", "time": "4:30pm"}, {"days": "Sat", "time": "2:00pm"}, {"days": "Sun", "time": "Closed"}], "id": "6180100020", "name": "USPS COLLECTION BOX - BLUE BOX", "address": {"city": "URBANA", "state": "IL", "street": "199 W MAIN ST", "postcode": "61801"}}},
{"geometry": {"type": "Point", "coordinates": [-88.2257506967, 40.1154247935]}, "type": "Feature", "properties": {"collection_times": [{"days": "Mon-Fri", "time": "2:45pm"}, {"days": "Sat-Sun", "time": "Closed"}], "id": "6180100021", "name": "USPS COLLECTION BOX - BLUE BOX", "address": {"city": "URBANA", "state": "IL", "street": "401 N MATHEWS AVE", "postcode": "61801"}}},
{"geometry": {"type": "Point", "coordinates": [-88.2144511921, 40.1165037496]}, "type": "Feature", "properties": {"collection_times": [{"days": "Mon-Fri", "time": "3:30pm"}, {"days": "Sat", "time": "12:45pm"}, {"days": "Sun", "time": "Closed"}], "id": "6180100024", "name": "USPS COLLECTION BOX - BLUE BOX", "address": {"city": "URBANA", "state": "IL", "street": "501 N ORCHARD ST", "postcode": "61801"}}},
{"geometry": {"type": "Point", "coordinates": [-88.2143959493, 40.1026676167]}, "type": "Feature", "properties": {"collection_times": [{"days": "Mon-Fri", "time": "1:15pm"}, {"days": "Sat", "time": "3:00pm"}, {"days": "Sun", "time": "Closed"}], "id": "6180100025", "name": "USPS COLLECTION BOX - BLUE BOX", "address": {"city": "URBANA", "state": "IL", "street": "1201 S ORCHARD ST", "postcode": "61801"}}},
{"geometry": {"type": "Point", "coordinates": [-88.2271967287, 40.1174492478]}, "type": "Feature", "properties": {"collection_times": [{"days": "Mon-Fri", "time": "2:45pm"}, {"days": "Sat", "time": "12:45pm"}, {"days": "Sun", "time": "Closed"}], "id": "6180100028", "name": "USPS COLLECTION BOX - BLUE BOX", "address": {"city": "URBANA", "state": "IL", "street": "1402 W PARK ST", "postcode": "61801"}}},
{"geometry": {"type": "Point", "coordinates": [-88.2047789848, 40.1093359395]}, "type": "Feature", "properties": {"collection_times": [{"days": "Mon-Fri", "time": "4:45pm"}, {"days": "Sat", "time": "2:00pm"}, {"days": "Sun", "time": "Closed"}], "id": "6180100030", "name": "USPS COLLECTION BOX - BLUE BOX", "address": {"city": "URBANA", "state": "IL", "street": "498 S VINE ST", "postcode": "61801"}}},
{"geometry": {"type": "Point", "coordinates": [-88.2207852822, 40.1106771209]}, "type": "Feature", "properties": {"collection_times": [{"days": "Mon-Fri", "time": "2:30pm"}, {"days": "Sat", "time": "11:30am"}, {"days": "Sun", "time": "Closed"}], "id": "6180100034", "name": "USPS COLLECTION BOX - BLUE BOX", "address": {"city": "URBANA", "state": "IL", "street": "1012 W GREEN ST", "postcode": "61801"}}},
{"geometry": {"type": "Point", "coordinates": [-88.1907830421, 40.0981542498]}, "type": "Feature", "properties": {"collection_times": [{"days": "Mon-Fri", "time": "4:00pm"}, {"days": "Sat", "time": "2:00pm"}, {"days": "Sun", "time": "Closed"}], "id": "6180100035", "name": "USPS COLLECTION BOX - BLUE BOX", "address": {"city": "URBANA", "state": "IL", "street": "1715 PHILO RD", "postcode": "61801"}}},
{"geometry": {"type": "Point", "coordinates": [-88.1907830421, 40.0981542498]}, "type": "Feature", "properties": {"collection_times": [{"days": "Mon-Fri", "time": "4:00pm"}, {"days": "Sat", "time": "2:00pm"}, {"days": "Sun", "time": "Closed"}], "id": "6180100036", "name": "USPS COLLECTION BOX - BLUE BOX", "address": {"city": "URBANA", "state": "IL", "street": "1715 PHILO RD", "postcode": "61801"}}},
{"geometry": {"type": "Point", "coordinates": [-88.1907636833, 40.0966586862]}, "type": "Feature", "properties": {"collection_times": [{"days": "Mon-Fri", "time": "4:00pm"}, {"days": "Sat", "time": "2:00pm"}, {"days": "Sun", "time": "Closed"}], "id": "6180100040", "name": "USPS COLLECTION BOX - BLUE BOX", "address": {"city": "URBANA", "state": "IL", "street": "1801 PHILO RD", "postcode": "61801"}}},
{"geometry": {"type": "Point", "coordinates": [-88.2288847558, 40.1127670249]}, "type": "Feature", "properties": {"collection_times": [{"days": "Mon-Fri", "time": "4:30pm"}, {"days": "Sat", "time": "12:15pm"}, {"days": "Sun", "time": "Closed"}], "id": "6180100043", "name": "USPS COLLECTION BOX - BLUE BOX", "address": {"city": "URBANA", "state": "IL", "street": "498 S WRIGHT ST", "postcode": "61801"}}},
{"geometry": {"type": "Point", "coordinates": [-88.1859123537, 40.1057863465]}, "type": "Feature", "properties": {"collection_times": [{"days": "Mon-Fri", "time": "4:00pm"}, {"days": "Sat", "time": "2:15pm"}, {"days": "Sun", "time": "Closed"}], "id": "6180100050", "name": "USPS COLLECTION BOX - BLUE BOX", "address": {"city": "URBANA", "state": "IL", "street": "1776 E WASHINGTON ST", "postcode": "61801"}}},
{"geometry": {"type": "Point", "coordinates": [-88.2049145105, 40.1132227517]}, "type": "Feature", "properties": {"collection_times": [{"days": "Mon-Fri", "time": "3:15pm"}, {"days": "Sat", "time": "2:00pm"}, {"days": "Sun", "time": "Closed"}], "id": "6180100053", "name": "USPS COLLECTION BOX - BLUE BOX", "address": {"city": "URBANA", "state": "IL", "street": "200 N VINE ST", "postcode": "61801"}}},
{"geometry": {"type": "Point", "coordinates": [-88.192913208, 40.1280250787]}, "type": "Feature", "properties": {"collection_times": [{"days": "Mon-Fri", "time": "12:00pm"}, {"days": "Sat", "time": "1:30pm"}, {"days": "Sun", "time": "Closed"}], "id": "6180100056", "name": "USPS COLLECTION BOX - BLUE BOX", "address": {"city": "URBANA", "state": "IL", "street": "1601 WILLOW VIEW RD", "postcode": "61801"}}},
{"geometry": {"type": "Point", "coordinates": [-88.1643981886, 40.1112346055]}, "type": "Feature", "properties": {"collection_times": [{"days": "Mon-Fri", "time": "6:00pm"}, {"days": "Sat", "time": "4:45pm"}, {"days": "Sun", "time": "Closed"}], "id": "6180100058", "name": "USPS COLLECTION BOX - BLUE BOX", "address": {"city": "URBANA", "state": "IL", "street": "3100 E TATMAN CT", "postcode": "61801"}}},
{"geometry": {"type": "Point", "coordinates": [-88.1643981886, 40.1112346055]}, "type": "Feature", "properties": {"collection_times": [{"days": "Mon-Fri", "time": "6:00pm"}, {"days": "Sat", "time": "4:45pm"}, {"days": "Sun", "time": "Closed"}], "id": "6180100059", "name": "USPS COLLECTION BOX - BLUE BOX", "address": {"city": "URBANA", "state": "IL", "street": "3100 E TATMAN CT", "postcode": "61801"}}},
{"geometry": {"type": "Point", "coordinates": [-88.2255780358, 40.1131652867]}, "type": "Feature", "properties": {"collection_times": [{"days": "Mon-Fri", "time": "2:45pm"}, {"days": "Sat", "time": "11:30am"}, {"days": "Sun", "time": "Closed"}], "id": "6180100063", "name": "USPS COLLECTION BOX - BLUE BOX", "address": {"city": "URBANA", "state": "IL", "street": "102 N MATTHEWS AVE", "postcode": "61801"}}},
{"geometry": {"type": "Point", "coordinates": [-87.9181886184, 39.9177313431]}, "type": "Feature", "properties": {"collection_times": [{"days": "Mon-Fri", "time": "3:30pm"}, {"days": "Sat", "time": "9:45am"}, {"days": "Sun", "time": "Closed"}], "id": "6181000001", "name": "USPS COLLECTION BOX - BLUE BOX", "address": {"city": "ALLERTON", "state": "IL", "street": "110 VERMILION AVE", "postcode": "61810"}}},
{"geometry": {"type": "Point", "coordinates": [-87.9181886184, 39.9177313431]}, "type": "Feature", "properties": {"collection_times": [{"days": "Mon-Fri", "time": "3:45pm"}, {"days": "Sat", "time": "12:30pm"}, {"days": "Sun", "time": "Closed"}], "id": "6181000002", "name": "USPS COLLECTION BOX - PO LOBBY", "address": {"city": "ALLERTON", "state": "IL", "street": "110 VERMILION AVE", "postcode": "61810"}}},
{"geometry": {"type": "Point", "coordinates": [-87.6061807505, 40.3085846516]}, "type": "Feature", "properties": {"collection_times": [{"days": "Mon-Fri", "time": "3:45pm"}, {"days": "Sat", "time": "10:00am"}, {"days": "Sun", "time": "Closed"}], "id": "6181100001", "name": "USPS COLLECTION BOX - BLUE BOX", "address": {"city": "ALVIN", "state": "IL", "street": "104 CHICAGO ST", "postcode": "61811"}}},
{"geometry": {"type": "Point", "coordinates": [-87.6061807505, 40.3085846516]}, "type": "Feature", "properties": {"collection_times": [{"days": "Mon-Fri", "time": "3:45pm"}, {"days": "Sat", "time": "12:45pm"}, {"days": "Sun", "time": "Closed"}], "id": "6181100002", "name": "USPS COLLECTION BOX - PO LOBBY", "address": {"city": "ALVIN", "state": "IL", "street": "104 CHICAGO ST", "postcode": "61811"}}},
{"geometry": {"type": "Point", "coordinates": [-87.8773804312, 40.3060772121]}, "type": "Feature", "properties": {"collection_times": [{"days": "Mon-Fri", "time": "2:45pm"}, {"days": "Sat", "time": "12:45pm"}, {"days": "Sun", "time": "Closed"}], "id": "6181200000", "name": "USPS COLLECTION BOX - BLUE BOX", "address": {"city": "ARMSTRONG", "state": "IL", "street": "30515 ARMSTRONG RD", "postcode": "61812"}}},
{"geometry": {"type": "Point", "coordinates": [-87.8773804312, 40.3060772121]}, "type": "Feature", "properties": {"collection_times": [{"days": "Mon-Fri", "time": "2:45pm"}, {"days": "Sat", "time": "12:45pm"}, {"days": "Sun", "time": "Closed"}], "id": "6181200001", "name": "USPS COLLECTION BOX - PO LOBBY", "address": {"city": "ARMSTRONG", "state": "IL", "street": "30515 ARMSTRONG RD", "postcode": "61812"}}},
{"geometry": {"type": "Point", "coordinates": [-88.5708432486, 39.9225089377]}, "type": "Feature", "properties": {"collection_times": [{"days": "Mon-Fri", "time": "2:30pm"}, {"days": "Sat", "time": "10:00am"}, {"days": "Sun", "time": "Closed"}], "id": "6181300001", "name": "USPS COLLECTION BOX - BLUE BOX", "address": {"city": "BEMENT", "state": "IL", "street": "200 E BODMAN ST", "postcode": "61813"}}},
{"geometry": {"type": "Point", "coordinates": [-88.5708432486, 39.9225089377]}, "type": "Feature", "properties": {"collection_times": [{"days": "Mon-Fri", "time": "2:30pm"}, {"days": "Sat", "time": "10:00am"}, {"days": "Sun", "time": "Closed"}], "id": "6181300004", "name": "USPS COLLECTION BOX - PO LOBBY", "address": {"city": "BEMENT", "state": "IL", "street": "200 E BODMAN ST", "postcode": "61813"}}},
{"geometry": {"type": "Point", "coordinates": [-87.6069784737, 40.2639751343]}, "type": "Feature", "properties": {"collection_times": [{"days": "Mon-Fri", "time": "3:30pm"}, {"days": "Sat", "time": "10:30am"}, {"days": "Sun", "time": "Closed"}], "id": "6181400000", "name": "USPS COLLECTION BOX - BLUE BOX", "address": {"city": "BISMARCK", "state": "IL", "street": "104 E HOLLOWAY ST", "postcode": "61814"}}},
{"geometry": {"type": "Point", "coordinates": [-87.6069784737, 40.2639751343]}, "type": "Feature", "properties": {"collection_times": [{"days": "Mon-Fri", "time": "3:15pm"}, {"days": "Sat", "time": "12:45pm"}, {"days": "Sun", "time": "Closed"}], "id": "6181400001", "name": "USPS COLLECTION BOX - PO LOBBY", "address": {"city": "BISMARCK", "state": "IL", "street": "104 E HOLLOWAY ST", "postcode": "61814"}}},
{"geometry": {"type": "Point", "coordinates": [-88.3695962432, 40.110270658]}, "type": "Feature", "properties": {"collection_times": [{"days": "Mon-Sat", "time": "11:45am"}, {"days": "Sun", "time": "Closed"}], "id": "6181500000", "name": "USPS COLLECTION BOX - BLUE BOX", "address": {"city": "BONDVILLE", "state": "IL", "street": "307 S MARKET ST", "postcode": "61815"}}},
{"geometry": {"type": "Point", "coordinates": [-88.3696535486, 40.1109104422]}, "type": "Feature", "properties": {"collection_times": [{"days": "Mon-Sat", "time": "11:45am"}, {"days": "Sun", "time": "Closed"}], "id": "6181500001", "name": "USPS COLLECTION BOX - PO LOBBY", "address": {"city": "BONDVILLE", "state": "IL", "street": "307 S MARKET ST", "postcode": "61815"}}},
{"geometry": {"type": "Point", "coordinates": [-87.9946992409, 39.9072868341]}, "type": "Feature", "properties": {"collection_times": [{"days": "Mon-Fri", "time": "11:15am"}, {"days": "Sat", "time": "9:15am"}, {"days": "Sun", "time": "Closed"}], "id": "6181600000", "name": "USPS COLLECTION BOX - PO LOBBY", "address": {"city": "BROADLANDS", "state": "IL", "street": "107 E DILLER ST", "postcode": "61816"}}},
{"geometry": {"type": "Point", "coordinates": [-87.9946992409, 39.9072868341]}, "type": "Feature", "properties": {"collection_times": [{"days": "Mon-Fri", "time": "11:15am"}, {"days": "Sat", "time": "9:15am"}, {"days": "Sun", "time": "Closed"}], "id": "6181600001", "name": "USPS COLLECTION BOX - BLUE BOX", "address": {"city": "BROADLANDS", "state": "IL", "street": "107 E DILLER ST", "postcode": "61816"}}},
{"geometry": {"type": "Point", "coordinates": [-87.7030302725, 40.0642262217]}, "type": "Feature", "properties": {"collection_times": [{"days": "Mon-Fri", "time": "4:30pm"}, {"days": "Sat", "time": "11:00am"}, {"days": "Sun", "time": "Closed"}], "id": "6181700001", "name": "USPS COLLECTION BOX - BLUE BOX", "address": {"city": "CATLIN", "state": "IL", "street": "201 S SANDUSKY ST", "postcode": "61817"}}},
{"geometry": {"type": "Point", "coordinates": [-87.7030302725, 40.0642262217]}, "type": "Feature", "properties": {"collection_times": [{"days": "Mon-Fri", "time": "4:30pm"}, {"days": "Sat", "time": "11:00am"}, {"days": "Sun", "time": "Closed"}], "id": "6181700002", "name": "USPS COLLECTION BOX - PO LOBBY", "address": {"city": "CATLIN", "state": "IL", "street": "201 S SANDUSKY ST", "postcode": "61817"}}},
{"geometry": {"type": "Point", "coordinates": [-88.7278881859, 39.8910544714]}, "type": "Feature", "properties": {"collection_times": [{"days": "Mon-Fri", "time": "3:30pm"}, {"days": "Sat", "time": "10:30am"}, {"days": "Sun", "time": "Closed"}], "id": "6181800001", "name": "USPS COLLECTION BOX - BLUE BOX", "address": {"city": "CERRO GORDO", "state": "IL", "street": "313 E SOUTH ST", "postcode": "61818"}}},
{"geometry": {"type": "Point", "coordinates": [-88.7278881859, 39.8910544714]}, "type": "Feature", "properties": {"collection_times": [{"days": "Mon-Fri", "time": "3:45pm"}, {"days": "Sat", "time": "10:45am"}, {"days": "Sun", "time": "Closed"}], "id": "6181800002", "name": "USPS COLLECTION BOX - PO LOBBY", "address": {"city": "CERRO GORDO", "state": "IL", "street": "313 E SOUTH ST", "postcode": "61818"}}},
{"geometry": {"type": "Point", "coordinates": [-88.2351301567, 40.1102979272]}, "type": "Feature", "properties": {"collection_times": [{"days": "Mon-Fri", "time": "5:00pm"}, {"days": "Sat", "time": "12:00pm"}, {"days": "Sun", "time": "Closed"}], "id": "6182000012", "name": "USPS COLLECTION BOX - BLUE BOX", "address": {"city": "CHAMPAIGN", "state": "IL", "street": "302 E GREEN ST", "postcode": "61820"}}},
{"geometry": {"type": "Point", "coordinates": [-88.2452194401, 40.1125552109]}, "type": "Feature", "properties": {"collection_times": [{"days": "Mon-Fri", "time": "5:00pm"}, {"days": "Sat", "time": "12:00pm"}, {"days": "Sun", "time": "Closed"}], "id": "6182000022", "name": "USPS COLLECTION BOX - BLUE BOX", "address": {"city": "CHAMPAIGN", "state": "IL", "street": "401 S RANDOLPH ST", "postcode": "61820"}}},
{"geometry": {"type": "Point", "coordinates": [-88.2484367764, 40.0827607832]}, "type": "Feature", "properties": {"collection_times": [{"days": "Mon-Fri", "time": "5:00pm"}, {"days": "Sat", "time": "12:00pm"}, {"days": "Sun", "time": "Closed"}], "id": "6182000024", "name": "USPS COLLECTION BOX - BLUE BOX", "address": {"city": "CHAMPAIGN", "state": "IL", "street": "2404 WINDSOR PL", "postcode": "61820"}}},
{"geometry": {"type": "Point", "coordinates": [-88.2484367764, 40.0827607832]}, "type": "Feature", "properties": {"collection_times": [{"days": "Mon-Fri", "time": "5:00pm"}, {"days": "Sat", "time": "12:00pm"}, {"days": "Sun", "time": "Closed"}], "id": "6182000025", "name": "USPS COLLECTION BOX - BLUE BOX", "address": {"city": "CHAMPAIGN", "state": "IL", "street": "2404 WINDSOR PL", "postcode": "61820"}}},
{"geometry": {"type": "Point", "coordinates": [-88.2545464944, 40.1307317232]}, "type": "Feature", "properties": {"collection_times": [{"days": "Mon-Fri", "time": "2:00pm"}, {"days": "Sat", "time": "11:00am"}, {"days": "Sun", "time": "Closed"}], "id": "6182000031", "name": "USPS COLLECTION BOX - BLUE BOX", "address": {"city": "CHAMPAIGN", "state": "IL", "street": "800 BLOOMINGTON RD", "postcode": "61820"}}},
{"geometry": {"type": "Point", "coordinates": [-88.2301348918, 40.1013776999]}, "type": "Feature", "properties": {"collection_times": [{"days": "Mon-Fri", "time": "2:00pm"}, {"days": "Sat", "time": "12:00pm"}, {"days": "Sun", "time": "Closed"}], "id": "6182000034", "name": "USPS COLLECTION BOX - BLUE BOX", "address": {"city": "CHAMPAIGN", "state": "IL", "street": "1310 S 6TH ST", "postcode": "61820"}}},
{"geometry": {"type": "Point", "coordinates": [-88.2405827155, 40.0872534702]}, "type": "Feature", "properties": {"collection_times": [{"days": "Mon-Fri", "time": "2:00pm"}, {"days": "Sat", "time": "12:00pm"}, {"days": "Sun", "time": "Closed"}], "id": "6182000035", "name": "USPS COLLECTION BOX - BLUE BOX", "address": {"city": "CHAMPAIGN", "state": "IL", "street": "50 GERTY DR", "postcode": "61820"}}},
{"geometry": {"type": "Point", "coordinates": [-88.2415381878, 40.1176034089]}, "type": "Feature", "properties": {"collection_times": [{"days": "Mon-Fri", "time": "2:00pm"}, {"days": "Sat", "time": "12:00pm"}, {"days": "Sun", "time": "Closed"}], "id": "6182000038", "name": "USPS COLLECTION BOX - BLUE BOX", "address": {"city": "CHAMPAIGN", "state": "IL", "street": "44 E MAIN ST", "postcode": "61820"}}},
{"geometry": {"type": "Point", "coordinates": [-88.2425752148, 40.1179443487]}, "type": "Feature", "properties": {"collection_times": [{"days": "Mon-Fri", "time": "5:00pm"}, {"days": "Sat", "time": "12:00pm"}, {"days": "Sun", "time": "Closed"}], "id": "6182000039", "name": "USPS COLLECTION BOX - BLUE BOX", "address": {"city": "CHAMPAIGN", "state": "IL", "street": "15 E MAIN ST", "postcode": "61820"}}},
{"geometry": {"type": "Point", "coordinates": [-88.2434532878, 40.1153373437]}, "type": "Feature", "properties": {"collection_times": [{"days": "Mon-Fri", "time": "2:00pm"}, {"days": "Sat", "time": "12:00pm"}, {"days": "Sun", "time": "Closed"}], "id": "6182000041", "name": "USPS COLLECTION BOX - BLUE BOX", "address": {"city": "CHAMPAIGN", "state": "IL", "street": "202 S NEIL ST", "postcode": "61820"}}},
{"geometry": {"type": "Point", "coordinates": [-88.246729862, 40.111432643]}, "type": "Feature", "properties": {"collection_times": [{"days": "Mon-Fri", "time": "2:00pm"}, {"days": "Sat", "time": "12:00pm"}, {"days": "Sun", "time": "Closed"}], "id": "6182000042", "name": "USPS COLLECTION BOX - BLUE BOX", "address": {"city": "CHAMPAIGN", "state": "IL", "street": "514 S STATE ST", "postcode": "61820"}}},
{"geometry": {"type": "Point", "coordinates": [-88.2489298161, 40.1023565987]}, "type": "Feature", "properties": {"collection_times": [{"days": "Mon-Sat", "time": "12:00pm"}, {"days": "Sun", "time": "Closed"}], "id": "6182000046", "name": "USPS COLLECTION BOX - BLUE BOX", "address": {"city": "CHAMPAIGN", "state": "IL", "street": "416 HESSEL BLVD", "postcode": "61820"}}},
{"geometry": {"type": "Point", "coordinates": [-88.2504524471, 40.0895914553]}, "type": "Feature", "properties": {"collection_times": [{"days": "Mon-Fri", "time": "2:00pm"}, {"days": "Sat", "time": "12:00pm"}, {"days": "Sun", "time": "Closed"}], "id": "6182000047", "name": "USPS COLLECTION BOX - BLUE BOX", "address": {"city": "CHAMPAIGN", "state": "IL", "street": "2009 FOX DR", "postcode": "61820"}}},
{"geometry": {"type": "Point", "coordinates": [-88.2457005923, 40.0979050239]}, "type": "Feature", "properties": {"collection_times": [{"days": "Mon-Fri", "time": "5:00pm"}, {"days": "Sat", "time": "12:00pm"}, {"days": "Sun", "time": "Closed"}], "id": "6182000050", "name": "USPS COLLECTION BOX - BLUE BOX", "address": {"city": "CHAMPAIGN", "state": "IL", "street": "100 TRADE CENTRE DR", "postcode": "61820"}}},
{"geometry": {"type": "Point", "coordinates": [-88.2457005923, 40.0979050239]}, "type": "Feature", "properties": {"collection_times": [{"days": "Mon-Fri", "time": "5:00pm"}, {"days": "Sat", "time": "12:00pm"}, {"days": "Sun", "time": "Closed"}], "id": "6182000051", "name": "USPS COLLECTION BOX - BLUE BOX", "address": {"city": "CHAMPAIGN", "state": "IL", "street": "100 TRADE CENTRE DR", "postcode": "61820"}}},
{"geometry": {"type": "Point", "coordinates": [-88.2434843741, 40.1211837742]}, "type": "Feature", "properties": {"collection_times": [{"days": "Mon-Fri", "time": "5:30pm"}, {"days": "Sat", "time": "2:00pm"}, {"days": "Sun", "time": "Closed"}], "id": "6182000056", "name": "USPS COLLECTION BOX - BLUE BOX", "address": {"city": "CHAMPAIGN", "state": "IL", "street": "600 N NEIL ST", "postcode": "61820"}}},
{"geometry": {"type": "Point", "coordinates": [-88.2434843741, 40.1211837742]}, "type": "Feature", "properties": {"collection_times": [{"days": "Mon-Fri", "time": "5:30pm"}, {"days": "Sat", "time": "2:00pm"}, {"days": "Sun", "time": "Closed"}], "id": "6182000057", "name": "USPS COLLECTION BOX - BLUE BOX", "address": {"city": "CHAMPAIGN", "state": "IL", "street": "600 N NEIL ST", "postcode": "61820"}}},
{"geometry": {"type": "Point", "coordinates": [-88.2423430065, 40.1362290212]}, "type": "Feature", "properties": {"collection_times": [{"days": "Mon-Fri", "time": "12:00pm"}, {"days": "Sat", "time": "11:00am"}, {"days": "Sun", "time": "Closed"}], "id": "6182000068", "name": "USPS COLLECTION BOX - BLUE BOX", "address": {"city": "CHAMPAIGN", "state": "IL", "street": "30 E ANTHONY DR", "postcode": "61820"}}},
{"geometry": {"type": "Point", "coordinates": [-88.2477842115, 40.134160792]}, "type": "Feature", "properties": {"collection_times": [{"days": "Mon-Fri", "time": "2:00pm"}, {"days": "Sat", "time": "11:00am"}, {"days": "Sun", "time": "Closed"}], "id": "6182000070", "name": "USPS COLLECTION BOX - BLUE BOX", "address": {"city": "CHAMPAIGN", "state": "IL", "street": "10 HENSON PL", "postcode": "61820"}}},
{"geometry": {"type": "Point", "coordinates": [-88.2467977414, 40.1212101128]}, "type": "Feature", "properties": {"collection_times": [{"days": "Mon-Fri", "time": "2:00pm"}, {"days": "Sat", "time": "11:00am"}, {"days": "Sun", "time": "Closed"}], "id": "6182000072", "name": "USPS COLLECTION BOX - BLUE BOX", "address": {"city": "CHAMPAIGN", "state": "IL", "street": "600 N STATE ST", "postcode": "61820"}}},
{"geometry": {"type": "Point", "coordinates": [-88.2430481272, 40.1125426385]}, "type": "Feature", "properties": {"collection_times": [{"days": "Mon-Fri", "time": "5:00pm"}, {"days": "Sat", "time": "12:00pm"}, {"days": "Sun", "time": "Closed"}], "id": "6182000073", "name": "USPS COLLECTION BOX - BLUE BOX", "address": {"city": "CHAMPAIGN", "state": "IL", "street": "201 N RANDOLPH ST", "postcode": "61820"}}},
{"geometry": {"type": "Point", "coordinates": [-88.2430481272, 40.1125426385]}, "type": "Feature", "properties": {"collection_times": [{"days": "Mon-Fri", "time": "5:00pm"}, {"days": "Sat", "time": "12:00pm"}, {"days": "Sun", "time": "Closed"}], "id": "6182000075", "name": "USPS COLLECTION BOX - BLUE BOX", "address": {"city": "CHAMPAIGN", "state": "IL", "street": "201 N RANDOLPH ST", "postcode": "61820"}}},
{"geometry": {"type": "Point", "coordinates": [-88.2430481272, 40.1125426385]}, "type": "Feature", "properties": {"collection_times": [{"days": "Mon-Fri", "time": "2:00pm"}, {"days": "Sat", "time": "12:00pm"}, {"days": "Sun", "time": "Closed"}], "id": "6182000077", "name": "USPS COLLECTION BOX - BLUE BOX", "address": {"city": "CHAMPAIGN", "state": "IL", "street": "411 W CHURCH ST", "postcode": "61820"}}},
{"geometry": {"type": "Point", "coordinates": [-88.2562744095, 40.1182073872]}, "type": "Feature", "properties": {"collection_times": [{"days": "Mon-Fri", "time": "2:00pm"}, {"days": "Sat", "time": "12:00pm"}, {"days": "Sun", "time": "Closed"}], "id": "6182000079", "name": "USPS COLLECTION BOX - BLUE BOX", "address": {"city": "CHAMPAIGN", "state": "IL", "street": "811 W CHURCH ST", "postcode": "61820"}}},
{"geometry": {"type": "Point", "coordinates": [-88.2353053616, 40.1103108485]}, "type": "Feature", "properties": {"collection_times": [{"days": "Mon-Fri", "time": "5:00pm"}, {"days": "Sat", "time": "12:00pm"}, {"days": "Sun", "time": "Closed"}], "id": "6182000094", "name": "USPS COLLECTION BOX - BLUE BOX", "address": {"city": "CHAMPAIGN", "state": "IL", "street": "302 E GREEN ST", "postcode": "61820"}}},
{"geometry": {"type": "Point", "coordinates": [-88.2353053616, 40.1103108485]}, "type": "Feature", "properties": {"collection_times": [{"days": "Mon-Fri", "time": "5:00pm"}, {"days": "Sat", "time": "12:00pm"}, {"days": "Sun", "time": "Closed"}], "id": "6182000095", "name": "USPS COLLECTION BOX - BLUE BOX", "address": {"city": "CHAMPAIGN", "state": "IL", "street": "302 E GREEN ST", "postcode": "61820"}}},
{"geometry": {"type": "Point", "coordinates": [-88.2460347559, 40.0896539382]}, "type": "Feature", "properties": {"collection_times": [{"days": "Mon-Fri", "time": "5:00pm"}, {"days": "Sat", "time": "12:00pm"}, {"days": "Sun", "time": "Closed"}], "id": "6182000100", "name": "USPS COLLECTION BOX - BLUE BOX", "address": {"city": "CHAMPAIGN", "state": "IL", "street": "2201 S NEIL ST", "postcode": "61820"}}},
{"geometry": {"type": "Point", "coordinates": [-88.229738927, 40.1054440214]}, "type": "Feature", "properties": {"collection_times": [{"days": "Mon-Fri", "time": "2:00pm"}, {"days": "Sat", "time": "12:00pm"}, {"days": "Sun", "time": "Closed"}], "id": "6182000106", "name": "USPS COLLECTION BOX - BLUE BOX", "address": {"city": "CHAMPAIGN", "state": "IL", "street": "604 E ARMORY AVE", "postcode": "61820"}}},
{"geometry": {"type": "Point", "coordinates": [-88.2434843741, 40.1211837742]}, "type": "Feature", "properties": {"collection_times": [{"days": "Mon-Fri", "time": "5:30pm"}, {"days": "Sat", "time": "1:00pm"}, {"days": "Sun", "time": "Closed"}], "id": "6182000108", "name": "USPS COLLECTION BOX - PO LOBBY", "address": {"city": "CHAMPAIGN", "state": "IL", "street": "600 N NEIL ST", "postcode": "61820"}}},
{"geometry": {"type": "Point", "coordinates": [-88.2418425944, 40.1162740637]}, "type": "Feature", "properties": {"collection_times": [{"days": "Mon-Sat", "time": "12:00pm"}, {"days": "Sun", "time": "Closed"}], "id": "6182000110", "name": "USPS COLLECTION BOX - BLUE BOX", "address": {"city": "CHAMPAIGN", "state": "IL", "street": "45 E UNIVERSITY AVE", "postcode": "61820"}}},
{"geometry": {"type": "Point", "coordinates": [-88.2382349383, 40.0922776881]}, "type": "Feature", "properties": {"collection_times": [{"days": "Mon-Fri", "time": "4:00pm"}, {"days": "Sat", "time": "12:00pm"}, {"days": "Sun", "time": "Closed"}], "id": "6182000113", "name": "USPS COLLECTION BOX - BLUE BOX", "address": {"city": "CHAMPAIGN", "state": "IL", "street": "1901 S 1ST ST", "postcode": "61820"}}},
{"geometry": {"type": "Point", "coordinates": [-88.2353053616, 40.1103108485]}, "type": "Feature", "properties": {"collection_times": [{"days": "Mon-Fri", "time": "5:00pm"}, {"days": "Sat", "time": "1:00pm"}, {"days": "Sun", "time": "Closed"}], "id": "6182000114", "name": "USPS COLLECTION BOX - PO LOBBY", "address": {"city": "CHAMPAIGN", "state": "IL", "street": "302 E GREEN ST", "postcode": "61820"}}},
{"geometry": {"type": "Point", "coordinates": [-88.2760434898, 40.098190117]}, "type": "Feature", "properties": {"collection_times": [{"days": "Mon-Fri", "time": "5:00pm"}, {"days": "Sat", "time": "12:00pm"}, {"days": "Sun", "time": "Closed"}], "id": "6182100058", "name": "USPS COLLECTION BOX - BLUE BOX", "address": {"city": "CHAMPAIGN", "state": "IL", "street": "1771 W KIRBY AVE", "postcode": "61821"}}},
{"geometry": {"type": "Point", "coordinates": [-88.2769451264, 40.1141091094]}, "type": "Feature", "properties": {"collection_times": [{"days": "Mon-Fri", "time": "2:00pm"}, {"days": "Sat", "time": "12:00pm"}, {"days": "Sun", "time": "Closed"}], "id": "6182100062", "name": "USPS COLLECTION BOX - BLUE BOX", "address": {"city": "CHAMPAIGN", "state": "IL", "street": "301 S MATTIS AVE", "postcode": "61821"}}},
{"geometry": {"type": "Point", "coordinates": [-88.2798603148, 40.1111185864]}, "type": "Feature", "properties": {"collection_times": [{"days": "Mon-Fri", "time": "5:00pm"}, {"days": "Sat", "time": "2:00pm"}, {"days": "Sun", "time": "Closed"}], "id": "6182100064", "name": "USPS COLLECTION BOX - BLUE BOX", "address": {"city": "CHAMPAIGN", "state": "IL", "street": "2000 ROUND BARN RD", "postcode": "61821"}}},
{"geometry": {"type": "Point", "coordinates": [-88.2923078679, 40.0983190105]}, "type": "Feature", "properties": {"collection_times": [{"days": "Mon-Fri", "time": "2:00pm"}, {"days": "Sat", "time": "12:00pm"}, {"days": "Sun", "time": "Closed"}], "id": "6182100069", "name": "USPS COLLECTION BOX - BLUE BOX", "address": {"city": "CHAMPAIGN", "state": "IL", "street": "2809 W KIRBY AVE", "postcode": "61821"}}},
{"geometry": {"type": "Point", "coordinates": [-88.2754488332, 40.1103701358]}, "type": "Feature", "properties": {"collection_times": [{"days": "Mon-Fri", "time": "12:00pm"}, {"days": "Sat", "time": "11:00am"}, {"days": "Sun", "time": "Closed"}], "id": "6182100074", "name": "USPS COLLECTION BOX - BLUE BOX", "address": {"city": "CHAMPAIGN", "state": "IL", "street": "3100 FARBER DR", "postcode": "61821"}}},
{"geometry": {"type": "Point", "coordinates": [-88.2754488332, 40.1103701358]}, "type": "Feature", "properties": {"collection_times": [{"days": "Mon-Fri", "time": "12:00pm"}, {"days": "Sat", "time": "11:00am"}, {"days": "Sun", "time": "Closed"}], "id": "6182100075", "name": "USPS COLLECTION BOX - BLUE BOX", "address": {"city": "CHAMPAIGN", "state": "IL", "street": "3100 FARBER DR", "postcode": "61821"}}},
{"geometry": {"type": "Point", "coordinates": [-88.2754488332, 40.1103701358]}, "type": "Feature", "properties": {"collection_times": [{"days": "Mon-Fri", "time": "12:00pm"}, {"days": "Sat", "time": "11:00am"}, {"days": "Sun", "time": "Closed"}], "id": "6182100076", "name": "USPS COLLECTION BOX - BLUE BOX", "address": {"city": "CHAMPAIGN", "state": "IL", "street": "3029 RESEARCH RD", "postcode": "61821"}}},
{"geometry": {"type": "Point", "coordinates": [-88.2580758003, 40.1379658263]}, "type": "Feature", "properties": {"collection_times": [{"days": "Mon-Fri", "time": "12:00pm"}, {"days": "Sat", "time": "11:00am"}, {"days": "Sun", "time": "Closed"}], "id": "6182100080", "name": "USPS COLLECTION BOX - BLUE BOX", "address": {"city": "CHAMPAIGN", "state": "IL", "street": "907 W MARKETVIEW DR", "postcode": "61821"}}},
{"geometry": {"type": "Point", "coordinates": [-88.2760434898, 40.098190117]}, "type": "Feature", "properties": {"collection_times": [{"days": "Mon-Fri", "time": "5:00pm"}, {"days": "Sat", "time": "12:00pm"}, {"days": "Sun", "time": "Closed"}], "id": "6182100089", "name": "USPS COLLECTION BOX - BLUE BOX", "address": {"city": "CHAMPAIGN", "state": "IL", "street": "1771 W KIRBY AVE", "postcode": "61821"}}},
{"geometry": {"type": "Point", "coordinates": [-88.2903492054, 40.0839322242]}, "type": "Feature", "properties": {"collection_times": [{"days": "Mon-Fri", "time": "2:00pm"}, {"days": "Sat", "time": "12:00pm"}, {"days": "Sun", "time": "Closed"}], "id": "6182100090", "name": "USPS COLLECTION BOX - BLUE BOX", "address": {"city": "CHAMPAIGN", "state": "IL", "street": "3002 WINDSOR RD", "postcode": "61821"}}},
{"geometry": {"type": "Point", "coordinates": [-88.3110105738, 40.1150378186]}, "type": "Feature", "properties": {"collection_times": [{"days": "Mon-Fri", "time": "4:00pm"}, {"days": "Sat", "time": "12:00pm"}, {"days": "Sun", "time": "Closed"}], "id": "6182100091", "name": "USPS COLLECTION BOX - BLUE BOX", "address": {"city": "CHAMPAIGN", "state": "IL", "street": "4105 FIELDSTONE RD", "postcode": "61821"}}},
{"geometry": {"type": "Point", "coordinates": [-88.2581577904, 40.0927629929]}, "type": "Feature", "properties": {"collection_times": [{"days": "Mon-Sat", "time": "12:00pm"}, {"days": "Sun", "time": "Closed"}], "id": "6182100099", "name": "USPS COLLECTION BOX - BLUE BOX", "address": {"city": "CHAMPAIGN", "state": "IL", "street": "902 BROADMOOR DR", "postcode": "61821"}}},
{"geometry": {"type": "Point", "coordinates": [-88.2624180438, 40.0848651737]}, "type": "Feature", "properties": {"collection_times": [{"days": "Mon-Fri", "time": "5:00pm"}, {"days": "Sat", "time": "12:00pm"}, {"days": "Sun", "time": "Closed"}], "id": "6182100101", "name": "USPS COLLECTION BOX - BLUE BOX", "address": {"city": "CHAMPAIGN", "state": "IL", "street": "2400 GALEN DR", "postcode": "61821"}}},
{"geometry": {"type": "Point", "coordinates": [-88.2772274981, 40.1375792626]}, "type": "Feature", "properties": {"collection_times": [{"days": "Mon-Sat", "time": "7:00pm"}, {"days": "Sun", "time": "Closed"}], "id": "6182600001", "name": "USPS COLLECTION BOX - APC", "address": {"city": "CHAMPAIGN", "state": "IL", "street": "2001 N MATTIS AVE", "postcode": "61826"}}},
{"geometry": {"type": "Point", "coordinates": [-88.2772580226, 40.1385145098]}, "type": "Feature", "properties": {"collection_times": [{"days": "Mon-Sat", "time": "7:00pm"}, {"days": "Sun", "time": "Closed"}], "id": "6182600002", "name": "USPS COLLECTION BOX - PO LOBBY", "address": {"city": "CHAMPAIGN", "state": "IL", "street": "2001 N MATTIS AVE", "postcode": "61826"}}},
{"geometry": {"type": "Point", "coordinates": [-88.2772580226, 40.1385145098]}, "type": "Feature", "properties": {"collection_times": [{"days": "Mon-Sat", "time": "7:00pm"}, {"days": "Sun", "time": "Closed"}], "id": "6182600004", "name": "USPS COLLECTION BOX - BLUE BOX", "address": {"city": "CHAMPAIGN", "state": "IL", "street": "2001 N MATTIS AVE", "postcode": "61826"}}},
{"geometry": {"type": "Point", "coordinates": [-88.2772580226, 40.1385145098]}, "type": "Feature", "properties": {"collection_times": [{"days": "Mon-Sat", "time": "7:00pm"}, {"days": "Sun", "time": "Closed"}], "id": "6182600005", "name": "USPS COLLECTION BOX - BLUE BOX", "address": {"city": "CHAMPAIGN", "state": "IL", "street": "2001 N MATTIS AVE", "postcode": "61826"}}},
{"geometry": {"type": "Point", "coordinates": [-88.7259699728, 40.0106293571]}, "type": "Feature", "properties": {"collection_times": [{"days": "Mon-Fri", "time": "3:45pm"}, {"days": "Sat", "time": "12:45pm"}, {"days": "Sun", "time": "Closed"}], "id": "6183000000", "name": "USPS COLLECTION BOX - BLUE BOX", "address": {"city": "CISCO", "state": "IL", "street": "150 S MAIN ST", "postcode": "61830"}}},
{"geometry": {"type": "Point", "coordinates": [-88.7259699728, 40.0106293571]}, "type": "Feature", "properties": {"collection_times": [{"days": "Mon-Fri", "time": "3:45pm"}, {"days": "Sat", "time": "12:45pm"}, {"days": "Sun", "time": "Closed"}], "id": "6183000001", "name": "USPS COLLECTION BOX - PO LOBBY", "address": {"city": "CISCO", "state": "IL", "street": "150 S MAIN ST", "postcode": "61830"}}},
{"geometry": {"type": "Point", "coordinates": [-87.8036619801, 40.247677405]}, "type": "Feature", "properties": {"collection_times": [{"days": "Mon-Sat", "time": "12:45pm"}, {"days": "Sun", "time": "Closed"}], "id": "6183100003", "name": "USPS COLLECTION BOX - PO LOBBY", "address": {"city": "COLLISON", "state": "IL", "street": "7205 WALNUT ST", "postcode": "61831"}}},
{"geometry": {"type": "Point", "coordinates": [-87.8036619801, 40.247677405]}, "type": "Feature", "properties": {"collection_times": [{"days": "Mon-Sat", "time": "12:45pm"}, {"days": "Sun", "time": "Closed"}], "id": "6183100004", "name": "USPS COLLECTION BOX - BLUE BOX", "address": {"city": "COLLISON", "state": "IL", "street": "7205 WALNUT ST", "postcode": "61831"}}},
{"geometry": {"type": "Point", "coordinates": [-87.6312679233, 40.1249243318]}, "type": "Feature", "properties": {"collection_times": [{"days": "Mon-Fri", "time": "4:30pm"}, {"days": "Sat", "time": "12:00pm"}, {"days": "Sun", "time": "Closed"}], "id": "6183200000", "name": "USPS COLLECTION BOX - BLUE BOX", "address": {"city": "DANVILLE", "state": "IL", "street": "25 N WALNUT ST", "postcode": "61832"}}},
{"geometry": {"type": "Point", "coordinates": [-87.6299167998, 40.1282900745]}, "type": "Feature", "properties": {"collection_times": [{"days": "Mon-Fri", "time": "4:30pm"}, {"days": "Sat", "time": "12:00pm"}, {"days": "Sun", "time": "Closed"}], "id": "6183200009", "name": "USPS COLLECTION BOX - BLUE BOX", "address": {"city": "DANVILLE", "state": "IL", "street": "201 N VERMILION ST", "postcode": "61832"}}},
{"geometry": {"type": "Point", "coordinates": [-87.6305718585, 40.171405125]}, "type": "Feature", "properties": {"collection_times": [{"days": "Mon-Fri", "time": "4:30pm"}, {"days": "Sat", "time": "11:00am"}, {"days": "Sun", "time": "Closed"}], "id": "6183200012", "name": "USPS COLLECTION BOX - BLUE BOX", "address": {"city": "DANVILLE", "state": "IL", "street": "2917 N VERMILION ST", "postcode": "61832"}}},
{"geometry": {"type": "Point", "coordinates": [-87.6302972903, 40.1619584175]}, "type": "Feature", "properties": {"collection_times": [{"days": "Mon-Sat", "time": "10:00am"}, {"days": "Sun", "time": "Closed"}], "id": "6183200013", "name": "USPS COLLECTION BOX - BLUE BOX", "address": {"city": "DANVILLE", "state": "IL", "street": "7 CHESTER AVE", "postcode": "61832"}}},
{"geometry": {"type": "Point", "coordinates": [-87.6285637054, 40.1292030355]}, "type": "Feature", "properties": {"collection_times": [{"days": "Mon-Sat", "time": "5:00pm"}, {"days": "Sun", "time": "Closed"}], "id": "6183200018", "name": "USPS COLLECTION BOX - BLUE BOX", "address": {"city": "DANVILLE", "state": "IL", "street": "303 N HAZEL ST", "postcode": "61832"}}},
{"geometry": {"type": "Point", "coordinates": [-87.6285637054, 40.1292030355]}, "type": "Feature", "properties": {"collection_times": [{"days": "Mon-Sat", "time": "5:00pm"}, {"days": "Sun", "time": "Closed"}], "id": "6183200019", "name": "USPS COLLECTION BOX - BLUE BOX", "address": {"city": "DANVILLE", "state": "IL", "street": "303 N HAZEL ST", "postcode": "61832"}}},
{"geometry": {"type": "Point", "coordinates": [-87.6104723479, 40.1472955325]}, "type": "Feature", "properties": {"collection_times": [{"days": "Mon-Fri", "time": "2:00pm"}, {"days": "Sat", "time": "12:00pm"}, {"days": "Sun", "time": "Closed"}], "id": "6183200024", "name": "USPS COLLECTION BOX - BLUE BOX", "address": {"city": "DANVILLE", "state": "IL", "street": "1419 N BOWMAN AVENUE RD", "postcode": "61832"}}},
{"geometry": {"type": "Point", "coordinates": [-87.591155719, 40.1317793057]}, "type": "Feature", "properties": {"collection_times": [{"days": "Mon-Fri", "time": "3:00pm"}, {"days": "Sat", "time": "12:00pm"}, {"days": "Sun", "time": "Closed"}], "id": "6183200040", "name": "USPS COLLECTION BOX - BLUE BOX", "address": {"city": "DANVILLE", "state": "IL", "street": "2000 E MAIN ST", "postcode": "61832"}}},
{"geometry": {"type": "Point", "coordinates": [-87.6449804985, 40.1373749681]}, "type": "Feature", "properties": {"collection_times": [{"days": "Mon-Fri", "time": "2:00pm"}, {"days": "Sat", "time": "12:00pm"}, {"days": "Sun", "time": "Closed"}], "id": "6183200045", "name": "USPS COLLECTION BOX - BLUE BOX", "address": {"city": "DANVILLE", "state": "IL", "street": "812 N LOGAN AVE", "postcode": "61832"}}},
{"geometry": {"type": "Point", "coordinates": [-87.6299623947, 40.1243758725]}, "type": "Feature", "properties": {"collection_times": [{"days": "Mon-Fri", "time": "4:30pm"}, {"days": "Sat", "time": "12:00pm"}, {"days": "Sun", "time": "Closed"}], "id": "6183200050", "name": "USPS COLLECTION BOX - BLUE BOX", "address": {"city": "DANVILLE", "state": "IL", "street": "2 E MAIN ST", "postcode": "61832"}}},
{"geometry": {"type": "Point", "coordinates": [-87.6300508728, 40.1245624553]}, "type": "Feature", "properties": {"collection_times": [{"days": "Mon-Fri", "time": "4:30pm"}, {"days": "Sat", "time": "12:00pm"}, {"days": "Sun", "time": "Closed"}], "id": "6183200051", "name": "USPS COLLECTION BOX - BLUE BOX", "address": {"city": "DANVILLE", "state": "IL", "street": "6 N VERMILION ST", "postcode": "61832"}}},
{"geometry": {"type": "Point", "coordinates": [-87.6305718585, 40.171405125]}, "type": "Feature", "properties": {"collection_times": [{"days": "Mon-Fri", "time": "4:30pm"}, {"days": "Sat", "time": "11:00am"}, {"days": "Sun", "time": "Closed"}], "id": "6183200060", "name": "USPS COLLECTION BOX - BLUE BOX", "address": {"city": "DANVILLE", "state": "IL", "street": "2917 N VERMILION ST", "postcode": "61832"}}},
{"geometry": {"type": "Point", "coordinates": [-87.6368191535, 40.1384199822]}, "type": "Feature", "properties": {"collection_times": [{"days": "Mon-Fri", "time": "2:00pm"}, {"days": "Sat", "time": "12:00pm"}, {"days": "Sun", "time": "Closed"}], "id": "6183200066", "name": "USPS COLLECTION BOX - BLUE BOX", "address": {"city": "DANVILLE", "state": "IL", "street": "501 W FAIRCHILD ST", "postcode": "61832"}}},
{"geometry": {"type": "Point", "coordinates": [-87.6368191535, 40.1384199822]}, "type": "Feature", "properties": {"collection_times": [{"days": "Mon-Fri", "time": "2:00pm"}, {"days": "Sat", "time": "12:00pm"}, {"days": "Sun", "time": "Closed"}], "id": "6183200067", "name": "USPS COLLECTION BOX - BLUE BOX", "address": {"city": "DANVILLE", "state": "IL", "street": "501 W FAIRCHILD ST", "postcode": "61832"}}},
{"geometry": {"type": "Point", "coordinates": [-87.6300508728, 40.1245624553]}, "type": "Feature", "properties": {"collection_times": [{"days": "Mon-Fri", "time": "4:30pm"}, {"days": "Sat", "time": "12:00pm"}, {"days": "Sun", "time": "Closed"}], "id": "6183200073", "name": "USPS COLLECTION BOX - BLUE BOX", "address": {"city": "DANVILLE", "state": "IL", "street": "6 N VERMILION ST", "postcode": "61832"}}},
{"geometry": {"type": "Point", "coordinates": [-87.6285637054, 40.1292030355]}, "type": "Feature", "properties": {"collection_times": [{"days": "Mon-Sat", "time": "5:00pm"}, {"days": "Sun", "time": "Closed"}], "id": "6183200075", "name": "USPS COLLECTION BOX - BLUE BOX", "address": {"city": "DANVILLE", "state": "IL", "street": "303 N HAZEL ST", "postcode": "61832"}}},
{"geometry": {"type": "Point", "coordinates": [-87.6285637054, 40.1292030355]}, "type": "Feature", "properties": {"collection_times": [{"days": "Mon-Sat", "time": "5:00pm"}, {"days": "Sun", "time": "Closed"}], "id": "6183200076", "name": "USPS COLLECTION BOX - PO LOBBY", "address": {"city": "DANVILLE", "state": "IL", "street": "303 N HAZEL ST", "postcode": "61832"}}},
{"geometry": {"type": "Point", "coordinates": [-87.6355956424, 40.0967410921]}, "type": "Feature", "properties": {"collection_times": [{"days": "Mon-Fri", "time": "2:30pm"}, {"days": "Sat", "time": "12:00pm"}, {"days": "Sun", "time": "Closed"}], "id": "6183300000", "name": "USPS COLLECTION BOX - BLUE BOX", "address": {"city": "DANVILLE", "state": "IL", "street": "1628 GEORGETOWN RD", "postcode": "61833"}}},
{"geometry": {"type": "Point", "coordinates": [-88.6476211713, 40.1222188087]}, "type": "Feature", "properties": {"collection_times": [{"days": "Mon-Fri", "time": "3:45pm"}, {"days": "Sat", "time": "10:15am"}, {"days": "Sun", "time": "Closed"}], "id": "6183900000", "name": "USPS COLLECTION BOX - BLUE BOX", "address": {"city": "DELAND", "state": "IL", "street": "101 NE 3RD ST", "postcode": "61839"}}},
{"geometry": {"type": "Point", "coordinates": [-88.6476211713, 40.1222188087]}, "type": "Feature", "properties": {"collection_times": [{"days": "Mon-Fri", "time": "3:45pm"}, {"days": "Sat", "time": "11:45am"}, {"days": "Sun", "time": "Closed"}], "id": "6183900001", "name": "USPS COLLECTION BOX - PO LOBBY", "address": {"city": "DELAND", "state": "IL", "street": "101 NE 3RD ST", "postcode": "61839"}}},
{"geometry": {"type": "Point", "coordinates": [-88.2823977505, 40.3189708002]}, "type": "Feature", "properties": {"collection_times": [{"days": "Mon-Fri", "time": "2:45pm"}, {"days": "Sat", "time": "10:45am"}, {"days": "Sun", "time": "Closed"}], "id": "6184000000", "name": "USPS COLLECTION BOX - BLUE BOX", "address": {"city": "DEWEY", "state": "IL", "street": "110 2ND ST", "postcode": "61840"}}},
{"geometry": {"type": "Point", "coordinates": [-88.2823977505, 40.3189708002]}, "type": "Feature", "properties": {"collection_times": [{"days": "Mon-Fri", "time": "2:45pm"}, {"days": "Sat", "time": "10:45am"}, {"days": "Sun", "time": "Closed"}], "id": "6184000001", "name": "USPS COLLECTION BOX - PO LOBBY", "address": {"city": "DEWEY", "state": "IL", "street": "110 2ND ST", "postcode": "61840"}}},
{"geometry": {"type": "Point", "coordinates": [-87.8307092826, 40.0463520174]}, "type": "Feature", "properties": {"collection_times": [{"days": "Mon-Fri", "time": "11:15am"}, {"days": "Sat", "time": "9:15am"}, {"days": "Sun", "time": "Closed"}], "id": "6184100001", "name": "USPS COLLECTION BOX - BLUE BOX", "address": {"city": "FAIRMOUNT", "state": "IL", "street": "108 S MAIN ST", "postcode": "61841"}}},
{"geometry": {"type": "Point", "coordinates": [-87.8307122766, 40.0463695542]}, "type": "Feature", "properties": {"collection_times": [{"days": "Mon-Fri", "time": "11:15am"}, {"days": "Sat", "time": "9:15am"}, {"days": "Sun", "time": "Closed"}], "id": "6184100002", "name": "USPS COLLECTION BOX - PO LOBBY", "address": {"city": "FAIRMOUNT", "state": "IL", "street": "106 S MAIN ST", "postcode": "61841"}}},
{"geometry": {"type": "Point", "coordinates": [-88.6424182686, 40.2434599682]}, "type": "Feature", "properties": {"collection_times": [{"days": "Mon-Fri", "time": "4:15pm"}, {"days": "Sat", "time": "11:45am"}, {"days": "Sun", "time": "Closed"}], "id": "6184200001", "name": "USPS COLLECTION BOX - BLUE BOX", "address": {"city": "FARMER CITY", "state": "IL", "street": "110 E GREEN ST", "postcode": "61842"}}},
{"geometry": {"type": "Point", "coordinates": [-88.6424182686, 40.2434599682]}, "type": "Feature", "properties": {"collection_times": [{"days": "Mon-Fri", "time": "4:15pm"}, {"days": "Sat", "time": "11:45am"}, {"days": "Sun", "time": "Closed"}], "id": "6184200004", "name": "USPS COLLECTION BOX - PO LOBBY", "address": {"city": "FARMER CITY", "state": "IL", "street": "110 E GREEN ST", "postcode": "61842"}}},
{"geometry": {"type": "Point", "coordinates": [-88.3496152324, 40.318228988]}, "type": "Feature", "properties": {"collection_times": [{"days": "Mon-Fri", "time": "3:30pm"}, {"days": "Sat", "time": "10:00am"}, {"days": "Sun", "time": "Closed"}], "id": "6184300001", "name": "USPS COLLECTION BOX - BLUE BOX", "address": {"city": "FISHER", "state": "IL", "street": "102 N 3RD ST", "postcode": "61843"}}},
{"geometry": {"type": "Point", "coordinates": [-88.3496152324, 40.318228988]}, "type": "Feature", "properties": {"collection_times": [{"days": "Mon-Fri", "time": "3:30pm"}, {"days": "Sat", "time": "10:00am"}, {"days": "Sun", "time": "Closed"}], "id": "6184300002", "name": "USPS COLLECTION BOX - PO LOBBY", "address": {"city": "FISHER", "state": "IL", "street": "102 N 3RD ST", "postcode": "61843"}}},
{"geometry": {"type": "Point", "coordinates": [-87.8732871668, 40.111265552]}, "type": "Feature", "properties": {"collection_times": [{"days": "Mon-Fri", "time": "12:15pm"}, {"days": "Sat", "time": "10:15am"}, {"days": "Sun", "time": "Closed"}], "id": "6184400001", "name": "USPS COLLECTION BOX - BLUE BOX", "address": {"city": "FITHIAN", "state": "IL", "street": "204 N MAIN ST", "postcode": "61844"}}},
{"geometry": {"type": "Point", "coordinates": [-87.8732871668, 40.111265552]}, "type": "Feature", "properties": {"collection_times": [{"days": "Mon-Fri", "time": "12:15pm"}, {"days": "Sat", "time": "10:15am"}, {"days": "Sun", "time": "Closed"}], "id": "6184400002", "name": "USPS COLLECTION BOX - PO LOBBY", "address": {"city": "FITHIAN", "state": "IL", "street": "204 N MAIN ST", "postcode": "61844"}}},
{"geometry": {"type": "Point", "coordinates": [-88.4310711266, 40.3616946313]}, "type": "Feature", "properties": {"collection_times": [{"days": "Mon-Fri", "time": "9:45am"}, {"days": "Sat", "time": "9:15am"}, {"days": "Sun", "time": "Closed"}], "id": "6184500000", "name": "USPS COLLECTION BOX - BLUE BOX", "address": {"city": "FOOSLAND", "state": "IL", "street": "202 2 ND ST", "postcode": "61845"}}},
{"geometry": {"type": "Point", "coordinates": [-88.4310711266, 40.3616946313]}, "type": "Feature", "properties": {"collection_times": [{"days": "Mon-Fri", "time": "9:45am"}, {"days": "Sat", "time": "9:15am"}, {"days": "Sun", "time": "Closed"}], "id": "6184500001", "name": "USPS COLLECTION BOX - PO LOBBY", "address": {"city": "FOOSLAND", "state": "IL", "street": "202 2 ND ST", "postcode": "61845"}}},
{"geometry": {"type": "Point", "coordinates": [-87.635322593, 39.9754630146]}, "type": "Feature", "properties": {"collection_times": [{"days": "Mon-Fri", "time": "3:45pm"}, {"days": "Sat", "time": "3:30pm"}, {"days": "Sun", "time": "Closed"}], "id": "6184600000", "name": "USPS COLLECTION BOX - BLUE BOX", "address": {"city": "GEORGETOWN", "state": "IL", "street": "111 E WEST ST", "postcode": "61846"}}},
{"geometry": {"type": "Point", "coordinates": [-87.635322593, 39.9754630146]}, "type": "Feature", "properties": {"collection_times": [{"days": "Mon-Fri", "time": "3:45pm"}, {"days": "Sat", "time": "3:30pm"}, {"days": "Sun", "time": "Closed"}], "id": "6184600001", "name": "USPS COLLECTION BOX - BLUE BOX", "address": {"city": "GEORGETOWN", "state": "IL", "street": "111 E WEST ST", "postcode": "61846"}}},
{"geometry": {"type": "Point", "coordinates": [-87.635322593, 39.9754630146]}, "type": "Feature", "properties": {"collection_times": [{"days": "Mon-Fri", "time": "3:45pm"}, {"days": "Sat", "time": "3:30pm"}, {"days": "Sun", "time": "Closed"}], "id": "6184600007", "name": "USPS COLLECTION BOX - PO LOBBY", "address": {"city": "GEORGETOWN", "state": "IL", "street": "111 E WEST ST", "postcode": "61846"}}},
{"geometry": {"type": "Point", "coordinates": [-88.0212945756, 40.3058010951]}, "type": "Feature", "properties": {"collection_times": [{"days": "Mon-Fri", "time": "2:45pm"}, {"days": "Sat", "time": "9:45am"}, {"days": "Sun", "time": "Closed"}], "id": "6184700001", "name": "USPS COLLECTION BOX - BLUE BOX", "address": {"city": "GIFFORD", "state": "IL", "street": "213 S MAIN ST", "postcode": "61847"}}},
{"geometry": {"type": "Point", "coordinates": [-88.0212945756, 40.3058010951]}, "type": "Feature", "properties": {"collection_times": [{"days": "Mon-Fri", "time": "2:45pm"}, {"days": "Sat", "time": "9:45am"}, {"days": "Sun", "time": "Closed"}], "id": "6184700002", "name": "USPS COLLECTION BOX - PO LOBBY", "address": {"city": "GIFFORD", "state": "IL", "street": "213 S MAIN ST", "postcode": "61847"}}},
{"geometry": {"type": "Point", "coordinates": [-87.7007120054, 40.3050525056]}, "type": "Feature", "properties": {"collection_times": [{"days": "Mon-Fri", "time": "9:45am"}, {"days": "Sat", "time": "10:00am"}, {"days": "Sun", "time": "Closed"}], "id": "6184800000", "name": "USPS COLLECTION BOX - BLUE BOX", "address": {"city": "HENNING", "state": "IL", "street": "122 E LANE ST", "postcode": "61848"}}},
{"geometry": {"type": "Point", "coordinates": [-87.7007120054, 40.3050525056]}, "type": "Feature", "properties": {"collection_times": [{"days": "Mon-Sat", "time": "9:45am"}, {"days": "Sun", "time": "Closed"}], "id": "6184800001", "name": "USPS COLLECTION BOX - PO LOBBY", "address": {"city": "HENNING", "state": "IL", "street": "122 E LANE ST", "postcode": "61848"}}},
{"geometry": {"type": "Point", "coordinates": [-87.9581171726, 40.0358159087]}, "type": "Feature", "properties": {"collection_times": [{"days": "Mon-Fri", "time": "2:30pm"}, {"days": "Sat", "time": "9:45am"}, {"days": "Sun", "time": "Closed"}], "id": "6184900001", "name": "USPS COLLECTION BOX - BLUE BOX", "address": {"city": "HOMER", "state": "IL", "street": "135 S MAIN ST", "postcode": "61849"}}},
{"geometry": {"type": "Point", "coordinates": [-87.9581171726, 40.0358159087]}, "type": "Feature", "properties": {"collection_times": [{"days": "Mon-Fri", "time": "2:30pm"}, {"days": "Sat", "time": "9:45am"}, {"days": "Sun", "time": "Closed"}], "id": "6184900002", "name": "USPS COLLECTION BOX - PO LOBBY", "address": {"city": "HOMER", "state": "IL", "street": "135 S MAIN ST", "postcode": "61849"}}},
{"geometry": {"type": "Point", "coordinates": [-87.7399001613, 39.9273863074]}, "type": "Feature", "properties": {"collection_times": [{"days": "Mon-Fri", "time": "4:00pm"}, {"days": "Sat", "time": "12:00pm"}, {"days": "Sun", "time": "Closed"}], "id": "6185000000", "name": "USPS COLLECTION BOX - BLUE BOX", "address": {"city": "INDIANOLA", "state": "IL", "street": "2 N VERMILION ST", "postcode": "61850"}}},
{"geometry": {"type": "Point", "coordinates": [-87.7399001613, 39.9273863074]}, "type": "Feature", "properties": {"collection_times": [{"days": "Mon-Fri", "time": "3:45pm"}, {"days": "Sat", "time": "12:00pm"}, {"days": "Sun", "time": "Closed"}], "id": "6185000001", "name": "USPS COLLECTION BOX - PO LOBBY", "address": {"city": "INDIANOLA", "state": "IL", "street": "2 N VERMILION ST", "postcode": "61850"}}},
{"geometry": {"type": "Point", "coordinates": [-88.4563177348, 39.9450779827]}, "type": "Feature", "properties": {"collection_times": [{"days": "Mon-Fri", "time": "12:45pm"}, {"days": "Sat", "time": "10:30am"}, {"days": "Sun", "time": "Closed"}], "id": "6185100000", "name": "USPS COLLECTION BOX - BLUE BOX", "address": {"city": "IVESDALE", "state": "IL", "street": "205 CHAPIN ST", "postcode": "61851"}}},
{"geometry": {"type": "Point", "coordinates": [-88.4563177348, 39.9450779827]}, "type": "Feature", "properties": {"collection_times": [{"days": "Mon-Fri", "time": "12:45pm"}, {"days": "Sat", "time": "10:45am"}, {"days": "Sun", "time": "Closed"}], "id": "6185100001", "name": "USPS COLLECTION BOX - PO LOBBY", "address": {"city": "IVESDALE", "state": "IL", "street": "205 CHAPIN ST", "postcode": "61851"}}},
{"geometry": {"type": "Point", "coordinates": [-88.0641424163, 39.8848351869]}, "type": "Feature", "properties": {"collection_times": [{"days": "Mon-Fri", "time": "9:45am"}, {"days": "Sat", "time": "9:15am"}, {"days": "Sun", "time": "Closed"}], "id": "6185200000", "name": "USPS COLLECTION BOX - BLUE BOX", "address": {"city": "LONGVIEW", "state": "IL", "street": "204 E LOGAN ST", "postcode": "61852"}}},
{"geometry": {"type": "Point", "coordinates": [-88.0641424163, 39.8848351869]}, "type": "Feature", "properties": {"collection_times": [{"days": "Mon-Fri", "time": "9:45am"}, {"days": "Sat", "time": "9:15am"}, {"days": "Sun", "time": "Closed"}], "id": "6185200001", "name": "USPS COLLECTION BOX - PO LOBBY", "address": {"city": "LONGVIEW", "state": "IL", "street": "204 E LOGAN ST", "postcode": "61852"}}},
{"geometry": {"type": "Point", "coordinates": [-88.4053542845, 40.1957101651]}, "type": "Feature", "properties": {"collection_times": [{"days": "Mon-Fri", "time": "5:00pm"}, {"days": "Sat", "time": "1:00pm"}, {"days": "Sun", "time": "Closed"}], "id": "6185300001", "name": "USPS COLLECTION BOX - BLUE BOX", "address": {"city": "MAHOMET", "state": "IL", "street": "304 E MAIN ST", "postcode": "61853"}}},
{"geometry": {"type": "Point", "coordinates": [-88.4015860889, 40.1919510703]}, "type": "Feature", "properties": {"collection_times": [{"days": "Mon-Sat", "time": "12:45pm"}, {"days": "Sun", "time": "Closed"}], "id": "6185300004", "name": "USPS COLLECTION BOX - BLUE BOX", "address": {"city": "MAHOMET", "state": "IL", "street": "602 E OAK ST", "postcode": "61853"}}},
{"geometry": {"type": "Point", "coordinates": [-88.3652566824, 40.1842806967]}, "type": "Feature", "properties": {"collection_times": [{"days": "Mon-Sat", "time": "12:30pm"}, {"days": "Sun", "time": "Closed"}], "id": "6185300005", "name": "USPS COLLECTION BOX - BLUE BOX", "address": {"city": "MAHOMET", "state": "IL", "street": "102 S PRAIRIE VIEW RD", "postcode": "61853"}}},
{"geometry": {"type": "Point", "coordinates": [-88.3652579787, 40.2054638645]}, "type": "Feature", "properties": {"collection_times": [{"days": "Mon-Sat", "time": "10:30am"}, {"days": "Sun", "time": "Closed"}], "id": "6185300006", "name": "USPS COLLECTION BOX - BLUE BOX", "address": {"city": "MAHOMET", "state": "IL", "street": "808 N PRAIRIE VIEW RD", "postcode": "61853"}}},
{"geometry": {"type": "Point", "coordinates": [-88.4053542845, 40.1957101651]}, "type": "Feature", "properties": {"collection_times": [{"days": "Mon-Fri", "time": "5:00pm"}, {"days": "Sat", "time": "12:30pm"}, {"days": "Sun", "time": "Closed"}], "id": "6185300007", "name": "USPS COLLECTION BOX - PO LOBBY", "address": {"city": "MAHOMET", "state": "IL", "street": "304 E MAIN ST", "postcode": "61853"}}},
{"geometry": {"type": "Point", "coordinates": [-88.4053542845, 40.1957101651]}, "type": "Feature", "properties": {"collection_times": [{"days": "Mon-Fri", "time": "5:00pm"}, {"days": "Sat", "time": "1:00pm"}, {"days": "Sun", "time": "Closed"}], "id": "6185300008", "name": "USPS COLLECTION BOX - BLUE BOX", "address": {"city": "MAHOMET", "state": "IL", "street": "304 E MAIN ST", "postcode": "61853"}}},
{"geometry": {"type": "Point", "coordinates": [-88.5063460136, 40.2115479591]}, "type": "Feature", "properties": {"collection_times": [{"days": "Mon-Fri", "time": "3:15pm"}, {"days": "Sat", "time": "9:45am"}, {"days": "Sun", "time": "Closed"}], "id": "6185400002", "name": "USPS COLLECTION BOX - BLUE BOX", "address": {"city": "MANSFIELD", "state": "IL", "street": "102 W OLIVER ST", "postcode": "61854"}}},
{"geometry": {"type": "Point", "coordinates": [-88.5063460136, 40.2115479591]}, "type": "Feature", "properties": {"collection_times": [{"days": "Mon-Fri", "time": "3:15pm"}, {"days": "Sat", "time": "9:45am"}, {"days": "Sun", "time": "Closed"}], "id": "6185400003", "name": "USPS COLLECTION BOX - PO LOBBY", "address": {"city": "MANSFIELD", "state": "IL", "street": "102 W OLIVER ST", "postcode": "61854"}}},
{"geometry": {"type": "Point", "coordinates": [-88.5718327125, 40.0261995919]}, "type": "Feature", "properties": {"collection_times": [{"days": "Mon-Fri", "time": "4:45pm"}, {"days": "Sat", "time": "11:45am"}, {"days": "Sun", "time": "Closed"}], "id": "6185600000", "name": "USPS COLLECTION BOX - PO LOBBY", "address": {"city": "MONTICELLO", "state": "IL", "street": "104 W LIVINGSTON ST", "postcode": "61856"}}},
{"geometry": {"type": "Point", "coordinates": [-88.5718327125, 40.0261995919]}, "type": "Feature", "properties": {"collection_times": [{"days": "Mon-Fri", "time": "4:45pm"}, {"days": "Sat", "time": "11:45am"}, {"days": "Sun", "time": "Closed"}], "id": "6185600001", "name": "USPS COLLECTION BOX - BLUE BOX", "address": {"city": "MONTICELLO", "state": "IL", "street": "104 W LIVINGSTON ST", "postcode": "61856"}}},
{"geometry": {"type": "Point", "coordinates": [-88.5718327125, 40.0261995919]}, "type": "Feature", "properties": {"collection_times": [{"days": "Mon-Fri", "time": "4:45pm"}, {"days": "Sat", "time": "11:45am"}, {"days": "Sun", "time": "Closed"}], "id": "6185600002", "name": "USPS COLLECTION BOX - BLUE BOX", "address": {"city": "MONTICELLO", "state": "IL", "street": "104 W LIVINGSTON ST", "postcode": "61856"}}},
{"geometry": {"type": "Point", "coordinates": [-88.5727980653, 40.0248440524]}, "type": "Feature", "properties": {"collection_times": [{"days": "Mon-Fri", "time": "4:00pm"}, {"days": "Sat", "time": "11:45am"}, {"days": "Sun", "time": "Closed"}], "id": "6185600004", "name": "USPS COLLECTION BOX - BLUE BOX", "address": {"city": "MONTICELLO", "state": "IL", "street": "201 W MAIN ST", "postcode": "61856"}}},
{"geometry": {"type": "Point", "coordinates": [-88.5726829096, 40.0255376205]}, "type": "Feature", "properties": {"collection_times": [{"days": "Mon-Fri", "time": "4:00pm"}, {"days": "Sat", "time": "11:45am"}, {"days": "Sun", "time": "Closed"}], "id": "6185600005", "name": "USPS COLLECTION BOX - BLUE BOX", "address": {"city": "MONTICELLO", "state": "IL", "street": "200 W WASHINGTON ST", "postcode": "61856"}}},
{"geometry": {"type": "Point", "coordinates": [-88.5718327125, 40.0261995919]}, "type": "Feature", "properties": {"collection_times": [{"days": "Mon-Fri", "time": "4:45pm"}, {"days": "Sat", "time": "11:45am"}, {"days": "Sun", "time": "Closed"}], "id": "6185600006", "name": "USPS COLLECTION BOX - BLUE BOX", "address": {"city": "MONTICELLO", "state": "IL", "street": "104 W LIVINGSTON ST", "postcode": "61856"}}},
{"geometry": {"type": "Point", "coordinates": [-87.8448434337, 40.115562869]}, "type": "Feature", "properties": {"collection_times": [{"days": "Mon-Fri", "time": "3:30pm"}, {"days": "Sat", "time": "10:00am"}, {"days": "Sun", "time": "Closed"}], "id": "6185700000", "name": "USPS COLLECTION BOX - BLUE BOX", "address": {"city": "MUNCIE", "state": "IL", "street": "101 N MAIN ST", "postcode": "61857"}}},
{"geometry": {"type": "Point", "coordinates": [-87.8448434337, 40.115562869]}, "type": "Feature", "properties": {"collection_times": [{"days": "Mon-Fri", "time": "3:30pm"}, {"days": "Sat", "time": "11:45am"}, {"days": "Sun", "time": "Closed"}], "id": "6185700001", "name": "USPS COLLECTION BOX - PO LOBBY", "address": {"city": "MUNCIE", "state": "IL", "street": "101 N MAIN ST", "postcode": "61857"}}},
{"geometry": {"type": "Point", "coordinates": [-87.7769428843, 40.1155262097]}, "type": "Feature", "properties": {"collection_times": [{"days": "Mon-Fri", "time": "3:45pm"}, {"days": "Sat", "time": "10:30am"}, {"days": "Sun", "time": "Closed"}], "id": "6185800001", "name": "USPS COLLECTION BOX - BLUE BOX", "address": {"city": "OAKWOOD", "state": "IL", "street": "110 S SCOTT ST", "postcode": "61858"}}},
{"geometry": {"type": "Point", "coordinates": [-87.7769428843, 40.1155262097]}, "type": "Feature", "properties": {"collection_times": [{"days": "Mon-Fri", "time": "3:45pm"}, {"days": "Sat", "time": "10:30am"}, {"days": "Sun", "time": "Closed"}], "id": "6185800003", "name": "USPS COLLECTION BOX - PO LOBBY", "address": {"city": "OAKWOOD", "state": "IL", "street": "110 S SCOTT ST", "postcode": "61858"}}},
{"geometry": {"type": "Point", "coordinates": [-87.9561955993, 40.1122487362]}, "type": "Feature", "properties": {"collection_times": [{"days": "Mon-Fri", "time": "2:15pm"}, {"days": "Sat", "time": "9:15am"}, {"days": "Sun", "time": "Closed"}], "id": "6185900000", "name": "USPS COLLECTION BOX - BLUE BOX", "address": {"city": "OGDEN", "state": "IL", "street": "307 S EAST AVE", "postcode": "61859"}}},
{"geometry": {"type": "Point", "coordinates": [-87.9561955993, 40.1122487362]}, "type": "Feature", "properties": {"collection_times": [{"days": "Mon-Fri", "time": "2:15pm"}, {"days": "Sat", "time": "9:15am"}, {"days": "Sun", "time": "Closed"}], "id": "6185900001", "name": "USPS COLLECTION BOX - PO LOBBY", "address": {"city": "OGDEN", "state": "IL", "street": "307 S EAST AVE", "postcode": "61859"}}},
{"geometry": {"type": "Point", "coordinates": [-87.9477747429, 40.3051925574]}, "type": "Feature", "properties": {"collection_times": [{"days": "Mon-Fri", "time": "12:15pm"}, {"days": "Sat", "time": "10:15am"}, {"days": "Sun", "time": "Closed"}], "id": "6186200000", "name": "USPS COLLECTION BOX - BLUE BOX", "address": {"city": "PENFIELD", "state": "IL", "street": "128 MAIN ST", "postcode": "61862"}}},
{"geometry": {"type": "Point", "coordinates": [-87.9477747429, 40.3051925574]}, "type": "Feature", "properties": {"collection_times": [{"days": "Mon-Fri", "time": "12:15pm"}, {"days": "Sat", "time": "10:15am"}, {"days": "Sun", "time": "Closed"}], "id": "6186200001", "name": "USPS COLLECTION BOX - PO LOBBY", "address": {"city": "PENFIELD", "state": "IL", "street": "128 MAIN ST", "postcode": "61862"}}},
{"geometry": {"type": "Point", "coordinates": [-88.2801620161, 39.9030645794]}, "type": "Feature", "properties": {"collection_times": [{"days": "Mon-Fri", "time": "3:45pm"}, {"days": "Sat", "time": "9:45am"}, {"days": "Sun", "time": "Closed"}], "id": "6186300000", "name": "USPS COLLECTION BOX - BLUE BOX", "address": {"city": "PESOTUM", "state": "IL", "street": "1031/2 E LINCOLN ST", "postcode": "61863"}}},
{"geometry": {"type": "Point", "coordinates": [-88.2801620161, 39.9030645794]}, "type": "Feature", "properties": {"collection_times": [{"days": "Mon-Fri", "time": "4:15pm"}, {"days": "Sat", "time": "12:15pm"}, {"days": "Sun", "time": "Closed"}], "id": "6186300001", "name": "USPS COLLECTION BOX - PO LOBBY", "address": {"city": "PESOTUM", "state": "IL", "street": "1031/2 E LINCOLN ST", "postcode": "61863"}}},
{"geometry": {"type": "Point", "coordinates": [-88.1585062927, 40.0070432989]}, "type": "Feature", "properties": {"collection_times": [{"days": "Mon-Fri", "time": "3:45pm"}, {"days": "Sat", "time": "10:45am"}, {"days": "Sun", "time": "Closed"}], "id": "6186400000", "name": "USPS COLLECTION BOX - BLUE BOX", "address": {"city": "PHILO", "state": "IL", "street": "126 W WASHINGTON ST", "postcode": "61864"}}},
{"geometry": {"type": "Point", "coordinates": [-88.1585062927, 40.0070432989]}, "type": "Feature", "properties": {"collection_times": [{"days": "Mon-Fri", "time": "3:45pm"}, {"days": "Sat", "time": "10:45am"}, {"days": "Sun", "time": "Closed"}], "id": "6186400001", "name": "USPS COLLECTION BOX - PO LOBBY", "address": {"city": "PHILO", "state": "IL", "street": "126 W WASHINGTON ST", "postcode": "61864"}}},
{"geometry": {"type": "Point", "coordinates": [-87.8007559213, 40.3054018215]}, "type": "Feature", "properties": {"collection_times": [{"days": "Mon-Fri", "time": "2:45pm"}, {"days": "Sat", "time": "9:45am"}, {"days": "Sun", "time": "Closed"}], "id": "6186500001", "name": "USPS COLLECTION BOX - BLUE BOX", "address": {"city": "POTOMAC", "state": "IL", "street": "107 W STATE ST", "postcode": "61865"}}},
{"geometry": {"type": "Point", "coordinates": [-87.8006527955, 40.3053020628]}, "type": "Feature", "properties": {"collection_times": [{"days": "Mon-Fri", "time": "2:45pm"}, {"days": "Sat", "time": "9:45am"}, {"days": "Sun", "time": "Closed"}], "id": "6186500002", "name": "USPS COLLECTION BOX - PO LOBBY", "address": {"city": "POTOMAC", "state": "IL", "street": "107 W STATE ST", "postcode": "61865"}}},
{"geometry": {"type": "Point", "coordinates": [-88.1365743045, 40.3150641255]}, "type": "Feature", "properties": {"collection_times": [{"days": "Mon-Fri", "time": "5:15pm"}, {"days": "Sat", "time": "2:30pm"}, {"days": "Sun", "time": "Closed"}], "id": "6186600000", "name": "USPS COLLECTION BOX - BLUE BOX", "address": {"city": "RANTOUL", "state": "IL", "street": "401 N MAPLEWOOD DR", "postcode": "61866"}}},
{"geometry": {"type": "Point", "coordinates": [-88.1365743045, 40.3150641255]}, "type": "Feature", "properties": {"collection_times": [{"days": "Mon-Fri", "time": "5:15pm"}, {"days": "Sat", "time": "2:30pm"}, {"days": "Sun", "time": "Closed"}], "id": "6186600001", "name": "USPS COLLECTION BOX - BLUE BOX", "address": {"city": "RANTOUL", "state": "IL", "street": "401 N MAPLEWOOD DR", "postcode": "61866"}}},
{"geometry": {"type": "Point", "coordinates": [-88.1626456956, 40.2959671508]}, "type": "Feature", "properties": {"collection_times": [{"days": "Mon-Fri", "time": "2:15pm"}, {"days": "Sat", "time": "2:00pm"}, {"days": "Sun", "time": "Closed"}], "id": "6186600008", "name": "USPS COLLECTION BOX - BLUE BOX", "address": {"city": "RANTOUL", "state": "IL", "street": "205 W DODGE AVE", "postcode": "61866"}}},
{"geometry": {"type": "Point", "coordinates": [-88.1605517826, 40.2882080331]}, "type": "Feature", "properties": {"collection_times": [{"days": "Mon-Fri", "time": "2:15pm"}, {"days": "Sat", "time": "2:00pm"}, {"days": "Sun", "time": "Closed"}], "id": "6186600011", "name": "USPS COLLECTION BOX - BLUE BOX", "address": {"city": "RANTOUL", "state": "IL", "street": "210 W FROST AVE", "postcode": "61866"}}},
{"geometry": {"type": "Point", "coordinates": [-88.1589900074, 40.3092755943]}, "type": "Feature", "properties": {"collection_times": [{"days": "Mon-Fri", "time": "2:30pm"}, {"days": "Sat", "time": "2:00pm"}, {"days": "Sun", "time": "Closed"}], "id": "6186600013", "name": "USPS COLLECTION BOX - BLUE BOX", "address": {"city": "RANTOUL", "state": "IL", "street": "333 S TANNER ST", "postcode": "61866"}}},
{"geometry": {"type": "Point", "coordinates": [-88.1365743045, 40.3150641255]}, "type": "Feature", "properties": {"collection_times": [{"days": "Mon-Fri", "time": "5:15pm"}, {"days": "Sat", "time": "2:30pm"}, {"days": "Sun", "time": "Closed"}], "id": "6186600016", "name": "USPS COLLECTION BOX - PO LOBBY", "address": {"city": "RANTOUL", "state": "IL", "street": "401 N MAPLEWOOD DR", "postcode": "61866"}}},
{"geometry": {"type": "Point", "coordinates": [-87.6528737381, 39.8955983966]}, "type": "Feature", "properties": {"collection_times": [{"days": "Mon-Fri", "time": "2:45pm"}, {"days": "Sat", "time": "9:30am"}, {"days": "Sun", "time": "Closed"}], "id": "6187000001", "name": "USPS COLLECTION BOX - BLUE BOX", "address": {"city": "RIDGE FARM", "state": "IL", "street": "10 W WOODYARD AVE", "postcode": "61870"}}},
{"geometry": {"type": "Point", "coordinates": [-87.6528737381, 39.8955983966]}, "type": "Feature", "properties": {"collection_times": [{"days": "Mon-Fri", "time": "2:45pm"}, {"days": "Sat", "time": "9:30am"}, {"days": "Sun", "time": "Closed"}], "id": "6187000002", "name": "USPS COLLECTION BOX - PO LOBBY", "address": {"city": "RIDGE FARM", "state": "IL", "street": "10 W WOODYARD AVE", "postcode": "61870"}}},
{"geometry": {"type": "Point", "coordinates": [-87.9734762712, 40.1927471462]}, "type": "Feature", "properties": {"collection_times": [{"days": "Mon-Fri", "time": "12:45pm"}, {"days": "Sat", "time": "10:15am"}, {"days": "Sun", "time": "Closed"}], "id": "6187100000", "name": "USPS COLLECTION BOX - BLUE BOX", "address": {"city": "ROYAL", "state": "IL", "street": "104 CHESTER ST", "postcode": "61871"}}},
{"geometry": {"type": "Point", "coordinates": [-87.9734762712, 40.1927471462]}, "type": "Feature", "properties": {"collection_times": [{"days": "Mon-Fri", "time": "12:45pm"}, {"days": "Sat", "time": "10:15am"}, {"days": "Sun", "time": "Closed"}], "id": "6187100001", "name": "USPS COLLECTION BOX - PO LOBBY", "address": {"city": "ROYAL", "state": "IL", "street": "104 CHESTER ST", "postcode": "61871"}}},
{"geometry": {"type": "Point", "coordinates": [-88.3459954298, 39.9665950061]}, "type": "Feature", "properties": {"collection_times": [{"days": "Mon-Fri", "time": "11:15am"}, {"days": "Sat", "time": "9:15am"}, {"days": "Sun", "time": "Closed"}], "id": "6187200000", "name": "USPS COLLECTION BOX - BLUE BOX", "address": {"city": "SADORUS", "state": "IL", "street": "123 E MARKET ST", "postcode": "61872"}}},
{"geometry": {"type": "Point", "coordinates": [-88.3459954298, 39.9665950061]}, "type": "Feature", "properties": {"collection_times": [{"days": "Mon-Fri", "time": "11:15am"}, {"days": "Sat", "time": "9:15am"}, {"days": "Sun", "time": "Closed"}], "id": "6187200001", "name": "USPS COLLECTION BOX - PO LOBBY", "address": {"city": "SADORUS", "state": "IL", "street": "123 E MARKET ST", "postcode": "61872"}}},
{"geometry": {"type": "Point", "coordinates": [-88.0417005018, 40.1116959595]}, "type": "Feature", "properties": {"collection_times": [{"days": "Mon-Fri", "time": "4:00pm"}, {"days": "Sat", "time": "12:00pm"}, {"days": "Sun", "time": "Closed"}], "id": "6187300000", "name": "USPS COLLECTION BOX - BLUE BOX", "address": {"city": "SAINT JOSEPH", "state": "IL", "street": "105 N MAIN ST", "postcode": "61873"}}},
{"geometry": {"type": "Point", "coordinates": [-88.0417005018, 40.1116959595]}, "type": "Feature", "properties": {"collection_times": [{"days": "Mon-Fri", "time": "4:00pm"}, {"days": "Sat", "time": "12:00pm"}, {"days": "Sun", "time": "Closed"}], "id": "6187300001", "name": "USPS COLLECTION BOX - PO LOBBY", "address": {"city": "SAINT JOSEPH", "state": "IL", "street": "105 N MAIN ST", "postcode": "61873"}}},
{"geometry": {"type": "Point", "coordinates": [-88.0417005018, 40.1116959595]}, "type": "Feature", "properties": {"collection_times": [{"days": "Mon-Fri", "time": "4:00pm"}, {"days": "Sat", "time": "12:00pm"}, {"days": "Sun", "time": "Closed"}], "id": "6187300002", "name": "USPS COLLECTION BOX - BLUE BOX", "address": {"city": "SAINT JOSEPH", "state": "IL", "street": "105 N MAIN ST", "postcode": "61873"}}},
{"geometry": {"type": "Point", "coordinates": [-88.2508996969, 40.0576477475]}, "type": "Feature", "properties": {"collection_times": [{"days": "Mon-Fri", "time": "4:30pm"}, {"days": "Sat", "time": "12:00pm"}, {"days": "Sun", "time": "Closed"}], "id": "6187400005", "name": "USPS COLLECTION BOX - BLUE BOX", "address": {"city": "SAVOY", "state": "IL", "street": "415 N DUNLAP AVE", "postcode": "61874"}}},
{"geometry": {"type": "Point", "coordinates": [-88.2508996969, 40.0576477475]}, "type": "Feature", "properties": {"collection_times": [{"days": "Mon-Fri", "time": "4:45pm"}, {"days": "Sat", "time": "12:00pm"}, {"days": "Sun", "time": "Closed"}], "id": "6187400007", "name": "USPS COLLECTION BOX - PO LOBBY", "address": {"city": "SAVOY", "state": "IL", "street": "415 N DUNLAP AVE", "postcode": "61874"}}},
{"geometry": {"type": "Point", "coordinates": [-88.2489844864, 40.0764745393]}, "type": "Feature", "properties": {"collection_times": [{"days": "Mon-Sat", "time": "10:30am"}, {"days": "Sun", "time": "Closed"}], "id": "6187400011", "name": "USPS COLLECTION BOX - BLUE BOX", "address": {"city": "SAVOY", "state": "IL", "street": "1701 WOODFIELD DR", "postcode": "61874"}}},
{"geometry": {"type": "Point", "coordinates": [-88.2508996969, 40.0576477475]}, "type": "Feature", "properties": {"collection_times": [{"days": "Mon-Fri", "time": "4:30pm"}, {"days": "Sat", "time": "12:00pm"}, {"days": "Sun", "time": "Closed"}], "id": "6187400013", "name": "USPS COLLECTION BOX - BLUE BOX", "address": {"city": "SAVOY", "state": "IL", "street": "415 N DUNLAP AVE", "postcode": "61874"}}},
{"geometry": {"type": "Point", "coordinates": [-88.2508996969, 40.0576477475]}, "type": "Feature", "properties": {"collection_times": [{"days": "Mon-Fri", "time": "4:45pm"}, {"days": "Sat", "time": "12:00pm"}, {"days": "Sun", "time": "Closed"}], "id": "6187400014", "name": "USPS COLLECTION BOX - PO LOBBY", "address": {"city": "SAVOY", "state": "IL", "street": "415 N DUNLAP AVE", "postcode": "61874"}}},
{"geometry": {"type": "Point", "coordinates": [-88.4265418952, 40.1071451164]}, "type": "Feature", "properties": {"collection_times": [{"days": "Mon-Fri", "time": "11:30am"}, {"days": "Sat", "time": "9:30am"}, {"days": "Sun", "time": "Closed"}], "id": "6187500001", "name": "USPS COLLECTION BOX - BLUE BOX", "address": {"city": "SEYMOUR", "state": "IL", "street": "110 N MAIN ST", "postcode": "61875"}}},
{"geometry": {"type": "Point", "coordinates": [-88.4265418952, 40.1071451164]}, "type": "Feature", "properties": {"collection_times": [{"days": "Mon-Fri", "time": "11:30am"}, {"days": "Sat", "time": "9:30am"}, {"days": "Sun", "time": "Closed"}], "id": "6187500002", "name": "USPS COLLECTION BOX - PO LOBBY", "address": {"city": "SEYMOUR", "state": "IL", "street": "110 N MAIN ST", "postcode": "61875"}}},
{"geometry": {"type": "Point", "coordinates": [-87.8213287668, 39.9107806006]}, "type": "Feature", "properties": {"collection_times": [{"days": "Mon-Fri", "time": "11:30am"}, {"days": "Sat", "time": "9:45am"}, {"days": "Sun", "time": "Closed"}], "id": "6187600000", "name": "USPS COLLECTION BOX - BLUE BOX", "address": {"city": "SIDELL", "state": "IL", "street": "201 E MARKET ST", "postcode": "61876"}}},
{"geometry": {"type": "Point", "coordinates": [-87.8213287668, 39.9107806006]}, "type": "Feature", "properties": {"collection_times": [{"days": "Mon-Fri", "time": "11:30am"}, {"days": "Sat", "time": "9:45am"}, {"days": "Sun", "time": "Closed"}], "id": "6187600001", "name": "USPS COLLECTION BOX - PO LOBBY", "address": {"city": "SIDELL", "state": "IL", "street": "201 E MARKET ST", "postcode": "61876"}}},
{"geometry": {"type": "Point", "coordinates": [-88.0732287552, 40.0244513871]}, "type": "Feature", "properties": {"collection_times": [{"days": "Mon-Fri", "time": "3:15pm"}, {"days": "Sat", "time": "10:15am"}, {"days": "Sun", "time": "Closed"}], "id": "6187700002", "name": "USPS COLLECTION BOX - PO LOBBY", "address": {"city": "SIDNEY", "state": "IL", "street": "222 S DAVID ST", "postcode": "61877"}}},
{"geometry": {"type": "Point", "coordinates": [-88.1868744089, 40.2442749025]}, "type": "Feature", "properties": {"collection_times": [{"days": "Mon-Fri", "time": "4:00pm"}, {"days": "Sat", "time": "11:00am"}, {"days": "Sun", "time": "Closed"}], "id": "6187800001", "name": "USPS COLLECTION BOX - BLUE BOX", "address": {"city": "THOMASBORO", "state": "IL", "street": "610 N COMMERCIAL ST", "postcode": "61878"}}},
{"geometry": {"type": "Point", "coordinates": [-88.1868744089, 40.2442749025]}, "type": "Feature", "properties": {"collection_times": [{"days": "Mon-Fri", "time": "4:00pm"}, {"days": "Sat", "time": "11:00am"}, {"days": "Sun", "time": "Closed"}], "id": "6187800002", "name": "USPS COLLECTION BOX - PO LOBBY", "address": {"city": "THOMASBORO", "state": "IL", "street": "610 N COMMERCIAL ST", "postcode": "61878"}}},
{"geometry": {"type": "Point", "coordinates": [-88.2607495946, 39.9850278321]}, "type": "Feature", "properties": {"collection_times": [{"days": "Mon-Fri", "time": "3:15pm"}, {"days": "Sat", "time": "10:30am"}, {"days": "Sun", "time": "Closed"}], "id": "6188000000", "name": "USPS COLLECTION BOX - BLUE BOX", "address": {"city": "TOLONO", "state": "IL", "street": "113 N VORCEY ST", "postcode": "61880"}}},
{"geometry": {"type": "Point", "coordinates": [-88.2643166214, 39.9733616281]}, "type": "Feature", "properties": {"collection_times": [{"days": "Mon-Sat", "time": "10:30am"}, {"days": "Sun", "time": "Closed"}], "id": "6188000001", "name": "USPS COLLECTION BOX - BLUE BOX", "address": {"city": "TOLONO", "state": "IL", "street": "1 THE OAKS", "postcode": "61880"}}},
{"geometry": {"type": "Point", "coordinates": [-88.2607495946, 39.9850278321]}, "type": "Feature", "properties": {"collection_times": [{"days": "Mon-Fri", "time": "3:15pm"}, {"days": "Sat", "time": "10:30am"}, {"days": "Sun", "time": "Closed"}], "id": "6188000002", "name": "USPS COLLECTION BOX - PO LOBBY", "address": {"city": "TOLONO", "state": "IL", "street": "113 N VORCEY ST", "postcode": "61880"}}},
{"geometry": {"type": "Point", "coordinates": [-88.7502729421, 40.1211837898]}, "type": "Feature", "properties": {"collection_times": [{"days": "Mon-Fri", "time": "11:15am"}, {"days": "Sat", "time": "9:15am"}, {"days": "Sun", "time": "Closed"}], "id": "6188200001", "name": "USPS COLLECTION BOX - BLUE BOX", "address": {"city": "WELDON", "state": "IL", "street": "450 MAPLE ST", "postcode": "61882"}}},
{"geometry": {"type": "Point", "coordinates": [-88.7502729421, 40.1211837898]}, "type": "Feature", "properties": {"collection_times": [{"days": "Mon-Fri", "time": "11:15am"}, {"days": "Sat", "time": "9:15am"}, {"days": "Sun", "time": "Closed"}], "id": "6188200002", "name": "USPS COLLECTION BOX - PO LOBBY", "address": {"city": "WELDON", "state": "IL", "street": "450 MAPLE ST", "postcode": "61882"}}},
{"geometry": {"type": "Point", "coordinates": [-87.6386014405, 40.0401847833]}, "type": "Feature", "properties": {"collection_times": [{"days": "Mon-Fri", "time": "4:30pm"}, {"days": "Sat", "time": "12:00pm"}, {"days": "Sun", "time": "Closed"}], "id": "6188300001", "name": "USPS COLLECTION BOX - BLUE BOX", "address": {"city": "WESTVILLE", "state": "IL", "street": "300 S STATE ST", "postcode": "61883"}}},
{"geometry": {"type": "Point", "coordinates": [-87.6386014405, 40.0401847833]}, "type": "Feature", "properties": {"collection_times": [{"days": "Mon-Fri", "time": "4:30pm"}, {"days": "Sat", "time": "12:00pm"}, {"days": "Sun", "time": "Closed"}], "id": "6188300011", "name": "USPS COLLECTION BOX - PO LOBBY", "address": {"city": "WESTVILLE", "state": "IL", "street": "300 S STATE ST", "postcode": "61883"}}},
{"geometry": {"type": "Point", "coordinates": [-87.6386014405, 40.0401847833]}, "type": "Feature", "properties": {"collection_times": [{"days": "Mon-Fri", "time": "4:30pm"}, {"days": "Sat", "time": "12:00pm"}, {"days": "Sun", "time": "Closed"}], "id": "6188300012", "name": "USPS COLLECTION BOX - PO LOBBY", "address": {"city": "WESTVILLE", "state": "IL", "street": "300 S STATE ST", "postcode": "61883"}}},
{"geometry": {"type": "Point", "coordinates": [-88.5072123032, 40.0860022523]}, "type": "Feature", "properties": {"collection_times": [{"days": "Mon-Fri", "time": "4:00pm"}, {"days": "Sat", "time": "10:15am"}, {"days": "Sun", "time": "Closed"}], "id": "6188400000", "name": "USPS COLLECTION BOX - BLUE BOX", "address": {"city": "WHITE HEATH", "state": "IL", "street": "215 E HIGH ST", "postcode": "61884"}}},
{"geometry": {"type": "Point", "coordinates": [-88.5072123032, 40.0860022523]}, "type": "Feature", "properties": {"collection_times": [{"days": "Mon-Fri", "time": "4:15pm"}, {"days": "Sat", "time": "2:15pm"}, {"days": "Sun", "time": "Closed"}], "id": "6188400001", "name": "USPS COLLECTION BOX - PO LOBBY", "address": {"city": "WHITE HEATH", "state": "IL", "street": "215 E HIGH ST", "postcode": "61884"}}}
]}
