{"type": "FeatureCollection", "features": [
{"geometry": {"type": "Point", "coordinates": [-88.3081961502, 39.6843614723]}, "type": "Feature", "properties": {"collection_times": [{"days": "Mon-Fri", "time": "3:45pm"}, {"days": "Sat", "time": "9:45am"}, {"days": "Sun", "time": "Closed"}], "id": "6191000000", "name": "USPS COLLECTION BOX - BLUE BOX", "address": {"city": "ARCOLA", "state": "IL", "street": "107 S OAK ST", "postcode": "61910"}}},
{"geometry": {"type": "Point", "coordinates": [-88.3081961502, 39.6843614723]}, "type": "Feature", "properties": {"collection_times": [{"days": "Mon-Fri", "time": "3:45pm"}, {"days": "Sat", "time": "9:45am"}, {"days": "Sun", "time": "Closed"}], "id": "6191000001", "name": "USPS COLLECTION BOX - PO LOBBY", "address": {"city": "ARCOLA", "state": "IL", "street": "107 S OAK ST", "postcode": "61910"}}},
{"geometry": {"type": "Point", "coordinates": [-88.4725286259, 39.7144864167]}, "type": "Feature", "properties": {"collection_times": [{"days": "Mon-Fri", "time": "4:15pm"}, {"days": "Sat", "time": "11:15am"}, {"days": "Sun", "time": "Closed"}], "id": "6191100001", "name": "USPS COLLECTION BOX - BLUE BOX", "address": {"city": "ARTHUR", "state": "IL", "street": "315 S VINE ST", "postcode": "61911"}}},
{"geometry": {"type": "Point", "coordinates": [-88.4725286259, 39.7144864167]}, "type": "Feature", "properties": {"collection_times": [{"days": "Mon-Fri", "time": "4:15pm"}, {"days": "Sat", "time": "11:15am"}, {"days": "Sun", "time": "Closed"}], "id": "6191100002", "name": "USPS COLLECTION BOX - BLUE BOX", "address": {"city": "ARTHUR", "state": "IL", "street": "315 S VINE ST", "postcode": "61911"}}},
{"geometry": {"type": "Point", "coordinates": [-88.4724342168, 39.7160559993]}, "type": "Feature", "properties": {"collection_times": [{"days": "Mon-Sat", "time": "2:30pm"}, {"days": "Sun", "time": "Closed"}], "id": "6191100003", "name": "USPS COLLECTION BOX - BLUE BOX", "address": {"city": "ARTHUR", "state": "IL", "street": "202 S VINE ST", "postcode": "61911"}}},
{"geometry": {"type": "Point", "coordinates": [-88.4725286259, 39.7144864167]}, "type": "Feature", "properties": {"collection_times": [{"days": "Mon-Fri", "time": "4:15pm"}, {"days": "Sat", "time": "11:15am"}, {"days": "Sun", "time": "Closed"}], "id": "6191100005", "name": "USPS COLLECTION BOX - PO LOBBY", "address": {"city": "ARTHUR", "state": "IL", "street": "315 S VINE ST", "postcode": "61911"}}},
{"geometry": {"type": "Point", "coordinates": [-88.4725286259, 39.7144864167]}, "type": "Feature", "properties": {"collection_times": [{"days": "Mon-Fri", "time": "4:15pm"}, {"days": "Sat", "time": "11:15am"}, {"days": "Sun", "time": "Closed"}], "id": "6191100006", "name": "USPS COLLECTION BOX - PO LOBBY", "address": {"city": "ARTHUR", "state": "IL", "street": "315 S VINE ST", "postcode": "61911"}}},
{"geometry": {"type": "Point", "coordinates": [-88.02268398, 39.5335089404]}, "type": "Feature", "properties": {"collection_times": [{"days": "Mon-Fri", "time": "2:45pm"}, {"days": "Sat", "time": "10:00am"}, {"days": "Sun", "time": "Closed"}], "id": "6191200001", "name": "USPS COLLECTION BOX - BLUE BOX", "address": {"city": "ASHMORE", "state": "IL", "street": "103 W ASHMORE ST", "postcode": "61912"}}},
{"geometry": {"type": "Point", "coordinates": [-88.02268398, 39.5335089404]}, "type": "Feature", "properties": {"collection_times": [{"days": "Mon-Fri", "time": "2:30pm"}, {"days": "Sat", "time": "9:45am"}, {"days": "Sun", "time": "Closed"}], "id": "6191200002", "name": "USPS COLLECTION BOX - PO LOBBY", "address": {"city": "ASHMORE", "state": "IL", "street": "103 W ASHMORE ST", "postcode": "61912"}}},
{"geometry": {"type": "Point", "coordinates": [-88.4625594602, 39.7997198983]}, "type": "Feature", "properties": {"collection_times": [{"days": "Mon-Fri", "time": "4:00pm"}, {"days": "Sat", "time": "11:00am"}, {"days": "Sun", "time": "Closed"}], "id": "6191300001", "name": "USPS COLLECTION BOX - BLUE BOX", "address": {"city": "ATWOOD", "state": "IL", "street": "117 W CENTRAL ST", "postcode": "61913"}}},
{"geometry": {"type": "Point", "coordinates": [-88.4625594602, 39.7997198983]}, "type": "Feature", "properties": {"collection_times": [{"days": "Mon-Fri", "time": "4:00pm"}, {"days": "Sat", "time": "11:00am"}, {"days": "Sun", "time": "Closed"}], "id": "6191300002", "name": "USPS COLLECTION BOX - PO LOBBY", "address": {"city": "ATWOOD", "state": "IL", "street": "117 W CENTRAL ST", "postcode": "61913"}}},
{"geometry": {"type": "Point", "coordinates": [-88.7395453493, 39.6453180155]}, "type": "Feature", "properties": {"collection_times": [{"days": "Mon-Fri", "time": "4:00pm"}, {"days": "Sat", "time": "11:00am"}, {"days": "Sun", "time": "Closed"}], "id": "6191400001", "name": "USPS COLLECTION BOX - BLUE BOX", "address": {"city": "BETHANY", "state": "IL", "street": "119 S WASHINGTON ST", "postcode": "61914"}}},
{"geometry": {"type": "Point", "coordinates": [-88.7395453493, 39.6453180155]}, "type": "Feature", "properties": {"collection_times": [{"days": "Mon-Fri", "time": "4:00pm"}, {"days": "Sat", "time": "11:00am"}, {"days": "Sun", "time": "Closed"}], "id": "6191400002", "name": "USPS COLLECTION BOX - PO LOBBY", "address": {"city": "BETHANY", "state": "IL", "street": "119 S WASHINGTON ST", "postcode": "61914"}}},
{"geometry": {"type": "Point", "coordinates": [-87.932206928, 39.7153464644]}, "type": "Feature", "properties": {"collection_times": [{"days": "Mon-Fri", "time": "11:45am"}, {"days": "Sat", "time": "11:00am"}, {"days": "Sun", "time": "Closed"}], "id": "6191700001", "name": "USPS COLLECTION BOX - BLUE BOX", "address": {"city": "BROCTON", "state": "IL", "street": "100 E THIRD ST", "postcode": "61917"}}},
{"geometry": {"type": "Point", "coordinates": [-87.932206928, 39.7153464644]}, "type": "Feature", "properties": {"collection_times": [{"days": "Mon-Fri", "time": "11:45am"}, {"days": "Sat", "time": "11:00am"}, {"days": "Sun", "time": "Closed"}], "id": "6191700002", "name": "USPS COLLECTION BOX - PO LOBBY", "address": {"city": "BROCTON", "state": "IL", "street": "100 E THIRD ST", "postcode": "61917"}}},
{"geometry": {"type": "Point", "coordinates": [-88.1626989263, 39.7999199634]}, "type": "Feature", "properties": {"collection_times": [{"days": "Mon-Fri", "time": "11:45am"}, {"days": "Sat", "time": "9:45am"}, {"days": "Sun", "time": "Closed"}], "id": "6191900000", "name": "USPS COLLECTION BOX - BLUE BOX", "address": {"city": "CAMARGO", "state": "IL", "street": "203 W MAIN ST", "postcode": "61919"}}},
{"geometry": {"type": "Point", "coordinates": [-88.1626989263, 39.7999199634]}, "type": "Feature", "properties": {"collection_times": [{"days": "Mon-Fri", "time": "11:45am"}, {"days": "Sat", "time": "9:45am"}, {"days": "Sun", "time": "Closed"}], "id": "6191900001", "name": "USPS COLLECTION BOX - PO LOBBY", "address": {"city": "CAMARGO", "state": "IL", "street": "203 W MAIN ST", "postcode": "61919"}}},
{"geometry": {"type": "Point", "coordinates": [-88.175972966, 39.4966182805]}, "type": "Feature", "properties": {"collection_times": [{"days": "Mon-Fri", "time": "2:30pm"}, {"days": "Sat", "time": "1:30pm"}, {"days": "Sun", "time": "Closed"}], "id": "6192000002", "name": "USPS COLLECTION BOX - BLUE BOX", "address": {"city": "CHARLESTON", "state": "IL", "street": "320 6TH ST", "postcode": "61920"}}},
{"geometry": {"type": "Point", "coordinates": [-88.1739495047, 39.4866619763]}, "type": "Feature", "properties": {"collection_times": [{"days": "Mon-Fri", "time": "2:30pm"}, {"days": "Sat", "time": "1:30pm"}, {"days": "Sun", "time": "Closed"}], "id": "6192000008", "name": "USPS COLLECTION BOX - BLUE BOX", "address": {"city": "CHARLESTON", "state": "IL", "street": "580 W LINCOLN AVE", "postcode": "61920"}}},
{"geometry": {"type": "Point", "coordinates": [-88.1739495047, 39.4866619763]}, "type": "Feature", "properties": {"collection_times": [{"days": "Mon-Fri", "time": "2:30pm"}, {"days": "Sat", "time": "1:30pm"}, {"days": "Sun", "time": "Closed"}], "id": "6192000009", "name": "USPS COLLECTION BOX - BLUE BOX", "address": {"city": "CHARLESTON", "state": "IL", "street": "580 W LINCOLN AVE", "postcode": "61920"}}},
{"geometry": {"type": "Point", "coordinates": [-88.1750866539, 39.4842845284]}, "type": "Feature", "properties": {"collection_times": [{"days": "Mon-Fri", "time": "2:30pm"}, {"days": "Sat", "time": "1:30pm"}, {"days": "Sun", "time": "Closed"}], "id": "6192000010", "name": "USPS COLLECTION BOX - BLUE BOX", "address": {"city": "CHARLESTON", "state": "IL", "street": "600 LINCOLN AVE", "postcode": "61920"}}},
{"geometry": {"type": "Point", "coordinates": [-88.1750866539, 39.4842845284]}, "type": "Feature", "properties": {"collection_times": [{"days": "Mon-Fri", "time": "2:30pm"}, {"days": "Sat", "time": "1:30pm"}, {"days": "Sun", "time": "Closed"}], "id": "6192000011", "name": "USPS COLLECTION BOX - BLUE BOX", "address": {"city": "CHARLESTON", "state": "IL", "street": "600 LINCOLN AVE", "postcode": "61920"}}},
{"geometry": {"type": "Point", "coordinates": [-88.1865443838, 39.4846069801]}, "type": "Feature", "properties": {"collection_times": [{"days": "Mon-Fri", "time": "2:30pm"}, {"days": "Sat", "time": "1:30pm"}, {"days": "Sun", "time": "Closed"}], "id": "6192000013", "name": "USPS COLLECTION BOX - BLUE BOX", "address": {"city": "CHARLESTON", "state": "IL", "street": "1460 E ST", "postcode": "61920"}}},
{"geometry": {"type": "Point", "coordinates": [-88.1739495047, 39.4866619763]}, "type": "Feature", "properties": {"collection_times": [{"days": "Mon-Fri", "time": "2:30pm"}, {"days": "Sat", "time": "1:30pm"}, {"days": "Sun", "time": "Closed"}], "id": "6192000017", "name": "USPS COLLECTION BOX - BLUE BOX", "address": {"city": "CHARLESTON", "state": "IL", "street": "1400 LINCOLN AVE", "postcode": "61920"}}},
{"geometry": {"type": "Point", "coordinates": [-88.163415574, 39.4907290143]}, "type": "Feature", "properties": {"collection_times": [{"days": "Mon-Fri", "time": "2:30pm"}, {"days": "Sat", "time": "1:30pm"}, {"days": "Sun", "time": "Closed"}], "id": "6192000022", "name": "USPS COLLECTION BOX - BLUE BOX", "address": {"city": "CHARLESTON", "state": "IL", "street": "825 18TH ST", "postcode": "61920"}}},
{"geometry": {"type": "Point", "coordinates": [-88.1763108035, 39.494354359]}, "type": "Feature", "properties": {"collection_times": [{"days": "Mon-Fri", "time": "2:30pm"}, {"days": "Sat", "time": "1:30pm"}, {"days": "Sun", "time": "Closed"}], "id": "6192000023", "name": "USPS COLLECTION BOX - BLUE BOX", "address": {"city": "CHARLESTON", "state": "IL", "street": "520 JACKSON AVE", "postcode": "61920"}}},
{"geometry": {"type": "Point", "coordinates": [-88.1750477318, 39.4946224946]}, "type": "Feature", "properties": {"collection_times": [{"days": "Mon-Fri", "time": "2:30pm"}, {"days": "Sat", "time": "1:30pm"}, {"days": "Sun", "time": "Closed"}], "id": "6192000024", "name": "USPS COLLECTION BOX - BLUE BOX", "address": {"city": "CHARLESTON", "state": "IL", "street": "651 JACKSON AVE", "postcode": "61920"}}},
{"geometry": {"type": "Point", "coordinates": [-88.1588588415, 39.4856640537]}, "type": "Feature", "properties": {"collection_times": [{"days": "Mon-Fri", "time": "2:30pm"}, {"days": "Sat", "time": "1:30pm"}, {"days": "Sun", "time": "Closed"}], "id": "6192000026", "name": "USPS COLLECTION BOX - BLUE BOX", "address": {"city": "CHARLESTON", "state": "IL", "street": "2250 LINCOLN AVE", "postcode": "61920"}}},
{"geometry": {"type": "Point", "coordinates": [-88.1739495047, 39.4866619763]}, "type": "Feature", "properties": {"collection_times": [{"days": "Mon-Fri", "time": "2:30pm"}, {"days": "Sat", "time": "1:30pm"}, {"days": "Sun", "time": "Closed"}], "id": "6192000027", "name": "USPS COLLECTION BOX - BLUE BOX", "address": {"city": "CHARLESTON", "state": "IL", "street": "667 WINDSOR RD", "postcode": "61920"}}},
{"geometry": {"type": "Point", "coordinates": [-88.1739495047, 39.4866619763]}, "type": "Feature", "properties": {"collection_times": [{"days": "Mon-Fri", "time": "2:30pm"}, {"days": "Sat", "time": "1:30pm"}, {"days": "Sun", "time": "Closed"}], "id": "6192000028", "name": "USPS COLLECTION BOX - PO LOBBY", "address": {"city": "CHARLESTON", "state": "IL", "street": "667 WINDSOR RD", "postcode": "61920"}}},
{"geometry": {"type": "Point", "coordinates": [-87.6792306562, 39.8045234812]}, "type": "Feature", "properties": {"collection_times": [{"days": "Mon-Fri", "time": "2:45pm"}, {"days": "Sat", "time": "9:45am"}, {"days": "Sun", "time": "Closed"}], "id": "6192400001", "name": "USPS COLLECTION BOX - BLUE BOX", "address": {"city": "CHRISMAN", "state": "IL", "street": "210 W MADISON AVE", "postcode": "61924"}}},
{"geometry": {"type": "Point", "coordinates": [-87.6792306562, 39.8045234812]}, "type": "Feature", "properties": {"collection_times": [{"days": "Mon-Fri", "time": "2:45pm"}, {"days": "Sat", "time": "9:45am"}, {"days": "Sun", "time": "Closed"}], "id": "6192400002", "name": "USPS COLLECTION BOX - PO LOBBY", "address": {"city": "CHRISMAN", "state": "IL", "street": "210 W MADISON AVE", "postcode": "61924"}}},
{"geometry": {"type": "Point", "coordinates": [-88.8048822477, 39.7112525786]}, "type": "Feature", "properties": {"collection_times": [{"days": "Mon-Fri", "time": "12:15pm"}, {"days": "Sat", "time": "10:45am"}, {"days": "Sun", "time": "Closed"}], "id": "6192500000", "name": "USPS COLLECTION BOX - BLUE BOX", "address": {"city": "DALTON CITY", "state": "IL", "street": "135 E MAIN ST", "postcode": "61925"}}},
{"geometry": {"type": "Point", "coordinates": [-88.8048822477, 39.7112525786]}, "type": "Feature", "properties": {"collection_times": [{"days": "Mon-Fri", "time": "12:15pm"}, {"days": "Sat", "time": "10:15am"}, {"days": "Sun", "time": "Closed"}], "id": "6192500001", "name": "USPS COLLECTION BOX - PO LOBBY", "address": {"city": "DALTON CITY", "state": "IL", "street": "135 E MAIN ST", "postcode": "61925"}}},
{"geometry": {"type": "Point", "coordinates": [-88.5920317054, 39.7987650879]}, "type": "Feature", "properties": {"collection_times": [{"days": "Mon-Fri", "time": "11:45am"}, {"days": "Sat", "time": "10:30am"}, {"days": "Sun", "time": "Closed"}], "id": "6192900001", "name": "USPS COLLECTION BOX - BLUE BOX", "address": {"city": "HAMMOND", "state": "IL", "street": "111 E 1ST ST", "postcode": "61929"}}},
{"geometry": {"type": "Point", "coordinates": [-88.5920317054, 39.7987650879]}, "type": "Feature", "properties": {"collection_times": [{"days": "Mon-Fri", "time": "11:45am"}, {"days": "Sat", "time": "10:30am"}, {"days": "Sun", "time": "Closed"}], "id": "6192900002", "name": "USPS COLLECTION BOX - PO LOBBY", "address": {"city": "HAMMOND", "state": "IL", "street": "111 E 1ST ST", "postcode": "61929"}}},
{"geometry": {"type": "Point", "coordinates": [-88.1341131018, 39.6838980549]}, "type": "Feature", "properties": {"collection_times": [{"days": "Mon-Fri", "time": "3:45pm"}, {"days": "Sat", "time": "10:30am"}, {"days": "Sun", "time": "Closed"}], "id": "6193000000", "name": "USPS COLLECTION BOX - BLUE BOX", "address": {"city": "HINDSBORO", "state": "IL", "street": "407 MISSOURI ST", "postcode": "61930"}}},
{"geometry": {"type": "Point", "coordinates": [-88.1341131018, 39.6838980549]}, "type": "Feature", "properties": {"collection_times": [{"days": "Mon-Fri", "time": "3:45pm"}, {"days": "Sat", "time": "1:45pm"}, {"days": "Sun", "time": "Closed"}], "id": "6193000001", "name": "USPS COLLECTION BOX - PO LOBBY", "address": {"city": "HINDSBORO", "state": "IL", "street": "407 MISSOURI ST", "postcode": "61930"}}},
{"geometry": {"type": "Point", "coordinates": [-88.3178150326, 39.6036472899]}, "type": "Feature", "properties": {"collection_times": [{"days": "Mon-Fri", "time": "12:00pm"}, {"days": "Sat", "time": "10:00am"}, {"days": "Sun", "time": "Closed"}], "id": "6193100000", "name": "USPS COLLECTION BOX - BLUE BOX", "address": {"city": "HUMBOLDT", "state": "IL", "street": "407 ELM ST", "postcode": "61931"}}},
{"geometry": {"type": "Point", "coordinates": [-88.3178150326, 39.6036472899]}, "type": "Feature", "properties": {"collection_times": [{"days": "Mon-Fri", "time": "12:00pm"}, {"days": "Sat", "time": "10:00am"}, {"days": "Sun", "time": "Closed"}], "id": "6193100001", "name": "USPS COLLECTION BOX - PO LOBBY", "address": {"city": "HUMBOLDT", "state": "IL", "street": "407 ELM ST", "postcode": "61931"}}},
{"geometry": {"type": "Point", "coordinates": [-87.8732232482, 39.7984532835]}, "type": "Feature", "properties": {"collection_times": [{"days": "Mon-Fri", "time": "11:45am"}, {"days": "Sat", "time": "9:45am"}, {"days": "Sun", "time": "Closed"}], "id": "6193200001", "name": "USPS COLLECTION BOX - BLUE BOX", "address": {"city": "HUME", "state": "IL", "street": "150 FRONT ST", "postcode": "61932"}}},
{"geometry": {"type": "Point", "coordinates": [-87.8732232482, 39.7984532835]}, "type": "Feature", "properties": {"collection_times": [{"days": "Mon-Fri", "time": "11:45am"}, {"days": "Sat", "time": "9:45am"}, {"days": "Sun", "time": "Closed"}], "id": "6193200002", "name": "USPS COLLECTION BOX - PO LOBBY", "address": {"city": "HUME", "state": "IL", "street": "150 FRONT ST", "postcode": "61932"}}},
{"geometry": {"type": "Point", "coordinates": [-87.9389206307, 39.5530628452]}, "type": "Feature", "properties": {"collection_times": [{"days": "Mon-Fri", "time": "2:45pm"}, {"days": "Sat", "time": "9:45am"}, {"days": "Sun", "time": "Closed"}], "id": "6193300001", "name": "USPS COLLECTION BOX - BLUE BOX", "address": {"city": "KANSAS", "state": "IL", "street": "126 E BUENA VISTA ST", "postcode": "61933"}}},
{"geometry": {"type": "Point", "coordinates": [-87.9389206307, 39.5530628452]}, "type": "Feature", "properties": {"collection_times": [{"days": "Mon-Fri", "time": "2:45pm"}, {"days": "Sat", "time": "9:45am"}, {"days": "Sun", "time": "Closed"}], "id": "6193300002", "name": "USPS COLLECTION BOX - PO LOBBY", "address": {"city": "KANSAS", "state": "IL", "street": "126 E BUENA VISTA ST", "postcode": "61933"}}},
{"geometry": {"type": "Point", "coordinates": [-88.7284438408, 39.8910035355]}, "type": "Feature", "properties": {"collection_times": [{"days": "Mon-Sat", "time": "10:15am"}, {"days": "Sun", "time": "Closed"}], "id": "6193600000", "name": "USPS COLLECTION BOX - BLUE BOX", "address": {"city": "LA PLACE", "state": "IL", "street": "110 E FRONT ST", "postcode": "61936"}}},
{"geometry": {"type": "Point", "coordinates": [-88.7284438408, 39.8910035355]}, "type": "Feature", "properties": {"collection_times": [{"days": "Mon-Sat", "time": "10:15am"}, {"days": "Sun", "time": "Closed"}], "id": "6193600001", "name": "USPS COLLECTION BOX - PO LOBBY", "address": {"city": "LA PLACE", "state": "IL", "street": "110 E FRONT ST", "postcode": "61936"}}},
{"geometry": {"type": "Point", "coordinates": [-88.6341384271, 39.715511309]}, "type": "Feature", "properties": {"collection_times": [{"days": "Mon-Fri", "time": "2:15pm"}, {"days": "Sat", "time": "9:15am"}, {"days": "Sun", "time": "Closed"}], "id": "6193700000", "name": "USPS COLLECTION BOX - BLUE BOX", "address": {"city": "LOVINGTON", "state": "IL", "street": "101 E STATE ST", "postcode": "61937"}}},
{"geometry": {"type": "Point", "coordinates": [-88.6341384271, 39.715511309]}, "type": "Feature", "properties": {"collection_times": [{"days": "Mon-Fri", "time": "2:15pm"}, {"days": "Sat", "time": "9:15am"}, {"days": "Sun", "time": "Closed"}], "id": "6193700001", "name": "USPS COLLECTION BOX - PO LOBBY", "address": {"city": "LOVINGTON", "state": "IL", "street": "101 E STATE ST", "postcode": "61937"}}},
{"geometry": {"type": "Point", "coordinates": [-88.3723888191, 39.4829213209]}, "type": "Feature", "properties": {"collection_times": [{"days": "Mon-Sat", "time": "5:00pm"}, {"days": "Sun", "time": "Closed"}], "id": "6193800001", "name": "USPS COLLECTION BOX - BLUE BOX", "address": {"city": "MATTOON", "state": "IL", "street": "120 N 15TH ST", "postcode": "61938"}}},
{"geometry": {"type": "Point", "coordinates": [-88.3426768098, 39.4830511236]}, "type": "Feature", "properties": {"collection_times": [{"days": "Mon-Fri", "time": "2:00pm"}, {"days": "Sat", "time": "12:30pm"}, {"days": "Sun", "time": "Closed"}], "id": "6193800011", "name": "USPS COLLECTION BOX - BLUE BOX", "address": {"city": "MATTOON", "state": "IL", "street": "700 BROADWAY AVE E", "postcode": "61938"}}},
{"geometry": {"type": "Point", "coordinates": [-88.3788929265, 39.4831778014]}, "type": "Feature", "properties": {"collection_times": [{"days": "Mon-Fri", "time": "2:00pm"}, {"days": "Sat", "time": "12:30pm"}, {"days": "Sun", "time": "Closed"}], "id": "6193800025", "name": "USPS COLLECTION BOX - BLUE BOX", "address": {"city": "MATTOON", "state": "IL", "street": "2000 WESTERN AVE", "postcode": "61938"}}},
{"geometry": {"type": "Point", "coordinates": [-88.3723888191, 39.4829213209]}, "type": "Feature", "properties": {"collection_times": [{"days": "Mon-Sat", "time": "5:00pm"}, {"days": "Sun", "time": "Closed"}], "id": "6193800028", "name": "USPS COLLECTION BOX - BLUE BOX", "address": {"city": "MATTOON", "state": "IL", "street": "120 N 15TH ST", "postcode": "61938"}}},
{"geometry": {"type": "Point", "coordinates": [-88.3723888191, 39.4829213209]}, "type": "Feature", "properties": {"collection_times": [{"days": "Mon-Sat", "time": "5:00pm"}, {"days": "Sun", "time": "Closed"}], "id": "6193800029", "name": "USPS COLLECTION BOX - BLUE BOX", "address": {"city": "MATTOON", "state": "IL", "street": "120 N 15TH ST", "postcode": "61938"}}},
{"geometry": {"type": "Point", "coordinates": [-88.3723888191, 39.4829213209]}, "type": "Feature", "properties": {"collection_times": [{"days": "Mon-Sat", "time": "5:00pm"}, {"days": "Sun", "time": "Closed"}], "id": "6193800030", "name": "USPS COLLECTION BOX - BLUE BOX", "address": {"city": "MATTOON", "state": "IL", "street": "120 N 15TH ST", "postcode": "61938"}}},
{"geometry": {"type": "Point", "coordinates": [-88.3723888191, 39.4829213209]}, "type": "Feature", "properties": {"collection_times": [{"days": "Mon-Sat", "time": "5:00pm"}, {"days": "Sun", "time": "Closed"}], "id": "6193800031", "name": "USPS COLLECTION BOX - BLUE BOX", "address": {"city": "MATTOON", "state": "IL", "street": "120 N 15TH ST", "postcode": "61938"}}},
{"geometry": {"type": "Point", "coordinates": [-88.3723888191, 39.4829213209]}, "type": "Feature", "properties": {"collection_times": [{"days": "Mon-Sat", "time": "5:00pm"}, {"days": "Sun", "time": "Closed"}], "id": "6193800034", "name": "USPS COLLECTION BOX - PO LOBBY", "address": {"city": "MATTOON", "state": "IL", "street": "120 N 15TH ST", "postcode": "61938"}}},
{"geometry": {"type": "Point", "coordinates": [-87.8068604222, 39.799891725]}, "type": "Feature", "properties": {"collection_times": [{"days": "Mon-Fri", "time": "10:45am"}, {"days": "Sat", "time": "10:00am"}, {"days": "Sun", "time": "Closed"}], "id": "6194000000", "name": "USPS COLLECTION BOX - BLUE BOX", "address": {"city": "METCALF", "state": "IL", "street": "212 N CENTRAL ST", "postcode": "61940"}}},
{"geometry": {"type": "Point", "coordinates": [-87.8068604222, 39.799891725]}, "type": "Feature", "properties": {"collection_times": [{"days": "Mon-Fri", "time": "10:45am"}, {"days": "Sat", "time": "9:45am"}, {"days": "Sun", "time": "Closed"}], "id": "6194000001", "name": "USPS COLLECTION BOX - PO LOBBY", "address": {"city": "METCALF", "state": "IL", "street": "212 N CENTRAL ST", "postcode": "61940"}}},
{"geometry": {"type": "Point", "coordinates": [-88.0923198861, 39.7834762314]}, "type": "Feature", "properties": {"collection_times": [{"days": "Mon-Sat", "time": "11:45am"}, {"days": "Sun", "time": "Closed"}], "id": "6194100000", "name": "USPS COLLECTION BOX - BLUE BOX", "address": {"city": "MURDOCK", "state": "IL", "street": "203 N CENTER ST", "postcode": "61941"}}},
{"geometry": {"type": "Point", "coordinates": [-88.0923198861, 39.7834762314]}, "type": "Feature", "properties": {"collection_times": [{"days": "Mon-Fri", "time": "12:45pm"}, {"days": "Sat", "time": "2:15pm"}, {"days": "Sun", "time": "Closed"}], "id": "6194100001", "name": "USPS COLLECTION BOX - PO LOBBY", "address": {"city": "MURDOCK", "state": "IL", "street": "203 N CENTER ST", "postcode": "61941"}}},
{"geometry": {"type": "Point", "coordinates": [-87.982875545, 39.7968522344]}, "type": "Feature", "properties": {"collection_times": [{"days": "Mon-Fri", "time": "3:15pm"}, {"days": "Sat", "time": "9:15am"}, {"days": "Sun", "time": "Closed"}], "id": "6194200001", "name": "USPS COLLECTION BOX - BLUE BOX", "address": {"city": "NEWMAN", "state": "IL", "street": "101 S HOWARD ST", "postcode": "61942"}}},
{"geometry": {"type": "Point", "coordinates": [-87.982875545, 39.7968522344]}, "type": "Feature", "properties": {"collection_times": [{"days": "Mon-Fri", "time": "3:15pm"}, {"days": "Sat", "time": "9:15am"}, {"days": "Sun", "time": "Closed"}], "id": "6194200002", "name": "USPS COLLECTION BOX - PO LOBBY", "address": {"city": "NEWMAN", "state": "IL", "street": "101 S HOWARD ST", "postcode": "61942"}}},
{"geometry": {"type": "Point", "coordinates": [-88.0272709308, 39.654927476]}, "type": "Feature", "properties": {"collection_times": [{"days": "Mon-Fri", "time": "3:45pm"}, {"days": "Sat", "time": "10:30am"}, {"days": "Sun", "time": "Closed"}], "id": "6194300001", "name": "USPS COLLECTION BOX - BLUE BOX", "address": {"city": "OAKLAND", "state": "IL", "street": "4 PIKE ST", "postcode": "61943"}}},
{"geometry": {"type": "Point", "coordinates": [-88.0272709308, 39.654927476]}, "type": "Feature", "properties": {"collection_times": [{"days": "Mon-Fri", "time": "3:45pm"}, {"days": "Sat", "time": "10:30am"}, {"days": "Sun", "time": "Closed"}], "id": "6194300002", "name": "USPS COLLECTION BOX - PO LOBBY", "address": {"city": "OAKLAND", "state": "IL", "street": "4 PIKE ST", "postcode": "61943"}}},
{"geometry": {"type": "Point", "coordinates": [-87.6948574534, 39.6122813915]}, "type": "Feature", "properties": {"collection_times": [{"days": "Mon-Sat", "time": "3:30pm"}, {"days": "Sun", "time": "Closed"}], "id": "6194400001", "name": "USPS COLLECTION BOX - BLUE BOX", "address": {"city": "PARIS", "state": "IL", "street": "200 N MAIN ST", "postcode": "61944"}}},
{"geometry": {"type": "Point", "coordinates": [-87.6949787144, 39.6100842894]}, "type": "Feature", "properties": {"collection_times": [{"days": "Mon-Sat", "time": "3:30pm"}, {"days": "Sun", "time": "Closed"}], "id": "6194400005", "name": "USPS COLLECTION BOX - BLUE BOX", "address": {"city": "PARIS", "state": "IL", "street": "207 S MAIN ST", "postcode": "61944"}}},
{"geometry": {"type": "Point", "coordinates": [-87.6973781674, 39.6033304797]}, "type": "Feature", "properties": {"collection_times": [{"days": "Mon-Sat", "time": "3:30pm"}, {"days": "Sun", "time": "Closed"}], "id": "6194400011", "name": "USPS COLLECTION BOX - BLUE BOX", "address": {"city": "PARIS", "state": "IL", "street": "302 W JASPER ST", "postcode": "61944"}}},
{"geometry": {"type": "Point", "coordinates": [-87.6863225007, 39.6937670798]}, "type": "Feature", "properties": {"collection_times": [{"days": "Mon-Sat", "time": "3:30pm"}, {"days": "Sun", "time": "Closed"}], "id": "6194400014", "name": "USPS COLLECTION BOX - BLUE BOX", "address": {"city": "PARIS", "state": "IL", "street": "15150 US HIGHWAY 150", "postcode": "61944"}}},
{"geometry": {"type": "Point", "coordinates": [-87.6892284484, 39.6036164043]}, "type": "Feature", "properties": {"collection_times": [{"days": "Mon-Sat", "time": "3:30pm"}, {"days": "Sun", "time": "Closed"}], "id": "6194400015", "name": "USPS COLLECTION BOX - BLUE BOX", "address": {"city": "PARIS", "state": "IL", "street": "520 E JASPER ST", "postcode": "61944"}}},
{"geometry": {"type": "Point", "coordinates": [-87.6924840613, 39.6369600578]}, "type": "Feature", "properties": {"collection_times": [{"days": "Mon-Sat", "time": "12:30pm"}, {"days": "Sun", "time": "Closed"}], "id": "6194400026", "name": "USPS COLLECTION BOX - BLUE BOX", "address": {"city": "PARIS", "state": "IL", "street": "1210 N MAIN ST", "postcode": "61944"}}},
{"geometry": {"type": "Point", "coordinates": [-87.6795030998, 39.6073601202]}, "type": "Feature", "properties": {"collection_times": [{"days": "Mon-Sat", "time": "3:30pm"}, {"days": "Sun", "time": "Closed"}], "id": "6194400027", "name": "USPS COLLECTION BOX - BLUE BOX", "address": {"city": "PARIS", "state": "IL", "street": "721 E COURT ST", "postcode": "61944"}}},
{"geometry": {"type": "Point", "coordinates": [-87.6939878953, 39.6123290258]}, "type": "Feature", "properties": {"collection_times": [{"days": "Mon-Sat", "time": "4:45pm"}, {"days": "Sun", "time": "Closed"}], "id": "6194400029", "name": "USPS COLLECTION BOX - PO LOBBY", "address": {"city": "PARIS", "state": "IL", "street": "139 E WOOD ST", "postcode": "61944"}}},
{"geometry": {"type": "Point", "coordinates": [-87.6953703818, 39.6111836498]}, "type": "Feature", "properties": {"collection_times": [{"days": "Mon-Sat", "time": "3:30pm"}, {"days": "Sun", "time": "Closed"}], "id": "6194400033", "name": "USPS COLLECTION BOX - BLUE BOX", "address": {"city": "PARIS", "state": "IL", "street": "128 W COURT ST", "postcode": "61944"}}},
{"geometry": {"type": "Point", "coordinates": [-87.8600231008, 39.645163684]}, "type": "Feature", "properties": {"collection_times": [{"days": "Mon-Fri", "time": "2:45pm"}, {"days": "Sat", "time": "11:00am"}, {"days": "Sun", "time": "Closed"}], "id": "6194900000", "name": "USPS COLLECTION BOX - BLUE BOX", "address": {"city": "REDMON", "state": "IL", "street": "402 OAK ST", "postcode": "61949"}}},
{"geometry": {"type": "Point", "coordinates": [-87.8600231008, 39.645163684]}, "type": "Feature", "properties": {"collection_times": [{"days": "Mon-Fri", "time": "2:45pm"}, {"days": "Sat", "time": "10:45am"}, {"days": "Sun", "time": "Closed"}], "id": "6194900001", "name": "USPS COLLECTION BOX - PO LOBBY", "address": {"city": "REDMON", "state": "IL", "street": "402 OAK ST", "postcode": "61949"}}},
{"geometry": {"type": "Point", "coordinates": [-88.6054357372, 39.5992571886]}, "type": "Feature", "properties": {"collection_times": [{"days": "Mon-Fri", "time": "4:15pm"}, {"days": "Sat", "time": "11:45am"}, {"days": "Sun", "time": "Closed"}], "id": "6195100000", "name": "USPS COLLECTION BOX - BLUE BOX", "address": {"city": "SULLIVAN", "state": "IL", "street": "16 S MADISON ST", "postcode": "61951"}}},
{"geometry": {"type": "Point", "coordinates": [-88.6073963226, 39.5992918656]}, "type": "Feature", "properties": {"collection_times": [{"days": "Mon-Fri", "time": "2:15pm"}, {"days": "Sat", "time": "1:30pm"}, {"days": "Sun", "time": "Closed"}], "id": "6195100001", "name": "USPS COLLECTION BOX - BLUE BOX", "address": {"city": "SULLIVAN", "state": "IL", "street": "10 S MAIN ST", "postcode": "61951"}}},
{"geometry": {"type": "Point", "coordinates": [-88.6093791896, 39.5956913965]}, "type": "Feature", "properties": {"collection_times": [{"days": "Mon-Fri", "time": "2:00pm"}, {"days": "Sat", "time": "1:15pm"}, {"days": "Sun", "time": "Closed"}], "id": "6195100003", "name": "USPS COLLECTION BOX - BLUE BOX", "address": {"city": "SULLIVAN", "state": "IL", "street": "431 S HAMILTON ST", "postcode": "61951"}}},
{"geometry": {"type": "Point", "coordinates": [-88.6054357372, 39.5992571886]}, "type": "Feature", "properties": {"collection_times": [{"days": "Mon-Fri", "time": "4:15pm"}, {"days": "Sat", "time": "11:45am"}, {"days": "Sun", "time": "Closed"}], "id": "6195100007", "name": "USPS COLLECTION BOX - BLUE BOX", "address": {"city": "SULLIVAN", "state": "IL", "street": "16 S MADISON ST", "postcode": "61951"}}},
{"geometry": {"type": "Point", "coordinates": [-88.6054357372, 39.5992571886]}, "type": "Feature", "properties": {"collection_times": [{"days": "Mon-Fri", "time": "4:15pm"}, {"days": "Sat", "time": "11:45am"}, {"days": "Sun", "time": "Closed"}], "id": "6195100008", "name": "USPS COLLECTION BOX - PO LOBBY", "address": {"city": "SULLIVAN", "state": "IL", "street": "16 S MADISON ST", "postcode": "61951"}}},
{"geometry": {"type": "Point", "coordinates": [-88.2861196087, 39.7998459355]}, "type": "Feature", "properties": {"collection_times": [{"days": "Mon-Fri", "time": "4:15pm"}, {"days": "Sat", "time": "10:45am"}, {"days": "Sun", "time": "Closed"}], "id": "6195300000", "name": "USPS COLLECTION BOX - BLUE BOX", "address": {"city": "TUSCOLA", "state": "IL", "street": "200 N CENTER ST", "postcode": "61953"}}},
{"geometry": {"type": "Point", "coordinates": [-88.2843356239, 39.7961143591]}, "type": "Feature", "properties": {"collection_times": [{"days": "Mon-Sat", "time": "2:30pm"}, {"days": "Sun", "time": "Closed"}], "id": "6195300005", "name": "USPS COLLECTION BOX - BLUE BOX", "address": {"city": "TUSCOLA", "state": "IL", "street": "401 S COURT ST", "postcode": "61953"}}},
{"geometry": {"type": "Point", "coordinates": [-88.2877653304, 39.7932990179]}, "type": "Feature", "properties": {"collection_times": [{"days": "Mon-Sat", "time": "2:30pm"}, {"days": "Sun", "time": "Closed"}], "id": "6195300008", "name": "USPS COLLECTION BOX - BLUE BOX", "address": {"city": "TUSCOLA", "state": "IL", "street": "600 S MAIN ST", "postcode": "61953"}}},
{"geometry": {"type": "Point", "coordinates": [-88.2803185122, 39.791577284]}, "type": "Feature", "properties": {"collection_times": [{"days": "Mon-Sat", "time": "12:00pm"}, {"days": "Sun", "time": "Closed"}], "id": "6195300009", "name": "USPS COLLECTION BOX - BLUE BOX", "address": {"city": "TUSCOLA", "state": "IL", "street": "607 E SOUTHLINE RD", "postcode": "61953"}}},
{"geometry": {"type": "Point", "coordinates": [-88.2873549994, 39.799903489]}, "type": "Feature", "properties": {"collection_times": [{"days": "Mon-Fri", "time": "4:15pm"}, {"days": "Sat", "time": "10:45am"}, {"days": "Sun", "time": "Closed"}], "id": "6195300017", "name": "USPS COLLECTION BOX - PO LOBBY", "address": {"city": "TUSCOLA", "state": "IL", "street": "120 E SALE ST", "postcode": "61953"}}},
{"geometry": {"type": "Point", "coordinates": [-88.2835479234, 39.7961827881]}, "type": "Feature", "properties": {"collection_times": [{"days": "Mon-Sat", "time": "12:00pm"}, {"days": "Sun", "time": "Closed"}], "id": "6195300024", "name": "USPS COLLECTION BOX - BLUE BOX", "address": {"city": "TUSCOLA", "state": "IL", "street": "D400 TUSCOLA BLVD", "postcode": "61953"}}},
{"geometry": {"type": "Point", "coordinates": [-88.1615713016, 39.8631753994]}, "type": "Feature", "properties": {"collection_times": [{"days": "Mon-Fri", "time": "3:15pm"}, {"days": "Sat", "time": "10:45am"}, {"days": "Sun", "time": "Closed"}], "id": "6195600000", "name": "USPS COLLECTION BOX - BLUE BOX", "address": {"city": "VILLA GROVE", "state": "IL", "street": "110 N MAIN ST", "postcode": "61956"}}},
{"geometry": {"type": "Point", "coordinates": [-88.1616170513, 39.8640726877]}, "type": "Feature", "properties": {"collection_times": [{"days": "Mon-Fri", "time": "3:15pm"}, {"days": "Sat", "time": "10:45am"}, {"days": "Sun", "time": "Closed"}], "id": "6195600003", "name": "USPS COLLECTION BOX - PO LOBBY", "address": {"city": "VILLA GROVE", "state": "IL", "street": "110 N MAIN ST", "postcode": "61956"}}},
{"geometry": {"type": "Point", "coordinates": [-88.594953169, 39.4378994899]}, "type": "Feature", "properties": {"collection_times": [{"days": "Mon-Fri", "time": "2:15pm"}, {"days": "Sat", "time": "9:15am"}, {"days": "Sun", "time": "Closed"}], "id": "6195700001", "name": "USPS COLLECTION BOX - BLUE BOX", "address": {"city": "WINDSOR", "state": "IL", "street": "1105 MAINE ST", "postcode": "61957"}}},
{"geometry": {"type": "Point", "coordinates": [-88.594953169, 39.4378994899]}, "type": "Feature", "properties": {"collection_times": [{"days": "Mon-Fri", "time": "2:15pm"}, {"days": "Sat", "time": "9:15am"}, {"days": "Sun", "time": "Closed"}], "id": "6195700002", "name": "USPS COLLECTION BOX - PO LOBBY", "address": {"city": "WINDSOR", "state": "IL", "street": "1105 MAINE ST", "postcode": "61957"}}}
]}
