{"type": "FeatureCollection", "features": [
{"geometry": {"type": "Point", "coordinates": [-89.7397374117, 38.8849308546]}, "type": "Feature", "properties": {"collection_times": [{"days": "Mon-Fri", "time": "3:00pm"}, {"days": "Sat", "time": "9:15am"}, {"days": "Sun", "time": "Closed"}], "id": "6200100006", "name": "USPS COLLECTION BOX - PO LOBBY", "address": {"city": "ALHAMBRA", "state": "IL", "street": "506 E MAIN ST", "postcode": "62001"}}},
{"geometry": {"type": "Point", "coordinates": [-89.7397374117, 38.8849308546]}, "type": "Feature", "properties": {"collection_times": [{"days": "Mon-Fri", "time": "3:00pm"}, {"days": "Sat", "time": "9:15am"}, {"days": "Sun", "time": "Closed"}], "id": "6200100007", "name": "USPS COLLECTION BOX - BLUE BOX", "address": {"city": "ALHAMBRA", "state": "IL", "street": "506 E MAIN ST", "postcode": "62001"}}},
{"geometry": {"type": "Point", "coordinates": [-90.1867730056, 38.891130729]}, "type": "Feature", "properties": {"collection_times": [{"days": "Mon-Fri", "time": "4:00pm"}, {"days": "Sat", "time": "1:15pm"}, {"days": "Sun", "time": "Closed"}], "id": "6200200003", "name": "USPS COLLECTION BOX - BLUE BOX", "address": {"city": "ALTON", "state": "IL", "street": "101 E 3RD ST", "postcode": "62002"}}},
{"geometry": {"type": "Point", "coordinates": [-90.1328744794, 38.8940027345]}, "type": "Feature", "properties": {"collection_times": [{"days": "Mon-Fri", "time": "4:15pm"}, {"days": "Sat", "time": "12:30pm"}, {"days": "Sun", "time": "Closed"}], "id": "6200200005", "name": "USPS COLLECTION BOX - BLUE BOX", "address": {"city": "ALTON", "state": "IL", "street": "1114 MILTON RD", "postcode": "62002"}}},
{"geometry": {"type": "Point", "coordinates": [-90.1573663054, 38.9120610689]}, "type": "Feature", "properties": {"collection_times": [{"days": "Mon-Fri", "time": "5:00pm"}, {"days": "Sat", "time": "12:00pm"}, {"days": "Sun", "time": "Closed"}], "id": "6200200008", "name": "USPS COLLECTION BOX - BLUE BOX", "address": {"city": "ALTON", "state": "IL", "street": "1624 MAIN ST", "postcode": "62002"}}},
{"geometry": {"type": "Point", "coordinates": [-90.1801181403, 38.9066282682]}, "type": "Feature", "properties": {"collection_times": [{"days": "Mon-Fri", "time": "4:15pm"}, {"days": "Sat", "time": "12:00pm"}, {"days": "Sun", "time": "Closed"}], "id": "6200200013", "name": "USPS COLLECTION BOX - BLUE BOX", "address": {"city": "ALTON", "state": "IL", "street": "2712 GODFREY ST", "postcode": "62002"}}},
{"geometry": {"type": "Point", "coordinates": [-90.1396226272, 38.9135785583]}, "type": "Feature", "properties": {"collection_times": [{"days": "Mon-Sat", "time": "12:15pm"}, {"days": "Sun", "time": "Closed"}], "id": "6200200014", "name": "USPS COLLECTION BOX - BLUE BOX", "address": {"city": "ALTON", "state": "IL", "street": "2811 HOMER M ADAMS PKWY", "postcode": "62002"}}},
{"geometry": {"type": "Point", "coordinates": [-90.1542522807, 38.9343619644]}, "type": "Feature", "properties": {"collection_times": [{"days": "Mon-Sat", "time": "12:15pm"}, {"days": "Sun", "time": "Closed"}], "id": "6200200021", "name": "USPS COLLECTION BOX - BLUE BOX", "address": {"city": "ALTON", "state": "IL", "street": "4105 HUMBERT RD", "postcode": "62002"}}},
{"geometry": {"type": "Point", "coordinates": [-90.1601505141, 38.9008830427]}, "type": "Feature", "properties": {"collection_times": [{"days": "Mon-Fri", "time": "4:15pm"}, {"days": "Sat", "time": "1:00pm"}, {"days": "Sun", "time": "Closed"}], "id": "6200200029", "name": "USPS COLLECTION BOX - BLUE BOX", "address": {"city": "ALTON", "state": "IL", "street": "1 MEMORIAL DR", "postcode": "62002"}}},
{"geometry": {"type": "Point", "coordinates": [-90.1879003655, 38.9291427494]}, "type": "Feature", "properties": {"collection_times": [{"days": "Mon-Fri", "time": "4:30pm"}, {"days": "Sat", "time": "12:00pm"}, {"days": "Sun", "time": "Closed"}], "id": "6200200030", "name": "USPS COLLECTION BOX - BLUE BOX", "address": {"city": "ALTON", "state": "IL", "street": "4415 MARTIN LUTHER KING DR", "postcode": "62002"}}},
{"geometry": {"type": "Point", "coordinates": [-90.1812450383, 38.8898566822]}, "type": "Feature", "properties": {"collection_times": [{"days": "Mon-Sat", "time": "1:15pm"}, {"days": "Sun", "time": "Closed"}], "id": "6200200034", "name": "USPS COLLECTION BOX - BLUE BOX", "address": {"city": "ALTON", "state": "IL", "street": "322 E BROADWAY", "postcode": "62002"}}},
{"geometry": {"type": "Point", "coordinates": [-90.1731476842, 38.9084173083]}, "type": "Feature", "properties": {"collection_times": [{"days": "Mon-Fri", "time": "4:15pm"}, {"days": "Sat", "time": "1:15pm"}, {"days": "Sun", "time": "Closed"}], "id": "6200200054", "name": "USPS COLLECTION BOX - BLUE BOX", "address": {"city": "ALTON", "state": "IL", "street": "1 SAINT ANTHONYS WAY", "postcode": "62002"}}},
{"geometry": {"type": "Point", "coordinates": [-90.1706362623, 38.8909331748]}, "type": "Feature", "properties": {"collection_times": [{"days": "Mon-Sat", "time": "1:15pm"}, {"days": "Sun", "time": "Closed"}], "id": "6200200055", "name": "USPS COLLECTION BOX - BLUE BOX", "address": {"city": "ALTON", "state": "IL", "street": "915 E 5TH ST", "postcode": "62002"}}},
{"geometry": {"type": "Point", "coordinates": [-90.1921826769, 38.9210962625]}, "type": "Feature", "properties": {"collection_times": [{"days": "Mon-Fri", "time": "3:45pm"}, {"days": "Sat", "time": "1:15pm"}, {"days": "Sun", "time": "Closed"}], "id": "6200200058", "name": "USPS COLLECTION BOX - BLUE BOX", "address": {"city": "ALTON", "state": "IL", "street": "200 PIASA ST", "postcode": "62002"}}},
{"geometry": {"type": "Point", "coordinates": [-90.1780429729, 38.9248923093]}, "type": "Feature", "properties": {"collection_times": [{"days": "Mon-Fri", "time": "5:15pm"}, {"days": "Sat", "time": "12:15pm"}, {"days": "Sun", "time": "Closed"}], "id": "6200200061", "name": "USPS COLLECTION BOX - PO LOBBY", "address": {"city": "ALTON", "state": "IL", "street": "117 ALTON SQ", "postcode": "62002"}}},
{"geometry": {"type": "Point", "coordinates": [-90.1764540545, 38.8975660258]}, "type": "Feature", "properties": {"collection_times": [{"days": "Mon-Sat", "time": "1:15pm"}, {"days": "Sun", "time": "Closed"}], "id": "6200200063", "name": "USPS COLLECTION BOX - BLUE BOX", "address": {"city": "ALTON", "state": "IL", "street": "1114 HENRY ST", "postcode": "62002"}}},
{"geometry": {"type": "Point", "coordinates": [-90.1873337281, 38.8933333986]}, "type": "Feature", "properties": {"collection_times": [{"days": "Mon-Fri", "time": "4:00pm"}, {"days": "Sat", "time": "1:30pm"}, {"days": "Sun", "time": "Closed"}], "id": "6200200074", "name": "USPS COLLECTION BOX - BLUE BOX", "address": {"city": "ALTON", "state": "IL", "street": "501 BELLE ST", "postcode": "62002"}}},
{"geometry": {"type": "Point", "coordinates": [-90.1770763941, 38.890268635]}, "type": "Feature", "properties": {"collection_times": [{"days": "Mon-Sat", "time": "1:15pm"}, {"days": "Sun", "time": "Closed"}], "id": "6200200078", "name": "USPS COLLECTION BOX - BLUE BOX", "address": {"city": "ALTON", "state": "IL", "street": "601 E 3RD ST", "postcode": "62002"}}},
{"geometry": {"type": "Point", "coordinates": [-90.1333967141, 38.9042781349]}, "type": "Feature", "properties": {"collection_times": [{"days": "Mon-Fri", "time": "4:15pm"}, {"days": "Sat", "time": "12:30pm"}, {"days": "Sun", "time": "Closed"}], "id": "6200200082", "name": "USPS COLLECTION BOX - BLUE BOX", "address": {"city": "ALTON", "state": "IL", "street": "3517 COLLEGE AVE", "postcode": "62002"}}},
{"geometry": {"type": "Point", "coordinates": [-90.1434187425, 38.9153612775]}, "type": "Feature", "properties": {"collection_times": [{"days": "Mon-Sat", "time": "12:15pm"}, {"days": "Sun", "time": "Closed"}], "id": "6200200083", "name": "USPS COLLECTION BOX - BLUE BOX", "address": {"city": "ALTON", "state": "IL", "street": "2850 HOMER M ADAMS PKWY", "postcode": "62002"}}},
{"geometry": {"type": "Point", "coordinates": [-90.1836701042, 38.9235024011]}, "type": "Feature", "properties": {"collection_times": [{"days": "Mon-Fri", "time": "4:30pm"}, {"days": "Sat", "time": "12:00pm"}, {"days": "Sun", "time": "Closed"}], "id": "6200200084", "name": "USPS COLLECTION BOX - BLUE BOX", "address": {"city": "ALTON", "state": "IL", "street": "112 HOMER M ADAMS PKWY", "postcode": "62002"}}},
{"geometry": {"type": "Point", "coordinates": [-90.1725080232, 38.9239964593]}, "type": "Feature", "properties": {"collection_times": [{"days": "Mon-Sat", "time": "12:00pm"}, {"days": "Sun", "time": "Closed"}], "id": "6200200086", "name": "USPS COLLECTION BOX - BLUE BOX", "address": {"city": "ALTON", "state": "IL", "street": "231 E CENTER DR", "postcode": "62002"}}},
{"geometry": {"type": "Point", "coordinates": [-90.1573663054, 38.9120610689]}, "type": "Feature", "properties": {"collection_times": [{"days": "Mon-Fri", "time": "5:00pm"}, {"days": "Sat", "time": "12:00pm"}, {"days": "Sun", "time": "Closed"}], "id": "6200200087", "name": "USPS COLLECTION BOX - PO LOBBY", "address": {"city": "ALTON", "state": "IL", "street": "1624 MAIN ST", "postcode": "62002"}}},
{"geometry": {"type": "Point", "coordinates": [-90.1573663054, 38.9120610689]}, "type": "Feature", "properties": {"collection_times": [{"days": "Mon-Fri", "time": "5:00pm"}, {"days": "Sat", "time": "12:00pm"}, {"days": "Sun", "time": "Closed"}], "id": "6200200089", "name": "USPS COLLECTION BOX - BLUE BOX", "address": {"city": "ALTON", "state": "IL", "street": "1624 MAIN ST", "postcode": "62002"}}},
{"geometry": {"type": "Point", "coordinates": [-90.1870036826, 38.8955585444]}, "type": "Feature", "properties": {"collection_times": [{"days": "Mon-Fri", "time": "5:30pm"}, {"days": "Sat", "time": "1:30pm"}, {"days": "Sun", "time": "Closed"}], "id": "6200200092", "name": "USPS COLLECTION BOX - PO LOBBY", "address": {"city": "ALTON", "state": "IL", "street": "727 BELLE ST", "postcode": "62002"}}},
{"geometry": {"type": "Point", "coordinates": [-90.1573663054, 38.9120610689]}, "type": "Feature", "properties": {"collection_times": [{"days": "Mon-Fri", "time": "5:00pm"}, {"days": "Sat", "time": "12:00pm"}, {"days": "Sun", "time": "Closed"}], "id": "6200200094", "name": "USPS COLLECTION BOX - PO LOBBY", "address": {"city": "ALTON", "state": "IL", "street": "1624 MAIN ST", "postcode": "62002"}}},
{"geometry": {"type": "Point", "coordinates": [-90.1780429729, 38.9248923093]}, "type": "Feature", "properties": {"collection_times": [{"days": "Mon-Fri", "time": "5:15pm"}, {"days": "Sat", "time": "12:15pm"}, {"days": "Sun", "time": "Closed"}], "id": "6200200095", "name": "USPS COLLECTION BOX - PO LOBBY", "address": {"city": "ALTON", "state": "IL", "street": "117 ALTON SQ", "postcode": "62002"}}},
{"geometry": {"type": "Point", "coordinates": [-90.1573663054, 38.9120610689]}, "type": "Feature", "properties": {"collection_times": [{"days": "Mon-Fri", "time": "5:00pm"}, {"days": "Sat", "time": "12:00pm"}, {"days": "Sun", "time": "Closed"}], "id": "6200200101", "name": "USPS COLLECTION BOX - BLUE BOX", "address": {"city": "ALTON", "state": "IL", "street": "1624 MAIN ST", "postcode": "62002"}}},
{"geometry": {"type": "Point", "coordinates": [-90.1870036826, 38.8955585444]}, "type": "Feature", "properties": {"collection_times": [{"days": "Mon-Fri", "time": "5:30pm"}, {"days": "Sat", "time": "1:30pm"}, {"days": "Sun", "time": "Closed"}], "id": "6200200102", "name": "USPS COLLECTION BOX - BLUE BOX", "address": {"city": "ALTON", "state": "IL", "street": "727 BELLE ST", "postcode": "62002"}}},
{"geometry": {"type": "Point", "coordinates": [-90.1875735308, 38.8911434793]}, "type": "Feature", "properties": {"collection_times": [{"days": "Mon-Fri", "time": "4:00pm"}, {"days": "Sat", "time": "1:15pm"}, {"days": "Sun", "time": "Closed"}], "id": "6200200103", "name": "USPS COLLECTION BOX - BLUE BOX", "address": {"city": "ALTON", "state": "IL", "street": "200 W 3RD ST", "postcode": "62002"}}},
{"geometry": {"type": "Point", "coordinates": [-90.637395479, 39.0368294589]}, "type": "Feature", "properties": {"collection_times": [{"days": "Mon-Fri", "time": "1:45pm"}, {"days": "Sat", "time": "11:15am"}, {"days": "Sun", "time": "Closed"}], "id": "6200600001", "name": "USPS COLLECTION BOX - BLUE BOX", "address": {"city": "BATCHTOWN", "state": "IL", "street": "23 MAIN ST", "postcode": "62006"}}},
{"geometry": {"type": "Point", "coordinates": [-90.637395479, 39.0368294589]}, "type": "Feature", "properties": {"collection_times": [{"days": "Mon-Fri", "time": "1:30pm"}, {"days": "Sat", "time": "11:15am"}, {"days": "Sun", "time": "Closed"}], "id": "6200600002", "name": "USPS COLLECTION BOX - PO LOBBY", "address": {"city": "BATCHTOWN", "state": "IL", "street": "23 MAIN ST", "postcode": "62006"}}},
{"geometry": {"type": "Point", "coordinates": [-89.8034699524, 39.0934911186]}, "type": "Feature", "properties": {"collection_times": [{"days": "Mon-Fri", "time": "3:00pm"}, {"days": "Sat", "time": "9:30am"}, {"days": "Sun", "time": "Closed"}], "id": "6200900001", "name": "USPS COLLECTION BOX - BLUE BOX", "address": {"city": "BENLD", "state": "IL", "street": "106 E CENTRAL AVE STE 2", "postcode": "62009"}}},
{"geometry": {"type": "Point", "coordinates": [-89.805450918, 39.0930433943]}, "type": "Feature", "properties": {"collection_times": [{"days": "Mon-Sat", "time": "11:45am"}, {"days": "Sun", "time": "Closed"}], "id": "6200900018", "name": "USPS COLLECTION BOX - PO LOBBY", "address": {"city": "BENLD", "state": "IL", "street": "106 E CENTRAL AVE STE 2", "postcode": "62009"}}},
{"geometry": {"type": "Point", "coordinates": [-90.0414074591, 38.9108400083]}, "type": "Feature", "properties": {"collection_times": [{"days": "Mon-Fri", "time": "5:00pm"}, {"days": "Sat", "time": "4:00pm"}, {"days": "Sun", "time": "Closed"}], "id": "6201000001", "name": "USPS COLLECTION BOX - PO LOBBY", "address": {"city": "BETHALTO", "state": "IL", "street": "115 W CENTRAL ST", "postcode": "62010"}}},
{"geometry": {"type": "Point", "coordinates": [-90.058309125, 38.902199565]}, "type": "Feature", "properties": {"collection_times": [{"days": "Mon-Sat", "time": "3:15pm"}, {"days": "Sun", "time": "Closed"}], "id": "6201000010", "name": "USPS COLLECTION BOX - BLUE BOX", "address": {"city": "BETHALTO", "state": "IL", "street": "68 PLAZA DR", "postcode": "62010"}}},
{"geometry": {"type": "Point", "coordinates": [-90.0435971161, 38.9009930579]}, "type": "Feature", "properties": {"collection_times": [{"days": "Mon-Sat", "time": "3:15pm"}, {"days": "Sun", "time": "Closed"}], "id": "6201000021", "name": "USPS COLLECTION BOX - BLUE BOX", "address": {"city": "BETHALTO", "state": "IL", "street": "208 W BETHALTO BLVD", "postcode": "62010"}}},
{"geometry": {"type": "Point", "coordinates": [-90.0404942148, 38.8989122331]}, "type": "Feature", "properties": {"collection_times": [{"days": "Mon-Sat", "time": "3:15pm"}, {"days": "Sun", "time": "Closed"}], "id": "6201000023", "name": "USPS COLLECTION BOX - BLUE BOX", "address": {"city": "BETHALTO", "state": "IL", "street": "808 S PRAIRIE ST", "postcode": "62010"}}},
{"geometry": {"type": "Point", "coordinates": [-90.0414074591, 38.9108400083]}, "type": "Feature", "properties": {"collection_times": [{"days": "Mon-Fri", "time": "5:00pm"}, {"days": "Sat", "time": "3:30pm"}, {"days": "Sun", "time": "Closed"}], "id": "6201000025", "name": "USPS COLLECTION BOX - BLUE BOX", "address": {"city": "BETHALTO", "state": "IL", "street": "115 W CENTRAL ST", "postcode": "62010"}}},
{"geometry": {"type": "Point", "coordinates": [-90.0380172539, 38.9007361636]}, "type": "Feature", "properties": {"collection_times": [{"days": "Mon-Sat", "time": "3:15pm"}, {"days": "Sun", "time": "Closed"}], "id": "6201000026", "name": "USPS COLLECTION BOX - BLUE BOX", "address": {"city": "BETHALTO", "state": "IL", "street": "135 E BETHALTO DR", "postcode": "62010"}}},
{"geometry": {"type": "Point", "coordinates": [-90.0414074591, 38.9108400083]}, "type": "Feature", "properties": {"collection_times": [{"days": "Mon-Fri", "time": "5:00pm"}, {"days": "Sat", "time": "3:30pm"}, {"days": "Sun", "time": "Closed"}], "id": "6201000027", "name": "USPS COLLECTION BOX - BLUE BOX", "address": {"city": "BETHALTO", "state": "IL", "street": "115 W CENTRAL ST", "postcode": "62010"}}},
{"geometry": {"type": "Point", "coordinates": [-90.1412431885, 39.0422260811]}, "type": "Feature", "properties": {"collection_times": [{"days": "Mon-Fri", "time": "4:30pm"}, {"days": "Sat", "time": "3:30pm"}, {"days": "Sun", "time": "Closed"}], "id": "6201200002", "name": "USPS COLLECTION BOX - BLUE BOX", "address": {"city": "BRIGHTON", "state": "IL", "street": "410 N MAIN ST", "postcode": "62012"}}},
{"geometry": {"type": "Point", "coordinates": [-90.1412431885, 39.0422260811]}, "type": "Feature", "properties": {"collection_times": [{"days": "Mon-Fri", "time": "4:30pm"}, {"days": "Sat", "time": "3:30pm"}, {"days": "Sun", "time": "Closed"}], "id": "6201200003", "name": "USPS COLLECTION BOX - PO LOBBY", "address": {"city": "BRIGHTON", "state": "IL", "street": "410 N MAIN ST", "postcode": "62012"}}},
{"geometry": {"type": "Point", "coordinates": [-90.5882554764, 38.9495275417]}, "type": "Feature", "properties": {"collection_times": [{"days": "Mon-Fri", "time": "3:45pm"}, {"days": "Sat", "time": "9:30am"}, {"days": "Sun", "time": "Closed"}], "id": "6201300001", "name": "USPS COLLECTION BOX - BLUE BOX", "address": {"city": "BRUSSELS", "state": "IL", "street": "107 MAIN ST", "postcode": "62013"}}},
{"geometry": {"type": "Point", "coordinates": [-90.5882554764, 38.9495275417]}, "type": "Feature", "properties": {"collection_times": [{"days": "Mon-Fri", "time": "3:30pm"}, {"days": "Sat", "time": "9:15am"}, {"days": "Sun", "time": "Closed"}], "id": "6201300002", "name": "USPS COLLECTION BOX - PO LOBBY", "address": {"city": "BRUSSELS", "state": "IL", "street": "107 MAIN ST", "postcode": "62013"}}},
{"geometry": {"type": "Point", "coordinates": [-89.9514777826, 39.0439173491]}, "type": "Feature", "properties": {"collection_times": [{"days": "Mon-Fri", "time": "4:30pm"}, {"days": "Sat", "time": "8:00am"}, {"days": "Sun", "time": "Closed"}], "id": "6201400001", "name": "USPS COLLECTION BOX - BLUE BOX", "address": {"city": "BUNKER HILL", "state": "IL", "street": "105 E FAYETTE ST", "postcode": "62014"}}},
{"geometry": {"type": "Point", "coordinates": [-89.9514777826, 39.0439173491]}, "type": "Feature", "properties": {"collection_times": [{"days": "Mon-Fri", "time": "4:30pm"}, {"days": "Sat", "time": "11:00am"}, {"days": "Sun", "time": "Closed"}], "id": "6201400003", "name": "USPS COLLECTION BOX - PO LOBBY", "address": {"city": "BUNKER HILL", "state": "IL", "street": "105 E FAYETTE ST", "postcode": "62014"}}},
{"geometry": {"type": "Point", "coordinates": [-89.5342629852, 39.2007746147]}, "type": "Feature", "properties": {"collection_times": [{"days": "Mon-Fri", "time": "3:45pm"}, {"days": "Sat", "time": "11:45am"}, {"days": "Sun", "time": "Closed"}], "id": "6201500001", "name": "USPS COLLECTION BOX - BLUE BOX", "address": {"city": "BUTLER", "state": "IL", "street": "712 WATER ST", "postcode": "62015"}}},
{"geometry": {"type": "Point", "coordinates": [-89.5342629852, 39.2007746147]}, "type": "Feature", "properties": {"collection_times": [{"days": "Mon-Fri", "time": "3:45pm"}, {"days": "Sat", "time": "11:45am"}, {"days": "Sun", "time": "Closed"}], "id": "6201500002", "name": "USPS COLLECTION BOX - PO LOBBY", "address": {"city": "BUTLER", "state": "IL", "street": "712 WATER ST", "postcode": "62015"}}},
{"geometry": {"type": "Point", "coordinates": [-90.406186556, 39.3021891653]}, "type": "Feature", "properties": {"collection_times": [{"days": "Mon-Fri", "time": "4:30pm"}, {"days": "Sat", "time": "3:00pm"}, {"days": "Sun", "time": "Closed"}], "id": "6201600003", "name": "USPS COLLECTION BOX - BLUE BOX", "address": {"city": "CARROLLTON", "state": "IL", "street": "409 N MAIN ST", "postcode": "62016"}}},
{"geometry": {"type": "Point", "coordinates": [-90.406186556, 39.3021891653]}, "type": "Feature", "properties": {"collection_times": [{"days": "Mon-Fri", "time": "4:30pm"}, {"days": "Sat", "time": "3:00pm"}, {"days": "Sun", "time": "Closed"}], "id": "6201600013", "name": "USPS COLLECTION BOX - PO LOBBY", "address": {"city": "CARROLLTON", "state": "IL", "street": "409 N MAIN ST", "postcode": "62016"}}},
{"geometry": {"type": "Point", "coordinates": [-89.3919101108, 39.0902708325]}, "type": "Feature", "properties": {"collection_times": [{"days": "Mon-Fri", "time": "10:45am"}, {"days": "Sat", "time": "8:15am"}, {"days": "Sun", "time": "Closed"}], "id": "6201700005", "name": "USPS COLLECTION BOX - PO LOBBY", "address": {"city": "COFFEEN", "state": "IL", "street": "203 W MAIN ST", "postcode": "62017"}}},
{"geometry": {"type": "Point", "coordinates": [-89.3919101108, 39.0902708325]}, "type": "Feature", "properties": {"collection_times": [{"days": "Mon-Fri", "time": "10:45am"}, {"days": "Sat", "time": "9:00am"}, {"days": "Sun", "time": "Closed"}], "id": "6201700007", "name": "USPS COLLECTION BOX - BLUE BOX", "address": {"city": "COFFEEN", "state": "IL", "street": "203 W MAIN ST", "postcode": "62017"}}},
{"geometry": {"type": "Point", "coordinates": [-90.0694364888, 38.9030111859]}, "type": "Feature", "properties": {"collection_times": [{"days": "Mon-Fri", "time": "4:30pm"}, {"days": "Sat", "time": "3:00pm"}, {"days": "Sun", "time": "Closed"}], "id": "6201800001", "name": "USPS COLLECTION BOX - BLUE BOX", "address": {"city": "COTTAGE HILLS", "state": "IL", "street": "36 W MACARTHUR DR", "postcode": "62018"}}},
{"geometry": {"type": "Point", "coordinates": [-90.0694364888, 38.9030111859]}, "type": "Feature", "properties": {"collection_times": [{"days": "Mon-Fri", "time": "4:30pm"}, {"days": "Sat", "time": "3:00pm"}, {"days": "Sun", "time": "Closed"}], "id": "6201800002", "name": "USPS COLLECTION BOX - BLUE BOX", "address": {"city": "COTTAGE HILLS", "state": "IL", "street": "36 W MACARTHUR DR", "postcode": "62018"}}},
{"geometry": {"type": "Point", "coordinates": [-90.0880837962, 38.9079810333]}, "type": "Feature", "properties": {"collection_times": [{"days": "Mon-Sat", "time": "3:00pm"}, {"days": "Sun", "time": "Closed"}], "id": "6201800004", "name": "USPS COLLECTION BOX - BLUE BOX", "address": {"city": "COTTAGE HILLS", "state": "IL", "street": "13 S STANLEY RD", "postcode": "62018"}}},
{"geometry": {"type": "Point", "coordinates": [-90.0604270733, 38.9036464348]}, "type": "Feature", "properties": {"collection_times": [{"days": "Mon-Sat", "time": "10:00am"}, {"days": "Sun", "time": "Closed"}], "id": "6201800006", "name": "USPS COLLECTION BOX - BLUE BOX", "address": {"city": "COTTAGE HILLS", "state": "IL", "street": "103 ELM ST", "postcode": "62018"}}},
{"geometry": {"type": "Point", "coordinates": [-90.0816067895, 38.9101318865]}, "type": "Feature", "properties": {"collection_times": [{"days": "Mon-Fri", "time": "4:30pm"}, {"days": "Sat", "time": "11:00am"}, {"days": "Sun", "time": "Closed"}], "id": "6201800012", "name": "USPS COLLECTION BOX - PO LOBBY", "address": {"city": "COTTAGE HILLS", "state": "IL", "street": "36 W MACARTHUR DR", "postcode": "62018"}}},
{"geometry": {"type": "Point", "coordinates": [-89.4732654484, 39.0309052358]}, "type": "Feature", "properties": {"collection_times": [{"days": "Mon-Fri", "time": "11:45am"}, {"days": "Sat", "time": "9:30am"}, {"days": "Sun", "time": "Closed"}], "id": "6201900001", "name": "USPS COLLECTION BOX - BLUE BOX", "address": {"city": "DONNELLSON", "state": "IL", "street": "606 WASHINGTON ST", "postcode": "62019"}}},
{"geometry": {"type": "Point", "coordinates": [-89.4732654484, 39.0309052358]}, "type": "Feature", "properties": {"collection_times": [{"days": "Mon-Fri", "time": "11:45am"}, {"days": "Sat", "time": "9:00am"}, {"days": "Sun", "time": "Closed"}], "id": "6201900002", "name": "USPS COLLECTION BOX - PO LOBBY", "address": {"city": "DONNELLSON", "state": "IL", "street": "606 WASHINGTON ST", "postcode": "62019"}}},
{"geometry": {"type": "Point", "coordinates": [-90.0010023127, 38.9736503975]}, "type": "Feature", "properties": {"collection_times": [{"days": "Mon-Fri", "time": "11:45am"}, {"days": "Sat", "time": "9:30am"}, {"days": "Sun", "time": "Closed"}], "id": "6202100001", "name": "USPS COLLECTION BOX - PO LOBBY", "address": {"city": "DORSEY", "state": "IL", "street": "4611 SEILER RD", "postcode": "62021"}}},
{"geometry": {"type": "Point", "coordinates": [-90.0010023127, 38.9736503975]}, "type": "Feature", "properties": {"collection_times": [{"days": "Mon-Fri", "time": "11:45am"}, {"days": "Sat", "time": "9:30am"}, {"days": "Sun", "time": "Closed"}], "id": "6202100002", "name": "USPS COLLECTION BOX - BLUE BOX", "address": {"city": "DORSEY", "state": "IL", "street": "4611 SEILER RD", "postcode": "62021"}}},
{"geometry": {"type": "Point", "coordinates": [-90.342322816, 39.0128498823]}, "type": "Feature", "properties": {"collection_times": [{"days": "Mon-Fri", "time": "11:15am"}, {"days": "Sat", "time": "8:45am"}, {"days": "Sun", "time": "Closed"}], "id": "6202200001", "name": "USPS COLLECTION BOX - BLUE BOX", "address": {"city": "DOW", "state": "IL", "street": "24443 PINE ST", "postcode": "62022"}}},
{"geometry": {"type": "Point", "coordinates": [-90.342322816, 39.0128498823]}, "type": "Feature", "properties": {"collection_times": [{"days": "Mon-Fri", "time": "11:15am"}, {"days": "Sat", "time": "8:45am"}, {"days": "Sun", "time": "Closed"}], "id": "6202200002", "name": "USPS COLLECTION BOX - PO LOBBY", "address": {"city": "DOW", "state": "IL", "street": "24443 PINE ST", "postcode": "62022"}}},
{"geometry": {"type": "Point", "coordinates": [-89.7835393913, 39.1116895466]}, "type": "Feature", "properties": {"collection_times": [{"days": "Mon-Fri", "time": "1:00pm"}, {"days": "Sat", "time": "12:00pm"}, {"days": "Sun", "time": "Closed"}], "id": "6202300001", "name": "USPS COLLECTION BOX - BLUE BOX", "address": {"city": "EAGARVILLE", "state": "IL", "street": "106 S MOUNT OLIVE RD", "postcode": "62023"}}},
{"geometry": {"type": "Point", "coordinates": [-89.7835393913, 39.1116895466]}, "type": "Feature", "properties": {"collection_times": [{"days": "Mon-Fri", "time": "11:45am"}, {"days": "Sat", "time": "12:30pm"}, {"days": "Sun", "time": "Closed"}], "id": "6202300002", "name": "USPS COLLECTION BOX - PO LOBBY", "address": {"city": "EAGARVILLE", "state": "IL", "street": "106 S MOUNT OLIVE RD", "postcode": "62023"}}},
{"geometry": {"type": "Point", "coordinates": [-90.1116013032, 38.8823753711]}, "type": "Feature", "properties": {"collection_times": [{"days": "Mon-Fri", "time": "5:15pm"}, {"days": "Sat", "time": "2:45pm"}, {"days": "Sun", "time": "Closed"}], "id": "6202400002", "name": "USPS COLLECTION BOX - BLUE BOX", "address": {"city": "EAST ALTON", "state": "IL", "street": "200 SMITH AVE", "postcode": "62024"}}},
{"geometry": {"type": "Point", "coordinates": [-90.1116013032, 38.8823753711]}, "type": "Feature", "properties": {"collection_times": [{"days": "Mon-Fri", "time": "5:15pm"}, {"days": "Sat", "time": "2:45pm"}, {"days": "Sun", "time": "Closed"}], "id": "6202400005", "name": "USPS COLLECTION BOX - BLUE BOX", "address": {"city": "EAST ALTON", "state": "IL", "street": "200 SMITH AVE", "postcode": "62024"}}},
{"geometry": {"type": "Point", "coordinates": [-90.0966880794, 38.8806106877]}, "type": "Feature", "properties": {"collection_times": [{"days": "Mon-Sat", "time": "10:00am"}, {"days": "Sun", "time": "Closed"}], "id": "6202400009", "name": "USPS COLLECTION BOX - BLUE BOX", "address": {"city": "EAST ALTON", "state": "IL", "street": "387 KENT ST", "postcode": "62024"}}},
{"geometry": {"type": "Point", "coordinates": [-90.0826822679, 38.8854255973]}, "type": "Feature", "properties": {"collection_times": [{"days": "Mon-Fri", "time": "2:30pm"}, {"days": "Sat", "time": "1:30pm"}, {"days": "Sun", "time": "Closed"}], "id": "6202400011", "name": "USPS COLLECTION BOX - BLUE BOX", "address": {"city": "EAST ALTON", "state": "IL", "street": "49 S 9TH ST", "postcode": "62024"}}},
{"geometry": {"type": "Point", "coordinates": [-90.0969754934, 38.8851307659]}, "type": "Feature", "properties": {"collection_times": [{"days": "Mon-Fri", "time": "3:00pm"}, {"days": "Sat", "time": "12:00pm"}, {"days": "Sun", "time": "Closed"}], "id": "6202400012", "name": "USPS COLLECTION BOX - BLUE BOX", "address": {"city": "EAST ALTON", "state": "IL", "street": "615 BERKSHIRE BLVD", "postcode": "62024"}}},
{"geometry": {"type": "Point", "coordinates": [-90.1005033571, 38.8832131846]}, "type": "Feature", "properties": {"collection_times": [{"days": "Mon-Sat", "time": "9:00am"}, {"days": "Sun", "time": "Closed"}], "id": "6202400013", "name": "USPS COLLECTION BOX - BLUE BOX", "address": {"city": "EAST ALTON", "state": "IL", "street": "617 VALLEY DR", "postcode": "62024"}}},
{"geometry": {"type": "Point", "coordinates": [-90.0700019432, 38.8862238152]}, "type": "Feature", "properties": {"collection_times": [{"days": "Mon-Sat", "time": "12:00pm"}, {"days": "Sun", "time": "Closed"}], "id": "6202400016", "name": "USPS COLLECTION BOX - BLUE BOX", "address": {"city": "EAST ALTON", "state": "IL", "street": "740 E AIRLINE DR", "postcode": "62024"}}},
{"geometry": {"type": "Point", "coordinates": [-90.0572879871, 38.8878131673]}, "type": "Feature", "properties": {"collection_times": [{"days": "Mon-Fri", "time": "4:00pm"}, {"days": "Sat", "time": "11:30am"}, {"days": "Sun", "time": "Closed"}], "id": "6202400021", "name": "USPS COLLECTION BOX - BLUE BOX", "address": {"city": "EAST ALTON", "state": "IL", "street": "2 TERMINAL DR", "postcode": "62024"}}},
{"geometry": {"type": "Point", "coordinates": [-90.1116013032, 38.8823753711]}, "type": "Feature", "properties": {"collection_times": [{"days": "Mon-Fri", "time": "5:30pm"}, {"days": "Sat", "time": "2:45pm"}, {"days": "Sun", "time": "Closed"}], "id": "6202400022", "name": "USPS COLLECTION BOX - PO LOBBY", "address": {"city": "EAST ALTON", "state": "IL", "street": "200 SMITH AVE", "postcode": "62024"}}},
{"geometry": {"type": "Point", "coordinates": [-90.1126213458, 38.8818888186]}, "type": "Feature", "properties": {"collection_times": [{"days": "Mon-Sat", "time": "1:00pm"}, {"days": "Sun", "time": "Closed"}], "id": "6202400025", "name": "USPS COLLECTION BOX - BLUE BOX", "address": {"city": "EAST ALTON", "state": "IL", "street": "310 SMITH AVE", "postcode": "62024"}}},
{"geometry": {"type": "Point", "coordinates": [-89.9547024817, 38.8127360384]}, "type": "Feature", "properties": {"collection_times": [{"days": "Mon-Fri", "time": "5:30pm"}, {"days": "Sat", "time": "2:30pm"}, {"days": "Sun", "time": "Closed"}], "id": "6202500001", "name": "USPS COLLECTION BOX - BLUE BOX", "address": {"city": "EDWARDSVILLE", "state": "IL", "street": "132 N KANSAS ST", "postcode": "62025"}}},
{"geometry": {"type": "Point", "coordinates": [-89.9701010586, 38.7967613605]}, "type": "Feature", "properties": {"collection_times": [{"days": "Mon-Sat", "time": "1:00pm"}, {"days": "Sun", "time": "Closed"}], "id": "6202500003", "name": "USPS COLLECTION BOX - BLUE BOX", "address": {"city": "EDWARDSVILLE", "state": "IL", "street": "1000 UNIVERSITY DR", "postcode": "62025"}}},
{"geometry": {"type": "Point", "coordinates": [-89.9569003982, 38.8124530427]}, "type": "Feature", "properties": {"collection_times": [{"days": "Mon-Sat", "time": "11:10am"}, {"days": "Sun", "time": "Closed"}], "id": "6202500004", "name": "USPS COLLECTION BOX - BLUE BOX", "address": {"city": "EDWARDSVILLE", "state": "IL", "street": "140 N MAIN ST", "postcode": "62025"}}},
{"geometry": {"type": "Point", "coordinates": [-89.9511435367, 38.7953379634]}, "type": "Feature", "properties": {"collection_times": [{"days": "Mon-Fri", "time": "4:30pm"}, {"days": "Sat", "time": "2:00pm"}, {"days": "Sun", "time": "Closed"}], "id": "6202500005", "name": "USPS COLLECTION BOX - BLUE BOX", "address": {"city": "EDWARDSVILLE", "state": "IL", "street": "1500 TROY RD", "postcode": "62025"}}},
{"geometry": {"type": "Point", "coordinates": [-89.9573014426, 38.8127715271]}, "type": "Feature", "properties": {"collection_times": [{"days": "Mon-Sat", "time": "12:00pm"}, {"days": "Sun", "time": "Closed"}], "id": "6202500010", "name": "USPS COLLECTION BOX - BLUE BOX", "address": {"city": "EDWARDSVILLE", "state": "IL", "street": "155 N MAIN ST", "postcode": "62025"}}},
{"geometry": {"type": "Point", "coordinates": [-89.9934884791, 38.7763146301]}, "type": "Feature", "properties": {"collection_times": [{"days": "Mon-Sat", "time": "1:15pm"}, {"days": "Sun", "time": "Closed"}], "id": "6202500012", "name": "USPS COLLECTION BOX - BLUE BOX", "address": {"city": "EDWARDSVILLE", "state": "IL", "street": "200 COUNTRY CLUB VW", "postcode": "62025"}}},
{"geometry": {"type": "Point", "coordinates": [-89.9581736701, 38.8116959934]}, "type": "Feature", "properties": {"collection_times": [{"days": "Mon-Sat", "time": "1:00pm"}, {"days": "Sun", "time": "Closed"}], "id": "6202500013", "name": "USPS COLLECTION BOX - BLUE BOX", "address": {"city": "EDWARDSVILLE", "state": "IL", "street": "220 SAINT LOUIS ST", "postcode": "62025"}}},
{"geometry": {"type": "Point", "coordinates": [-89.945865321, 38.7813269302]}, "type": "Feature", "properties": {"collection_times": [{"days": "Mon-Fri", "time": "4:30pm"}, {"days": "Sat", "time": "2:00pm"}, {"days": "Sun", "time": "Closed"}], "id": "6202500017", "name": "USPS COLLECTION BOX - BLUE BOX", "address": {"city": "EDWARDSVILLE", "state": "IL", "street": "6814 GOSHEN RD", "postcode": "62025"}}},
{"geometry": {"type": "Point", "coordinates": [-89.9844860339, 38.7780174989]}, "type": "Feature", "properties": {"collection_times": [{"days": "Mon-Fri", "time": "4:15pm"}, {"days": "Sat", "time": "1:15pm"}, {"days": "Sun", "time": "Closed"}], "id": "6202500021", "name": "USPS COLLECTION BOX - BLUE BOX", "address": {"city": "EDWARDSVILLE", "state": "IL", "street": "4 CLUB CENTRE CT", "postcode": "62025"}}},
{"geometry": {"type": "Point", "coordinates": [-89.9595903685, 38.8148678366]}, "type": "Feature", "properties": {"collection_times": [{"days": "Mon-Sat", "time": "1:30pm"}, {"days": "Sun", "time": "Closed"}], "id": "6202500024", "name": "USPS COLLECTION BOX - BLUE BOX", "address": {"city": "EDWARDSVILLE", "state": "IL", "street": "400 N MAIN ST", "postcode": "62025"}}},
{"geometry": {"type": "Point", "coordinates": [-89.9540130726, 38.7886776936]}, "type": "Feature", "properties": {"collection_times": [{"days": "Mon-Sat", "time": "2:00pm"}, {"days": "Sun", "time": "Closed"}], "id": "6202500025", "name": "USPS COLLECTION BOX - BLUE BOX", "address": {"city": "EDWARDSVILLE", "state": "IL", "street": "6671 EDWARDSVILLE CROSSING DR", "postcode": "62025"}}},
{"geometry": {"type": "Point", "coordinates": [-89.9461268041, 38.9306463849]}, "type": "Feature", "properties": {"collection_times": [{"days": "Mon-Sat", "time": "11:00am"}, {"days": "Sun", "time": "Closed"}], "id": "6202500026", "name": "USPS COLLECTION BOX - BLUE BOX", "address": {"city": "EDWARDSVILLE", "state": "IL", "street": "7301 SAINT JAMES DR", "postcode": "62025"}}},
{"geometry": {"type": "Point", "coordinates": [-89.9587499844, 38.8109663347]}, "type": "Feature", "properties": {"collection_times": [{"days": "Mon-Sat", "time": "2:00pm"}, {"days": "Sun", "time": "Closed"}], "id": "6202500027", "name": "USPS COLLECTION BOX - BLUE BOX", "address": {"city": "EDWARDSVILLE", "state": "IL", "street": "300 W VANDALIA ST", "postcode": "62025"}}},
{"geometry": {"type": "Point", "coordinates": [-89.9801857838, 38.7869558137]}, "type": "Feature", "properties": {"collection_times": [{"days": "Mon-Sat", "time": "11:00am"}, {"days": "Sun", "time": "Closed"}], "id": "6202500031", "name": "USPS COLLECTION BOX - BLUE BOX", "address": {"city": "EDWARDSVILLE", "state": "IL", "street": "20 EDWARDSVILLE PROF PARK", "postcode": "62025"}}},
{"geometry": {"type": "Point", "coordinates": [-89.9511617307, 38.7879993179]}, "type": "Feature", "properties": {"collection_times": [{"days": "Mon-Fri", "time": "4:30pm"}, {"days": "Sat", "time": "2:00pm"}, {"days": "Sun", "time": "Closed"}], "id": "6202500033", "name": "USPS COLLECTION BOX - BLUE BOX", "address": {"city": "EDWARDSVILLE", "state": "IL", "street": "2222 TROY RD", "postcode": "62025"}}},
{"geometry": {"type": "Point", "coordinates": [-89.9547024817, 38.8127360384]}, "type": "Feature", "properties": {"collection_times": [{"days": "Mon-Fri", "time": "5:30pm"}, {"days": "Sat", "time": "2:30pm"}, {"days": "Sun", "time": "Closed"}], "id": "6202500035", "name": "USPS COLLECTION BOX - BLUE BOX", "address": {"city": "EDWARDSVILLE", "state": "IL", "street": "132 N KANSAS ST", "postcode": "62025"}}},
{"geometry": {"type": "Point", "coordinates": [-89.9547024817, 38.8127360384]}, "type": "Feature", "properties": {"collection_times": [{"days": "Mon-Fri", "time": "5:30pm"}, {"days": "Sat", "time": "2:30pm"}, {"days": "Sun", "time": "Closed"}], "id": "6202500037", "name": "USPS COLLECTION BOX - BLUE BOX", "address": {"city": "EDWARDSVILLE", "state": "IL", "street": "132 N KANSAS ST", "postcode": "62025"}}},
{"geometry": {"type": "Point", "coordinates": [-89.9547024817, 38.8127360384]}, "type": "Feature", "properties": {"collection_times": [{"days": "Mon-Fri", "time": "5:30pm"}, {"days": "Sat", "time": "2:30pm"}, {"days": "Sun", "time": "Closed"}], "id": "6202500041", "name": "USPS COLLECTION BOX - BLUE BOX", "address": {"city": "EDWARDSVILLE", "state": "IL", "street": "132 N KANSAS ST", "postcode": "62025"}}},
{"geometry": {"type": "Point", "coordinates": [-89.9547024817, 38.8127360384]}, "type": "Feature", "properties": {"collection_times": [{"days": "Mon-Fri", "time": "5:30pm"}, {"days": "Sat", "time": "2:30pm"}, {"days": "Sun", "time": "Closed"}], "id": "6202500042", "name": "USPS COLLECTION BOX - BLUE BOX", "address": {"city": "EDWARDSVILLE", "state": "IL", "street": "132 N KANSAS ST", "postcode": "62025"}}},
{"geometry": {"type": "Point", "coordinates": [-89.9507679602, 38.8176394033]}, "type": "Feature", "properties": {"collection_times": [{"days": "Mon-Sat", "time": "2:00pm"}, {"days": "Sun", "time": "Closed"}], "id": "6202500045", "name": "USPS COLLECTION BOX - BLUE BOX", "address": {"city": "EDWARDSVILLE", "state": "IL", "street": "118 HILLSBORO AVE", "postcode": "62025"}}},
{"geometry": {"type": "Point", "coordinates": [-89.9987577201, 38.8067200815]}, "type": "Feature", "properties": {"collection_times": [{"days": "Mon-Sat", "time": "10:30am"}, {"days": "Sun", "time": "Closed"}], "id": "6202500047", "name": "USPS COLLECTION BOX - BLUE BOX", "address": {"city": "EDWARDSVILLE", "state": "IL", "street": "400 COUGAR VILLAGE APARTMENT", "postcode": "62025"}}},
{"geometry": {"type": "Point", "coordinates": [-89.9788421483, 38.7873137108]}, "type": "Feature", "properties": {"collection_times": [{"days": "Mon-Sat", "time": "1:45pm"}, {"days": "Sun", "time": "Closed"}], "id": "6202500048", "name": "USPS COLLECTION BOX - BLUE BOX", "address": {"city": "EDWARDSVILLE", "state": "IL", "street": "6100 CENTER GROVE RD", "postcode": "62025"}}},
{"geometry": {"type": "Point", "coordinates": [-89.9547024817, 38.8127360384]}, "type": "Feature", "properties": {"collection_times": [{"days": "Mon-Fri", "time": "5:30pm"}, {"days": "Sat", "time": "2:30pm"}, {"days": "Sun", "time": "Closed"}], "id": "6202500050", "name": "USPS COLLECTION BOX - BLUE BOX", "address": {"city": "EDWARDSVILLE", "state": "IL", "street": "132 N KANSAS ST", "postcode": "62025"}}},
{"geometry": {"type": "Point", "coordinates": [-90.0038706461, 38.7658827207]}, "type": "Feature", "properties": {"collection_times": [{"days": "Mon-Sat", "time": "11:00am"}, {"days": "Sun", "time": "Closed"}], "id": "6202500051", "name": "USPS COLLECTION BOX - BLUE BOX", "address": {"city": "EDWARDSVILLE", "state": "IL", "street": "100 HARMONY DR", "postcode": "62025"}}},
{"geometry": {"type": "Point", "coordinates": [-89.9547024817, 38.8127360384]}, "type": "Feature", "properties": {"collection_times": [{"days": "Mon-Fri", "time": "5:30pm"}, {"days": "Sat", "time": "2:30pm"}, {"days": "Sun", "time": "Closed"}], "id": "6202500053", "name": "USPS COLLECTION BOX - PO LOBBY", "address": {"city": "EDWARDSVILLE", "state": "IL", "street": "132 N KANSAS ST", "postcode": "62025"}}},
{"geometry": {"type": "Point", "coordinates": [-89.9940650463, 38.7731948982]}, "type": "Feature", "properties": {"collection_times": [{"days": "Mon-Sat", "time": "11:00am"}, {"days": "Sun", "time": "Closed"}], "id": "6202500055", "name": "USPS COLLECTION BOX - BLUE BOX", "address": {"city": "EDWARDSVILLE", "state": "IL", "street": "1 SUNSET HILLS PROFESSIONAL CTR", "postcode": "62025"}}},
{"geometry": {"type": "Point", "coordinates": [-89.9801538439, 38.7835630873]}, "type": "Feature", "properties": {"collection_times": [{"days": "Mon-Sat", "time": "1:15pm"}, {"days": "Sun", "time": "Closed"}], "id": "6202500057", "name": "USPS COLLECTION BOX - BLUE BOX", "address": {"city": "EDWARDSVILLE", "state": "IL", "street": "102 ROTTINGHAM CT", "postcode": "62025"}}},
{"geometry": {"type": "Point", "coordinates": [-89.9899425842, 38.7917021495]}, "type": "Feature", "properties": {"collection_times": [{"days": "Mon-Sat", "time": "11:10am"}, {"days": "Sun", "time": "Closed"}], "id": "6202500058", "name": "USPS COLLECTION BOX - BLUE BOX", "address": {"city": "EDWARDSVILLE", "state": "IL", "street": "95 N RESEARCH DR", "postcode": "62025"}}},
{"geometry": {"type": "Point", "coordinates": [-90.5521051801, 39.2860885921]}, "type": "Feature", "properties": {"collection_times": [{"days": "Mon-Fri", "time": "11:45am"}, {"days": "Sat", "time": "9:45am"}, {"days": "Sun", "time": "Closed"}], "id": "6202700001", "name": "USPS COLLECTION BOX - BLUE BOX", "address": {"city": "ELDRED", "state": "IL", "street": "417 PINE ST", "postcode": "62027"}}},
{"geometry": {"type": "Point", "coordinates": [-90.5521051801, 39.2860885921]}, "type": "Feature", "properties": {"collection_times": [{"days": "Mon-Fri", "time": "11:45am"}, {"days": "Sat", "time": "9:30am"}, {"days": "Sun", "time": "Closed"}], "id": "6202700002", "name": "USPS COLLECTION BOX - PO LOBBY", "address": {"city": "ELDRED", "state": "IL", "street": "417 PINE ST", "postcode": "62027"}}},
{"geometry": {"type": "Point", "coordinates": [-90.5521051801, 39.2860885921]}, "type": "Feature", "properties": {"collection_times": [{"days": "Mon-Fri", "time": "11:45am"}, {"days": "Sat", "time": "9:30am"}, {"days": "Sun", "time": "Closed"}], "id": "6202700004", "name": "USPS COLLECTION BOX - PO LOBBY", "address": {"city": "ELDRED", "state": "IL", "street": "417 PINE ST", "postcode": "62027"}}},
{"geometry": {"type": "Point", "coordinates": [-90.3598684843, 38.9558972329]}, "type": "Feature", "properties": {"collection_times": [{"days": "Mon-Fri", "time": "11:15am"}, {"days": "Sat", "time": "9:15am"}, {"days": "Sun", "time": "Closed"}], "id": "6202800001", "name": "USPS COLLECTION BOX - BLUE BOX", "address": {"city": "ELSAH", "state": "IL", "street": "48 MILL ST", "postcode": "62028"}}},
{"geometry": {"type": "Point", "coordinates": [-90.3598684843, 38.9558972329]}, "type": "Feature", "properties": {"collection_times": [{"days": "Mon-Fri", "time": "11:15am"}, {"days": "Sat", "time": "9:15am"}, {"days": "Sun", "time": "Closed"}], "id": "6202800003", "name": "USPS COLLECTION BOX - PO LOBBY", "address": {"city": "ELSAH", "state": "IL", "street": "48 MILL ST", "postcode": "62028"}}},
{"geometry": {"type": "Point", "coordinates": [-90.1643791442, 39.1532914293]}, "type": "Feature", "properties": {"collection_times": [{"days": "Mon-Fri", "time": "9:45am"}, {"days": "Sat", "time": "11:15am"}, {"days": "Sun", "time": "Closed"}], "id": "6203000001", "name": "USPS COLLECTION BOX - BLUE BOX", "address": {"city": "FIDELITY", "state": "IL", "street": "304 STATE ST", "postcode": "62030"}}},
{"geometry": {"type": "Point", "coordinates": [-90.1643791442, 39.1532914293]}, "type": "Feature", "properties": {"collection_times": [{"days": "Mon-Fri", "time": "9:45am"}, {"days": "Sat", "time": "11:15am"}, {"days": "Sun", "time": "Closed"}], "id": "6203000002", "name": "USPS COLLECTION BOX - PO LOBBY", "address": {"city": "FIDELITY", "state": "IL", "street": "304 STATE ST", "postcode": "62030"}}},
{"geometry": {"type": "Point", "coordinates": [-90.497979273, 39.1078634001]}, "type": "Feature", "properties": {"collection_times": [{"days": "Mon-Fri", "time": "11:00am"}, {"days": "Sat", "time": "9:30am"}, {"days": "Sun", "time": "Closed"}], "id": "6203100001", "name": "USPS COLLECTION BOX - BLUE BOX", "address": {"city": "FIELDON", "state": "IL", "street": "110 E MAIN ST", "postcode": "62031"}}},
{"geometry": {"type": "Point", "coordinates": [-90.497979273, 39.1078634001]}, "type": "Feature", "properties": {"collection_times": [{"days": "Mon-Fri", "time": "11:00am"}, {"days": "Sat", "time": "9:45am"}, {"days": "Sun", "time": "Closed"}], "id": "6203100002", "name": "USPS COLLECTION BOX - PO LOBBY", "address": {"city": "FIELDON", "state": "IL", "street": "110 E MAIN ST", "postcode": "62031"}}},
{"geometry": {"type": "Point", "coordinates": [-89.2787909982, 39.1153392915]}, "type": "Feature", "properties": {"collection_times": [{"days": "Mon-Fri", "time": "11:45am"}, {"days": "Sat", "time": "8:30am"}, {"days": "Sun", "time": "Closed"}], "id": "6203200001", "name": "USPS COLLECTION BOX - BLUE BOX", "address": {"city": "FILLMORE", "state": "IL", "street": "101 S MAIN ST", "postcode": "62032"}}},
{"geometry": {"type": "Point", "coordinates": [-89.2787909982, 39.1153392915]}, "type": "Feature", "properties": {"collection_times": [{"days": "Mon-Fri", "time": "11:45am"}, {"days": "Sat", "time": "8:45am"}, {"days": "Sun", "time": "Closed"}], "id": "6203200002", "name": "USPS COLLECTION BOX - PO LOBBY", "address": {"city": "FILLMORE", "state": "IL", "street": "101 S MAIN ST", "postcode": "62032"}}},
{"geometry": {"type": "Point", "coordinates": [-89.8164373866, 39.1253228666]}, "type": "Feature", "properties": {"collection_times": [{"days": "Mon-Fri", "time": "5:00pm"}, {"days": "Sat", "time": "3:30pm"}, {"days": "Sun", "time": "Closed"}], "id": "6203300003", "name": "USPS COLLECTION BOX - BLUE BOX", "address": {"city": "GILLESPIE", "state": "IL", "street": "200 W SPRUCE ST", "postcode": "62033"}}},
{"geometry": {"type": "Point", "coordinates": [-89.8857799551, 39.0855915922]}, "type": "Feature", "properties": {"collection_times": [{"days": "Mon-Sat", "time": "9:30am"}, {"days": "Sun", "time": "Closed"}], "id": "6203300008", "name": "USPS COLLECTION BOX - BLUE BOX", "address": {"city": "GILLESPIE", "state": "IL", "street": "103 W GARRISON ST", "postcode": "62033"}}},
{"geometry": {"type": "Point", "coordinates": [-89.8167443114, 39.1272417788]}, "type": "Feature", "properties": {"collection_times": [{"days": "Mon-Sat", "time": "3:00pm"}, {"days": "Sun", "time": "Closed"}], "id": "6203300011", "name": "USPS COLLECTION BOX - BLUE BOX", "address": {"city": "GILLESPIE", "state": "IL", "street": "121 S MACOUPIN ST", "postcode": "62033"}}},
{"geometry": {"type": "Point", "coordinates": [-89.8166049477, 39.1252653712]}, "type": "Feature", "properties": {"collection_times": [{"days": "Mon-Fri", "time": "5:00pm"}, {"days": "Sat", "time": "3:30pm"}, {"days": "Sun", "time": "Closed"}], "id": "6203300017", "name": "USPS COLLECTION BOX - BLUE BOX", "address": {"city": "GILLESPIE", "state": "IL", "street": "200 W SPRUCE ST", "postcode": "62033"}}},
{"geometry": {"type": "Point", "coordinates": [-89.8164373866, 39.1253228666]}, "type": "Feature", "properties": {"collection_times": [{"days": "Mon-Fri", "time": "5:00pm"}, {"days": "Sat", "time": "3:30pm"}, {"days": "Sun", "time": "Closed"}], "id": "6203300019", "name": "USPS COLLECTION BOX - PO LOBBY", "address": {"city": "GILLESPIE", "state": "IL", "street": "200 W SPRUCE ST", "postcode": "62033"}}},
{"geometry": {"type": "Point", "coordinates": [-89.8164373866, 39.1253228666]}, "type": "Feature", "properties": {"collection_times": [{"days": "Mon-Fri", "time": "5:00pm"}, {"days": "Sat", "time": "3:30pm"}, {"days": "Sun", "time": "Closed"}], "id": "6203300020", "name": "USPS COLLECTION BOX - PO LOBBY", "address": {"city": "GILLESPIE", "state": "IL", "street": "200 W SPRUCE ST", "postcode": "62033"}}},
{"geometry": {"type": "Point", "coordinates": [-89.9741988284, 38.7588853804]}, "type": "Feature", "properties": {"collection_times": [{"days": "Mon-Fri", "time": "4:15pm"}, {"days": "Sat", "time": "11:00am"}, {"days": "Sun", "time": "Closed"}], "id": "6203400001", "name": "USPS COLLECTION BOX - BLUE BOX", "address": {"city": "GLEN CARBON", "state": "IL", "street": "105 N MAIN ST", "postcode": "62034"}}},
{"geometry": {"type": "Point", "coordinates": [-89.9546232235, 38.7457427063]}, "type": "Feature", "properties": {"collection_times": [{"days": "Mon-Sat", "time": "11:00am"}, {"days": "Sun", "time": "Closed"}], "id": "6203400002", "name": "USPS COLLECTION BOX - BLUE BOX", "address": {"city": "GLEN CARBON", "state": "IL", "street": "9 KINGSLEY WAY", "postcode": "62034"}}},
{"geometry": {"type": "Point", "coordinates": [-89.9801304425, 38.7495991221]}, "type": "Feature", "properties": {"collection_times": [{"days": "Mon-Sat", "time": "12:00pm"}, {"days": "Sun", "time": "Closed"}], "id": "6203400003", "name": "USPS COLLECTION BOX - BLUE BOX", "address": {"city": "GLEN CARBON", "state": "IL", "street": "196 S MAIN ST", "postcode": "62034"}}},
{"geometry": {"type": "Point", "coordinates": [-89.9741988284, 38.7588853804]}, "type": "Feature", "properties": {"collection_times": [{"days": "Mon-Fri", "time": "5:00pm"}, {"days": "Sat", "time": "11:00am"}, {"days": "Sun", "time": "Closed"}], "id": "6203400006", "name": "USPS COLLECTION BOX - PO LOBBY", "address": {"city": "GLEN CARBON", "state": "IL", "street": "105 N MAIN ST", "postcode": "62034"}}},
{"geometry": {"type": "Point", "coordinates": [-89.9578905562, 38.78037383]}, "type": "Feature", "properties": {"collection_times": [{"days": "Mon-Sat", "time": "10:30am"}, {"days": "Sun", "time": "Closed"}], "id": "6203400007", "name": "USPS COLLECTION BOX - BLUE BOX", "address": {"city": "GLEN CARBON", "state": "IL", "street": "24 KETTLE RIVER DR", "postcode": "62034"}}},
{"geometry": {"type": "Point", "coordinates": [-89.9604235746, 38.7572895555]}, "type": "Feature", "properties": {"collection_times": [{"days": "Mon-Sat", "time": "12:15pm"}, {"days": "Sun", "time": "Closed"}], "id": "6203400008", "name": "USPS COLLECTION BOX - BLUE BOX", "address": {"city": "GLEN CARBON", "state": "IL", "street": "21 GLEN ED", "postcode": "62034"}}},
{"geometry": {"type": "Point", "coordinates": [-89.9450116819, 38.7711266397]}, "type": "Feature", "properties": {"collection_times": [{"days": "Mon-Sat", "time": "12:45pm"}, {"days": "Sun", "time": "Closed"}], "id": "6203400009", "name": "USPS COLLECTION BOX - BLUE BOX", "address": {"city": "GLEN CARBON", "state": "IL", "street": "1 HERITAGE PL", "postcode": "62034"}}},
{"geometry": {"type": "Point", "coordinates": [-89.9549519491, 38.7754138232]}, "type": "Feature", "properties": {"collection_times": [{"days": "Mon-Fri", "time": "3:30pm"}, {"days": "Sat", "time": "1:45pm"}, {"days": "Sun", "time": "Closed"}], "id": "6203400010", "name": "USPS COLLECTION BOX - BLUE BOX", "address": {"city": "GLEN CARBON", "state": "IL", "street": "400 JUNCTION DR", "postcode": "62034"}}},
{"geometry": {"type": "Point", "coordinates": [-90.2486736993, 38.9379534278]}, "type": "Feature", "properties": {"collection_times": [{"days": "Mon-Sat", "time": "10:30am"}, {"days": "Sun", "time": "Closed"}], "id": "6203500003", "name": "USPS COLLECTION BOX - BLUE BOX", "address": {"city": "GODFREY", "state": "IL", "street": "2904 W DELMAR AVE", "postcode": "62035"}}},
{"geometry": {"type": "Point", "coordinates": [-90.192372764, 38.9362250616]}, "type": "Feature", "properties": {"collection_times": [{"days": "Mon-Sat", "time": "10:30am"}, {"days": "Sun", "time": "Closed"}], "id": "6203500004", "name": "USPS COLLECTION BOX - BLUE BOX", "address": {"city": "GODFREY", "state": "IL", "street": "3302 GODFREY RD", "postcode": "62035"}}},
{"geometry": {"type": "Point", "coordinates": [-90.1894576857, 38.9509463926]}, "type": "Feature", "properties": {"collection_times": [{"days": "Mon-Fri", "time": "5:15pm"}, {"days": "Sat", "time": "2:00pm"}, {"days": "Sun", "time": "Closed"}], "id": "6203500007", "name": "USPS COLLECTION BOX - BLUE BOX", "address": {"city": "GODFREY", "state": "IL", "street": "400 TOLLE LN", "postcode": "62035"}}},
{"geometry": {"type": "Point", "coordinates": [-90.1894576857, 38.9509463926]}, "type": "Feature", "properties": {"collection_times": [{"days": "Mon-Fri", "time": "5:15pm"}, {"days": "Sat", "time": "2:00pm"}, {"days": "Sun", "time": "Closed"}], "id": "6203500010", "name": "USPS COLLECTION BOX - BLUE BOX", "address": {"city": "GODFREY", "state": "IL", "street": "400 TOLLE LN", "postcode": "62035"}}},
{"geometry": {"type": "Point", "coordinates": [-90.1894576857, 38.9509463926]}, "type": "Feature", "properties": {"collection_times": [{"days": "Mon-Fri", "time": "5:15pm"}, {"days": "Sat", "time": "2:00pm"}, {"days": "Sun", "time": "Closed"}], "id": "6203500013", "name": "USPS COLLECTION BOX - PO LOBBY", "address": {"city": "GODFREY", "state": "IL", "street": "400 TOLLE LN", "postcode": "62035"}}},
{"geometry": {"type": "Point", "coordinates": [-90.2254628615, 38.9350457146]}, "type": "Feature", "properties": {"collection_times": [{"days": "Mon-Sat", "time": "10:30am"}, {"days": "Sun", "time": "Closed"}], "id": "6203500015", "name": "USPS COLLECTION BOX - BLUE BOX", "address": {"city": "GODFREY", "state": "IL", "street": "1918 W DELMAR AVE", "postcode": "62035"}}},
{"geometry": {"type": "Point", "coordinates": [-90.4312732197, 38.9697868719]}, "type": "Feature", "properties": {"collection_times": [{"days": "Mon-Fri", "time": "4:30pm"}, {"days": "Sat", "time": "8:30am"}, {"days": "Sun", "time": "Closed"}], "id": "6203700001", "name": "USPS COLLECTION BOX - BLUE BOX", "address": {"city": "GRAFTON", "state": "IL", "street": "419 E MAIN ST", "postcode": "62037"}}},
{"geometry": {"type": "Point", "coordinates": [-90.4312732197, 38.9697868719]}, "type": "Feature", "properties": {"collection_times": [{"days": "Mon-Fri", "time": "4:15pm"}, {"days": "Sat", "time": "9:45am"}, {"days": "Sun", "time": "Closed"}], "id": "6203700002", "name": "USPS COLLECTION BOX - PO LOBBY", "address": {"city": "GRAFTON", "state": "IL", "street": "419 E MAIN ST", "postcode": "62037"}}},
{"geometry": {"type": "Point", "coordinates": [-90.1393611932, 38.7052713142]}, "type": "Feature", "properties": {"collection_times": [{"days": "Mon-Fri", "time": "5:15pm"}, {"days": "Sat", "time": "3:00pm"}, {"days": "Sun", "time": "Closed"}], "id": "6204000001", "name": "USPS COLLECTION BOX - PO LOBBY", "address": {"city": "GRANITE CITY", "state": "IL", "street": "2350 MADISON AVE", "postcode": "62040"}}},
{"geometry": {"type": "Point", "coordinates": [-90.1488880523, 38.7015265375]}, "type": "Feature", "properties": {"collection_times": [{"days": "Mon-Sat", "time": "9:00am"}, {"days": "Sun", "time": "Closed"}], "id": "6204000007", "name": "USPS COLLECTION BOX - BLUE BOX", "address": {"city": "GRANITE CITY", "state": "IL", "street": "2000 EDISON AVE", "postcode": "62040"}}},
{"geometry": {"type": "Point", "coordinates": [-90.1182004233, 38.7169305577]}, "type": "Feature", "properties": {"collection_times": [{"days": "Mon-Sat", "time": "12:00pm"}, {"days": "Sun", "time": "Closed"}], "id": "6204000009", "name": "USPS COLLECTION BOX - BLUE BOX", "address": {"city": "GRANITE CITY", "state": "IL", "street": "1553 SAINT CLAIR AVE", "postcode": "62040"}}},
{"geometry": {"type": "Point", "coordinates": [-90.1128283413, 38.7267256283]}, "type": "Feature", "properties": {"collection_times": [{"days": "Mon-Sat", "time": "1:15pm"}, {"days": "Sun", "time": "Closed"}], "id": "6204000010", "name": "USPS COLLECTION BOX - BLUE BOX", "address": {"city": "GRANITE CITY", "state": "IL", "street": "16 CROSSROADS PLZ", "postcode": "62040"}}},
{"geometry": {"type": "Point", "coordinates": [-90.1503111719, 38.7016223064]}, "type": "Feature", "properties": {"collection_times": [{"days": "Mon-Sat", "time": "12:00pm"}, {"days": "Sun", "time": "Closed"}], "id": "6204000012", "name": "USPS COLLECTION BOX - BLUE BOX", "address": {"city": "GRANITE CITY", "state": "IL", "street": "1940 DELMAR AVE", "postcode": "62040"}}},
{"geometry": {"type": "Point", "coordinates": [-90.1130995042, 38.7238792587]}, "type": "Feature", "properties": {"collection_times": [{"days": "Mon-Sat", "time": "11:00am"}, {"days": "Sun", "time": "Closed"}], "id": "6204000017", "name": "USPS COLLECTION BOX - BLUE BOX", "address": {"city": "GRANITE CITY", "state": "IL", "street": "3307 WABASH AVE", "postcode": "62040"}}},
{"geometry": {"type": "Point", "coordinates": [-90.1096322515, 38.7316051637]}, "type": "Feature", "properties": {"collection_times": [{"days": "Mon-Fri", "time": "4:30pm"}, {"days": "Sat", "time": "1:15pm"}, {"days": "Sun", "time": "Closed"}], "id": "6204000019", "name": "USPS COLLECTION BOX - BLUE BOX", "address": {"city": "GRANITE CITY", "state": "IL", "street": "2200 PONTOON RD", "postcode": "62040"}}},
{"geometry": {"type": "Point", "coordinates": [-90.1034727738, 38.7315791116]}, "type": "Feature", "properties": {"collection_times": [{"days": "Mon-Sat", "time": "9:00am"}, {"days": "Sun", "time": "Closed"}], "id": "6204000023", "name": "USPS COLLECTION BOX - BLUE BOX", "address": {"city": "GRANITE CITY", "state": "IL", "street": "2400 PONTOON RD", "postcode": "62040"}}},
{"geometry": {"type": "Point", "coordinates": [-90.1057952828, 38.7171918235]}, "type": "Feature", "properties": {"collection_times": [{"days": "Mon-Sat", "time": "1:30pm"}, {"days": "Sun", "time": "Closed"}], "id": "6204000026", "name": "USPS COLLECTION BOX - BLUE BOX", "address": {"city": "GRANITE CITY", "state": "IL", "street": "2479 SAINT CLAIR AVE", "postcode": "62040"}}},
{"geometry": {"type": "Point", "coordinates": [-90.134179833, 38.7171363926]}, "type": "Feature", "properties": {"collection_times": [{"days": "Mon-Sat", "time": "12:00pm"}, {"days": "Sun", "time": "Closed"}], "id": "6204000033", "name": "USPS COLLECTION BOX - BLUE BOX", "address": {"city": "GRANITE CITY", "state": "IL", "street": "2811 BENTON ST", "postcode": "62040"}}},
{"geometry": {"type": "Point", "coordinates": [-90.1276025811, 38.7145729205]}, "type": "Feature", "properties": {"collection_times": [{"days": "Mon-Sat", "time": "11:00am"}, {"days": "Sun", "time": "Closed"}], "id": "6204000036", "name": "USPS COLLECTION BOX - BLUE BOX", "address": {"city": "GRANITE CITY", "state": "IL", "street": "2901 MADISON AVE", "postcode": "62040"}}},
{"geometry": {"type": "Point", "coordinates": [-90.1237946362, 38.7175965636]}, "type": "Feature", "properties": {"collection_times": [{"days": "Mon-Sat", "time": "1:15pm"}, {"days": "Sun", "time": "Closed"}], "id": "6204000039", "name": "USPS COLLECTION BOX - BLUE BOX", "address": {"city": "GRANITE CITY", "state": "IL", "street": "3100 MADISON AVE", "postcode": "62040"}}},
{"geometry": {"type": "Point", "coordinates": [-90.1215103424, 38.7199258098]}, "type": "Feature", "properties": {"collection_times": [{"days": "Mon-Sat", "time": "1:15pm"}, {"days": "Sun", "time": "Closed"}], "id": "6204000041", "name": "USPS COLLECTION BOX - BLUE BOX", "address": {"city": "GRANITE CITY", "state": "IL", "street": "3165 MYRTLE AVE", "postcode": "62040"}}},
{"geometry": {"type": "Point", "coordinates": [-90.1226679509, 38.7208764005]}, "type": "Feature", "properties": {"collection_times": [{"days": "Mon-Fri", "time": "5:00pm"}, {"days": "Sat", "time": "1:15pm"}, {"days": "Sun", "time": "Closed"}], "id": "6204000043", "name": "USPS COLLECTION BOX - PO LOBBY", "address": {"city": "GRANITE CITY", "state": "IL", "street": "3230 NAMEOKI RD - NAMEOKI BR", "postcode": "62040"}}},
{"geometry": {"type": "Point", "coordinates": [-90.1226679509, 38.7208764005]}, "type": "Feature", "properties": {"collection_times": [{"days": "Mon-Fri", "time": "5:00pm"}, {"days": "Sat", "time": "1:15pm"}, {"days": "Sun", "time": "Closed"}], "id": "6204000044", "name": "USPS COLLECTION BOX - BLUE BOX", "address": {"city": "GRANITE CITY", "state": "IL", "street": "3230 NAMEOKI RD - NAMEOKI BR", "postcode": "62040"}}},
{"geometry": {"type": "Point", "coordinates": [-90.0940112783, 38.7335369357]}, "type": "Feature", "properties": {"collection_times": [{"days": "Mon-Sat", "time": "12:00pm"}, {"days": "Sun", "time": "Closed"}], "id": "6204000048", "name": "USPS COLLECTION BOX - BLUE BOX", "address": {"city": "GRANITE CITY", "state": "IL", "street": "4041 SARA ST", "postcode": "62040"}}},
{"geometry": {"type": "Point", "coordinates": [-90.0698592855, 38.7525121518]}, "type": "Feature", "properties": {"collection_times": [{"days": "Mon-Sat", "time": "9:00am"}, {"days": "Sun", "time": "Closed"}], "id": "6204000049", "name": "USPS COLLECTION BOX - BLUE BOX", "address": {"city": "GRANITE CITY", "state": "IL", "street": "5111 HIGHWAY 111", "postcode": "62040"}}},
{"geometry": {"type": "Point", "coordinates": [-90.1440362471, 38.7092105675]}, "type": "Feature", "properties": {"collection_times": [{"days": "Mon-Sat", "time": "12:00pm"}, {"days": "Sun", "time": "Closed"}], "id": "6204000051", "name": "USPS COLLECTION BOX - BLUE BOX", "address": {"city": "GRANITE CITY", "state": "IL", "street": "2345 BENTON ST", "postcode": "62040"}}},
{"geometry": {"type": "Point", "coordinates": [-90.0853479959, 38.7615440162]}, "type": "Feature", "properties": {"collection_times": [{"days": "Mon-Fri", "time": "4:45pm"}, {"days": "Sat-Sun", "time": "Closed"}], "id": "6204000054", "name": "USPS COLLECTION BOX - PO LOBBY", "address": {"city": "GRANITE CITY", "state": "IL", "street": "506 E CHAIN OF ROCKS RD", "postcode": "62040"}}},
{"geometry": {"type": "Point", "coordinates": [-90.0853479959, 38.7615440162]}, "type": "Feature", "properties": {"collection_times": [{"days": "Mon-Fri", "time": "4:45pm"}, {"days": "Sat", "time": "1:00pm"}, {"days": "Sun", "time": "Closed"}], "id": "6204000055", "name": "USPS COLLECTION BOX - BLUE BOX", "address": {"city": "GRANITE CITY", "state": "IL", "street": "506 E CHAIN OF ROCKS RD", "postcode": "62040"}}},
{"geometry": {"type": "Point", "coordinates": [-90.1303174719, 38.7449489408]}, "type": "Feature", "properties": {"collection_times": [{"days": "Mon-Sat", "time": "9:00am"}, {"days": "Sun", "time": "Closed"}], "id": "6204000057", "name": "USPS COLLECTION BOX - BLUE BOX", "address": {"city": "GRANITE CITY", "state": "IL", "street": "10 NORTHGATE IND DR", "postcode": "62040"}}},
{"geometry": {"type": "Point", "coordinates": [-90.0771917693, 38.7316112178]}, "type": "Feature", "properties": {"collection_times": [{"days": "Mon-Sat", "time": "9:00am"}, {"days": "Sun", "time": "Closed"}], "id": "6204000058", "name": "USPS COLLECTION BOX - BLUE BOX", "address": {"city": "GRANITE CITY", "state": "IL", "street": "4085 PONTOON RD", "postcode": "62040"}}},
{"geometry": {"type": "Point", "coordinates": [-90.1421754526, 38.7350783312]}, "type": "Feature", "properties": {"collection_times": [{"days": "Mon-Sat", "time": "9:00am"}, {"days": "Sun", "time": "Closed"}], "id": "6204000062", "name": "USPS COLLECTION BOX - BLUE BOX", "address": {"city": "GRANITE CITY", "state": "IL", "street": "379 W PONTOON RD", "postcode": "62040"}}},
{"geometry": {"type": "Point", "coordinates": [-90.1393611932, 38.7052713142]}, "type": "Feature", "properties": {"collection_times": [{"days": "Mon-Fri", "time": "5:15pm"}, {"days": "Sat", "time": "3:00pm"}, {"days": "Sun", "time": "Closed"}], "id": "6204000064", "name": "USPS COLLECTION BOX - BLUE BOX", "address": {"city": "GRANITE CITY", "state": "IL", "street": "2350 MADISON AVE", "postcode": "62040"}}},
{"geometry": {"type": "Point", "coordinates": [-90.1457616752, 38.7001622674]}, "type": "Feature", "properties": {"collection_times": [{"days": "Mon-Sat", "time": "9:00am"}, {"days": "Sun", "time": "Closed"}], "id": "6204000065", "name": "USPS COLLECTION BOX - BLUE BOX", "address": {"city": "GRANITE CITY", "state": "IL", "street": "2044 MADISON AVE", "postcode": "62040"}}},
{"geometry": {"type": "Point", "coordinates": [-90.1039150548, 38.7306131817]}, "type": "Feature", "properties": {"collection_times": [{"days": "Mon-Sat", "time": "9:00am"}, {"days": "Sun", "time": "Closed"}], "id": "6204000069", "name": "USPS COLLECTION BOX - BLUE BOX", "address": {"city": "GRANITE CITY", "state": "IL", "street": "3970 MARYVILLE RD", "postcode": "62040"}}},
{"geometry": {"type": "Point", "coordinates": [-90.1393611932, 38.7052713142]}, "type": "Feature", "properties": {"collection_times": [{"days": "Mon-Fri", "time": "5:15pm"}, {"days": "Sat", "time": "3:00pm"}, {"days": "Sun", "time": "Closed"}], "id": "6204000071", "name": "USPS COLLECTION BOX - BLUE BOX", "address": {"city": "GRANITE CITY", "state": "IL", "street": "2350 MADISON AVE", "postcode": "62040"}}},
{"geometry": {"type": "Point", "coordinates": [-90.1393611932, 38.7052713142]}, "type": "Feature", "properties": {"collection_times": [{"days": "Mon-Fri", "time": "5:15pm"}, {"days": "Sat", "time": "3:00pm"}, {"days": "Sun", "time": "Closed"}], "id": "6204000072", "name": "USPS COLLECTION BOX - BLUE BOX", "address": {"city": "GRANITE CITY", "state": "IL", "street": "2350 MADISON AVE", "postcode": "62040"}}},
{"geometry": {"type": "Point", "coordinates": [-90.1393611932, 38.7052713142]}, "type": "Feature", "properties": {"collection_times": [{"days": "Mon-Fri", "time": "5:15pm"}, {"days": "Sat", "time": "3:00pm"}, {"days": "Sun", "time": "Closed"}], "id": "6204000074", "name": "USPS COLLECTION BOX - BLUE BOX", "address": {"city": "GRANITE CITY", "state": "IL", "street": "2350 MADISON AVE", "postcode": "62040"}}},
{"geometry": {"type": "Point", "coordinates": [-90.1685518022, 38.6996184175]}, "type": "Feature", "properties": {"collection_times": [{"days": "Mon-Sat", "time": "9:00am"}, {"days": "Sun", "time": "Closed"}], "id": "6204000075", "name": "USPS COLLECTION BOX - BLUE BOX", "address": {"city": "GRANITE CITY", "state": "IL", "street": "1635 W 1ST ST", "postcode": "62040"}}},
{"geometry": {"type": "Point", "coordinates": [-90.1238052828, 38.730212821]}, "type": "Feature", "properties": {"collection_times": [{"days": "Mon-Sat", "time": "1:15pm"}, {"days": "Sun", "time": "Closed"}], "id": "6204000078", "name": "USPS COLLECTION BOX - BLUE BOX", "address": {"city": "GRANITE CITY", "state": "IL", "street": "3830 NAMEOKI RD", "postcode": "62040"}}},
{"geometry": {"type": "Point", "coordinates": [-90.2107861232, 39.3420971877]}, "type": "Feature", "properties": {"collection_times": [{"days": "Mon-Fri", "time": "4:15pm"}, {"days": "Sat", "time": "11:00am"}, {"days": "Sun", "time": "Closed"}], "id": "6204400001", "name": "USPS COLLECTION BOX - BLUE BOX", "address": {"city": "GREENFIELD", "state": "IL", "street": "609 MAIN ST", "postcode": "62044"}}},
{"geometry": {"type": "Point", "coordinates": [-90.2107861232, 39.3420971877]}, "type": "Feature", "properties": {"collection_times": [{"days": "Mon-Fri", "time": "4:15pm"}, {"days": "Sat", "time": "11:15am"}, {"days": "Sun", "time": "Closed"}], "id": "6204400002", "name": "USPS COLLECTION BOX - PO LOBBY", "address": {"city": "GREENFIELD", "state": "IL", "street": "609 MAIN ST", "postcode": "62044"}}},
{"geometry": {"type": "Point", "coordinates": [-90.6910040151, 39.2161178675]}, "type": "Feature", "properties": {"collection_times": [{"days": "Mon-Fri", "time": "11:00am"}, {"days": "Sat", "time": "9:45am"}, {"days": "Sun", "time": "Closed"}], "id": "6204500001", "name": "USPS COLLECTION BOX - BLUE BOX", "address": {"city": "HAMBURG", "state": "IL", "street": "1 POSTAL WAY", "postcode": "62045"}}},
{"geometry": {"type": "Point", "coordinates": [-90.6910040151, 39.2161178675]}, "type": "Feature", "properties": {"collection_times": [{"days": "Mon-Fri", "time": "11:00am"}, {"days": "Sat", "time": "9:45am"}, {"days": "Sun", "time": "Closed"}], "id": "6204500003", "name": "USPS COLLECTION BOX - PO LOBBY", "address": {"city": "HAMBURG", "state": "IL", "street": "1 POSTAL WAY", "postcode": "62045"}}},
{"geometry": {"type": "Point", "coordinates": [-89.8475167393, 38.8890941834]}, "type": "Feature", "properties": {"collection_times": [{"days": "Mon-Fri", "time": "4:45pm"}, {"days": "Sat", "time": "10:45am"}, {"days": "Sun", "time": "Closed"}], "id": "6204600001", "name": "USPS COLLECTION BOX - PO LOBBY", "address": {"city": "HAMEL", "state": "IL", "street": "143 W STATE ST", "postcode": "62046"}}},
{"geometry": {"type": "Point", "coordinates": [-89.8475167393, 38.8890941834]}, "type": "Feature", "properties": {"collection_times": [{"days": "Mon-Fri", "time": "4:30pm"}, {"days": "Sat", "time": "10:30am"}, {"days": "Sun", "time": "Closed"}], "id": "6204600002", "name": "USPS COLLECTION BOX - BLUE BOX", "address": {"city": "HAMEL", "state": "IL", "street": "143 W STATE ST", "postcode": "62046"}}},
{"geometry": {"type": "Point", "coordinates": [-90.6234680804, 39.1537606899]}, "type": "Feature", "properties": {"collection_times": [{"days": "Mon-Fri", "time": "4:15pm"}, {"days": "Sat", "time": "8:00am"}, {"days": "Sun", "time": "Closed"}], "id": "6204700001", "name": "USPS COLLECTION BOX - BLUE BOX", "address": {"city": "HARDIN", "state": "IL", "street": "103 E MAIN ST", "postcode": "62047"}}},
{"geometry": {"type": "Point", "coordinates": [-90.6234680804, 39.1537606899]}, "type": "Feature", "properties": {"collection_times": [{"days": "Mon-Fri", "time": "4:15pm"}, {"days": "Sat", "time": "8:00am"}, {"days": "Sun", "time": "Closed"}], "id": "6204700003", "name": "USPS COLLECTION BOX - PO LOBBY", "address": {"city": "HARDIN", "state": "IL", "street": "103 E MAIN ST", "postcode": "62047"}}},
{"geometry": {"type": "Point", "coordinates": [-90.0956399211, 38.8386897623]}, "type": "Feature", "properties": {"collection_times": [{"days": "Mon-Sat", "time": "12:00pm"}, {"days": "Sun", "time": "Closed"}], "id": "6204800001", "name": "USPS COLLECTION BOX - BLUE BOX", "address": {"city": "HARTFORD", "state": "IL", "street": "100 W CHERRY ST", "postcode": "62048"}}},
{"geometry": {"type": "Point", "coordinates": [-90.0949233397, 38.8335466525]}, "type": "Feature", "properties": {"collection_times": [{"days": "Mon-Sat", "time": "12:00pm"}, {"days": "Sun", "time": "Closed"}], "id": "6204800008", "name": "USPS COLLECTION BOX - BLUE BOX", "address": {"city": "HARTFORD", "state": "IL", "street": "101 W HAWTHORNE ST", "postcode": "62048"}}},
{"geometry": {"type": "Point", "coordinates": [-90.0956399211, 38.8386897623]}, "type": "Feature", "properties": {"collection_times": [{"days": "Mon-Fri", "time": "11:15am"}, {"days": "Sat-Sun", "time": "Closed"}], "id": "6204800010", "name": "USPS COLLECTION BOX - PO LOBBY", "address": {"city": "HARTFORD", "state": "IL", "street": "100 W CHERRY ST", "postcode": "62048"}}},
{"geometry": {"type": "Point", "coordinates": [-89.491304277, 39.1490819238]}, "type": "Feature", "properties": {"collection_times": [{"days": "Mon-Sat", "time": "2:15pm"}, {"days": "Sun", "time": "Closed"}], "id": "6204900002", "name": "USPS COLLECTION BOX - BLUE BOX", "address": {"city": "HILLSBORO", "state": "IL", "street": "1201 VANDALIA RD", "postcode": "62049"}}},
{"geometry": {"type": "Point", "coordinates": [-89.4815067834, 39.1299287862]}, "type": "Feature", "properties": {"collection_times": [{"days": "Mon-Fri", "time": "3:00pm"}, {"days": "Sat", "time": "2:00pm"}, {"days": "Sun", "time": "Closed"}], "id": "6204900003", "name": "USPS COLLECTION BOX - BLUE BOX", "address": {"city": "HILLSBORO", "state": "IL", "street": "1 COURTHOUSE SQ", "postcode": "62049"}}},
{"geometry": {"type": "Point", "coordinates": [-89.4928272397, 39.1588853897]}, "type": "Feature", "properties": {"collection_times": [{"days": "Mon-Fri", "time": "5:00pm"}, {"days": "Sat", "time": "3:30pm"}, {"days": "Sun", "time": "Closed"}], "id": "6204900004", "name": "USPS COLLECTION BOX - BLUE BOX", "address": {"city": "HILLSBORO", "state": "IL", "street": "120 W WOOD ST", "postcode": "62049"}}},
{"geometry": {"type": "Point", "coordinates": [-89.4928272397, 39.1588853897]}, "type": "Feature", "properties": {"collection_times": [{"days": "Mon-Fri", "time": "5:00pm"}, {"days": "Sat", "time": "3:30pm"}, {"days": "Sun", "time": "Closed"}], "id": "6204900005", "name": "USPS COLLECTION BOX - PO LOBBY", "address": {"city": "HILLSBORO", "state": "IL", "street": "120 W WOOD ST", "postcode": "62049"}}},
{"geometry": {"type": "Point", "coordinates": [-90.5241171867, 39.4759964957]}, "type": "Feature", "properties": {"collection_times": [{"days": "Mon-Fri", "time": "12:15pm"}, {"days": "Sat", "time": "9:30am"}, {"days": "Sun", "time": "Closed"}], "id": "6205000001", "name": "USPS COLLECTION BOX - BLUE BOX", "address": {"city": "HILLVIEW", "state": "IL", "street": "101 COURT ST", "postcode": "62050"}}},
{"geometry": {"type": "Point", "coordinates": [-90.5241171867, 39.4759964957]}, "type": "Feature", "properties": {"collection_times": [{"days": "Mon-Sat", "time": "10:15am"}, {"days": "Sun", "time": "Closed"}], "id": "6205000002", "name": "USPS COLLECTION BOX - PO LOBBY", "address": {"city": "HILLVIEW", "state": "IL", "street": "101 COURT ST", "postcode": "62050"}}},
{"geometry": {"type": "Point", "coordinates": [-89.4053838908, 39.2052803167]}, "type": "Feature", "properties": {"collection_times": [{"days": "Mon-Fri", "time": "11:15am"}, {"days": "Sat", "time": "9:15am"}, {"days": "Sun", "time": "Closed"}], "id": "6205100001", "name": "USPS COLLECTION BOX - BLUE BOX", "address": {"city": "IRVING", "state": "IL", "street": "101 E STATE ST", "postcode": "62051"}}},
{"geometry": {"type": "Point", "coordinates": [-89.4053838908, 39.2052803167]}, "type": "Feature", "properties": {"collection_times": [{"days": "Mon-Fri", "time": "11:15am"}, {"days": "Sat", "time": "9:15am"}, {"days": "Sun", "time": "Closed"}], "id": "6205100002", "name": "USPS COLLECTION BOX - PO LOBBY", "address": {"city": "IRVING", "state": "IL", "street": "101 E STATE ST", "postcode": "62051"}}},
{"geometry": {"type": "Point", "coordinates": [-90.3285177297, 39.1191732923]}, "type": "Feature", "properties": {"collection_times": [{"days": "Mon-Fri", "time": "5:00pm"}, {"days": "Sat", "time": "3:45pm"}, {"days": "Sun", "time": "Closed"}], "id": "6205200001", "name": "USPS COLLECTION BOX - BLUE BOX", "address": {"city": "JERSEYVILLE", "state": "IL", "street": "115 N WASHINGTON ST", "postcode": "62052"}}},
{"geometry": {"type": "Point", "coordinates": [-90.3285177297, 39.1191732923]}, "type": "Feature", "properties": {"collection_times": [{"days": "Mon-Fri", "time": "5:00pm"}, {"days": "Sat", "time": "3:45pm"}, {"days": "Sun", "time": "Closed"}], "id": "6205200004", "name": "USPS COLLECTION BOX - BLUE BOX", "address": {"city": "JERSEYVILLE", "state": "IL", "street": "115 N WASHINGTON ST", "postcode": "62052"}}},
{"geometry": {"type": "Point", "coordinates": [-90.3285177297, 39.1191732923]}, "type": "Feature", "properties": {"collection_times": [{"days": "Mon-Fri", "time": "5:00pm"}, {"days": "Sat", "time": "3:45pm"}, {"days": "Sun", "time": "Closed"}], "id": "6205200005", "name": "USPS COLLECTION BOX - BLUE BOX", "address": {"city": "JERSEYVILLE", "state": "IL", "street": "115 N WASHINGTON ST", "postcode": "62052"}}},
{"geometry": {"type": "Point", "coordinates": [-90.3195978188, 39.1102720773]}, "type": "Feature", "properties": {"collection_times": [{"days": "Mon-Sat", "time": "11:30am"}, {"days": "Sun", "time": "Closed"}], "id": "6205200010", "name": "USPS COLLECTION BOX - BLUE BOX", "address": {"city": "JERSEYVILLE", "state": "IL", "street": "935 S STATE ST", "postcode": "62052"}}},
{"geometry": {"type": "Point", "coordinates": [-90.3168454798, 39.1066768503]}, "type": "Feature", "properties": {"collection_times": [{"days": "Mon-Sat", "time": "10:00am"}, {"days": "Sun", "time": "Closed"}], "id": "6205200015", "name": "USPS COLLECTION BOX - BLUE BOX", "address": {"city": "JERSEYVILLE", "state": "IL", "street": "1316 S STATE ST", "postcode": "62052"}}},
{"geometry": {"type": "Point", "coordinates": [-90.3285177297, 39.1191732923]}, "type": "Feature", "properties": {"collection_times": [{"days": "Mon-Fri", "time": "5:00pm"}, {"days": "Sat", "time": "3:45pm"}, {"days": "Sun", "time": "Closed"}], "id": "6205200016", "name": "USPS COLLECTION BOX - PO LOBBY", "address": {"city": "JERSEYVILLE", "state": "IL", "street": "115 N WASHINGTON ST", "postcode": "62052"}}},
{"geometry": {"type": "Point", "coordinates": [-90.3285177297, 39.1191732923]}, "type": "Feature", "properties": {"collection_times": [{"days": "Mon-Fri", "time": "5:00pm"}, {"days": "Sat", "time": "3:45pm"}, {"days": "Sun", "time": "Closed"}], "id": "6205200017", "name": "USPS COLLECTION BOX - PO LOBBY", "address": {"city": "JERSEYVILLE", "state": "IL", "street": "115 N WASHINGTON ST", "postcode": "62052"}}},
{"geometry": {"type": "Point", "coordinates": [-90.6484287714, 39.3238758859]}, "type": "Feature", "properties": {"collection_times": [{"days": "Mon-Fri", "time": "4:00pm"}, {"days": "Sat", "time": "9:45am"}, {"days": "Sun", "time": "Closed"}], "id": "6205300001", "name": "USPS COLLECTION BOX - BLUE BOX", "address": {"city": "KAMPSVILLE", "state": "IL", "street": "1 POSTAL WAY", "postcode": "62053"}}},
{"geometry": {"type": "Point", "coordinates": [-90.6484287714, 39.3238758859]}, "type": "Feature", "properties": {"collection_times": [{"days": "Mon-Fri", "time": "3:45pm"}, {"days": "Sat", "time": "9:15am"}, {"days": "Sun", "time": "Closed"}], "id": "6205300002", "name": "USPS COLLECTION BOX - PO LOBBY", "address": {"city": "KAMPSVILLE", "state": "IL", "street": "1 POSTAL WAY", "postcode": "62053"}}},
{"geometry": {"type": "Point", "coordinates": [-90.3668973796, 39.2146828746]}, "type": "Feature", "properties": {"collection_times": [{"days": "Mon-Fri", "time": "3:45pm"}, {"days": "Sat", "time": "9:45am"}, {"days": "Sun", "time": "Closed"}], "id": "6205400001", "name": "USPS COLLECTION BOX - BLUE BOX", "address": {"city": "KANE", "state": "IL", "street": "309 N MAIN ST", "postcode": "62054"}}},
{"geometry": {"type": "Point", "coordinates": [-90.3668973796, 39.2146828746]}, "type": "Feature", "properties": {"collection_times": [{"days": "Mon-Fri", "time": "4:15pm"}, {"days": "Sat", "time": "12:15pm"}, {"days": "Sun", "time": "Closed"}], "id": "6205400002", "name": "USPS COLLECTION BOX - PO LOBBY", "address": {"city": "KANE", "state": "IL", "street": "309 N MAIN ST", "postcode": "62054"}}},
{"geometry": {"type": "Point", "coordinates": [-89.6540744558, 39.1773150807]}, "type": "Feature", "properties": {"collection_times": [{"days": "Mon-Fri", "time": "5:15pm"}, {"days": "Sat", "time": "3:30pm"}, {"days": "Sun", "time": "Closed"}], "id": "6205600009", "name": "USPS COLLECTION BOX - PO LOBBY", "address": {"city": "LITCHFIELD", "state": "IL", "street": "202 E KIRKHAM ST", "postcode": "62056"}}},
{"geometry": {"type": "Point", "coordinates": [-89.6540744558, 39.1773150807]}, "type": "Feature", "properties": {"collection_times": [{"days": "Mon-Fri", "time": "5:15pm"}, {"days": "Sat", "time": "3:30pm"}, {"days": "Sun", "time": "Closed"}], "id": "6205600012", "name": "USPS COLLECTION BOX - PO LOBBY", "address": {"city": "LITCHFIELD", "state": "IL", "street": "202 E KIRKHAM ST", "postcode": "62056"}}},
{"geometry": {"type": "Point", "coordinates": [-89.6540744558, 39.1773150807]}, "type": "Feature", "properties": {"collection_times": [{"days": "Mon-Fri", "time": "5:15pm"}, {"days": "Sat", "time": "3:30pm"}, {"days": "Sun", "time": "Closed"}], "id": "6205600013", "name": "USPS COLLECTION BOX - BLUE BOX", "address": {"city": "LITCHFIELD", "state": "IL", "street": "202 E KIRKHAM ST", "postcode": "62056"}}},
{"geometry": {"type": "Point", "coordinates": [-89.6540744558, 39.1773150807]}, "type": "Feature", "properties": {"collection_times": [{"days": "Mon-Fri", "time": "5:15pm"}, {"days": "Sat", "time": "3:30pm"}, {"days": "Sun", "time": "Closed"}], "id": "6205600014", "name": "USPS COLLECTION BOX - BLUE BOX", "address": {"city": "LITCHFIELD", "state": "IL", "street": "202 E KIRKHAM ST", "postcode": "62056"}}},
{"geometry": {"type": "Point", "coordinates": [-89.7642943229, 38.9653923743]}, "type": "Feature", "properties": {"collection_times": [{"days": "Mon-Fri", "time": "4:15pm"}, {"days": "Sat", "time": "8:45am"}, {"days": "Sun", "time": "Closed"}], "id": "6205800001", "name": "USPS COLLECTION BOX - PO LOBBY", "address": {"city": "LIVINGSTON", "state": "IL", "street": "301 S LIVINGSTON AVE", "postcode": "62058"}}},
{"geometry": {"type": "Point", "coordinates": [-89.7642943229, 38.9653923743]}, "type": "Feature", "properties": {"collection_times": [{"days": "Mon-Fri", "time": "4:30pm"}, {"days": "Sat", "time": "10:00am"}, {"days": "Sun", "time": "Closed"}], "id": "6205800002", "name": "USPS COLLECTION BOX - BLUE BOX", "address": {"city": "LIVINGSTON", "state": "IL", "street": "301 S LIVINGSTON AVE", "postcode": "62058"}}},
{"geometry": {"type": "Point", "coordinates": [-90.1672989879, 38.6549410235]}, "type": "Feature", "properties": {"collection_times": [{"days": "Mon-Fri", "time": "11:15am"}, {"days": "Sat", "time": "11:30am"}, {"days": "Sun", "time": "Closed"}], "id": "6205900001", "name": "USPS COLLECTION BOX - BLUE BOX", "address": {"city": "LOVEJOY", "state": "IL", "street": "413 S 3RD ST", "postcode": "62059"}}},
{"geometry": {"type": "Point", "coordinates": [-90.1672989879, 38.6549410235]}, "type": "Feature", "properties": {"collection_times": [{"days": "Mon-Fri", "time": "11:30am"}, {"days": "Sat-Sun", "time": "Closed"}], "id": "6205900002", "name": "USPS COLLECTION BOX - PO LOBBY", "address": {"city": "LOVEJOY", "state": "IL", "street": "413 S 3RD ST", "postcode": "62059"}}},
{"geometry": {"type": "Point", "coordinates": [-90.1577763671, 38.6822698527]}, "type": "Feature", "properties": {"collection_times": [{"days": "Mon-Fri", "time": "4:15pm"}, {"days": "Sat", "time": "11:00am"}, {"days": "Sun", "time": "Closed"}], "id": "6206000019", "name": "USPS COLLECTION BOX - BLUE BOX", "address": {"city": "MADISON", "state": "IL", "street": "549 MADISON AVE", "postcode": "62060"}}},
{"geometry": {"type": "Point", "coordinates": [-90.1577763671, 38.6822698527]}, "type": "Feature", "properties": {"collection_times": [{"days": "Mon-Fri", "time": "4:15pm"}, {"days": "Sat", "time": "11:00am"}, {"days": "Sun", "time": "Closed"}], "id": "6206000020", "name": "USPS COLLECTION BOX - BLUE BOX", "address": {"city": "MADISON", "state": "IL", "street": "549 MADISON AVE", "postcode": "62060"}}},
{"geometry": {"type": "Point", "coordinates": [-90.1577763671, 38.6822698527]}, "type": "Feature", "properties": {"collection_times": [{"days": "Mon-Fri", "time": "4:15pm"}, {"days": "Sat", "time": "10:45am"}, {"days": "Sun", "time": "Closed"}], "id": "6206000022", "name": "USPS COLLECTION BOX - PO LOBBY", "address": {"city": "MADISON", "state": "IL", "street": "549 MADISON AVE", "postcode": "62060"}}},
{"geometry": {"type": "Point", "coordinates": [-90.1577763671, 38.6822698527]}, "type": "Feature", "properties": {"collection_times": [{"days": "Mon-Fri", "time": "4:15pm"}, {"days": "Sat", "time": "10:45am"}, {"days": "Sun", "time": "Closed"}], "id": "6206000023", "name": "USPS COLLECTION BOX - PO LOBBY", "address": {"city": "MADISON", "state": "IL", "street": "549 MADISON AVE", "postcode": "62060"}}},
{"geometry": {"type": "Point", "coordinates": [-89.7775065532, 38.7881573836]}, "type": "Feature", "properties": {"collection_times": [{"days": "Mon-Fri", "time": "4:30pm"}, {"days": "Sat", "time": "10:00am"}, {"days": "Sun", "time": "Closed"}], "id": "6206100001", "name": "USPS COLLECTION BOX - BLUE BOX", "address": {"city": "MARINE", "state": "IL", "street": "120 E MAGNOLIA ST", "postcode": "62061"}}},
{"geometry": {"type": "Point", "coordinates": [-89.7775065532, 38.7881573836]}, "type": "Feature", "properties": {"collection_times": [{"days": "Mon-Fri", "time": "4:45pm"}, {"days": "Sat", "time": "1:15pm"}, {"days": "Sun", "time": "Closed"}], "id": "6206100002", "name": "USPS COLLECTION BOX - PO LOBBY", "address": {"city": "MARINE", "state": "IL", "street": "120 E MAGNOLIA ST", "postcode": "62061"}}},
{"geometry": {"type": "Point", "coordinates": [-89.956020298, 38.7354497803]}, "type": "Feature", "properties": {"collection_times": [{"days": "Mon-Fri", "time": "4:30pm"}, {"days": "Sat", "time": "11:30am"}, {"days": "Sun", "time": "Closed"}], "id": "6206200002", "name": "USPS COLLECTION BOX - BLUE BOX", "address": {"city": "MARYVILLE", "state": "IL", "street": "1 OAK DR - ND BOO", "postcode": "62062"}}},
{"geometry": {"type": "Point", "coordinates": [-89.9568762245, 38.7121500649]}, "type": "Feature", "properties": {"collection_times": [{"days": "Mon-Sat", "time": "10:00am"}, {"days": "Sun", "time": "Closed"}], "id": "6206200004", "name": "USPS COLLECTION BOX - BLUE BOX", "address": {"city": "MARYVILLE", "state": "IL", "street": "2921 MARYVILLE RD", "postcode": "62062"}}},
{"geometry": {"type": "Point", "coordinates": [-89.9567217927, 38.7320771643]}, "type": "Feature", "properties": {"collection_times": [{"days": "Mon-Sat", "time": "10:00am"}, {"days": "Sun", "time": "Closed"}], "id": "6206200005", "name": "USPS COLLECTION BOX - BLUE BOX", "address": {"city": "MARYVILLE", "state": "IL", "street": "2700 N CENTER ST", "postcode": "62062"}}},
{"geometry": {"type": "Point", "coordinates": [-89.9457930469, 38.7380575076]}, "type": "Feature", "properties": {"collection_times": [{"days": "Mon-Sat", "time": "10:00am"}, {"days": "Sun", "time": "Closed"}], "id": "6206200006", "name": "USPS COLLECTION BOX - BLUE BOX", "address": {"city": "MARYVILLE", "state": "IL", "street": "6810 STATE ROUTE 162", "postcode": "62062"}}},
{"geometry": {"type": "Point", "coordinates": [-89.9565431659, 38.7242613544]}, "type": "Feature", "properties": {"collection_times": [{"days": "Mon-Sat", "time": "10:00am"}, {"days": "Sun", "time": "Closed"}], "id": "6206200008", "name": "USPS COLLECTION BOX - BLUE BOX", "address": {"city": "MARYVILLE", "state": "IL", "street": "2110 S CENTER ST", "postcode": "62062"}}},
{"geometry": {"type": "Point", "coordinates": [-89.956020298, 38.7354497803]}, "type": "Feature", "properties": {"collection_times": [{"days": "Mon-Fri", "time": "4:30pm"}, {"days": "Sat", "time": "11:30am"}, {"days": "Sun", "time": "Closed"}], "id": "6206200009", "name": "USPS COLLECTION BOX - PO LOBBY", "address": {"city": "MARYVILLE", "state": "IL", "street": "1 OAK DR", "postcode": "62062"}}},
{"geometry": {"type": "Point", "coordinates": [-89.956020298, 38.7354497803]}, "type": "Feature", "properties": {"collection_times": [{"days": "Mon-Fri", "time": "4:30pm"}, {"days": "Sat", "time": "11:30am"}, {"days": "Sun", "time": "Closed"}], "id": "6206200010", "name": "USPS COLLECTION BOX - PO LOBBY", "address": {"city": "MARYVILLE", "state": "IL", "street": "1 OAK DR", "postcode": "62062"}}},
{"geometry": {"type": "Point", "coordinates": [-89.9565703739, 38.7118402853]}, "type": "Feature", "properties": {"collection_times": [{"days": "Mon-Sat", "time": "10:00am"}, {"days": "Sun", "time": "Closed"}], "id": "6206200011", "name": "USPS COLLECTION BOX - BLUE BOX", "address": {"city": "MARYVILLE", "state": "IL", "street": "2729 MARYVILLE RD", "postcode": "62062"}}},
{"geometry": {"type": "Point", "coordinates": [-90.1424011183, 39.1744615326]}, "type": "Feature", "properties": {"collection_times": [{"days": "Mon-Fri", "time": "3:15pm"}, {"days": "Sat", "time": "8:45am"}, {"days": "Sun", "time": "Closed"}], "id": "6206300001", "name": "USPS COLLECTION BOX - BLUE BOX", "address": {"city": "MEDORA", "state": "IL", "street": "104 N MAIN ST", "postcode": "62063"}}},
{"geometry": {"type": "Point", "coordinates": [-90.1424011183, 39.1744615326]}, "type": "Feature", "properties": {"collection_times": [{"days": "Mon-Fri", "time": "3:15pm"}, {"days": "Sat", "time": "8:45am"}, {"days": "Sun", "time": "Closed"}], "id": "6206300002", "name": "USPS COLLECTION BOX - PO LOBBY", "address": {"city": "MEDORA", "state": "IL", "street": "104 N MAIN ST", "postcode": "62063"}}},
{"geometry": {"type": "Point", "coordinates": [-90.0221550629, 38.9236330192]}, "type": "Feature", "properties": {"collection_times": [{"days": "Mon-Fri", "time": "5:00pm"}, {"days": "Sat", "time": "9:00am"}, {"days": "Sun", "time": "Closed"}], "id": "6206700001", "name": "USPS COLLECTION BOX - BLUE BOX", "address": {"city": "MORO", "state": "IL", "street": "31 N MAIN ST", "postcode": "62067"}}},
{"geometry": {"type": "Point", "coordinates": [-90.0221550629, 38.9236330192]}, "type": "Feature", "properties": {"collection_times": [{"days": "Mon-Fri", "time": "4:45pm"}, {"days": "Sat", "time": "10:45am"}, {"days": "Sun", "time": "Closed"}], "id": "6206700002", "name": "USPS COLLECTION BOX - PO LOBBY", "address": {"city": "MORO", "state": "IL", "street": "31 N MAIN ST", "postcode": "62067"}}},
{"geometry": {"type": "Point", "coordinates": [-89.7269920465, 39.0719483293]}, "type": "Feature", "properties": {"collection_times": [{"days": "Mon-Fri", "time": "4:30pm"}, {"days": "Sat", "time": "2:45pm"}, {"days": "Sun", "time": "Closed"}], "id": "6206900001", "name": "USPS COLLECTION BOX - BLUE BOX", "address": {"city": "MOUNT OLIVE", "state": "IL", "street": "118 S POPLAR ST", "postcode": "62069"}}},
{"geometry": {"type": "Point", "coordinates": [-89.7352444183, 39.0722404534]}, "type": "Feature", "properties": {"collection_times": [{"days": "Mon-Sat", "time": "10:00am"}, {"days": "Sun", "time": "Closed"}], "id": "6206900014", "name": "USPS COLLECTION BOX - BLUE BOX", "address": {"city": "MOUNT OLIVE", "state": "IL", "street": "701 W MAIN ST", "postcode": "62069"}}},
{"geometry": {"type": "Point", "coordinates": [-89.7432533429, 39.0962308283]}, "type": "Feature", "properties": {"collection_times": [{"days": "Mon-Sat", "time": "12:30pm"}, {"days": "Sun", "time": "Closed"}], "id": "6206900015", "name": "USPS COLLECTION BOX - BLUE BOX", "address": {"city": "MOUNT OLIVE", "state": "IL", "street": "6583 E FELLIN DR", "postcode": "62069"}}},
{"geometry": {"type": "Point", "coordinates": [-89.7269920465, 39.0719483293]}, "type": "Feature", "properties": {"collection_times": [{"days": "Mon-Fri", "time": "4:30pm"}, {"days": "Sat", "time": "2:45pm"}, {"days": "Sun", "time": "Closed"}], "id": "6206900016", "name": "USPS COLLECTION BOX - PO LOBBY", "address": {"city": "MOUNT OLIVE", "state": "IL", "street": "118 S POPLAR ST", "postcode": "62069"}}},
{"geometry": {"type": "Point", "coordinates": [-90.1499491913, 38.6421534005]}, "type": "Feature", "properties": {"collection_times": [{"days": "Mon-Fri", "time": "3:45pm"}, {"days": "Sat", "time": "7:30am"}, {"days": "Sun", "time": "Closed"}], "id": "6207100001", "name": "USPS COLLECTION BOX - PO LOBBY", "address": {"city": "NAT'L STOCKYARDS", "state": "IL", "street": "79 EXCHANGE ST", "postcode": "62071"}}},
{"geometry": {"type": "Point", "coordinates": [-89.6663704295, 38.9709520681]}, "type": "Feature", "properties": {"collection_times": [{"days": "Mon-Fri", "time": "11:45am"}, {"days": "Sat", "time": "12:00pm"}, {"days": "Sun", "time": "Closed"}], "id": "6207400001", "name": "USPS COLLECTION BOX - BLUE BOX", "address": {"city": "NEW DOUGLAS", "state": "IL", "street": "113 N MAIN ST", "postcode": "62074"}}},
{"geometry": {"type": "Point", "coordinates": [-89.6663704295, 38.9709520681]}, "type": "Feature", "properties": {"collection_times": [{"days": "Mon-Fri", "time": "11:45am"}, {"days": "Sat", "time": "9:00am"}, {"days": "Sun", "time": "Closed"}], "id": "6207400003", "name": "USPS COLLECTION BOX - PO LOBBY", "address": {"city": "NEW DOUGLAS", "state": "IL", "street": "113 N MAIN ST", "postcode": "62074"}}},
{"geometry": {"type": "Point", "coordinates": [-89.28615229, 39.300312462]}, "type": "Feature", "properties": {"collection_times": [{"days": "Mon-Fri", "time": "4:45pm"}, {"days": "Sat", "time": "11:00am"}, {"days": "Sun", "time": "Closed"}], "id": "6207500001", "name": "USPS COLLECTION BOX - PO LOBBY", "address": {"city": "NOKOMIS", "state": "IL", "street": "121 S PINE ST", "postcode": "62075"}}},
{"geometry": {"type": "Point", "coordinates": [-89.28615229, 39.300312462]}, "type": "Feature", "properties": {"collection_times": [{"days": "Mon-Fri", "time": "4:30pm"}, {"days": "Sat", "time": "11:00am"}, {"days": "Sun", "time": "Closed"}], "id": "6207500002", "name": "USPS COLLECTION BOX - BLUE BOX", "address": {"city": "NOKOMIS", "state": "IL", "street": "121 S PINE ST", "postcode": "62075"}}},
{"geometry": {"type": "Point", "coordinates": [-89.28615229, 39.300312462]}, "type": "Feature", "properties": {"collection_times": [{"days": "Mon-Fri", "time": "4:30pm"}, {"days": "Sat", "time": "11:00am"}, {"days": "Sun", "time": "Closed"}], "id": "6207500008", "name": "USPS COLLECTION BOX - BLUE BOX", "address": {"city": "NOKOMIS", "state": "IL", "street": "121 S PINE ST", "postcode": "62075"}}},
{"geometry": {"type": "Point", "coordinates": [-89.28615229, 39.300312462]}, "type": "Feature", "properties": {"collection_times": [{"days": "Mon-Fri", "time": "4:45pm"}, {"days": "Sat", "time": "11:00am"}, {"days": "Sun", "time": "Closed"}], "id": "6207500012", "name": "USPS COLLECTION BOX - PO LOBBY", "address": {"city": "NOKOMIS", "state": "IL", "street": "121 S PINE ST", "postcode": "62075"}}},
{"geometry": {"type": "Point", "coordinates": [-89.2860778049, 39.3002993794]}, "type": "Feature", "properties": {"collection_times": [{"days": "Mon-Fri", "time": "1:30pm"}, {"days": "Sat", "time": "11:45am"}, {"days": "Sun", "time": "Closed"}], "id": "6207600001", "name": "USPS COLLECTION BOX - BLUE BOX", "address": {"city": "OHLMAN", "state": "IL", "street": "1 POSTAL WAY", "postcode": "62076"}}},
{"geometry": {"type": "Point", "coordinates": [-89.2860778049, 39.3002993794]}, "type": "Feature", "properties": {"collection_times": [{"days": "Mon-Fri", "time": "1:30pm"}, {"days": "Sat", "time": "12:00pm"}, {"days": "Sun", "time": "Closed"}], "id": "6207600002", "name": "USPS COLLECTION BOX - PO LOBBY", "address": {"city": "OHLMAN", "state": "IL", "street": "1 POSTAL WAY", "postcode": "62076"}}},
{"geometry": {"type": "Point", "coordinates": [-89.5239731233, 39.0295197773]}, "type": "Feature", "properties": {"collection_times": [{"days": "Mon-Fri", "time": "4:30pm"}, {"days": "Sat", "time": "8:30am"}, {"days": "Sun", "time": "Closed"}], "id": "6207700000", "name": "USPS COLLECTION BOX - BLUE BOX", "address": {"city": "PANAMA", "state": "IL", "street": "106 NORTH AVE", "postcode": "62077"}}},
{"geometry": {"type": "Point", "coordinates": [-89.5239731233, 39.0295197773]}, "type": "Feature", "properties": {"collection_times": [{"days": "Mon-Fri", "time": "4:30pm"}, {"days": "Sat", "time": "11:30am"}, {"days": "Sun", "time": "Closed"}], "id": "6207700002", "name": "USPS COLLECTION BOX - PO LOBBY", "address": {"city": "PANAMA", "state": "IL", "street": "106 NORTH AVE", "postcode": "62077"}}},
{"geometry": {"type": "Point", "coordinates": [-90.4731990935, 39.4850255844]}, "type": "Feature", "properties": {"collection_times": [{"days": "Mon-Fri", "time": "11:45am"}, {"days": "Sat", "time": "10:15am"}, {"days": "Sun", "time": "Closed"}], "id": "6207800002", "name": "USPS COLLECTION BOX - PO LOBBY", "address": {"city": "PATTERSON", "state": "IL", "street": "36 ELIZABETH ST", "postcode": "62078"}}},
{"geometry": {"type": "Point", "coordinates": [-90.4731990935, 39.4850255844]}, "type": "Feature", "properties": {"collection_times": [{"days": "Mon-Fri", "time": "11:45am"}, {"days": "Sat", "time": "10:15am"}, {"days": "Sun", "time": "Closed"}], "id": "6207800003", "name": "USPS COLLECTION BOX - BLUE BOX", "address": {"city": "PATTERSON", "state": "IL", "street": "36 ELIZABETH ST", "postcode": "62078"}}},
{"geometry": {"type": "Point", "coordinates": [-90.1264788367, 39.1162285374]}, "type": "Feature", "properties": {"collection_times": [{"days": "Mon-Fri", "time": "2:15pm"}, {"days": "Sat", "time": "1:00pm"}, {"days": "Sun", "time": "Closed"}], "id": "6207900001", "name": "USPS COLLECTION BOX - BLUE BOX", "address": {"city": "PIASA", "state": "IL", "street": "1276 ROUTE 16", "postcode": "62079"}}},
{"geometry": {"type": "Point", "coordinates": [-90.1264788367, 39.1162285374]}, "type": "Feature", "properties": {"collection_times": [{"days": "Mon-Fri", "time": "2:15pm"}, {"days": "Sat", "time": "1:00pm"}, {"days": "Sun", "time": "Closed"}], "id": "6207900002", "name": "USPS COLLECTION BOX - PO LOBBY", "address": {"city": "PIASA", "state": "IL", "street": "1276 ROUTE 16", "postcode": "62079"}}},
{"geometry": {"type": "Point", "coordinates": [-90.1264788367, 39.1162285374]}, "type": "Feature", "properties": {"collection_times": [{"days": "Mon-Fri", "time": "2:15pm"}, {"days": "Sat", "time": "1:00pm"}, {"days": "Sun", "time": "Closed"}], "id": "6207900003", "name": "USPS COLLECTION BOX - PO LOBBY", "address": {"city": "PIASA", "state": "IL", "street": "1276 ROUTE 16", "postcode": "62079"}}},
{"geometry": {"type": "Point", "coordinates": [-89.1082200771, 39.142032203]}, "type": "Feature", "properties": {"collection_times": [{"days": "Mon-Fri", "time": "4:30pm"}, {"days": "Sat", "time": "7:30am"}, {"days": "Sun", "time": "Closed"}], "id": "6208000001", "name": "USPS COLLECTION BOX - BLUE BOX", "address": {"city": "RAMSEY", "state": "IL", "street": "316 S SUPERIOR ST", "postcode": "62080"}}},
{"geometry": {"type": "Point", "coordinates": [-89.1082200771, 39.142032203]}, "type": "Feature", "properties": {"collection_times": [{"days": "Mon-Fri", "time": "4:45pm"}, {"days": "Sat", "time": "9:45am"}, {"days": "Sun", "time": "Closed"}], "id": "6208000002", "name": "USPS COLLECTION BOX - PO LOBBY", "address": {"city": "RAMSEY", "state": "IL", "street": "316 S SUPERIOR ST", "postcode": "62080"}}},
{"geometry": {"type": "Point", "coordinates": [-90.2019123916, 39.2703708664]}, "type": "Feature", "properties": {"collection_times": [{"days": "Mon-Fri", "time": "9:15am"}, {"days": "Sat", "time": "9:00am"}, {"days": "Sun", "time": "Closed"}], "id": "6208100001", "name": "USPS COLLECTION BOX - BLUE BOX", "address": {"city": "ROCKBRIDGE", "state": "IL", "street": "4 OLIVE ST", "postcode": "62081"}}},
{"geometry": {"type": "Point", "coordinates": [-90.2019123916, 39.2703708664]}, "type": "Feature", "properties": {"collection_times": [{"days": "Mon-Sat", "time": "9:15am"}, {"days": "Sun", "time": "Closed"}], "id": "6208100002", "name": "USPS COLLECTION BOX - PO LOBBY", "address": {"city": "ROCKBRIDGE", "state": "IL", "street": "4 OLIVE ST", "postcode": "62081"}}},
{"geometry": {"type": "Point", "coordinates": [-90.30273757, 39.4927191353]}, "type": "Feature", "properties": {"collection_times": [{"days": "Mon-Sat", "time": "2:00pm"}, {"days": "Sun", "time": "Closed"}], "id": "6208200010", "name": "USPS COLLECTION BOX - BLUE BOX", "address": {"city": "ROODHOUSE", "state": "IL", "street": "1100 S STATE ST", "postcode": "62082"}}},
{"geometry": {"type": "Point", "coordinates": [-90.3727060904, 39.4831188969]}, "type": "Feature", "properties": {"collection_times": [{"days": "Mon-Fri", "time": "3:45pm"}, {"days": "Sat", "time": "12:45pm"}, {"days": "Sun", "time": "Closed"}], "id": "6208200026", "name": "USPS COLLECTION BOX - PO LOBBY", "address": {"city": "ROODHOUSE", "state": "IL", "street": "209 S MORSE ST", "postcode": "62082"}}},
{"geometry": {"type": "Point", "coordinates": [-90.3727060904, 39.4831188969]}, "type": "Feature", "properties": {"collection_times": [{"days": "Mon-Fri", "time": "4:00pm"}, {"days": "Sat", "time": "12:45pm"}, {"days": "Sun", "time": "Closed"}], "id": "6208200027", "name": "USPS COLLECTION BOX - BLUE BOX", "address": {"city": "ROODHOUSE", "state": "IL", "street": "209 S MORSE ST", "postcode": "62082"}}},
{"geometry": {"type": "Point", "coordinates": [-89.162066842, 39.3801831178]}, "type": "Feature", "properties": {"collection_times": [{"days": "Mon-Fri", "time": "11:15am"}, {"days": "Sat", "time": "9:15am"}, {"days": "Sun", "time": "Closed"}], "id": "6208300001", "name": "USPS COLLECTION BOX - PO LOBBY", "address": {"city": "ROSAMOND", "state": "IL", "street": "201 N ROSAMOND AVE", "postcode": "62083"}}},
{"geometry": {"type": "Point", "coordinates": [-89.162066842, 39.3801831178]}, "type": "Feature", "properties": {"collection_times": [{"days": "Mon-Fri", "time": "11:15am"}, {"days": "Sat", "time": "9:15am"}, {"days": "Sun", "time": "Closed"}], "id": "6208300002", "name": "USPS COLLECTION BOX - BLUE BOX", "address": {"city": "ROSAMOND", "state": "IL", "street": "201 N ROSAMOND AVE", "postcode": "62083"}}},
{"geometry": {"type": "Point", "coordinates": [-90.0789745314, 38.8486307533]}, "type": "Feature", "properties": {"collection_times": [{"days": "Mon-Fri", "time": "4:30pm"}, {"days": "Sat", "time": "9:30am"}, {"days": "Sun", "time": "Closed"}], "id": "6208400001", "name": "USPS COLLECTION BOX - BLUE BOX", "address": {"city": "ROXANA", "state": "IL", "street": "200 N CENTRAL AVE", "postcode": "62084"}}},
{"geometry": {"type": "Point", "coordinates": [-90.0790409326, 38.8520221056]}, "type": "Feature", "properties": {"collection_times": [{"days": "Mon-Fri", "time": "4:30pm"}, {"days": "Sat", "time": "9:30am"}, {"days": "Sun", "time": "Closed"}], "id": "6208400006", "name": "USPS COLLECTION BOX - BLUE BOX", "address": {"city": "ROXANA", "state": "IL", "street": "400 S CENTRAL AVE", "postcode": "62084"}}},
{"geometry": {"type": "Point", "coordinates": [-89.8084270979, 39.0794715373]}, "type": "Feature", "properties": {"collection_times": [{"days": "Mon-Fri", "time": "4:00pm"}, {"days": "Sat", "time": "10:00am"}, {"days": "Sun", "time": "Closed"}], "id": "6208500001", "name": "USPS COLLECTION BOX - BLUE BOX", "address": {"city": "SAWYERVILLE", "state": "IL", "street": "200 MINE RD", "postcode": "62085"}}},
{"geometry": {"type": "Point", "coordinates": [-89.8084270979, 39.0794715373]}, "type": "Feature", "properties": {"collection_times": [{"days": "Mon-Fri", "time": "4:15pm"}, {"days": "Sat", "time": "10:15am"}, {"days": "Sun", "time": "Closed"}], "id": "6208500002", "name": "USPS COLLECTION BOX - PO LOBBY", "address": {"city": "SAWYERVILLE", "state": "IL", "street": "200 MINE RD", "postcode": "62085"}}},
{"geometry": {"type": "Point", "coordinates": [-89.5731261491, 39.0001945199]}, "type": "Feature", "properties": {"collection_times": [{"days": "Mon-Fri", "time": "3:15pm"}, {"days": "Sat", "time": "9:15am"}, {"days": "Sun", "time": "Closed"}], "id": "6208600001", "name": "USPS COLLECTION BOX - BLUE BOX", "address": {"city": "SORENTO", "state": "IL", "street": "100 N MAIN ST", "postcode": "62086"}}},
{"geometry": {"type": "Point", "coordinates": [-89.5731261491, 39.0001945199]}, "type": "Feature", "properties": {"collection_times": [{"days": "Mon-Fri", "time": "3:15pm"}, {"days": "Sat", "time": "9:15am"}, {"days": "Sun", "time": "Closed"}], "id": "6208600002", "name": "USPS COLLECTION BOX - PO LOBBY", "address": {"city": "SORENTO", "state": "IL", "street": "100 N MAIN ST", "postcode": "62086"}}},
{"geometry": {"type": "Point", "coordinates": [-90.0631237694, 38.8316056408]}, "type": "Feature", "properties": {"collection_times": [{"days": "Mon-Fri", "time": "3:00pm"}, {"days": "Sat", "time": "9:45am"}, {"days": "Sun", "time": "Closed"}], "id": "6208700001", "name": "USPS COLLECTION BOX - BLUE BOX", "address": {"city": "SOUTH ROXANA", "state": "IL", "street": "215 SINCLAIR AVE", "postcode": "62087"}}},
{"geometry": {"type": "Point", "coordinates": [-90.0631237694, 38.8316056408]}, "type": "Feature", "properties": {"collection_times": [{"days": "Mon-Fri", "time": "2:45pm"}, {"days": "Sat", "time": "9:45am"}, {"days": "Sun", "time": "Closed"}], "id": "6208700006", "name": "USPS COLLECTION BOX - PO LOBBY", "address": {"city": "SOUTH ROXANA", "state": "IL", "street": "215 SINCLAIR AVE", "postcode": "62087"}}},
{"geometry": {"type": "Point", "coordinates": [-89.788935909, 39.0107926289]}, "type": "Feature", "properties": {"collection_times": [{"days": "Mon-Fri", "time": "5:00pm"}, {"days": "Sat", "time": "11:30am"}, {"days": "Sun", "time": "Closed"}], "id": "6208800001", "name": "USPS COLLECTION BOX - PO LOBBY", "address": {"city": "STAUNTON", "state": "IL", "street": "113 S EDWARDSVILLE ST", "postcode": "62088"}}},
{"geometry": {"type": "Point", "coordinates": [-89.7889359092, 39.0108839205]}, "type": "Feature", "properties": {"collection_times": [{"days": "Mon-Fri", "time": "5:00pm"}, {"days": "Sat", "time": "11:30am"}, {"days": "Sun", "time": "Closed"}], "id": "6208800002", "name": "USPS COLLECTION BOX - BLUE BOX", "address": {"city": "STAUNTON", "state": "IL", "street": "113 S EDWARDSVILLE ST", "postcode": "62088"}}},
{"geometry": {"type": "Point", "coordinates": [-89.7878462891, 39.0120166234]}, "type": "Feature", "properties": {"collection_times": [{"days": "Mon-Sat", "time": "1:30pm"}, {"days": "Sun", "time": "Closed"}], "id": "6208800005", "name": "USPS COLLECTION BOX - BLUE BOX", "address": {"city": "STAUNTON", "state": "IL", "street": "115 S ELM ST", "postcode": "62088"}}},
{"geometry": {"type": "Point", "coordinates": [-89.4929522232, 39.1302305167]}, "type": "Feature", "properties": {"collection_times": [{"days": "Mon-Fri", "time": "4:45pm"}, {"days": "Sat", "time": "10:15am"}, {"days": "Sun", "time": "Closed"}], "id": "6208900001", "name": "USPS COLLECTION BOX - BLUE BOX", "address": {"city": "TAYLOR SPRINGS", "state": "IL", "street": "618 E MAIN ST", "postcode": "62089"}}},
{"geometry": {"type": "Point", "coordinates": [-89.4929522232, 39.1302305167]}, "type": "Feature", "properties": {"collection_times": [{"days": "Mon-Fri", "time": "4:45pm"}, {"days": "Sat", "time": "10:15am"}, {"days": "Sun", "time": "Closed"}], "id": "6208900002", "name": "USPS COLLECTION BOX - PO LOBBY", "address": {"city": "TAYLOR SPRINGS", "state": "IL", "street": "618 E MAIN ST", "postcode": "62089"}}},
{"geometry": {"type": "Point", "coordinates": [-90.1698925446, 38.6721847533]}, "type": "Feature", "properties": {"collection_times": [{"days": "Mon-Fri", "time": "4:00pm"}, {"days": "Sat", "time": "9:00am"}, {"days": "Sun", "time": "Closed"}], "id": "6209000001", "name": "USPS COLLECTION BOX - BLUE BOX", "address": {"city": "VENICE", "state": "IL", "street": "408 BROADWAY", "postcode": "62090"}}},
{"geometry": {"type": "Point", "coordinates": [-90.1698925446, 38.6721847533]}, "type": "Feature", "properties": {"collection_times": [{"days": "Mon-Fri", "time": "3:45pm"}, {"days": "Sat", "time": "10:15am"}, {"days": "Sun", "time": "Closed"}], "id": "6209000006", "name": "USPS COLLECTION BOX - PO LOBBY", "address": {"city": "VENICE", "state": "IL", "street": "408 BROADWAY", "postcode": "62090"}}},
{"geometry": {"type": "Point", "coordinates": [-90.1698925446, 38.6721847533]}, "type": "Feature", "properties": {"collection_times": [{"days": "Mon-Fri", "time": "3:45pm"}, {"days": "Sat", "time": "10:15am"}, {"days": "Sun", "time": "Closed"}], "id": "6209000008", "name": "USPS COLLECTION BOX - PO LOBBY", "address": {"city": "VENICE", "state": "IL", "street": "408 BROADWAY", "postcode": "62090"}}},
{"geometry": {"type": "Point", "coordinates": [-90.4021735626, 39.4365585479]}, "type": "Feature", "properties": {"collection_times": [{"days": "Mon-Fri", "time": "3:30pm"}, {"days": "Sat", "time": "11:00am"}, {"days": "Sun", "time": "Closed"}], "id": "6209200003", "name": "USPS COLLECTION BOX - BLUE BOX", "address": {"city": "WHITE HALL", "state": "IL", "street": "120 S JACKSONVILLE ST", "postcode": "62092"}}},
{"geometry": {"type": "Point", "coordinates": [-90.4021735626, 39.4365585479]}, "type": "Feature", "properties": {"collection_times": [{"days": "Mon-Fri", "time": "3:30pm"}, {"days": "Sat", "time": "11:00am"}, {"days": "Sun", "time": "Closed"}], "id": "6209200004", "name": "USPS COLLECTION BOX - BLUE BOX", "address": {"city": "WHITE HALL", "state": "IL", "street": "120 S JACKSONVILLE ST", "postcode": "62092"}}},
{"geometry": {"type": "Point", "coordinates": [-90.4021735626, 39.4365585479]}, "type": "Feature", "properties": {"collection_times": [{"days": "Mon-Fri", "time": "4:00pm"}, {"days": "Sat", "time": "11:00am"}, {"days": "Sun", "time": "Closed"}], "id": "6209200017", "name": "USPS COLLECTION BOX - PO LOBBY", "address": {"city": "WHITE HALL", "state": "IL", "street": "120 S JACKSONVILLE ST", "postcode": "62092"}}},
{"geometry": {"type": "Point", "coordinates": [-89.8530804253, 39.0707516697]}, "type": "Feature", "properties": {"collection_times": [{"days": "Mon-Fri", "time": "4:30pm"}, {"days": "Sat", "time": "10:15am"}, {"days": "Sun", "time": "Closed"}], "id": "6209300001", "name": "USPS COLLECTION BOX - BLUE BOX", "address": {"city": "WILSONVILLE", "state": "IL", "street": "510 DEAN ST", "postcode": "62093"}}},
{"geometry": {"type": "Point", "coordinates": [-89.8530804253, 39.0707516697]}, "type": "Feature", "properties": {"collection_times": [{"days": "Mon-Fri", "time": "4:30pm"}, {"days": "Sat", "time": "9:45am"}, {"days": "Sun", "time": "Closed"}], "id": "6209300002", "name": "USPS COLLECTION BOX - PO LOBBY", "address": {"city": "WILSONVILLE", "state": "IL", "street": "510 DEAN ST", "postcode": "62093"}}},
{"geometry": {"type": "Point", "coordinates": [-89.3523232927, 39.254075553]}, "type": "Feature", "properties": {"collection_times": [{"days": "Mon-Fri", "time": "2:15pm"}, {"days": "Sat", "time": "8:30am"}, {"days": "Sun", "time": "Closed"}], "id": "6209400002", "name": "USPS COLLECTION BOX - PO LOBBY", "address": {"city": "WITT", "state": "IL", "street": "35 W BROADWAY", "postcode": "62094"}}},
{"geometry": {"type": "Point", "coordinates": [-89.3523232927, 39.254075553]}, "type": "Feature", "properties": {"collection_times": [{"days": "Mon-Fri", "time": "2:15pm"}, {"days": "Sat", "time": "8:30am"}, {"days": "Sun", "time": "Closed"}], "id": "6209400004", "name": "USPS COLLECTION BOX - BLUE BOX", "address": {"city": "WITT", "state": "IL", "street": "35 W BROADWAY", "postcode": "62094"}}},
{"geometry": {"type": "Point", "coordinates": [-90.093934386, 38.8610599121]}, "type": "Feature", "properties": {"collection_times": [{"days": "Mon-Fri", "time": "5:30pm"}, {"days": "Sat", "time": "3:30pm"}, {"days": "Sun", "time": "Closed"}], "id": "6209500001", "name": "USPS COLLECTION BOX - PO LOBBY", "address": {"city": "WOOD RIVER", "state": "IL", "street": "161 E FERGUSON AVE", "postcode": "62095"}}},
{"geometry": {"type": "Point", "coordinates": [-90.093934386, 38.8610599121]}, "type": "Feature", "properties": {"collection_times": [{"days": "Mon-Fri", "time": "5:00pm"}, {"days": "Sat", "time": "3:30pm"}, {"days": "Sun", "time": "Closed"}], "id": "6209500002", "name": "USPS COLLECTION BOX - BLUE BOX", "address": {"city": "WOOD RIVER", "state": "IL", "street": "161 E FERGUSON AVE", "postcode": "62095"}}},
{"geometry": {"type": "Point", "coordinates": [-90.0829971912, 38.8635838426]}, "type": "Feature", "properties": {"collection_times": [{"days": "Mon-Sat", "time": "1:30pm"}, {"days": "Sun", "time": "Closed"}], "id": "6209500004", "name": "USPS COLLECTION BOX - BLUE BOX", "address": {"city": "WOOD RIVER", "state": "IL", "street": "18 E LORENA AVE", "postcode": "62095"}}},
{"geometry": {"type": "Point", "coordinates": [-90.0993369596, 38.8741895737]}, "type": "Feature", "properties": {"collection_times": [{"days": "Mon-Sat", "time": "1:30pm"}, {"days": "Sun", "time": "Closed"}], "id": "6209500005", "name": "USPS COLLECTION BOX - BLUE BOX", "address": {"city": "WOOD RIVER", "state": "IL", "street": "18 W EDWARDSVILLE RD", "postcode": "62095"}}},
{"geometry": {"type": "Point", "coordinates": [-90.0777238137, 38.8630846115]}, "type": "Feature", "properties": {"collection_times": [{"days": "Mon-Sat", "time": "1:30pm"}, {"days": "Sun", "time": "Closed"}], "id": "6209500006", "name": "USPS COLLECTION BOX - BLUE BOX", "address": {"city": "WOOD RIVER", "state": "IL", "street": "1205 E EDWARDSVILLE RD", "postcode": "62095"}}},
{"geometry": {"type": "Point", "coordinates": [-90.0710116146, 38.8579827888]}, "type": "Feature", "properties": {"collection_times": [{"days": "Mon-Sat", "time": "1:30pm"}, {"days": "Sun", "time": "Closed"}], "id": "6209500010", "name": "USPS COLLECTION BOX - BLUE BOX", "address": {"city": "WOOD RIVER", "state": "IL", "street": "41 CARROLL WOOD DR", "postcode": "62095"}}},
{"geometry": {"type": "Point", "coordinates": [-90.09377501, 38.86019788]}, "type": "Feature", "properties": {"collection_times": [{"days": "Mon-Fri", "time": "5:00pm"}, {"days": "Sat", "time": "3:30pm"}, {"days": "Sun", "time": "Closed"}], "id": "6209500022", "name": "USPS COLLECTION BOX - BLUE BOX", "address": {"city": "WOOD RIVER", "state": "IL", "street": "199 MADISON AVE", "postcode": "62095"}}},
{"geometry": {"type": "Point", "coordinates": [-90.0866626085, 38.8610176112]}, "type": "Feature", "properties": {"collection_times": [{"days": "Mon-Sat", "time": "1:30pm"}, {"days": "Sun", "time": "Closed"}], "id": "6209500024", "name": "USPS COLLECTION BOX - BLUE BOX", "address": {"city": "WOOD RIVER", "state": "IL", "street": "600 E FERGUSON AVE", "postcode": "62095"}}},
{"geometry": {"type": "Point", "coordinates": [-90.0971307411, 38.8610102278]}, "type": "Feature", "properties": {"collection_times": [{"days": "Mon-Sat", "time": "1:30pm"}, {"days": "Sun", "time": "Closed"}], "id": "6209500029", "name": "USPS COLLECTION BOX - BLUE BOX", "address": {"city": "WOOD RIVER", "state": "IL", "street": "41 E FERGUSON AVE", "postcode": "62095"}}},
{"geometry": {"type": "Point", "coordinates": [-90.0982141605, 38.8627465648]}, "type": "Feature", "properties": {"collection_times": [{"days": "Mon-Sat", "time": "1:30pm"}, {"days": "Sun", "time": "Closed"}], "id": "6209500032", "name": "USPS COLLECTION BOX - BLUE BOX", "address": {"city": "WOOD RIVER", "state": "IL", "street": "201 N WOOD RIVER AVE", "postcode": "62095"}}},
{"geometry": {"type": "Point", "coordinates": [-89.8391001828, 38.9315713642]}, "type": "Feature", "properties": {"collection_times": [{"days": "Mon-Fri", "time": "4:30pm"}, {"days": "Sat", "time": "11:00am"}, {"days": "Sun", "time": "Closed"}], "id": "6209700001", "name": "USPS COLLECTION BOX - BLUE BOX", "address": {"city": "WORDEN", "state": "IL", "street": "101 E WALL ST", "postcode": "62097"}}},
{"geometry": {"type": "Point", "coordinates": [-89.8391001828, 38.9315713642]}, "type": "Feature", "properties": {"collection_times": [{"days": "Mon-Fri", "time": "5:00pm"}, {"days": "Sat", "time": "2:30pm"}, {"days": "Sun", "time": "Closed"}], "id": "6209700002", "name": "USPS COLLECTION BOX - PO LOBBY", "address": {"city": "WORDEN", "state": "IL", "street": "101 E WALL ST", "postcode": "62097"}}},
{"geometry": {"type": "Point", "coordinates": [-90.3726656729, 39.4831207968]}, "type": "Feature", "properties": {"collection_times": [{"days": "Mon-Sat", "time": "9:15am"}, {"days": "Sun", "time": "Closed"}], "id": "6209800001", "name": "USPS COLLECTION BOX - BLUE BOX", "address": {"city": "WRIGHTS", "state": "IL", "street": "100 MAIN ST", "postcode": "62098"}}},
{"geometry": {"type": "Point", "coordinates": [-90.2932041026, 39.3752472096]}, "type": "Feature", "properties": {"collection_times": [{"days": "Mon-Sat", "time": "9:15am"}, {"days": "Sun", "time": "Closed"}], "id": "6209800002", "name": "USPS COLLECTION BOX - PO LOBBY", "address": {"city": "WRIGHTS", "state": "IL", "street": "100 MAIN ST", "postcode": "62098"}}}
]}
