{"type": "FeatureCollection", "features": [
{"geometry": {"type": "Point", "coordinates": [-90.1495985201, 38.6241924897]}, "type": "Feature", "properties": {"collection_times": [{"days": "Mon-Fri", "time": "4:00pm"}, {"days": "Sat", "time": "3:00pm"}, {"days": "Sun", "time": "Closed"}], "id": "6220100007", "name": "USPS COLLECTION BOX - BLUE BOX", "address": {"city": "EAST ST LOUIS", "state": "IL", "street": "1005 STATE ST", "postcode": "62201"}}},
{"geometry": {"type": "Point", "coordinates": [-90.1639006009, 38.6251294294]}, "type": "Feature", "properties": {"collection_times": [{"days": "Mon-Fri", "time": "4:00pm"}, {"days": "Sat", "time": "3:00pm"}, {"days": "Sun", "time": "Closed"}], "id": "6220100013", "name": "USPS COLLECTION BOX - BLUE BOX", "address": {"city": "EAST ST LOUIS", "state": "IL", "street": "103 MAIN", "postcode": "62201"}}},
{"geometry": {"type": "Point", "coordinates": [-90.1266241638, 38.6545284379]}, "type": "Feature", "properties": {"collection_times": [{"days": "Mon-Fri", "time": "3:45pm"}, {"days": "Sat", "time": "3:00pm"}, {"days": "Sun", "time": "Closed"}], "id": "6220100018", "name": "USPS COLLECTION BOX - BLUE BOX", "address": {"city": "EAST ST LOUIS", "state": "IL", "street": "1262 CAMP JACKSON RD", "postcode": "62201"}}},
{"geometry": {"type": "Point", "coordinates": [-90.1380266859, 38.6322514048]}, "type": "Feature", "properties": {"collection_times": [{"days": "Mon-Fri", "time": "3:45pm"}, {"days": "Sat", "time": "3:00pm"}, {"days": "Sun", "time": "Closed"}], "id": "6220100020", "name": "USPS COLLECTION BOX - BLUE BOX", "address": {"city": "EAST ST LOUIS", "state": "IL", "street": "129 N 8TH ST", "postcode": "62201"}}},
{"geometry": {"type": "Point", "coordinates": [-90.1380266859, 38.6322514048]}, "type": "Feature", "properties": {"collection_times": [{"days": "Mon-Sat", "time": "1:00pm"}, {"days": "Sun", "time": "Closed"}], "id": "6220100026", "name": "USPS COLLECTION BOX - BLUE BOX", "address": {"city": "EAST ST LOUIS", "state": "IL", "street": "1401 E BROADWAY", "postcode": "62201"}}},
{"geometry": {"type": "Point", "coordinates": [-90.1266241638, 38.6545284379]}, "type": "Feature", "properties": {"collection_times": [{"days": "Mon-Fri", "time": "3:45pm"}, {"days": "Sat", "time": "3:00pm"}, {"days": "Sun", "time": "Closed"}], "id": "6220100033", "name": "USPS COLLECTION BOX - BLUE BOX", "address": {"city": "EAST ST LOUIS", "state": "IL", "street": "1663 CAMP JACKSON RD", "postcode": "62201"}}},
{"geometry": {"type": "Point", "coordinates": [-90.1742053305, 38.6324018864]}, "type": "Feature", "properties": {"collection_times": [{"days": "Mon-Fri", "time": "4:00pm"}, {"days": "Sat", "time": "3:00pm"}, {"days": "Sun", "time": "Closed"}], "id": "6220100041", "name": "USPS COLLECTION BOX - BLUE BOX", "address": {"city": "EAST ST LOUIS", "state": "IL", "street": "200 FRONT ST", "postcode": "62201"}}},
{"geometry": {"type": "Point", "coordinates": [-90.1418826638, 38.6008378338]}, "type": "Feature", "properties": {"collection_times": [{"days": "Mon-Fri", "time": "3:30pm"}, {"days": "Sat", "time": "3:00pm"}, {"days": "Sun", "time": "Closed"}], "id": "6220100048", "name": "USPS COLLECTION BOX - BLUE BOX", "address": {"city": "EAST ST LOUIS", "state": "IL", "street": "2447 BOND AVE", "postcode": "62201"}}},
{"geometry": {"type": "Point", "coordinates": [-90.1075674794, 38.6453255851]}, "type": "Feature", "properties": {"collection_times": [{"days": "Mon-Fri", "time": "3:30pm"}, {"days": "Sat", "time": "3:00pm"}, {"days": "Sun", "time": "Closed"}], "id": "6220100049", "name": "USPS COLLECTION BOX - BLUE BOX", "address": {"city": "EAST ST LOUIS", "state": "IL", "street": "2601 N 41ST ST", "postcode": "62201"}}},
{"geometry": {"type": "Point", "coordinates": [-90.1266241638, 38.6545284379]}, "type": "Feature", "properties": {"collection_times": [{"days": "Mon-Fri", "time": "4:00pm"}, {"days": "Sat", "time": "3:00pm"}, {"days": "Sun", "time": "Closed"}], "id": "6220100051", "name": "USPS COLLECTION BOX - BLUE BOX", "address": {"city": "EAST ST LOUIS", "state": "IL", "street": "2897 FALLING SPRINGS RD", "postcode": "62201"}}},
{"geometry": {"type": "Point", "coordinates": [-90.168837307, 38.6282621726]}, "type": "Feature", "properties": {"collection_times": [{"days": "Mon-Fri", "time": "4:00pm"}, {"days": "Sat", "time": "3:00pm"}, {"days": "Sun", "time": "Closed"}], "id": "6220100057", "name": "USPS COLLECTION BOX - BLUE BOX", "address": {"city": "EAST ST LOUIS", "state": "IL", "street": "301 W BROADWAY", "postcode": "62201"}}},
{"geometry": {"type": "Point", "coordinates": [-90.1604706414, 38.6275995385]}, "type": "Feature", "properties": {"collection_times": [{"days": "Mon-Fri", "time": "3:30pm"}, {"days": "Sat", "time": "3:00pm"}, {"days": "Sun", "time": "Closed"}], "id": "6220100063", "name": "USPS COLLECTION BOX - BLUE BOX", "address": {"city": "EAST ST LOUIS", "state": "IL", "street": "327 MISSOURI AVE", "postcode": "62201"}}},
{"geometry": {"type": "Point", "coordinates": [-90.1592657227, 38.6238323169]}, "type": "Feature", "properties": {"collection_times": [{"days": "Mon-Fri", "time": "3:30pm"}, {"days": "Sat", "time": "3:00pm"}, {"days": "Sun", "time": "Closed"}], "id": "6220100073", "name": "USPS COLLECTION BOX - BLUE BOX", "address": {"city": "EAST ST LOUIS", "state": "IL", "street": "127 NORTH 6TH ST", "postcode": "62201"}}},
{"geometry": {"type": "Point", "coordinates": [-90.1266241638, 38.6545284379]}, "type": "Feature", "properties": {"collection_times": [{"days": "Mon-Fri", "time": "3:30pm"}, {"days": "Sat", "time": "3:00pm"}, {"days": "Sun", "time": "Closed"}], "id": "6220100079", "name": "USPS COLLECTION BOX - BLUE BOX", "address": {"city": "EAST ST LOUIS", "state": "IL", "street": "4831 BOND AVE", "postcode": "62201"}}},
{"geometry": {"type": "Point", "coordinates": [-90.0911993849, 38.6594612282]}, "type": "Feature", "properties": {"collection_times": [{"days": "Mon-Fri", "time": "3:30pm"}, {"days": "Sat", "time": "3:00pm"}, {"days": "Sun", "time": "Closed"}], "id": "6220100088", "name": "USPS COLLECTION BOX - BLUE BOX", "address": {"city": "EAST ST LOUIS", "state": "IL", "street": "5401 COLLINSVILLE RD", "postcode": "62201"}}},
{"geometry": {"type": "Point", "coordinates": [-90.1266241638, 38.6545284379]}, "type": "Feature", "properties": {"collection_times": [{"days": "Mon-Fri", "time": "3:30pm"}, {"days": "Sat", "time": "3:00pm"}, {"days": "Sun", "time": "Closed"}], "id": "6220100093", "name": "USPS COLLECTION BOX - BLUE BOX", "address": {"city": "EAST ST LOUIS", "state": "IL", "street": "5800 BOND AVE", "postcode": "62201"}}},
{"geometry": {"type": "Point", "coordinates": [-90.1266241638, 38.6545284379]}, "type": "Feature", "properties": {"collection_times": [{"days": "Mon-Fri", "time": "3:30pm"}, {"days": "Sat", "time": "3:00pm"}, {"days": "Sun", "time": "Closed"}], "id": "6220100094", "name": "USPS COLLECTION BOX - BLUE BOX", "address": {"city": "EAST ST LOUIS", "state": "IL", "street": "5900 BOND AVE", "postcode": "62201"}}},
{"geometry": {"type": "Point", "coordinates": [-90.1266241638, 38.6545284379]}, "type": "Feature", "properties": {"collection_times": [{"days": "Mon-Fri", "time": "3:30pm"}, {"days": "Sat", "time": "12:30pm"}, {"days": "Sun", "time": "Closed"}], "id": "6220100098", "name": "USPS COLLECTION BOX - BLUE BOX", "address": {"city": "EAST ST LOUIS", "state": "IL", "street": "5621 FOREST BLVD", "postcode": "62201"}}},
{"geometry": {"type": "Point", "coordinates": [-90.1571687049, 38.6246452641]}, "type": "Feature", "properties": {"collection_times": [{"days": "Mon-Fri", "time": "3:30pm"}, {"days": "Sat", "time": "3:00pm"}, {"days": "Sun", "time": "Closed"}], "id": "6220100100", "name": "USPS COLLECTION BOX - BLUE BOX", "address": {"city": "EAST ST LOUIS", "state": "IL", "street": "650 MISSOURI AVE", "postcode": "62201"}}},
{"geometry": {"type": "Point", "coordinates": [-90.1571687049, 38.6246452641]}, "type": "Feature", "properties": {"collection_times": [{"days": "Mon-Fri", "time": "3:30pm"}, {"days": "Sat", "time": "3:00pm"}, {"days": "Sun", "time": "Closed"}], "id": "6220100101", "name": "USPS COLLECTION BOX - BLUE BOX", "address": {"city": "EAST ST LOUIS", "state": "IL", "street": "650 MISSOURI AVE", "postcode": "62201"}}},
{"geometry": {"type": "Point", "coordinates": [-90.0808041694, 38.6009063659]}, "type": "Feature", "properties": {"collection_times": [{"days": "Mon-Sat", "time": "3:00pm"}, {"days": "Sun", "time": "Closed"}], "id": "6220100102", "name": "USPS COLLECTION BOX - BLUE BOX", "address": {"city": "EAST ST LOUIS", "state": "IL", "street": "6755 STATE ST", "postcode": "62201"}}},
{"geometry": {"type": "Point", "coordinates": [-90.1324432492, 38.6507156126]}, "type": "Feature", "properties": {"collection_times": [{"days": "Mon-Fri", "time": "3:30pm"}, {"days": "Sat", "time": "3:00pm"}, {"days": "Sun", "time": "Closed"}], "id": "6220100104", "name": "USPS COLLECTION BOX - BLUE BOX", "address": {"city": "EAST ST LOUIS", "state": "IL", "street": "699 HIGHWAY 203", "postcode": "62201"}}},
{"geometry": {"type": "Point", "coordinates": [-90.1266241638, 38.6545284379]}, "type": "Feature", "properties": {"collection_times": [{"days": "Mon-Sat", "time": "3:00pm"}, {"days": "Sun", "time": "Closed"}], "id": "6220100108", "name": "USPS COLLECTION BOX - BLUE BOX", "address": {"city": "EAST ST LOUIS", "state": "IL", "street": "7300 LAKE DR", "postcode": "62201"}}},
{"geometry": {"type": "Point", "coordinates": [-90.1563353083, 38.6239460378]}, "type": "Feature", "properties": {"collection_times": [{"days": "Mon-Fri", "time": "3:45pm"}, {"days": "Sat", "time": "3:00pm"}, {"days": "Sun", "time": "Closed"}], "id": "6220100110", "name": "USPS COLLECTION BOX - BLUE BOX", "address": {"city": "EAST ST LOUIS", "state": "IL", "street": "750 MISSOURI AVE", "postcode": "62201"}}},
{"geometry": {"type": "Point", "coordinates": [-90.0725441266, 38.5961748579]}, "type": "Feature", "properties": {"collection_times": [{"days": "Mon-Sat", "time": "3:00pm"}, {"days": "Sun", "time": "Closed"}], "id": "6220100111", "name": "USPS COLLECTION BOX - BLUE BOX", "address": {"city": "EAST ST LOUIS", "state": "IL", "street": "7600 STATE ST", "postcode": "62201"}}},
{"geometry": {"type": "Point", "coordinates": [-90.1546532339, 38.622446362]}, "type": "Feature", "properties": {"collection_times": [{"days": "Mon-Fri", "time": "5:00pm"}, {"days": "Sat", "time": "3:00pm"}, {"days": "Sun", "time": "Closed"}], "id": "6220100121", "name": "USPS COLLECTION BOX - BLUE BOX", "address": {"city": "EAST ST LOUIS", "state": "IL", "street": "950 MISSOURI AVE", "postcode": "62201"}}},
{"geometry": {"type": "Point", "coordinates": [-90.1546532339, 38.622446362]}, "type": "Feature", "properties": {"collection_times": [{"days": "Mon-Fri", "time": "5:00pm"}, {"days": "Sat", "time": "3:00pm"}, {"days": "Sun", "time": "Closed"}], "id": "6220100123", "name": "USPS COLLECTION BOX - BLUE BOX", "address": {"city": "EAST ST LOUIS", "state": "IL", "street": "950 MISSOURI AVE", "postcode": "62201"}}},
{"geometry": {"type": "Point", "coordinates": [-90.1273695654, 38.6162678682]}, "type": "Feature", "properties": {"collection_times": [{"days": "Mon-Sat", "time": "3:00pm"}, {"days": "Sun", "time": "Closed"}], "id": "6220100125", "name": "USPS COLLECTION BOX - BLUE BOX", "address": {"city": "EAST ST LOUIS", "state": "IL", "street": "2511 STATE ST", "postcode": "62201"}}},
{"geometry": {"type": "Point", "coordinates": [-90.1327782833, 38.6190986477]}, "type": "Feature", "properties": {"collection_times": [{"days": "Mon-Sat", "time": "3:00pm"}, {"days": "Sun", "time": "Closed"}], "id": "6220100130", "name": "USPS COLLECTION BOX - BLUE BOX", "address": {"city": "EAST ST LOUIS", "state": "IL", "street": "640 N 20TH ST", "postcode": "62201"}}},
{"geometry": {"type": "Point", "coordinates": [-90.1266241638, 38.6545284379]}, "type": "Feature", "properties": {"collection_times": [{"days": "Mon-Fri", "time": "3:30pm"}, {"days": "Sat-Sun", "time": "Closed"}], "id": "6220100140", "name": "USPS COLLECTION BOX - PO LOBBY", "address": {"city": "EAST ST LOUIS", "state": "IL", "street": "4825 BOND AVE", "postcode": "62201"}}},
{"geometry": {"type": "Point", "coordinates": [-90.1266241638, 38.6545284379]}, "type": "Feature", "properties": {"collection_times": [{"days": "Mon-Fri", "time": "5:00pm"}, {"days": "Sat", "time": "12:30pm"}, {"days": "Sun", "time": "Closed"}], "id": "6220100141", "name": "USPS COLLECTION BOX - PO LOBBY", "address": {"city": "EAST ST LOUIS", "state": "IL", "street": "801 RANGE LN", "postcode": "62201"}}},
{"geometry": {"type": "Point", "coordinates": [-90.1380266859, 38.6322514048]}, "type": "Feature", "properties": {"collection_times": [{"days": "Mon-Fri", "time": "5:00pm"}, {"days": "Sat", "time": "12:30pm"}, {"days": "Sun", "time": "Closed"}], "id": "6220100142", "name": "USPS COLLECTION BOX - PO LOBBY", "address": {"city": "EAST ST LOUIS", "state": "IL", "street": "8701 STATE ST", "postcode": "62201"}}},
{"geometry": {"type": "Point", "coordinates": [-90.1546532339, 38.622446362]}, "type": "Feature", "properties": {"collection_times": [{"days": "Mon-Fri", "time": "5:00pm"}, {"days": "Sat", "time": "3:00pm"}, {"days": "Sun", "time": "Closed"}], "id": "6220100144", "name": "USPS COLLECTION BOX - PO LOBBY", "address": {"city": "EAST ST LOUIS", "state": "IL", "street": "950 MISSOURI AVE", "postcode": "62201"}}},
{"geometry": {"type": "Point", "coordinates": [-90.1380266859, 38.6322514048]}, "type": "Feature", "properties": {"collection_times": [{"days": "Mon-Fri", "time": "5:00pm"}, {"days": "Sat", "time": "3:00pm"}, {"days": "Sun", "time": "Closed"}], "id": "6220100146", "name": "USPS COLLECTION BOX - BLUE BOX", "address": {"city": "EAST ST LOUIS", "state": "IL", "street": "8701 STATE ST", "postcode": "62201"}}},
{"geometry": {"type": "Point", "coordinates": [-90.1266241638, 38.6545284379]}, "type": "Feature", "properties": {"collection_times": [{"days": "Mon-Fri", "time": "4:00pm"}, {"days": "Sat", "time": "3:00pm"}, {"days": "Sun", "time": "Closed"}], "id": "6220100152", "name": "USPS COLLECTION BOX - BLUE BOX", "address": {"city": "EAST ST LOUIS", "state": "IL", "street": "10 ARCHVIEW DR", "postcode": "62201"}}},
{"geometry": {"type": "Point", "coordinates": [-90.1266241638, 38.6545284379]}, "type": "Feature", "properties": {"collection_times": [{"days": "Mon-Fri", "time": "3:30pm"}, {"days": "Sat", "time": "3:00pm"}, {"days": "Sun", "time": "Closed"}], "id": "6220100153", "name": "USPS COLLECTION BOX - BLUE BOX", "address": {"city": "EAST ST LOUIS", "state": "IL", "street": "1808 KINGSHIGHWAY", "postcode": "62201"}}},
{"geometry": {"type": "Point", "coordinates": [-90.1380266859, 38.6322514048]}, "type": "Feature", "properties": {"collection_times": [{"days": "Mon-Fri", "time": "4:00pm"}, {"days": "Sat", "time": "3:00pm"}, {"days": "Sun", "time": "Closed"}], "id": "6220100154", "name": "USPS COLLECTION BOX - BLUE BOX", "address": {"city": "EAST ST LOUIS", "state": "IL", "street": "501 MONSANTO AVE", "postcode": "62201"}}},
{"geometry": {"type": "Point", "coordinates": [-90.1543817284, 38.6234017134]}, "type": "Feature", "properties": {"collection_times": [{"days": "Mon-Fri", "time": "4:00pm"}, {"days": "Sat-Sun", "time": "Closed"}], "id": "6220100158", "name": "USPS COLLECTION BOX - BLUE BOX", "address": {"city": "EAST ST LOUIS", "state": "IL", "street": "229 N 9TH ST", "postcode": "62201"}}},
{"geometry": {"type": "Point", "coordinates": [-90.1266241638, 38.6545284379]}, "type": "Feature", "properties": {"collection_times": [{"days": "Mon-Fri", "time": "3:30pm"}, {"days": "Sat-Sun", "time": "Closed"}], "id": "6220100159", "name": "USPS COLLECTION BOX - BLUE BOX", "address": {"city": "EAST ST LOUIS", "state": "IL", "street": "601 JAMES R COMPTON BLVD", "postcode": "62201"}}},
{"geometry": {"type": "Point", "coordinates": [-90.1266241638, 38.6545284379]}, "type": "Feature", "properties": {"collection_times": [{"days": "Mon-Sat", "time": "3:00pm"}, {"days": "Sun", "time": "Closed"}], "id": "6220100160", "name": "USPS COLLECTION BOX - BLUE BOX", "address": {"city": "EAST ST LOUIS", "state": "IL", "street": "140 RACEHORSE", "postcode": "62201"}}},
{"geometry": {"type": "Point", "coordinates": [-90.0054805926, 38.593006292]}, "type": "Feature", "properties": {"collection_times": [{"days": "Mon-Fri", "time": "5:00pm"}, {"days": "Sat", "time": "2:45pm"}, {"days": "Sun", "time": "Closed"}], "id": "6220800003", "name": "USPS COLLECTION BOX - BLUE BOX", "address": {"city": "FAIRVIEW HTS", "state": "IL", "street": "10261 LINCOLN TRL", "postcode": "62208"}}},
{"geometry": {"type": "Point", "coordinates": [-89.9824493129, 38.5927776988]}, "type": "Feature", "properties": {"collection_times": [{"days": "Mon-Fri", "time": "3:15pm"}, {"days": "Sat", "time": "2:15pm"}, {"days": "Sun", "time": "Closed"}], "id": "6220800007", "name": "USPS COLLECTION BOX - BLUE BOX", "address": {"city": "FAIRVIEW HTS", "state": "IL", "street": "101 LINCOLN HWY", "postcode": "62208"}}},
{"geometry": {"type": "Point", "coordinates": [-89.9804482461, 38.6004892197]}, "type": "Feature", "properties": {"collection_times": [{"days": "Mon-Fri", "time": "3:30pm"}, {"days": "Sat", "time": "2:30pm"}, {"days": "Sun", "time": "Closed"}], "id": "6220800012", "name": "USPS COLLECTION BOX - BLUE BOX", "address": {"city": "FAIRVIEW HTS", "state": "IL", "street": "15 EXECUTIVE DR", "postcode": "62208"}}},
{"geometry": {"type": "Point", "coordinates": [-89.9832708934, 38.6019448326]}, "type": "Feature", "properties": {"collection_times": [{"days": "Mon-Fri", "time": "3:30pm"}, {"days": "Sat", "time": "2:30pm"}, {"days": "Sun", "time": "Closed"}], "id": "6220800015", "name": "USPS COLLECTION BOX - BLUE BOX", "address": {"city": "FAIRVIEW HTS", "state": "IL", "street": "331 SALEM PL", "postcode": "62208"}}},
{"geometry": {"type": "Point", "coordinates": [-89.9831811511, 38.6018985622]}, "type": "Feature", "properties": {"collection_times": [{"days": "Mon-Fri", "time": "3:30pm"}, {"days": "Sat", "time": "2:30pm"}, {"days": "Sun", "time": "Closed"}], "id": "6220800016", "name": "USPS COLLECTION BOX - BLUE BOX", "address": {"city": "FAIRVIEW HTS", "state": "IL", "street": "333 SALEM PL", "postcode": "62208"}}},
{"geometry": {"type": "Point", "coordinates": [-89.9847310216, 38.5713956222]}, "type": "Feature", "properties": {"collection_times": [{"days": "Mon-Fri", "time": "3:15pm"}, {"days": "Sat", "time": "2:15pm"}, {"days": "Sun", "time": "Closed"}], "id": "6220800018", "name": "USPS COLLECTION BOX - BLUE BOX", "address": {"city": "FAIRVIEW HTS", "state": "IL", "street": "4632 N ILLINOIS ST", "postcode": "62208"}}},
{"geometry": {"type": "Point", "coordinates": [-89.975949165, 38.5927370885]}, "type": "Feature", "properties": {"collection_times": [{"days": "Mon-Fri", "time": "3:15pm"}, {"days": "Sat", "time": "2:15pm"}, {"days": "Sun", "time": "Closed"}], "id": "6220800022", "name": "USPS COLLECTION BOX - BLUE BOX", "address": {"city": "FAIRVIEW HTS", "state": "IL", "street": "625 LINCOLN HWY", "postcode": "62208"}}},
{"geometry": {"type": "Point", "coordinates": [-89.9786562178, 38.6009875666]}, "type": "Feature", "properties": {"collection_times": [{"days": "Mon-Fri", "time": "3:30pm"}, {"days": "Sat", "time": "2:30pm"}, {"days": "Sun", "time": "Closed"}], "id": "6220800026", "name": "USPS COLLECTION BOX - BLUE BOX", "address": {"city": "FAIRVIEW HTS", "state": "IL", "street": "8 EXECUTIVE DR", "postcode": "62208"}}},
{"geometry": {"type": "Point", "coordinates": [-89.9908335974, 38.5928618215]}, "type": "Feature", "properties": {"collection_times": [{"days": "Mon-Fri", "time": "5:00pm"}, {"days": "Sat", "time": "12:15pm"}, {"days": "Sun", "time": "Closed"}], "id": "6220800042", "name": "USPS COLLECTION BOX - PO LOBBY", "address": {"city": "FAIRVIEW HTS", "state": "IL", "street": "10850 LINCOLN TRL", "postcode": "62208"}}},
{"geometry": {"type": "Point", "coordinates": [-89.9908335974, 38.5928618215]}, "type": "Feature", "properties": {"collection_times": [{"days": "Mon-Fri", "time": "5:00pm"}, {"days": "Sat", "time": "2:15pm"}, {"days": "Sun", "time": "Closed"}], "id": "6220800050", "name": "USPS COLLECTION BOX - APC", "address": {"city": "FAIRVIEW HTS", "state": "IL", "street": "10850 LINCOLN TRL", "postcode": "62208"}}},
{"geometry": {"type": "Point", "coordinates": [-89.48523505, 38.3928762407]}, "type": "Feature", "properties": {"collection_times": [{"days": "Mon-Fri", "time": "10:45am"}, {"days": "Sat", "time": "8:45am"}, {"days": "Sun", "time": "Closed"}], "id": "6221400001", "name": "USPS COLLECTION BOX - BLUE BOX", "address": {"city": "ADDIEVILLE", "state": "IL", "street": "226 N MIDDLE ST", "postcode": "62214"}}},
{"geometry": {"type": "Point", "coordinates": [-89.48523505, 38.3928762407]}, "type": "Feature", "properties": {"collection_times": [{"days": "Mon-Fri", "time": "10:45am"}, {"days": "Sat", "time": "9:15am"}, {"days": "Sun", "time": "Closed"}], "id": "6221400002", "name": "USPS COLLECTION BOX - PO LOBBY", "address": {"city": "ADDIEVILLE", "state": "IL", "street": "226 N MIDDLE ST", "postcode": "62214"}}},
{"geometry": {"type": "Point", "coordinates": [-89.6134932377, 38.5434538192]}, "type": "Feature", "properties": {"collection_times": [{"days": "Mon-Fri", "time": "4:45pm"}, {"days": "Sat", "time": "10:15am"}, {"days": "Sun", "time": "Closed"}], "id": "6221500001", "name": "USPS COLLECTION BOX - BLUE BOX", "address": {"city": "ALBERS", "state": "IL", "street": "110 N BROADWAY", "postcode": "62215"}}},
{"geometry": {"type": "Point", "coordinates": [-89.6134932377, 38.5434538192]}, "type": "Feature", "properties": {"collection_times": [{"days": "Mon-Fri", "time": "4:45pm"}, {"days": "Sat", "time": "10:00am"}, {"days": "Sun", "time": "Closed"}], "id": "6221500002", "name": "USPS COLLECTION BOX - PO LOBBY", "address": {"city": "ALBERS", "state": "IL", "street": "110 N BROADWAY", "postcode": "62215"}}},
{"geometry": {"type": "Point", "coordinates": [-89.6057353967, 38.6074627966]}, "type": "Feature", "properties": {"collection_times": [{"days": "Mon-Fri", "time": "3:00pm"}, {"days": "Sat", "time": "8:30am"}, {"days": "Sun", "time": "Closed"}], "id": "6221600001", "name": "USPS COLLECTION BOX - BLUE BOX", "address": {"city": "AVISTON", "state": "IL", "street": "102 S PAGE ST", "postcode": "62216"}}},
{"geometry": {"type": "Point", "coordinates": [-89.6057353967, 38.6074627966]}, "type": "Feature", "properties": {"collection_times": [{"days": "Mon-Fri", "time": "3:00pm"}, {"days": "Sat", "time": "8:30am"}, {"days": "Sun", "time": "Closed"}], "id": "6221600002", "name": "USPS COLLECTION BOX - PO LOBBY", "address": {"city": "AVISTON", "state": "IL", "street": "102 S PAGE ST", "postcode": "62216"}}},
{"geometry": {"type": "Point", "coordinates": [-89.8427842986, 38.1838670874]}, "type": "Feature", "properties": {"collection_times": [{"days": "Mon-Fri", "time": "3:45pm"}, {"days": "Sat", "time": "9:30am"}, {"days": "Sun", "time": "Closed"}], "id": "6221700001", "name": "USPS COLLECTION BOX - BLUE BOX", "address": {"city": "BALDWIN", "state": "IL", "street": "109 S 5TH ST", "postcode": "62217"}}},
{"geometry": {"type": "Point", "coordinates": [-89.8427842986, 38.1838670874]}, "type": "Feature", "properties": {"collection_times": [{"days": "Mon-Fri", "time": "11:45am"}, {"days": "Sat", "time": "9:30am"}, {"days": "Sun", "time": "Closed"}], "id": "6221700002", "name": "USPS COLLECTION BOX - PO LOBBY", "address": {"city": "BALDWIN", "state": "IL", "street": "109 S 5TH ST", "postcode": "62217"}}},
{"geometry": {"type": "Point", "coordinates": [-89.4668969975, 38.5365438583]}, "type": "Feature", "properties": {"collection_times": [{"days": "Mon-Fri", "time": "3:15pm"}, {"days": "Sat", "time": "8:45am"}, {"days": "Sun", "time": "Closed"}], "id": "6221800001", "name": "USPS COLLECTION BOX - BLUE BOX", "address": {"city": "BARTELSO", "state": "IL", "street": "303 S WASHINGTON ST", "postcode": "62218"}}},
{"geometry": {"type": "Point", "coordinates": [-89.4668969975, 38.5365438583]}, "type": "Feature", "properties": {"collection_times": [{"days": "Mon-Fri", "time": "3:15pm"}, {"days": "Sat", "time": "8:45am"}, {"days": "Sun", "time": "Closed"}], "id": "6221800002", "name": "USPS COLLECTION BOX - PO LOBBY", "address": {"city": "BARTELSO", "state": "IL", "street": "303 S WASHINGTON ST", "postcode": "62218"}}},
{"geometry": {"type": "Point", "coordinates": [-89.4359430867, 38.6056065645]}, "type": "Feature", "properties": {"collection_times": [{"days": "Mon-Fri", "time": "3:15pm"}, {"days": "Sat", "time": "9:15am"}, {"days": "Sun", "time": "Closed"}], "id": "6221900001", "name": "USPS COLLECTION BOX - BLUE BOX", "address": {"city": "BECKEMEYER", "state": "IL", "street": "470 LOUIS ST", "postcode": "62219"}}},
{"geometry": {"type": "Point", "coordinates": [-89.4359430867, 38.6056065645]}, "type": "Feature", "properties": {"collection_times": [{"days": "Mon-Fri", "time": "3:15pm"}, {"days": "Sat", "time": "9:15am"}, {"days": "Sun", "time": "Closed"}], "id": "6221900002", "name": "USPS COLLECTION BOX - PO LOBBY", "address": {"city": "BECKEMEYER", "state": "IL", "street": "470 LOUIS ST", "postcode": "62219"}}},
{"geometry": {"type": "Point", "coordinates": [-89.9833951514, 38.4765485642]}, "type": "Feature", "properties": {"collection_times": [{"days": "Mon-Fri", "time": "2:45pm"}, {"days": "Sat", "time": "1:30pm"}, {"days": "Sun", "time": "Closed"}], "id": "6222000003", "name": "USPS COLLECTION BOX - BLUE BOX", "address": {"city": "SWANSEA", "state": "IL", "street": "2525 S ILLINOIS ST", "postcode": "62220"}}},
{"geometry": {"type": "Point", "coordinates": [-89.9702300011, 38.5133468687]}, "type": "Feature", "properties": {"collection_times": [{"days": "Mon-Fri", "time": "2:15pm"}, {"days": "Sat", "time": "1:00pm"}, {"days": "Sun", "time": "Closed"}], "id": "6222000012", "name": "USPS COLLECTION BOX - BLUE BOX", "address": {"city": "SWANSEA", "state": "IL", "street": "1001 E MAIN ST", "postcode": "62220"}}},
{"geometry": {"type": "Point", "coordinates": [-89.9854895559, 38.512426234]}, "type": "Feature", "properties": {"collection_times": [{"days": "Mon-Fri", "time": "4:30pm"}, {"days": "Sat", "time": "1:30pm"}, {"days": "Sun", "time": "Closed"}], "id": "6222000018", "name": "USPS COLLECTION BOX - BLUE BOX", "address": {"city": "SWANSEA", "state": "IL", "street": "120 S 1ST ST", "postcode": "62220"}}},
{"geometry": {"type": "Point", "coordinates": [-89.9862673758, 38.5126441911]}, "type": "Feature", "properties": {"collection_times": [{"days": "Mon-Fri", "time": "5:00pm"}, {"days": "Sat", "time": "2:30pm"}, {"days": "Sun", "time": "Closed"}], "id": "6222000019", "name": "USPS COLLECTION BOX - PO LOBBY", "address": {"city": "SWANSEA", "state": "IL", "street": "120 W WASHINGTON ST", "postcode": "62220"}}},
{"geometry": {"type": "Point", "coordinates": [-89.9858739212, 38.5117545635]}, "type": "Feature", "properties": {"collection_times": [{"days": "Mon-Fri", "time": "3:15pm"}, {"days": "Sat", "time": "2:15pm"}, {"days": "Sun", "time": "Closed"}], "id": "6222000021", "name": "USPS COLLECTION BOX - BLUE BOX", "address": {"city": "SWANSEA", "state": "IL", "street": "121 W LINCOLN ST", "postcode": "62220"}}},
{"geometry": {"type": "Point", "coordinates": [-90.0033155313, 38.5043194002]}, "type": "Feature", "properties": {"collection_times": [{"days": "Mon-Fri", "time": "2:15pm"}, {"days": "Sat", "time": "12:45pm"}, {"days": "Sun", "time": "Closed"}], "id": "6222000022", "name": "USPS COLLECTION BOX - BLUE BOX", "address": {"city": "SWANSEA", "state": "IL", "street": "1218 CENTREVILLE AVE", "postcode": "62220"}}},
{"geometry": {"type": "Point", "coordinates": [-89.9708933394, 38.4897827326]}, "type": "Feature", "properties": {"collection_times": [{"days": "Mon-Sat", "time": "2:15pm"}, {"days": "Sun", "time": "Closed"}], "id": "6222000023", "name": "USPS COLLECTION BOX - BLUE BOX", "address": {"city": "SWANSEA", "state": "IL", "street": "1251 LEBANON AVE", "postcode": "62220"}}},
{"geometry": {"type": "Point", "coordinates": [-89.9708933394, 38.4897827326]}, "type": "Feature", "properties": {"collection_times": [{"days": "Mon-Fri", "time": "2:00pm"}, {"days": "Sat", "time": "1:30pm"}, {"days": "Sun", "time": "Closed"}], "id": "6222000027", "name": "USPS COLLECTION BOX - BLUE BOX", "address": {"city": "SWANSEA", "state": "IL", "street": "1410 WEST BLVD", "postcode": "62220"}}},
{"geometry": {"type": "Point", "coordinates": [-89.9708933394, 38.4897827326]}, "type": "Feature", "properties": {"collection_times": [{"days": "Mon-Fri", "time": "1:30pm"}, {"days": "Sat", "time": "1:15pm"}, {"days": "Sun", "time": "Closed"}], "id": "6222000028", "name": "USPS COLLECTION BOX - BLUE BOX", "address": {"city": "SWANSEA", "state": "IL", "street": "1601 E B ST", "postcode": "62220"}}},
{"geometry": {"type": "Point", "coordinates": [-89.983550999, 38.4940535487]}, "type": "Feature", "properties": {"collection_times": [{"days": "Mon-Fri", "time": "3:00pm"}, {"days": "Sat", "time": "1:30pm"}, {"days": "Sun", "time": "Closed"}], "id": "6222000029", "name": "USPS COLLECTION BOX - BLUE BOX", "address": {"city": "SWANSEA", "state": "IL", "street": "1610 N ILLINOIS ST", "postcode": "62220"}}},
{"geometry": {"type": "Point", "coordinates": [-89.9842125761, 38.5157068719]}, "type": "Feature", "properties": {"collection_times": [{"days": "Mon-Fri", "time": "2:30pm"}, {"days": "Sat", "time": "1:15pm"}, {"days": "Sun", "time": "Closed"}], "id": "6222000033", "name": "USPS COLLECTION BOX - BLUE BOX", "address": {"city": "SWANSEA", "state": "IL", "street": "200 N ILLINOIS ST", "postcode": "62220"}}},
{"geometry": {"type": "Point", "coordinates": [-89.9474419949, 38.504825716]}, "type": "Feature", "properties": {"collection_times": [{"days": "Mon-Fri", "time": "1:45pm"}, {"days": "Sat", "time": "1:00pm"}, {"days": "Sun", "time": "Closed"}], "id": "6222000037", "name": "USPS COLLECTION BOX - BLUE BOX", "address": {"city": "SWANSEA", "state": "IL", "street": "2101 MASCOUTAH AVE", "postcode": "62220"}}},
{"geometry": {"type": "Point", "coordinates": [-89.9841392326, 38.5137963931]}, "type": "Feature", "properties": {"collection_times": [{"days": "Mon-Fri", "time": "2:30pm"}, {"days": "Sat", "time": "1:15pm"}, {"days": "Sun", "time": "Closed"}], "id": "6222000039", "name": "USPS COLLECTION BOX - BLUE BOX", "address": {"city": "SWANSEA", "state": "IL", "street": "23 PUBLIC SQ", "postcode": "62220"}}},
{"geometry": {"type": "Point", "coordinates": [-89.9708933394, 38.4897827326]}, "type": "Feature", "properties": {"collection_times": [{"days": "Mon-Fri", "time": "2:00pm"}, {"days": "Sat", "time": "1:30pm"}, {"days": "Sun", "time": "Closed"}], "id": "6222000041", "name": "USPS COLLECTION BOX - BLUE BOX", "address": {"city": "SWANSEA", "state": "IL", "street": "2411 LEBANON AVE", "postcode": "62220"}}},
{"geometry": {"type": "Point", "coordinates": [-89.9854895559, 38.512426234]}, "type": "Feature", "properties": {"collection_times": [{"days": "Mon-Fri", "time": "4:30pm"}, {"days": "Sat", "time": "1:30pm"}, {"days": "Sun", "time": "Closed"}], "id": "6222000043", "name": "USPS COLLECTION BOX - BLUE BOX", "address": {"city": "SWANSEA", "state": "IL", "street": "120 S 1ST ST", "postcode": "62220"}}},
{"geometry": {"type": "Point", "coordinates": [-89.9805868069, 38.5217139375]}, "type": "Feature", "properties": {"collection_times": [{"days": "Mon-Fri", "time": "2:15pm"}, {"days": "Sat", "time": "2:00pm"}, {"days": "Sun", "time": "Closed"}], "id": "6222000044", "name": "USPS COLLECTION BOX - BLUE BOX", "address": {"city": "SWANSEA", "state": "IL", "street": "258 LEBANON AVE", "postcode": "62220"}}},
{"geometry": {"type": "Point", "coordinates": [-89.9833821273, 38.4733796885]}, "type": "Feature", "properties": {"collection_times": [{"days": "Mon-Fri", "time": "2:45pm"}, {"days": "Sat", "time": "1:30pm"}, {"days": "Sun", "time": "Closed"}], "id": "6222000045", "name": "USPS COLLECTION BOX - BLUE BOX", "address": {"city": "SWANSEA", "state": "IL", "street": "2665 N ILLINOIS ST", "postcode": "62220"}}},
{"geometry": {"type": "Point", "coordinates": [-89.9708933394, 38.4897827326]}, "type": "Feature", "properties": {"collection_times": [{"days": "Mon-Fri", "time": "1:45pm"}, {"days": "Sat", "time": "1:30pm"}, {"days": "Sun", "time": "Closed"}], "id": "6222000046", "name": "USPS COLLECTION BOX - BLUE BOX", "address": {"city": "SWANSEA", "state": "IL", "street": "2804 WEST BLVD", "postcode": "62220"}}},
{"geometry": {"type": "Point", "coordinates": [-89.9828994916, 38.5075503698]}, "type": "Feature", "properties": {"collection_times": [{"days": "Mon-Fri", "time": "2:00pm"}, {"days": "Sat", "time": "1:00pm"}, {"days": "Sun", "time": "Closed"}], "id": "6222000063", "name": "USPS COLLECTION BOX - BLUE BOX", "address": {"city": "SWANSEA", "state": "IL", "street": "601 S HIGH ST", "postcode": "62220"}}},
{"geometry": {"type": "Point", "coordinates": [-89.9708933394, 38.4897827326]}, "type": "Feature", "properties": {"collection_times": [{"days": "Mon-Sat", "time": "1:30pm"}, {"days": "Sun", "time": "Closed"}], "id": "6222000066", "name": "USPS COLLECTION BOX - BLUE BOX", "address": {"city": "SWANSEA", "state": "IL", "street": "655 CARLYLE AVE", "postcode": "62220"}}},
{"geometry": {"type": "Point", "coordinates": [-89.978651486, 38.5055902068]}, "type": "Feature", "properties": {"collection_times": [{"days": "Mon-Fri", "time": "2:00pm"}, {"days": "Sat", "time": "1:00pm"}, {"days": "Sun", "time": "Closed"}], "id": "6222000072", "name": "USPS COLLECTION BOX - BLUE BOX", "address": {"city": "SWANSEA", "state": "IL", "street": "918 FREEBURG AVE", "postcode": "62220"}}},
{"geometry": {"type": "Point", "coordinates": [-89.9842587115, 38.5041836686]}, "type": "Feature", "properties": {"collection_times": [{"days": "Mon-Fri", "time": "2:00pm"}, {"days": "Sat", "time": "1:00pm"}, {"days": "Sun", "time": "Closed"}], "id": "6222000073", "name": "USPS COLLECTION BOX - BLUE BOX", "address": {"city": "SWANSEA", "state": "IL", "street": "901 S ILLINOIS ST", "postcode": "62220"}}},
{"geometry": {"type": "Point", "coordinates": [-89.9920082757, 38.5136012049]}, "type": "Feature", "properties": {"collection_times": [{"days": "Mon-Fri", "time": "2:30pm"}, {"days": "Sat", "time": "1:00pm"}, {"days": "Sun", "time": "Closed"}], "id": "6222000075", "name": "USPS COLLECTION BOX - BLUE BOX", "address": {"city": "SWANSEA", "state": "IL", "street": "521 W MAIN ST", "postcode": "62220"}}},
{"geometry": {"type": "Point", "coordinates": [-89.9708933394, 38.4897827326]}, "type": "Feature", "properties": {"collection_times": [{"days": "Mon-Fri", "time": "2:45pm"}, {"days": "Sat", "time": "1:15pm"}, {"days": "Sun", "time": "Closed"}], "id": "6222000083", "name": "USPS COLLECTION BOX - BLUE BOX", "address": {"city": "SWANSEA", "state": "IL", "street": "1 BRONZE POINTE BLVD", "postcode": "62220"}}},
{"geometry": {"type": "Point", "coordinates": [-89.9839908012, 38.5406542664]}, "type": "Feature", "properties": {"collection_times": [{"days": "Mon-Fri", "time": "2:45pm"}, {"days": "Sat", "time": "1:30pm"}, {"days": "Sun", "time": "Closed"}], "id": "6222000085", "name": "USPS COLLECTION BOX - BLUE BOX", "address": {"city": "SWANSEA", "state": "IL", "street": "1 PARK PL", "postcode": "62220"}}},
{"geometry": {"type": "Point", "coordinates": [-89.9708933394, 38.4897827326]}, "type": "Feature", "properties": {"collection_times": [{"days": "Mon-Fri", "time": "1:45pm"}, {"days": "Sat", "time": "1:15pm"}, {"days": "Sun", "time": "Closed"}], "id": "6222000088", "name": "USPS COLLECTION BOX - BLUE BOX", "address": {"city": "SWANSEA", "state": "IL", "street": "115 LINCOLN PLACE CT", "postcode": "62220"}}},
{"geometry": {"type": "Point", "coordinates": [-89.9708933394, 38.4897827326]}, "type": "Feature", "properties": {"collection_times": [{"days": "Mon-Fri", "time": "1:45pm"}, {"days": "Sat", "time": "1:30pm"}, {"days": "Sun", "time": "Closed"}], "id": "6222000089", "name": "USPS COLLECTION BOX - BLUE BOX", "address": {"city": "SWANSEA", "state": "IL", "street": "5 SHADY LN", "postcode": "62220"}}},
{"geometry": {"type": "Point", "coordinates": [-89.9862673758, 38.5126441911]}, "type": "Feature", "properties": {"collection_times": [{"days": "Mon-Fri", "time": "5:00pm"}, {"days": "Sat", "time": "2:30pm"}, {"days": "Sun", "time": "Closed"}], "id": "6222000092", "name": "USPS COLLECTION BOX - PO LOBBY", "address": {"city": "SWANSEA", "state": "IL", "street": "120 W WASHINGTON ST", "postcode": "62220"}}},
{"geometry": {"type": "Point", "coordinates": [-89.9812217516, 38.5135614124]}, "type": "Feature", "properties": {"collection_times": [{"days": "Mon-Fri", "time": "2:30pm"}, {"days": "Sat", "time": "1:00pm"}, {"days": "Sun", "time": "Closed"}], "id": "6222000095", "name": "USPS COLLECTION BOX - BLUE BOX", "address": {"city": "SWANSEA", "state": "IL", "street": "220 E MAIN ST", "postcode": "62220"}}},
{"geometry": {"type": "Point", "coordinates": [-90.0507398704, 38.5515603076]}, "type": "Feature", "properties": {"collection_times": [{"days": "Mon-Fri", "time": "4:45pm"}, {"days": "Sat", "time": "12:45pm"}, {"days": "Sun", "time": "Closed"}], "id": "6222300006", "name": "USPS COLLECTION BOX - BLUE BOX", "address": {"city": "BELLEVILLE", "state": "IL", "street": "1801 N BELT W", "postcode": "62223"}}},
{"geometry": {"type": "Point", "coordinates": [-90.0478627204, 38.5632327754]}, "type": "Feature", "properties": {"collection_times": [{"days": "Mon-Sat", "time": "12:45pm"}, {"days": "Sun", "time": "Closed"}], "id": "6222300008", "name": "USPS COLLECTION BOX - BLUE BOX", "address": {"city": "BELLEVILLE", "state": "IL", "street": "1 S 78TH ST", "postcode": "62223"}}},
{"geometry": {"type": "Point", "coordinates": [-90.0507398704, 38.5515603076]}, "type": "Feature", "properties": {"collection_times": [{"days": "Mon-Sat", "time": "1:30pm"}, {"days": "Sun", "time": "Closed"}], "id": "6222300010", "name": "USPS COLLECTION BOX - BLUE BOX", "address": {"city": "BELLEVILLE", "state": "IL", "street": "1300 N BELT W", "postcode": "62223"}}},
{"geometry": {"type": "Point", "coordinates": [-90.0043333012, 38.5186931398]}, "type": "Feature", "properties": {"collection_times": [{"days": "Mon-Sat", "time": "12:45pm"}, {"days": "Sun", "time": "Closed"}], "id": "6222300012", "name": "USPS COLLECTION BOX - BLUE BOX", "address": {"city": "BELLEVILLE", "state": "IL", "street": "1718 W MAIN ST", "postcode": "62223"}}},
{"geometry": {"type": "Point", "coordinates": [-90.0240909506, 38.5419259648]}, "type": "Feature", "properties": {"collection_times": [{"days": "Mon-Sat", "time": "12:45pm"}, {"days": "Sun", "time": "Closed"}], "id": "6222300013", "name": "USPS COLLECTION BOX - BLUE BOX", "address": {"city": "BELLEVILLE", "state": "IL", "street": "19 BELLEVUE PARK PLZ", "postcode": "62223"}}},
{"geometry": {"type": "Point", "coordinates": [-90.0507398704, 38.5515603076]}, "type": "Feature", "properties": {"collection_times": [{"days": "Mon-Sat", "time": "1:15pm"}, {"days": "Sun", "time": "Closed"}], "id": "6222300017", "name": "USPS COLLECTION BOX - BLUE BOX", "address": {"city": "BELLEVILLE", "state": "IL", "street": "3540 N BELT W", "postcode": "62223"}}},
{"geometry": {"type": "Point", "coordinates": [-90.021055833, 38.5489148959]}, "type": "Feature", "properties": {"collection_times": [{"days": "Mon-Sat", "time": "1:00pm"}, {"days": "Sun", "time": "Closed"}], "id": "6222300020", "name": "USPS COLLECTION BOX - BLUE BOX", "address": {"city": "BELLEVILLE", "state": "IL", "street": "4500 MEMORIAL DR", "postcode": "62223"}}},
{"geometry": {"type": "Point", "coordinates": [-90.0234962774, 38.5405856819]}, "type": "Feature", "properties": {"collection_times": [{"days": "Mon-Sat", "time": "1:15pm"}, {"days": "Sun", "time": "Closed"}], "id": "6222300021", "name": "USPS COLLECTION BOX - BLUE BOX", "address": {"city": "BELLEVILLE", "state": "IL", "street": "4513 W MAIN ST", "postcode": "62223"}}},
{"geometry": {"type": "Point", "coordinates": [-90.0265158456, 38.5425417881]}, "type": "Feature", "properties": {"collection_times": [{"days": "Mon-Sat", "time": "1:00pm"}, {"days": "Sun", "time": "Closed"}], "id": "6222300022", "name": "USPS COLLECTION BOX - BLUE BOX", "address": {"city": "BELLEVILLE", "state": "IL", "street": "4800 W MAIN ST", "postcode": "62223"}}},
{"geometry": {"type": "Point", "coordinates": [-90.030340878, 38.5451471716]}, "type": "Feature", "properties": {"collection_times": [{"days": "Mon-Fri", "time": "4:30pm"}, {"days": "Sat", "time": "1:00pm"}, {"days": "Sun", "time": "Closed"}], "id": "6222300023", "name": "USPS COLLECTION BOX - BLUE BOX", "address": {"city": "BELLEVILLE", "state": "IL", "street": "5111 W MAIN ST", "postcode": "62223"}}},
{"geometry": {"type": "Point", "coordinates": [-90.0507398704, 38.5515603076]}, "type": "Feature", "properties": {"collection_times": [{"days": "Mon-Sat", "time": "1:00pm"}, {"days": "Sun", "time": "Closed"}], "id": "6222300032", "name": "USPS COLLECTION BOX - BLUE BOX", "address": {"city": "BELLEVILLE", "state": "IL", "street": "7301 WESTFIELD PLAZA DR", "postcode": "62223"}}},
{"geometry": {"type": "Point", "coordinates": [-90.0368648809, 38.5391015974]}, "type": "Feature", "properties": {"collection_times": [{"days": "Mon-Fri", "time": "4:45pm"}, {"days": "Sat", "time": "1:15pm"}, {"days": "Sun", "time": "Closed"}], "id": "6222300035", "name": "USPS COLLECTION BOX - BLUE BOX", "address": {"city": "BELLEVILLE", "state": "IL", "street": "2810 FRANK SCOTT PKWY W", "postcode": "62223"}}},
{"geometry": {"type": "Point", "coordinates": [-90.0711683407, 38.5477532302]}, "type": "Feature", "properties": {"collection_times": [{"days": "Mon-Sat", "time": "1:15pm"}, {"days": "Sun", "time": "Closed"}], "id": "6222300037", "name": "USPS COLLECTION BOX - BLUE BOX", "address": {"city": "BELLEVILLE", "state": "IL", "street": "8300 OLD ST LOUIS RD", "postcode": "62223"}}},
{"geometry": {"type": "Point", "coordinates": [-90.0547429555, 38.5739581372]}, "type": "Feature", "properties": {"collection_times": [{"days": "Mon-Sat", "time": "12:45pm"}, {"days": "Sun", "time": "Closed"}], "id": "6222300039", "name": "USPS COLLECTION BOX - BLUE BOX", "address": {"city": "BELLEVILLE", "state": "IL", "street": "9200 W MAIN ST", "postcode": "62223"}}},
{"geometry": {"type": "Point", "coordinates": [-90.0507398704, 38.5515603076]}, "type": "Feature", "properties": {"collection_times": [{"days": "Mon-Sat", "time": "1:15pm"}, {"days": "Sun", "time": "Closed"}], "id": "6222300040", "name": "USPS COLLECTION BOX - BLUE BOX", "address": {"city": "BELLEVILLE", "state": "IL", "street": "442 S DEMAZENOD DR", "postcode": "62223"}}},
{"geometry": {"type": "Point", "coordinates": [-90.0405971322, 38.5545469636]}, "type": "Feature", "properties": {"collection_times": [{"days": "Mon-Fri", "time": "4:30pm"}, {"days": "Sat", "time": "12:45pm"}, {"days": "Sun", "time": "Closed"}], "id": "6222300049", "name": "USPS COLLECTION BOX - BLUE BOX", "address": {"city": "BELLEVILLE", "state": "IL", "street": "6500 W MAIN ST", "postcode": "62223"}}},
{"geometry": {"type": "Point", "coordinates": [-90.0612989141, 38.5450643645]}, "type": "Feature", "properties": {"collection_times": [{"days": "Mon-Sat", "time": "1:15pm"}, {"days": "Sun", "time": "Closed"}], "id": "6222300052", "name": "USPS COLLECTION BOX - BLUE BOX", "address": {"city": "BELLEVILLE", "state": "IL", "street": "7650 MAGNA DR", "postcode": "62223"}}},
{"geometry": {"type": "Point", "coordinates": [-90.021691082, 38.556407758]}, "type": "Feature", "properties": {"collection_times": [{"days": "Mon-Fri", "time": "5:00pm"}, {"days": "Sat", "time": "1:30pm"}, {"days": "Sun", "time": "Closed"}], "id": "6222300053", "name": "USPS COLLECTION BOX - PO LOBBY", "address": {"city": "BELLEVILLE", "state": "IL", "street": "5731 MOUNT PLEASANT LN", "postcode": "62223"}}},
{"geometry": {"type": "Point", "coordinates": [-90.021055833, 38.5489148959]}, "type": "Feature", "properties": {"collection_times": [{"days": "Mon-Fri", "time": "5:00pm"}, {"days": "Sat", "time": "1:00pm"}, {"days": "Sun", "time": "Closed"}], "id": "6222300056", "name": "USPS COLLECTION BOX - BLUE BOX", "address": {"city": "BELLEVILLE", "state": "IL", "street": "4600 MEMORIAL DR", "postcode": "62223"}}},
{"geometry": {"type": "Point", "coordinates": [-90.021691082, 38.556407758]}, "type": "Feature", "properties": {"collection_times": [{"days": "Mon-Fri", "time": "5:00pm"}, {"days": "Sat", "time": "1:30pm"}, {"days": "Sun", "time": "Closed"}], "id": "6222300059", "name": "USPS COLLECTION BOX - APC", "address": {"city": "BELLEVILLE", "state": "IL", "street": "5731 MOUNT PLEASANT LN", "postcode": "62223"}}},
{"geometry": {"type": "Point", "coordinates": [-89.8545111558, 38.5394320648]}, "type": "Feature", "properties": {"collection_times": [{"days": "Mon-Sat", "time": "1:15pm"}, {"days": "Sun", "time": "Closed"}], "id": "6222500001", "name": "USPS COLLECTION BOX - BLUE BOX", "address": {"city": "SCOTT AFB", "state": "IL", "street": "404 W MARTIN ST", "postcode": "62225"}}},
{"geometry": {"type": "Point", "coordinates": [-89.8677697691, 38.5369871325]}, "type": "Feature", "properties": {"collection_times": [{"days": "Mon-Sat", "time": "1:00pm"}, {"days": "Sun", "time": "Closed"}], "id": "6222500004", "name": "USPS COLLECTION BOX - BLUE BOX", "address": {"city": "SCOTT AFB", "state": "IL", "street": "203 W WINTERS ST", "postcode": "62225"}}},
{"geometry": {"type": "Point", "coordinates": [-89.8684653487, 38.5426552832]}, "type": "Feature", "properties": {"collection_times": [{"days": "Mon-Sat", "time": "1:00pm"}, {"days": "Sun", "time": "Closed"}], "id": "6222500008", "name": "USPS COLLECTION BOX - BLUE BOX", "address": {"city": "SCOTT AFB", "state": "IL", "street": "310 W LOSEY ST", "postcode": "62225"}}},
{"geometry": {"type": "Point", "coordinates": [-89.8645300722, 38.5443804061]}, "type": "Feature", "properties": {"collection_times": [{"days": "Mon-Sat", "time": "1:00pm"}, {"days": "Sun", "time": "Closed"}], "id": "6222500009", "name": "USPS COLLECTION BOX - BLUE BOX", "address": {"city": "SCOTT AFB", "state": "IL", "street": "402 SCOTT DR", "postcode": "62225"}}},
{"geometry": {"type": "Point", "coordinates": [-89.8545111558, 38.5394320648]}, "type": "Feature", "properties": {"collection_times": [{"days": "Mon-Sat", "time": "12:45pm"}, {"days": "Sun", "time": "Closed"}], "id": "6222500011", "name": "USPS COLLECTION BOX - BLUE BOX", "address": {"city": "SCOTT AFB", "state": "IL", "street": "415 WATNEE DR", "postcode": "62225"}}},
{"geometry": {"type": "Point", "coordinates": [-89.5274062051, 38.6088117702]}, "type": "Feature", "properties": {"collection_times": [{"days": "Mon-Fri", "time": "5:00pm"}, {"days": "Sat", "time": "3:00pm"}, {"days": "Sun", "time": "Closed"}], "id": "6223000001", "name": "USPS COLLECTION BOX - BLUE BOX", "address": {"city": "BREESE", "state": "IL", "street": "501 N 2ND ST", "postcode": "62230"}}},
{"geometry": {"type": "Point", "coordinates": [-89.5274062051, 38.6088117702]}, "type": "Feature", "properties": {"collection_times": [{"days": "Mon-Fri", "time": "5:00pm"}, {"days": "Sat", "time": "3:00pm"}, {"days": "Sun", "time": "Closed"}], "id": "6223000002", "name": "USPS COLLECTION BOX - BLUE BOX", "address": {"city": "BREESE", "state": "IL", "street": "501 N 2ND ST", "postcode": "62230"}}},
{"geometry": {"type": "Point", "coordinates": [-89.5274062051, 38.6088117702]}, "type": "Feature", "properties": {"collection_times": [{"days": "Mon-Fri", "time": "5:00pm"}, {"days": "Sat", "time": "3:00pm"}, {"days": "Sun", "time": "Closed"}], "id": "6223000020", "name": "USPS COLLECTION BOX - PO LOBBY", "address": {"city": "BREESE", "state": "IL", "street": "501 N 2ND ST", "postcode": "62230"}}},
{"geometry": {"type": "Point", "coordinates": [-89.3684709521, 38.611134062]}, "type": "Feature", "properties": {"collection_times": [{"days": "Mon-Sat", "time": "2:00pm"}, {"days": "Sun", "time": "Closed"}], "id": "6223100002", "name": "USPS COLLECTION BOX - BLUE BOX", "address": {"city": "CARLYLE", "state": "IL", "street": "850 FAIRFAX ST", "postcode": "62231"}}},
{"geometry": {"type": "Point", "coordinates": [-89.3713873153, 38.6111327524]}, "type": "Feature", "properties": {"collection_times": [{"days": "Mon-Fri", "time": "4:30pm"}, {"days": "Sat", "time": "3:30pm"}, {"days": "Sun", "time": "Closed"}], "id": "6223100003", "name": "USPS COLLECTION BOX - BLUE BOX", "address": {"city": "CARLYLE", "state": "IL", "street": "1080 FAIRFAX ST", "postcode": "62231"}}},
{"geometry": {"type": "Point", "coordinates": [-89.3676179681, 38.6098240984]}, "type": "Feature", "properties": {"collection_times": [{"days": "Mon-Sat", "time": "2:00pm"}, {"days": "Sun", "time": "Closed"}], "id": "6223100004", "name": "USPS COLLECTION BOX - BLUE BOX", "address": {"city": "CARLYLE", "state": "IL", "street": "510 8TH ST", "postcode": "62231"}}},
{"geometry": {"type": "Point", "coordinates": [-89.3713873153, 38.6111327524]}, "type": "Feature", "properties": {"collection_times": [{"days": "Mon-Fri", "time": "5:00pm"}, {"days": "Sat", "time": "4:00pm"}, {"days": "Sun", "time": "Closed"}], "id": "6223100021", "name": "USPS COLLECTION BOX - PO LOBBY", "address": {"city": "CARLYLE", "state": "IL", "street": "1080 FAIRFAX ST", "postcode": "62231"}}},
{"geometry": {"type": "Point", "coordinates": [-90.0253821358, 38.6381758054]}, "type": "Feature", "properties": {"collection_times": [{"days": "Mon-Fri", "time": "4:30pm"}, {"days": "Sat", "time": "11:30am"}, {"days": "Sun", "time": "Closed"}], "id": "6223200001", "name": "USPS COLLECTION BOX - BLUE BOX", "address": {"city": "CASEYVILLE", "state": "IL", "street": "113 S LONG ST", "postcode": "62232"}}},
{"geometry": {"type": "Point", "coordinates": [-90.0253821358, 38.6381758054]}, "type": "Feature", "properties": {"collection_times": [{"days": "Mon-Fri", "time": "4:30pm"}, {"days": "Sat", "time": "11:30am"}, {"days": "Sun", "time": "Closed"}], "id": "6223200009", "name": "USPS COLLECTION BOX - PO LOBBY", "address": {"city": "CASEYVILLE", "state": "IL", "street": "113 S LONG ST", "postcode": "62232"}}},
{"geometry": {"type": "Point", "coordinates": [-89.821280074, 37.9147169165]}, "type": "Feature", "properties": {"collection_times": [{"days": "Mon-Sat", "time": "5:00pm"}, {"days": "Sun", "time": "Closed"}], "id": "6223300001", "name": "USPS COLLECTION BOX - BLUE BOX", "address": {"city": "CHESTER", "state": "IL", "street": "1321 SWANWICK ST", "postcode": "62233"}}},
{"geometry": {"type": "Point", "coordinates": [-89.8287488276, 37.9045614918]}, "type": "Feature", "properties": {"collection_times": [{"days": "Mon-Sat", "time": "3:45pm"}, {"days": "Sun", "time": "Closed"}], "id": "6223300002", "name": "USPS COLLECTION BOX - BLUE BOX", "address": {"city": "CHESTER", "state": "IL", "street": "201 E TAYLOR ST", "postcode": "62233"}}},
{"geometry": {"type": "Point", "coordinates": [-89.821280074, 37.9147169165]}, "type": "Feature", "properties": {"collection_times": [{"days": "Mon-Sat", "time": "5:00pm"}, {"days": "Sun", "time": "Closed"}], "id": "6223300006", "name": "USPS COLLECTION BOX - BLUE BOX", "address": {"city": "CHESTER", "state": "IL", "street": "1321 SWANWICK ST", "postcode": "62233"}}},
{"geometry": {"type": "Point", "coordinates": [-89.821280074, 37.9147169165]}, "type": "Feature", "properties": {"collection_times": [{"days": "Mon-Sat", "time": "5:00pm"}, {"days": "Sun", "time": "Closed"}], "id": "6223300013", "name": "USPS COLLECTION BOX - PO LOBBY", "address": {"city": "CHESTER", "state": "IL", "street": "1321 SWANWICK ST", "postcode": "62233"}}},
{"geometry": {"type": "Point", "coordinates": [-89.821280074, 37.9147169165]}, "type": "Feature", "properties": {"collection_times": [{"days": "Mon-Sat", "time": "5:00pm"}, {"days": "Sun", "time": "Closed"}], "id": "6223300015", "name": "USPS COLLECTION BOX - PO LOBBY", "address": {"city": "CHESTER", "state": "IL", "street": "1321 SWANWICK ST", "postcode": "62233"}}},
{"geometry": {"type": "Point", "coordinates": [-89.821280074, 37.9147169165]}, "type": "Feature", "properties": {"collection_times": [{"days": "Mon-Sat", "time": "5:00pm"}, {"days": "Sun", "time": "Closed"}], "id": "6223300016", "name": "USPS COLLECTION BOX - PO LOBBY", "address": {"city": "CHESTER", "state": "IL", "street": "1321 SWANWICK ST", "postcode": "62233"}}},
{"geometry": {"type": "Point", "coordinates": [-89.987246305, 38.6791904992]}, "type": "Feature", "properties": {"collection_times": [{"days": "Mon-Sat", "time": "1:00pm"}, {"days": "Sun", "time": "Closed"}], "id": "6223400002", "name": "USPS COLLECTION BOX - BLUE BOX", "address": {"city": "COLLINSVILLE", "state": "IL", "street": "1701 VANDALIA ST", "postcode": "62234"}}},
{"geometry": {"type": "Point", "coordinates": [-90.0086394958, 38.6806977076]}, "type": "Feature", "properties": {"collection_times": [{"days": "Mon-Sat", "time": "12:30pm"}, {"days": "Sun", "time": "Closed"}], "id": "6223400004", "name": "USPS COLLECTION BOX - BLUE BOX", "address": {"city": "COLLINSVILLE", "state": "IL", "street": "1800 RAMADA BLVD", "postcode": "62234"}}},
{"geometry": {"type": "Point", "coordinates": [-89.9818686141, 38.6707353033]}, "type": "Feature", "properties": {"collection_times": [{"days": "Mon-Sat", "time": "1:30pm"}, {"days": "Sun", "time": "Closed"}], "id": "6223400005", "name": "USPS COLLECTION BOX - BLUE BOX", "address": {"city": "COLLINSVILLE", "state": "IL", "street": "150 S AURORA ST", "postcode": "62234"}}},
{"geometry": {"type": "Point", "coordinates": [-89.9664930337, 38.697954713]}, "type": "Feature", "properties": {"collection_times": [{"days": "Mon-Sat", "time": "1:00pm"}, {"days": "Sun", "time": "Closed"}], "id": "6223400007", "name": "USPS COLLECTION BOX - BLUE BOX", "address": {"city": "COLLINSVILLE", "state": "IL", "street": "2105 VANDALIA ST", "postcode": "62234"}}},
{"geometry": {"type": "Point", "coordinates": [-89.9678841935, 38.6910083779]}, "type": "Feature", "properties": {"collection_times": [{"days": "Mon-Sat", "time": "1:00pm"}, {"days": "Sun", "time": "Closed"}], "id": "6223400008", "name": "USPS COLLECTION BOX - BLUE BOX", "address": {"city": "COLLINSVILLE", "state": "IL", "street": "306 PINE LAKE RD", "postcode": "62234"}}},
{"geometry": {"type": "Point", "coordinates": [-89.9836518535, 38.676648439]}, "type": "Feature", "properties": {"collection_times": [{"days": "Mon-Sat", "time": "9:30am"}, {"days": "Sun", "time": "Closed"}], "id": "6223400012", "name": "USPS COLLECTION BOX - BLUE BOX", "address": {"city": "COLLINSVILLE", "state": "IL", "street": "531 VANDALIA ST", "postcode": "62234"}}},
{"geometry": {"type": "Point", "coordinates": [-89.9819708688, 38.6783968524]}, "type": "Feature", "properties": {"collection_times": [{"days": "Mon-Sat", "time": "1:00pm"}, {"days": "Sun", "time": "Closed"}], "id": "6223400013", "name": "USPS COLLECTION BOX - BLUE BOX", "address": {"city": "COLLINSVILLE", "state": "IL", "street": "717 VANDALIA ST", "postcode": "62234"}}},
{"geometry": {"type": "Point", "coordinates": [-89.9840268515, 38.6909397663]}, "type": "Feature", "properties": {"collection_times": [{"days": "Mon-Fri", "time": "5:00pm"}, {"days": "Sat", "time": "12:45pm"}, {"days": "Sun", "time": "Closed"}], "id": "6223400014", "name": "USPS COLLECTION BOX - BLUE BOX", "address": {"city": "COLLINSVILLE", "state": "IL", "street": "800 BELT LINE RD", "postcode": "62234"}}},
{"geometry": {"type": "Point", "coordinates": [-90.0440809463, 38.6589856787]}, "type": "Feature", "properties": {"collection_times": [{"days": "Mon-Sat", "time": "12:15pm"}, {"days": "Sun", "time": "Closed"}], "id": "6223400016", "name": "USPS COLLECTION BOX - BLUE BOX", "address": {"city": "COLLINSVILLE", "state": "IL", "street": "8915 COLLINSVILLE RD", "postcode": "62234"}}},
{"geometry": {"type": "Point", "coordinates": [-89.987246305, 38.6791904992]}, "type": "Feature", "properties": {"collection_times": [{"days": "Mon-Sat", "time": "1:00pm"}, {"days": "Sun", "time": "Closed"}], "id": "6223400017", "name": "USPS COLLECTION BOX - BLUE BOX", "address": {"city": "COLLINSVILLE", "state": "IL", "street": "901 VANDALIA ST", "postcode": "62234"}}},
{"geometry": {"type": "Point", "coordinates": [-90.0042436202, 38.6594553134]}, "type": "Feature", "properties": {"collection_times": [{"days": "Mon-Sat", "time": "12:15pm"}, {"days": "Sun", "time": "Closed"}], "id": "6223400018", "name": "USPS COLLECTION BOX - BLUE BOX", "address": {"city": "COLLINSVILLE", "state": "IL", "street": "800 SAINT LOUIS RD", "postcode": "62234"}}},
{"geometry": {"type": "Point", "coordinates": [-89.996835559, 38.6644460806]}, "type": "Feature", "properties": {"collection_times": [{"days": "Mon-Sat", "time": "1:15pm"}, {"days": "Sun", "time": "Closed"}], "id": "6223400020", "name": "USPS COLLECTION BOX - BLUE BOX", "address": {"city": "COLLINSVILLE", "state": "IL", "street": "206 SAINT LOUIS RD", "postcode": "62234"}}},
{"geometry": {"type": "Point", "coordinates": [-89.9895709249, 38.6699954527]}, "type": "Feature", "properties": {"collection_times": [{"days": "Mon-Fri", "time": "5:15pm"}, {"days": "Sat", "time": "1:15pm"}, {"days": "Sun", "time": "Closed"}], "id": "6223400021", "name": "USPS COLLECTION BOX - BLUE BOX", "address": {"city": "COLLINSVILLE", "state": "IL", "street": "330 W CLAY ST", "postcode": "62234"}}},
{"geometry": {"type": "Point", "coordinates": [-89.9965141664, 38.6677963571]}, "type": "Feature", "properties": {"collection_times": [{"days": "Mon-Sat", "time": "1:15pm"}, {"days": "Sun", "time": "Closed"}], "id": "6223400023", "name": "USPS COLLECTION BOX - BLUE BOX", "address": {"city": "COLLINSVILLE", "state": "IL", "street": "803 W CLAY ST", "postcode": "62234"}}},
{"geometry": {"type": "Point", "coordinates": [-89.9820726033, 38.690920839]}, "type": "Feature", "properties": {"collection_times": [{"days": "Mon-Sat", "time": "12:45pm"}, {"days": "Sun", "time": "Closed"}], "id": "6223400024", "name": "USPS COLLECTION BOX - BLUE BOX", "address": {"city": "COLLINSVILLE", "state": "IL", "street": "701 BELT LINE RD", "postcode": "62234"}}},
{"geometry": {"type": "Point", "coordinates": [-90.0280366067, 38.6599746675]}, "type": "Feature", "properties": {"collection_times": [{"days": "Mon-Sat", "time": "12:15pm"}, {"days": "Sun", "time": "Closed"}], "id": "6223400027", "name": "USPS COLLECTION BOX - BLUE BOX", "address": {"city": "COLLINSVILLE", "state": "IL", "street": "9301 COLLINSVILLE RD", "postcode": "62234"}}},
{"geometry": {"type": "Point", "coordinates": [-89.9958765515, 38.6638109684]}, "type": "Feature", "properties": {"collection_times": [{"days": "Mon-Sat", "time": "1:15pm"}, {"days": "Sun", "time": "Closed"}], "id": "6223400032", "name": "USPS COLLECTION BOX - BLUE BOX", "address": {"city": "COLLINSVILLE", "state": "IL", "street": "427 S COMBS AVE", "postcode": "62234"}}},
{"geometry": {"type": "Point", "coordinates": [-90.0037879222, 38.6914074049]}, "type": "Feature", "properties": {"collection_times": [{"days": "Mon-Sat", "time": "12:30pm"}, {"days": "Sun", "time": "Closed"}], "id": "6223400036", "name": "USPS COLLECTION BOX - BLUE BOX", "address": {"city": "COLLINSVILLE", "state": "IL", "street": "82 DEER CHASE", "postcode": "62234"}}},
{"geometry": {"type": "Point", "coordinates": [-89.9757946401, 38.6909941824]}, "type": "Feature", "properties": {"collection_times": [{"days": "Mon-Fri", "time": "5:00pm"}, {"days": "Sat", "time": "12:45pm"}, {"days": "Sun", "time": "Closed"}], "id": "6223400040", "name": "USPS COLLECTION BOX - BLUE BOX", "address": {"city": "COLLINSVILLE", "state": "IL", "street": "501 BELT LINE RD", "postcode": "62234"}}},
{"geometry": {"type": "Point", "coordinates": [-89.9871392166, 38.6696808107]}, "type": "Feature", "properties": {"collection_times": [{"days": "Mon-Sat", "time": "1:30pm"}, {"days": "Sun", "time": "Closed"}], "id": "6223400041", "name": "USPS COLLECTION BOX - BLUE BOX", "address": {"city": "COLLINSVILLE", "state": "IL", "street": "131 W MAIN ST", "postcode": "62234"}}},
{"geometry": {"type": "Point", "coordinates": [-89.985995208, 38.669784623]}, "type": "Feature", "properties": {"collection_times": [{"days": "Mon-Fri", "time": "5:15pm"}, {"days": "Sat", "time": "1:45pm"}, {"days": "Sun", "time": "Closed"}], "id": "6223400047", "name": "USPS COLLECTION BOX - BLUE BOX", "address": {"city": "COLLINSVILLE", "state": "IL", "street": "125 S CENTER ST", "postcode": "62234"}}},
{"geometry": {"type": "Point", "coordinates": [-90.0079924172, 38.6922800588]}, "type": "Feature", "properties": {"collection_times": [{"days": "Mon-Sat", "time": "10:15am"}, {"days": "Sun", "time": "Closed"}], "id": "6223400050", "name": "USPS COLLECTION BOX - BLUE BOX", "address": {"city": "COLLINSVILLE", "state": "IL", "street": "907 N BLUFF RD", "postcode": "62234"}}},
{"geometry": {"type": "Point", "coordinates": [-90.0145791327, 38.6728700681]}, "type": "Feature", "properties": {"collection_times": [{"days": "Mon-Sat", "time": "12:15pm"}, {"days": "Sun", "time": "Closed"}], "id": "6223400051", "name": "USPS COLLECTION BOX - BLUE BOX", "address": {"city": "COLLINSVILLE", "state": "IL", "street": "2000 MALL ST", "postcode": "62234"}}},
{"geometry": {"type": "Point", "coordinates": [-90.021901457, 38.6763852331]}, "type": "Feature", "properties": {"collection_times": [{"days": "Mon-Sat", "time": "1:45pm"}, {"days": "Sun", "time": "Closed"}], "id": "6223400052", "name": "USPS COLLECTION BOX - BLUE BOX", "address": {"city": "COLLINSVILLE", "state": "IL", "street": "1102 EASTPORT PLAZA DR", "postcode": "62234"}}},
{"geometry": {"type": "Point", "coordinates": [-89.9858645242, 38.66968248]}, "type": "Feature", "properties": {"collection_times": [{"days": "Mon-Fri", "time": "5:15pm"}, {"days": "Sat", "time": "1:45pm"}, {"days": "Sun", "time": "Closed"}], "id": "6223400053", "name": "USPS COLLECTION BOX - PO LOBBY", "address": {"city": "COLLINSVILLE", "state": "IL", "street": "1610 EASTPORT PLAZA DR", "postcode": "62234"}}},
{"geometry": {"type": "Point", "coordinates": [-89.9904940882, 38.6685818419]}, "type": "Feature", "properties": {"collection_times": [{"days": "Mon-Fri", "time": "5:15pm"}, {"days": "Sat", "time": "1:30pm"}, {"days": "Sun", "time": "Closed"}], "id": "6223400055", "name": "USPS COLLECTION BOX - BLUE BOX", "address": {"city": "COLLINSVILLE", "state": "IL", "street": "408 W MAIN ST", "postcode": "62234"}}},
{"geometry": {"type": "Point", "coordinates": [-90.0220369885, 38.6850112835]}, "type": "Feature", "properties": {"collection_times": [{"days": "Mon-Fri", "time": "5:30pm"}, {"days": "Sat", "time": "2:00pm"}, {"days": "Sun", "time": "Closed"}], "id": "6223400057", "name": "USPS COLLECTION BOX - BLUE BOX", "address": {"city": "COLLINSVILLE", "state": "IL", "street": "1610 EASTPORT PLAZA DR", "postcode": "62234"}}},
{"geometry": {"type": "Point", "coordinates": [-90.0220369885, 38.6850112835]}, "type": "Feature", "properties": {"collection_times": [{"days": "Mon-Fri", "time": "5:30pm"}, {"days": "Sat", "time": "2:00pm"}, {"days": "Sun", "time": "Closed"}], "id": "6223400058", "name": "USPS COLLECTION BOX - BLUE BOX", "address": {"city": "COLLINSVILLE", "state": "IL", "street": "1610 EASTPORT PLAZA DR", "postcode": "62234"}}},
{"geometry": {"type": "Point", "coordinates": [-89.9899130397, 38.6916520863]}, "type": "Feature", "properties": {"collection_times": [{"days": "Mon-Sat", "time": "12:30pm"}, {"days": "Sun", "time": "Closed"}], "id": "6223400061", "name": "USPS COLLECTION BOX - BLUE BOX", "address": {"city": "COLLINSVILLE", "state": "IL", "street": "240 REGENCY CTR", "postcode": "62234"}}},
{"geometry": {"type": "Point", "coordinates": [-90.2194948335, 38.444814507]}, "type": "Feature", "properties": {"collection_times": [{"days": "Mon-Fri", "time": "5:00pm"}, {"days": "Sat", "time": "1:30pm"}, {"days": "Sun", "time": "Closed"}], "id": "6223600001", "name": "USPS COLLECTION BOX - BLUE BOX", "address": {"city": "COLUMBIA", "state": "IL", "street": "800 COLUMBIA CENTRE", "postcode": "62236"}}},
{"geometry": {"type": "Point", "coordinates": [-90.1984449242, 38.4421020741]}, "type": "Feature", "properties": {"collection_times": [{"days": "Mon-Sat", "time": "10:00am"}, {"days": "Sun", "time": "Closed"}], "id": "6223600002", "name": "USPS COLLECTION BOX - BLUE BOX", "address": {"city": "COLUMBIA", "state": "IL", "street": "115 W CHERRY ST", "postcode": "62236"}}},
{"geometry": {"type": "Point", "coordinates": [-90.2194948335, 38.444814507]}, "type": "Feature", "properties": {"collection_times": [{"days": "Mon-Fri", "time": "5:00pm"}, {"days": "Sat", "time": "1:30pm"}, {"days": "Sun", "time": "Closed"}], "id": "6223600004", "name": "USPS COLLECTION BOX - BLUE BOX", "address": {"city": "COLUMBIA", "state": "IL", "street": "800 COLUMBIA CENTRE", "postcode": "62236"}}},
{"geometry": {"type": "Point", "coordinates": [-90.2043494099, 38.4478168569]}, "type": "Feature", "properties": {"collection_times": [{"days": "Mon-Sat", "time": "10:00am"}, {"days": "Sun", "time": "Closed"}], "id": "6223600008", "name": "USPS COLLECTION BOX - BLUE BOX", "address": {"city": "COLUMBIA", "state": "IL", "street": "616 N MAIN ST", "postcode": "62236"}}},
{"geometry": {"type": "Point", "coordinates": [-90.2011448359, 38.4438461675]}, "type": "Feature", "properties": {"collection_times": [{"days": "Mon-Sat", "time": "1:30pm"}, {"days": "Sun", "time": "Closed"}], "id": "6223600016", "name": "USPS COLLECTION BOX - BLUE BOX", "address": {"city": "COLUMBIA", "state": "IL", "street": "217 N MAIN ST", "postcode": "62236"}}},
{"geometry": {"type": "Point", "coordinates": [-90.2194948335, 38.444814507]}, "type": "Feature", "properties": {"collection_times": [{"days": "Mon-Fri", "time": "5:00pm"}, {"days": "Sat", "time": "1:30pm"}, {"days": "Sun", "time": "Closed"}], "id": "6223600018", "name": "USPS COLLECTION BOX - PO LOBBY", "address": {"city": "COLUMBIA", "state": "IL", "street": "800 COLUMBIA CENTRE", "postcode": "62236"}}},
{"geometry": {"type": "Point", "coordinates": [-90.2194948335, 38.444814507]}, "type": "Feature", "properties": {"collection_times": [{"days": "Mon-Fri", "time": "5:00pm"}, {"days": "Sat", "time": "1:30pm"}, {"days": "Sun", "time": "Closed"}], "id": "6223600019", "name": "USPS COLLECTION BOX - PO LOBBY", "address": {"city": "COLUMBIA", "state": "IL", "street": "800 COLUMBIA CENTRE", "postcode": "62236"}}},
{"geometry": {"type": "Point", "coordinates": [-90.2194948335, 38.444814507]}, "type": "Feature", "properties": {"collection_times": [{"days": "Mon-Fri", "time": "5:00pm"}, {"days": "Sat", "time": "1:30pm"}, {"days": "Sun", "time": "Closed"}], "id": "6223600020", "name": "USPS COLLECTION BOX - PO LOBBY", "address": {"city": "COLUMBIA", "state": "IL", "street": "800 COLUMBIA CENTRE", "postcode": "62236"}}},
{"geometry": {"type": "Point", "coordinates": [-89.60383915, 38.1863899794]}, "type": "Feature", "properties": {"collection_times": [{"days": "Mon-Fri", "time": "4:15pm"}, {"days": "Sat", "time": "10:45am"}, {"days": "Sun", "time": "Closed"}], "id": "6223700001", "name": "USPS COLLECTION BOX - BLUE BOX", "address": {"city": "COULTERVILLE", "state": "IL", "street": "107 N 4TH ST", "postcode": "62237"}}},
{"geometry": {"type": "Point", "coordinates": [-89.60383915, 38.1863899794]}, "type": "Feature", "properties": {"collection_times": [{"days": "Mon-Fri", "time": "4:15pm"}, {"days": "Sat", "time": "11:45am"}, {"days": "Sun", "time": "Closed"}], "id": "6223700002", "name": "USPS COLLECTION BOX - PO LOBBY", "address": {"city": "COULTERVILLE", "state": "IL", "street": "107 N 4TH ST", "postcode": "62237"}}},
{"geometry": {"type": "Point", "coordinates": [-89.5654858539, 38.0299577972]}, "type": "Feature", "properties": {"collection_times": [{"days": "Mon-Fri", "time": "10:45am"}, {"days": "Sat", "time": "8:45am"}, {"days": "Sun", "time": "Closed"}], "id": "6223800001", "name": "USPS COLLECTION BOX - BLUE BOX", "address": {"city": "CUTLER", "state": "IL", "street": "409B S MAIN ST", "postcode": "62238"}}},
{"geometry": {"type": "Point", "coordinates": [-89.5654858539, 38.0299577972]}, "type": "Feature", "properties": {"collection_times": [{"days": "Mon-Fri", "time": "10:45am"}, {"days": "Sat", "time": "8:45am"}, {"days": "Sun", "time": "Closed"}], "id": "6223800002", "name": "USPS COLLECTION BOX - PO LOBBY", "address": {"city": "CUTLER", "state": "IL", "street": "409B S MAIN ST", "postcode": "62238"}}},
{"geometry": {"type": "Point", "coordinates": [-90.2100279237, 38.5204983138]}, "type": "Feature", "properties": {"collection_times": [{"days": "Mon-Fri", "time": "5:00pm"}, {"days": "Sat", "time": "12:00pm"}, {"days": "Sun", "time": "Closed"}], "id": "6223900001", "name": "USPS COLLECTION BOX - BLUE BOX", "address": {"city": "DUPO", "state": "IL", "street": "116 EMMA AVE", "postcode": "62239"}}},
{"geometry": {"type": "Point", "coordinates": [-90.2100279237, 38.5204983138]}, "type": "Feature", "properties": {"collection_times": [{"days": "Mon-Fri", "time": "3:45pm"}, {"days": "Sat", "time": "11:45am"}, {"days": "Sun", "time": "Closed"}], "id": "6223900009", "name": "USPS COLLECTION BOX - PO LOBBY", "address": {"city": "DUPO", "state": "IL", "street": "116 EMMA AVE", "postcode": "62239"}}},
{"geometry": {"type": "Point", "coordinates": [-90.2314876715, 38.5404981429]}, "type": "Feature", "properties": {"collection_times": [{"days": "Mon-Fri", "time": "2:15pm"}, {"days": "Sat", "time": "8:30am"}, {"days": "Sun", "time": "Closed"}], "id": "6224000001", "name": "USPS COLLECTION BOX - BLUE BOX", "address": {"city": "EAST CARONDELET", "state": "IL", "street": "824 STATE ST", "postcode": "62240"}}},
{"geometry": {"type": "Point", "coordinates": [-90.2314876715, 38.5404981429]}, "type": "Feature", "properties": {"collection_times": [{"days": "Mon-Fri", "time": "2:15pm"}, {"days": "Sat-Sun", "time": "Closed"}], "id": "6224000002", "name": "USPS COLLECTION BOX - PO LOBBY", "address": {"city": "EAST CARONDELET", "state": "IL", "street": "824 STATE ST", "postcode": "62240"}}},
{"geometry": {"type": "Point", "coordinates": [-89.9059546556, 38.0111510207]}, "type": "Feature", "properties": {"collection_times": [{"days": "Mon-Fri", "time": "11:15am"}, {"days": "Sat", "time": "8:15am"}, {"days": "Sun", "time": "Closed"}], "id": "6224100001", "name": "USPS COLLECTION BOX - BLUE BOX", "address": {"city": "ELLIS GROVE", "state": "IL", "street": "211 ELLIS BLVD", "postcode": "62241"}}},
{"geometry": {"type": "Point", "coordinates": [-89.9059546556, 38.0111510207]}, "type": "Feature", "properties": {"collection_times": [{"days": "Mon-Fri", "time": "11:15am"}, {"days": "Sat", "time": "8:15am"}, {"days": "Sun", "time": "Closed"}], "id": "6224100002", "name": "USPS COLLECTION BOX - PO LOBBY", "address": {"city": "ELLIS GROVE", "state": "IL", "street": "211 ELLIS BLVD", "postcode": "62241"}}},
{"geometry": {"type": "Point", "coordinates": [-89.938961641, 38.089815197]}, "type": "Feature", "properties": {"collection_times": [{"days": "Mon-Fri", "time": "2:45pm"}, {"days": "Sat", "time": "9:15am"}, {"days": "Sun", "time": "Closed"}], "id": "6224200001", "name": "USPS COLLECTION BOX - BLUE BOX", "address": {"city": "EVANSVILLE", "state": "IL", "street": "402 LIBERTY ST", "postcode": "62242"}}},
{"geometry": {"type": "Point", "coordinates": [-89.938961641, 38.089815197]}, "type": "Feature", "properties": {"collection_times": [{"days": "Mon-Fri", "time": "2:45pm"}, {"days": "Sat", "time": "9:15am"}, {"days": "Sun", "time": "Closed"}], "id": "6224200002", "name": "USPS COLLECTION BOX - PO LOBBY", "address": {"city": "EVANSVILLE", "state": "IL", "street": "402 LIBERTY ST", "postcode": "62242"}}},
{"geometry": {"type": "Point", "coordinates": [-89.9307376926, 38.095935444]}, "type": "Feature", "properties": {"collection_times": [{"days": "Mon-Sat", "time": "11:00am"}, {"days": "Sun", "time": "Closed"}], "id": "6224200004", "name": "USPS COLLECTION BOX - BLUE BOX", "address": {"city": "EVANSVILLE", "state": "IL", "street": "8000 SCHULINE RD", "postcode": "62242"}}},
{"geometry": {"type": "Point", "coordinates": [-89.9111376519, 38.426221941]}, "type": "Feature", "properties": {"collection_times": [{"days": "Mon-Fri", "time": "5:00pm"}, {"days": "Sat", "time": "10:00am"}, {"days": "Sun", "time": "Closed"}], "id": "6224300001", "name": "USPS COLLECTION BOX - BLUE BOX", "address": {"city": "FREEBURG", "state": "IL", "street": "3 S BELLEVILLE ST", "postcode": "62243"}}},
{"geometry": {"type": "Point", "coordinates": [-89.9111814214, 38.4292077294]}, "type": "Feature", "properties": {"collection_times": [{"days": "Mon-Sat", "time": "10:30am"}, {"days": "Sun", "time": "Closed"}], "id": "6224300004", "name": "USPS COLLECTION BOX - BLUE BOX", "address": {"city": "FREEBURG", "state": "IL", "street": "210 N BELLEVILLE ST", "postcode": "62243"}}},
{"geometry": {"type": "Point", "coordinates": [-89.9087634372, 38.4172696968]}, "type": "Feature", "properties": {"collection_times": [{"days": "Mon-Sat", "time": "1:00pm"}, {"days": "Sun", "time": "Closed"}], "id": "6224300005", "name": "USPS COLLECTION BOX - BLUE BOX", "address": {"city": "FREEBURG", "state": "IL", "street": "14 SOUTHGATE CTR", "postcode": "62243"}}},
{"geometry": {"type": "Point", "coordinates": [-89.9111376519, 38.426221941]}, "type": "Feature", "properties": {"collection_times": [{"days": "Mon-Fri", "time": "5:00pm"}, {"days": "Sat", "time": "10:00am"}, {"days": "Sun", "time": "Closed"}], "id": "6224300006", "name": "USPS COLLECTION BOX - PO LOBBY", "address": {"city": "FREEBURG", "state": "IL", "street": "3 S BELLEVILLE ST", "postcode": "62243"}}},
{"geometry": {"type": "Point", "coordinates": [-90.2136983346, 38.1648554383]}, "type": "Feature", "properties": {"collection_times": [{"days": "Mon-Fri", "time": "10:45am"}, {"days": "Sat", "time": "8:45am"}, {"days": "Sun", "time": "Closed"}], "id": "6224400001", "name": "USPS COLLECTION BOX - BLUE BOX", "address": {"city": "FULTS", "state": "IL", "street": "200 MAIN ST", "postcode": "62244"}}},
{"geometry": {"type": "Point", "coordinates": [-90.2136983346, 38.1648554383]}, "type": "Feature", "properties": {"collection_times": [{"days": "Mon-Fri", "time": "10:45am"}, {"days": "Sat", "time": "8:45am"}, {"days": "Sun", "time": "Closed"}], "id": "6224400002", "name": "USPS COLLECTION BOX - PO LOBBY", "address": {"city": "FULTS", "state": "IL", "street": "200 MAIN ST", "postcode": "62244"}}},
{"geometry": {"type": "Point", "coordinates": [-89.5384269818, 38.5537780198]}, "type": "Feature", "properties": {"collection_times": [{"days": "Mon-Fri", "time": "4:30pm"}, {"days": "Sat", "time": "10:00am"}, {"days": "Sun", "time": "Closed"}], "id": "6224500001", "name": "USPS COLLECTION BOX - BLUE BOX", "address": {"city": "GERMANTOWN", "state": "IL", "street": "405 MUNSTER ST", "postcode": "62245"}}},
{"geometry": {"type": "Point", "coordinates": [-89.5384269818, 38.5537780198]}, "type": "Feature", "properties": {"collection_times": [{"days": "Mon-Fri", "time": "4:45pm"}, {"days": "Sat", "time": "10:00am"}, {"days": "Sun", "time": "Closed"}], "id": "6224500002", "name": "USPS COLLECTION BOX - PO LOBBY", "address": {"city": "GERMANTOWN", "state": "IL", "street": "405 MUNSTER ST", "postcode": "62245"}}},
{"geometry": {"type": "Point", "coordinates": [-89.413467297, 38.891973823]}, "type": "Feature", "properties": {"collection_times": [{"days": "Mon-Fri", "time": "5:00pm"}, {"days": "Sat", "time": "4:15pm"}, {"days": "Sun", "time": "Closed"}], "id": "6224600002", "name": "USPS COLLECTION BOX - BLUE BOX", "address": {"city": "GREENVILLE", "state": "IL", "street": "300 W MAIN ST", "postcode": "62246"}}},
{"geometry": {"type": "Point", "coordinates": [-89.410101972, 38.8870751692]}, "type": "Feature", "properties": {"collection_times": [{"days": "Mon-Sat", "time": "11:00am"}, {"days": "Sun", "time": "Closed"}], "id": "6224600005", "name": "USPS COLLECTION BOX - BLUE BOX", "address": {"city": "GREENVILLE", "state": "IL", "street": "224 E HARRIS AVE", "postcode": "62246"}}},
{"geometry": {"type": "Point", "coordinates": [-89.413467297, 38.891973823]}, "type": "Feature", "properties": {"collection_times": [{"days": "Mon-Fri", "time": "5:00pm"}, {"days": "Sat", "time": "4:15pm"}, {"days": "Sun", "time": "Closed"}], "id": "6224600007", "name": "USPS COLLECTION BOX - PO LOBBY", "address": {"city": "GREENVILLE", "state": "IL", "street": "300 W MAIN ST", "postcode": "62246"}}},
{"geometry": {"type": "Point", "coordinates": [-89.9934171798, 38.3051650182]}, "type": "Feature", "properties": {"collection_times": [{"days": "Mon-Fri", "time": "4:15pm"}, {"days": "Sat", "time": "9:15am"}, {"days": "Sun", "time": "Closed"}], "id": "6224800001", "name": "USPS COLLECTION BOX - BLUE BOX", "address": {"city": "HECKER", "state": "IL", "street": "140 W MONROE ST", "postcode": "62248"}}},
{"geometry": {"type": "Point", "coordinates": [-89.9934171798, 38.3051650182]}, "type": "Feature", "properties": {"collection_times": [{"days": "Mon-Fri", "time": "4:00pm"}, {"days": "Sat", "time": "9:15am"}, {"days": "Sun", "time": "Closed"}], "id": "6224800002", "name": "USPS COLLECTION BOX - PO LOBBY", "address": {"city": "HECKER", "state": "IL", "street": "140 W MONROE ST", "postcode": "62248"}}},
{"geometry": {"type": "Point", "coordinates": [-89.9934171798, 38.3051650182]}, "type": "Feature", "properties": {"collection_times": [{"days": "Mon-Fri", "time": "4:00pm"}, {"days": "Sat", "time": "9:15am"}, {"days": "Sun", "time": "Closed"}], "id": "6224800003", "name": "USPS COLLECTION BOX - PO LOBBY", "address": {"city": "HECKER", "state": "IL", "street": "140 W MONROE ST", "postcode": "62248"}}},
{"geometry": {"type": "Point", "coordinates": [-89.6818333944, 38.7547822979]}, "type": "Feature", "properties": {"collection_times": [{"days": "Mon-Sat", "time": "2:45pm"}, {"days": "Sun", "time": "Closed"}], "id": "6224900020", "name": "USPS COLLECTION BOX - BLUE BOX", "address": {"city": "HIGHLAND", "state": "IL", "street": "2663 NORTHTOWN WAY", "postcode": "62249"}}},
{"geometry": {"type": "Point", "coordinates": [-89.6759542142, 38.7490073336]}, "type": "Feature", "properties": {"collection_times": [{"days": "Mon-Sat", "time": "2:45pm"}, {"days": "Sun", "time": "Closed"}], "id": "6224900021", "name": "USPS COLLECTION BOX - BLUE BOX", "address": {"city": "HIGHLAND", "state": "IL", "street": "1310 MERCANTILE DR", "postcode": "62249"}}},
{"geometry": {"type": "Point", "coordinates": [-89.6814670843, 38.7403684496]}, "type": "Feature", "properties": {"collection_times": [{"days": "Mon-Fri", "time": "5:00pm"}, {"days": "Sat", "time": "3:15pm"}, {"days": "Sun", "time": "Closed"}], "id": "6224900022", "name": "USPS COLLECTION BOX - BLUE BOX", "address": {"city": "HIGHLAND", "state": "IL", "street": "802 MAIN ST", "postcode": "62249"}}},
{"geometry": {"type": "Point", "coordinates": [-89.6790710974, 38.7404085801]}, "type": "Feature", "properties": {"collection_times": [{"days": "Mon-Fri", "time": "3:30pm"}, {"days": "Sat", "time": "2:45pm"}, {"days": "Sun", "time": "Closed"}], "id": "6224900023", "name": "USPS COLLECTION BOX - BLUE BOX", "address": {"city": "HIGHLAND", "state": "IL", "street": "1007 WASHINGTON ST", "postcode": "62249"}}},
{"geometry": {"type": "Point", "coordinates": [-89.6814670843, 38.7403684496]}, "type": "Feature", "properties": {"collection_times": [{"days": "Mon-Fri", "time": "5:00pm"}, {"days": "Sat", "time": "3:15pm"}, {"days": "Sun", "time": "Closed"}], "id": "6224900024", "name": "USPS COLLECTION BOX - BLUE BOX", "address": {"city": "HIGHLAND", "state": "IL", "street": "802 MAIN ST", "postcode": "62249"}}},
{"geometry": {"type": "Point", "coordinates": [-89.6811100982, 38.7404217569]}, "type": "Feature", "properties": {"collection_times": [{"days": "Mon-Fri", "time": "5:00pm"}, {"days": "Sat", "time": "3:15pm"}, {"days": "Sun", "time": "Closed"}], "id": "6224900025", "name": "USPS COLLECTION BOX - PO LOBBY", "address": {"city": "HIGHLAND", "state": "IL", "street": "801 MAIN ST", "postcode": "62249"}}},
{"geometry": {"type": "Point", "coordinates": [-89.2638644699, 38.5414819927]}, "type": "Feature", "properties": {"collection_times": [{"days": "Mon-Fri", "time": "4:00pm"}, {"days": "Sat", "time": "10:30am"}, {"days": "Sun", "time": "Closed"}], "id": "6225000001", "name": "USPS COLLECTION BOX - BLUE BOX", "address": {"city": "HOFFMAN", "state": "IL", "street": "101 S BROADWAY", "postcode": "62250"}}},
{"geometry": {"type": "Point", "coordinates": [-89.2638644699, 38.5414819927]}, "type": "Feature", "properties": {"collection_times": [{"days": "Mon-Fri", "time": "3:45pm"}, {"days": "Sat", "time": "10:30am"}, {"days": "Sun", "time": "Closed"}], "id": "6225000002", "name": "USPS COLLECTION BOX - PO LOBBY", "address": {"city": "HOFFMAN", "state": "IL", "street": "101 S BROADWAY", "postcode": "62250"}}},
{"geometry": {"type": "Point", "coordinates": [-89.2910879915, 38.6030809264]}, "type": "Feature", "properties": {"collection_times": [{"days": "Mon-Fri", "time": "11:15am"}, {"days": "Sat", "time": "12:45pm"}, {"days": "Sun", "time": "Closed"}], "id": "6225200001", "name": "USPS COLLECTION BOX - BLUE BOX", "address": {"city": "HUEY", "state": "IL", "street": "231 COLLINS ST", "postcode": "62252"}}},
{"geometry": {"type": "Point", "coordinates": [-89.2910879915, 38.6030809264]}, "type": "Feature", "properties": {"collection_times": [{"days": "Mon-Fri", "time": "11:15am"}, {"days": "Sat", "time": "12:45pm"}, {"days": "Sun", "time": "Closed"}], "id": "6225200002", "name": "USPS COLLECTION BOX - PO LOBBY", "address": {"city": "HUEY", "state": "IL", "street": "231 COLLINS ST", "postcode": "62252"}}},
{"geometry": {"type": "Point", "coordinates": [-89.2781221357, 38.735556122]}, "type": "Feature", "properties": {"collection_times": [{"days": "Mon-Fri", "time": "10:45am"}, {"days": "Sat", "time": "9:15am"}, {"days": "Sun", "time": "Closed"}], "id": "6225300001", "name": "USPS COLLECTION BOX - BLUE BOX", "address": {"city": "KEYESPORT", "state": "IL", "street": "401 WASHINGTON ST", "postcode": "62253"}}},
{"geometry": {"type": "Point", "coordinates": [-89.2781221357, 38.735556122]}, "type": "Feature", "properties": {"collection_times": [{"days": "Mon-Fri", "time": "11:15am"}, {"days": "Sat", "time": "9:15am"}, {"days": "Sun", "time": "Closed"}], "id": "6225300002", "name": "USPS COLLECTION BOX - PO LOBBY", "address": {"city": "KEYESPORT", "state": "IL", "street": "401 WASHINGTON ST", "postcode": "62253"}}},
{"geometry": {"type": "Point", "coordinates": [-89.8059808807, 38.6039000116]}, "type": "Feature", "properties": {"collection_times": [{"days": "Mon-Fri", "time": "4:30pm"}, {"days": "Sat", "time": "12:15pm"}, {"days": "Sun", "time": "Closed"}], "id": "6225400001", "name": "USPS COLLECTION BOX - BLUE BOX", "address": {"city": "LEBANON", "state": "IL", "street": "201 E SAINT LOUIS ST", "postcode": "62254"}}},
{"geometry": {"type": "Point", "coordinates": [-89.8091760528, 38.6039295856]}, "type": "Feature", "properties": {"collection_times": [{"days": "Mon-Sat", "time": "8:30am"}, {"days": "Sun", "time": "Closed"}], "id": "6225400019", "name": "USPS COLLECTION BOX - BLUE BOX", "address": {"city": "LEBANON", "state": "IL", "street": "201 W SAINT LOUIS ST", "postcode": "62254"}}},
{"geometry": {"type": "Point", "coordinates": [-89.8059808807, 38.6039000116]}, "type": "Feature", "properties": {"collection_times": [{"days": "Mon-Fri", "time": "4:30pm"}, {"days": "Sat", "time": "12:15pm"}, {"days": "Sun", "time": "Closed"}], "id": "6225400021", "name": "USPS COLLECTION BOX - PO LOBBY", "address": {"city": "LEBANON", "state": "IL", "street": "201 E SAINT LOUIS ST", "postcode": "62254"}}},
{"geometry": {"type": "Point", "coordinates": [-89.8171024499, 38.2907820233]}, "type": "Feature", "properties": {"collection_times": [{"days": "Mon-Fri", "time": "11:30am"}, {"days": "Sat", "time": "9:30am"}, {"days": "Sun", "time": "Closed"}], "id": "6225500001", "name": "USPS COLLECTION BOX - BLUE BOX", "address": {"city": "LENZBURG", "state": "IL", "street": "312 N CHARLES ST", "postcode": "62255"}}},
{"geometry": {"type": "Point", "coordinates": [-89.8171024499, 38.2907820233]}, "type": "Feature", "properties": {"collection_times": [{"days": "Mon-Fri", "time": "11:15am"}, {"days": "Sat", "time": "9:30am"}, {"days": "Sun", "time": "Closed"}], "id": "6225500002", "name": "USPS COLLECTION BOX - PO LOBBY", "address": {"city": "LENZBURG", "state": "IL", "street": "312 N CHARLES ST", "postcode": "62255"}}},
{"geometry": {"type": "Point", "coordinates": [-90.2341292826, 38.2236583335]}, "type": "Feature", "properties": {"collection_times": [{"days": "Mon-Fri", "time": "3:45pm"}, {"days": "Sat", "time": "11:45am"}, {"days": "Sun", "time": "Closed"}], "id": "6225600001", "name": "USPS COLLECTION BOX - BLUE BOX", "address": {"city": "MAEYSTOWN", "state": "IL", "street": "941 MILL ST", "postcode": "62256"}}},
{"geometry": {"type": "Point", "coordinates": [-90.2341292826, 38.2236583335]}, "type": "Feature", "properties": {"collection_times": [{"days": "Mon-Fri", "time": "3:45pm"}, {"days": "Sat", "time": "11:45am"}, {"days": "Sun", "time": "Closed"}], "id": "6225600002", "name": "USPS COLLECTION BOX - PO LOBBY", "address": {"city": "MAEYSTOWN", "state": "IL", "street": "941 MILL ST", "postcode": "62256"}}},
{"geometry": {"type": "Point", "coordinates": [-89.7540903857, 38.2462359174]}, "type": "Feature", "properties": {"collection_times": [{"days": "Mon-Fri", "time": "5:00pm"}, {"days": "Sat", "time": "12:00pm"}, {"days": "Sun", "time": "Closed"}], "id": "6225700001", "name": "USPS COLLECTION BOX - BLUE BOX", "address": {"city": "MARISSA", "state": "IL", "street": "114 N MAIN ST", "postcode": "62257"}}},
{"geometry": {"type": "Point", "coordinates": [-89.7541563637, 38.2454264588]}, "type": "Feature", "properties": {"collection_times": [{"days": "Mon-Fri", "time": "5:00pm"}, {"days": "Sat", "time": "12:00pm"}, {"days": "Sun", "time": "Closed"}], "id": "6225700002", "name": "USPS COLLECTION BOX - BLUE BOX", "address": {"city": "MARISSA", "state": "IL", "street": "101 N MAIN ST", "postcode": "62257"}}},
{"geometry": {"type": "Point", "coordinates": [-89.7541708269, 38.2496617665]}, "type": "Feature", "properties": {"collection_times": [{"days": "Mon-Sat", "time": "9:00am"}, {"days": "Sun", "time": "Closed"}], "id": "6225700004", "name": "USPS COLLECTION BOX - BLUE BOX", "address": {"city": "MARISSA", "state": "IL", "street": "501 N MAIN ST", "postcode": "62257"}}},
{"geometry": {"type": "Point", "coordinates": [-89.7540903857, 38.2462359174]}, "type": "Feature", "properties": {"collection_times": [{"days": "Mon-Fri", "time": "5:00pm"}, {"days": "Sat", "time": "12:00pm"}, {"days": "Sun", "time": "Closed"}], "id": "6225700008", "name": "USPS COLLECTION BOX - PO LOBBY", "address": {"city": "MARISSA", "state": "IL", "street": "114 N MAIN ST", "postcode": "62257"}}},
{"geometry": {"type": "Point", "coordinates": [-89.7540903857, 38.2462359174]}, "type": "Feature", "properties": {"collection_times": [{"days": "Mon-Fri", "time": "5:00pm"}, {"days": "Sat", "time": "12:00pm"}, {"days": "Sun", "time": "Closed"}], "id": "6225700009", "name": "USPS COLLECTION BOX - PO LOBBY", "address": {"city": "MARISSA", "state": "IL", "street": "114 N MAIN ST", "postcode": "62257"}}},
{"geometry": {"type": "Point", "coordinates": [-89.7966485174, 38.4902779859]}, "type": "Feature", "properties": {"collection_times": [{"days": "Mon-Fri", "time": "5:00pm"}, {"days": "Sat", "time": "3:30pm"}, {"days": "Sun", "time": "Closed"}], "id": "6225800002", "name": "USPS COLLECTION BOX - BLUE BOX", "address": {"city": "MASCOUTAH", "state": "IL", "street": "18 W MAIN ST", "postcode": "62258"}}},
{"geometry": {"type": "Point", "coordinates": [-89.7966485174, 38.4902779859]}, "type": "Feature", "properties": {"collection_times": [{"days": "Mon-Fri", "time": "5:00pm"}, {"days": "Sat", "time": "3:30pm"}, {"days": "Sun", "time": "Closed"}], "id": "6225800020", "name": "USPS COLLECTION BOX - BLUE BOX", "address": {"city": "MASCOUTAH", "state": "IL", "street": "18 W MAIN ST", "postcode": "62258"}}},
{"geometry": {"type": "Point", "coordinates": [-89.7966485174, 38.4902779859]}, "type": "Feature", "properties": {"collection_times": [{"days": "Mon-Fri", "time": "5:00pm"}, {"days": "Sat", "time": "3:30pm"}, {"days": "Sun", "time": "Closed"}], "id": "6225800021", "name": "USPS COLLECTION BOX - PO LOBBY", "address": {"city": "MASCOUTAH", "state": "IL", "street": "18 W MAIN ST", "postcode": "62258"}}},
{"geometry": {"type": "Point", "coordinates": [-89.7966485174, 38.4902779859]}, "type": "Feature", "properties": {"collection_times": [{"days": "Mon-Fri", "time": "5:00pm"}, {"days": "Sat", "time": "3:30pm"}, {"days": "Sun", "time": "Closed"}], "id": "6225800022", "name": "USPS COLLECTION BOX - PO LOBBY", "address": {"city": "MASCOUTAH", "state": "IL", "street": "18 W MAIN ST", "postcode": "62258"}}},
{"geometry": {"type": "Point", "coordinates": [-90.0925101034, 38.4597682913]}, "type": "Feature", "properties": {"collection_times": [{"days": "Mon-Fri", "time": "5:00pm"}, {"days": "Sat", "time": "4:00pm"}, {"days": "Sun", "time": "Closed"}], "id": "6226000001", "name": "USPS COLLECTION BOX - BLUE BOX", "address": {"city": "MILLSTADT", "state": "IL", "street": "20 W WHITE ST", "postcode": "62260"}}},
{"geometry": {"type": "Point", "coordinates": [-90.0820830164, 38.4632099426]}, "type": "Feature", "properties": {"collection_times": [{"days": "Mon-Sat", "time": "9:00am"}, {"days": "Sun", "time": "Closed"}], "id": "6226000002", "name": "USPS COLLECTION BOX - BLUE BOX", "address": {"city": "MILLSTADT", "state": "IL", "street": "645 E WASHINGTON ST", "postcode": "62260"}}},
{"geometry": {"type": "Point", "coordinates": [-90.098403605, 38.4613700177]}, "type": "Feature", "properties": {"collection_times": [{"days": "Mon-Sat", "time": "10:00am"}, {"days": "Sun", "time": "Closed"}], "id": "6226000009", "name": "USPS COLLECTION BOX - BLUE BOX", "address": {"city": "MILLSTADT", "state": "IL", "street": "741 W WASHINGTON ST", "postcode": "62260"}}},
{"geometry": {"type": "Point", "coordinates": [-90.0911035652, 38.4614149702]}, "type": "Feature", "properties": {"collection_times": [{"days": "Mon-Sat", "time": "2:15pm"}, {"days": "Sun", "time": "Closed"}], "id": "6226000010", "name": "USPS COLLECTION BOX - BLUE BOX", "address": {"city": "MILLSTADT", "state": "IL", "street": "3 E WASHINGTON ST", "postcode": "62260"}}},
{"geometry": {"type": "Point", "coordinates": [-90.0925101034, 38.4597682913]}, "type": "Feature", "properties": {"collection_times": [{"days": "Mon-Fri", "time": "5:00pm"}, {"days": "Sat", "time": "4:00pm"}, {"days": "Sun", "time": "Closed"}], "id": "6226000011", "name": "USPS COLLECTION BOX - PO LOBBY", "address": {"city": "MILLSTADT", "state": "IL", "street": "20 W WHITE ST", "postcode": "62260"}}},
{"geometry": {"type": "Point", "coordinates": [-90.0925101034, 38.4597682913]}, "type": "Feature", "properties": {"collection_times": [{"days": "Mon-Fri", "time": "5:00pm"}, {"days": "Sat", "time": "4:00pm"}, {"days": "Sun", "time": "Closed"}], "id": "6226000013", "name": "USPS COLLECTION BOX - PO LOBBY", "address": {"city": "MILLSTADT", "state": "IL", "street": "20 W WHITE ST", "postcode": "62260"}}},
{"geometry": {"type": "Point", "coordinates": [-89.2691186685, 38.9262075868]}, "type": "Feature", "properties": {"collection_times": [{"days": "Mon-Fri", "time": "2:45pm"}, {"days": "Sat", "time": "10:00am"}, {"days": "Sun", "time": "Closed"}], "id": "6226200001", "name": "USPS COLLECTION BOX - PO LOBBY", "address": {"city": "MULBERRY GROVE", "state": "IL", "street": "201 N MAPLE ST", "postcode": "62262"}}},
{"geometry": {"type": "Point", "coordinates": [-89.2691186685, 38.9262075868]}, "type": "Feature", "properties": {"collection_times": [{"days": "Mon-Fri", "time": "2:45pm"}, {"days": "Sat", "time": "10:00am"}, {"days": "Sun", "time": "Closed"}], "id": "6226200002", "name": "USPS COLLECTION BOX - BLUE BOX", "address": {"city": "MULBERRY GROVE", "state": "IL", "street": "201 N MAPLE ST", "postcode": "62262"}}},
{"geometry": {"type": "Point", "coordinates": [-89.3830423681, 38.3429969034]}, "type": "Feature", "properties": {"collection_times": [{"days": "Mon-Fri", "time": "5:15pm"}, {"days": "Sat", "time": "4:00pm"}, {"days": "Sun", "time": "Closed"}], "id": "6226300001", "name": "USPS COLLECTION BOX - PO LOBBY", "address": {"city": "NASHVILLE", "state": "IL", "street": "181 S KASKASKIA ST", "postcode": "62263"}}},
{"geometry": {"type": "Point", "coordinates": [-89.3830423681, 38.3429969034]}, "type": "Feature", "properties": {"collection_times": [{"days": "Mon-Fri", "time": "5:15pm"}, {"days": "Sat", "time": "4:00pm"}, {"days": "Sun", "time": "Closed"}], "id": "6226300002", "name": "USPS COLLECTION BOX - BLUE BOX", "address": {"city": "NASHVILLE", "state": "IL", "street": "181 S KASKASKIA ST", "postcode": "62263"}}},
{"geometry": {"type": "Point", "coordinates": [-89.3830423681, 38.3429969034]}, "type": "Feature", "properties": {"collection_times": [{"days": "Mon-Fri", "time": "5:15pm"}, {"days": "Sat", "time": "4:00pm"}, {"days": "Sun", "time": "Closed"}], "id": "6226300017", "name": "USPS COLLECTION BOX - BLUE BOX", "address": {"city": "NASHVILLE", "state": "IL", "street": "181 S KASKASKIA ST", "postcode": "62263"}}},
{"geometry": {"type": "Point", "coordinates": [-89.8783069918, 38.3241148379]}, "type": "Feature", "properties": {"collection_times": [{"days": "Mon-Fri", "time": "3:30pm"}, {"days": "Sat", "time": "9:30am"}, {"days": "Sun", "time": "Closed"}], "id": "6226400001", "name": "USPS COLLECTION BOX - BLUE BOX", "address": {"city": "NEW ATHENS", "state": "IL", "street": "200 S BENTON ST", "postcode": "62264"}}},
{"geometry": {"type": "Point", "coordinates": [-89.8652080872, 38.3163676396]}, "type": "Feature", "properties": {"collection_times": [{"days": "Mon-Fri", "time": "12:00pm"}, {"days": "Sat-Sun", "time": "Closed"}], "id": "6226400008", "name": "USPS COLLECTION BOX - BLUE BOX", "address": {"city": "NEW ATHENS", "state": "IL", "street": "1102 SPOTSYLVANIA ST", "postcode": "62264"}}},
{"geometry": {"type": "Point", "coordinates": [-89.8783069918, 38.3241148379]}, "type": "Feature", "properties": {"collection_times": [{"days": "Mon-Fri", "time": "3:30pm"}, {"days": "Sat", "time": "9:30am"}, {"days": "Sun", "time": "Closed"}], "id": "6226400011", "name": "USPS COLLECTION BOX - PO LOBBY", "address": {"city": "NEW ATHENS", "state": "IL", "street": "200 S BENTON ST", "postcode": "62264"}}},
{"geometry": {"type": "Point", "coordinates": [-89.698202432, 38.5350241326]}, "type": "Feature", "properties": {"collection_times": [{"days": "Mon-Fri", "time": "4:30pm"}, {"days": "Sat", "time": "12:00pm"}, {"days": "Sun", "time": "Closed"}], "id": "6226500001", "name": "USPS COLLECTION BOX - BLUE BOX", "address": {"city": "NEW BADEN", "state": "IL", "street": "203 E HANOVER ST", "postcode": "62265"}}},
{"geometry": {"type": "Point", "coordinates": [-89.698202432, 38.5350241326]}, "type": "Feature", "properties": {"collection_times": [{"days": "Mon-Fri", "time": "4:30pm"}, {"days": "Sat", "time": "12:00pm"}, {"days": "Sun", "time": "Closed"}], "id": "6226500002", "name": "USPS COLLECTION BOX - BLUE BOX", "address": {"city": "NEW BADEN", "state": "IL", "street": "203 E HANOVER ST", "postcode": "62265"}}},
{"geometry": {"type": "Point", "coordinates": [-89.698202432, 38.5350241326]}, "type": "Feature", "properties": {"collection_times": [{"days": "Mon-Fri", "time": "4:30pm"}, {"days": "Sat", "time": "11:00am"}, {"days": "Sun", "time": "Closed"}], "id": "6226500004", "name": "USPS COLLECTION BOX - PO LOBBY", "address": {"city": "NEW BADEN", "state": "IL", "street": "203 E HANOVER ST", "postcode": "62265"}}},
{"geometry": {"type": "Point", "coordinates": [-89.6983356257, 38.5350631509]}, "type": "Feature", "properties": {"collection_times": [{"days": "Mon-Fri", "time": "4:00pm"}, {"days": "Sat", "time": "9:45am"}, {"days": "Sun", "time": "Closed"}], "id": "6226600001", "name": "USPS COLLECTION BOX - BLUE BOX", "address": {"city": "NEW MEMPHIS", "state": "IL", "street": "84 S 2ND ST", "postcode": "62266"}}},
{"geometry": {"type": "Point", "coordinates": [-89.6983356257, 38.5350631509]}, "type": "Feature", "properties": {"collection_times": [{"days": "Mon-Fri", "time": "3:45pm"}, {"days": "Sat", "time": "9:45am"}, {"days": "Sun", "time": "Closed"}], "id": "6226600002", "name": "USPS COLLECTION BOX - PO LOBBY", "address": {"city": "NEW MEMPHIS", "state": "IL", "street": "84 S 2ND ST", "postcode": "62266"}}},
{"geometry": {"type": "Point", "coordinates": [-89.6983356257, 38.5350631509]}, "type": "Feature", "properties": {"collection_times": [{"days": "Mon-Fri", "time": "3:45pm"}, {"days": "Sat", "time": "9:45am"}, {"days": "Sun", "time": "Closed"}], "id": "6226600003", "name": "USPS COLLECTION BOX - PO LOBBY", "address": {"city": "NEW MEMPHIS", "state": "IL", "street": "84 S 2ND ST", "postcode": "62266"}}},
{"geometry": {"type": "Point", "coordinates": [-89.5032632345, 38.2625193998]}, "type": "Feature", "properties": {"collection_times": [{"days": "Mon-Fri", "time": "11:45am"}, {"days": "Sat", "time": "9:30am"}, {"days": "Sun", "time": "Closed"}], "id": "6226800001", "name": "USPS COLLECTION BOX - BLUE BOX", "address": {"city": "OAKDALE", "state": "IL", "street": "21 E 2ND ST", "postcode": "62268"}}},
{"geometry": {"type": "Point", "coordinates": [-89.5032632345, 38.2625193998]}, "type": "Feature", "properties": {"collection_times": [{"days": "Mon-Fri", "time": "11:45am"}, {"days": "Sat", "time": "9:30am"}, {"days": "Sun", "time": "Closed"}], "id": "6226800002", "name": "USPS COLLECTION BOX - PO LOBBY", "address": {"city": "OAKDALE", "state": "IL", "street": "21 E 2ND ST", "postcode": "62268"}}},
{"geometry": {"type": "Point", "coordinates": [-89.929901747, 38.5909205858]}, "type": "Feature", "properties": {"collection_times": [{"days": "Mon-Fri", "time": "3:00pm"}, {"days": "Sat", "time": "1:15pm"}, {"days": "Sun", "time": "Closed"}], "id": "6226900008", "name": "USPS COLLECTION BOX - BLUE BOX", "address": {"city": "O FALLON", "state": "IL", "street": "2 EAGLE CTR", "postcode": "62269"}}},
{"geometry": {"type": "Point", "coordinates": [-89.9220587291, 38.5885641316]}, "type": "Feature", "properties": {"collection_times": [{"days": "Mon-Fri", "time": "3:00pm"}, {"days": "Sat", "time": "1:15pm"}, {"days": "Sun", "time": "Closed"}], "id": "6226900016", "name": "USPS COLLECTION BOX - BLUE BOX", "address": {"city": "O FALLON", "state": "IL", "street": "615 W HIGHWAY 50", "postcode": "62269"}}},
{"geometry": {"type": "Point", "coordinates": [-89.8980210747, 38.5587081669]}, "type": "Feature", "properties": {"collection_times": [{"days": "Mon-Sat", "time": "1:15pm"}, {"days": "Sun", "time": "Closed"}], "id": "6226900024", "name": "USPS COLLECTION BOX - BLUE BOX", "address": {"city": "O FALLON", "state": "IL", "street": "1 PARK DR", "postcode": "62269"}}},
{"geometry": {"type": "Point", "coordinates": [-89.9539805163, 38.5925826933]}, "type": "Feature", "properties": {"collection_times": [{"days": "Mon-Sat", "time": "1:15pm"}, {"days": "Sun", "time": "Closed"}], "id": "6226900028", "name": "USPS COLLECTION BOX - BLUE BOX", "address": {"city": "O FALLON", "state": "IL", "street": "1501 W HIGHWAY 50", "postcode": "62269"}}},
{"geometry": {"type": "Point", "coordinates": [-89.9589303771, 38.5967241825]}, "type": "Feature", "properties": {"collection_times": [{"days": "Mon-Sat", "time": "1:15pm"}, {"days": "Sun", "time": "Closed"}], "id": "6226900034", "name": "USPS COLLECTION BOX - BLUE BOX", "address": {"city": "O FALLON", "state": "IL", "street": "105 AUTO CT", "postcode": "62269"}}},
{"geometry": {"type": "Point", "coordinates": [-89.9110323686, 38.5818236314]}, "type": "Feature", "properties": {"collection_times": [{"days": "Mon-Fri", "time": "4:45pm"}, {"days": "Sat", "time": "2:00pm"}, {"days": "Sun", "time": "Closed"}], "id": "6226900035", "name": "USPS COLLECTION BOX - BLUE BOX", "address": {"city": "O FALLON", "state": "IL", "street": "1111 S LINCOLN AVE", "postcode": "62269"}}},
{"geometry": {"type": "Point", "coordinates": [-89.9475562266, 38.5882423667]}, "type": "Feature", "properties": {"collection_times": [{"days": "Mon-Fri", "time": "3:00pm"}, {"days": "Sat", "time": "1:15pm"}, {"days": "Sun", "time": "Closed"}], "id": "6226900036", "name": "USPS COLLECTION BOX - BLUE BOX", "address": {"city": "O FALLON", "state": "IL", "street": "350 HARTMAN LN", "postcode": "62269"}}},
{"geometry": {"type": "Point", "coordinates": [-89.9110323686, 38.5818236314]}, "type": "Feature", "properties": {"collection_times": [{"days": "Mon-Fri", "time": "4:45pm"}, {"days": "Sat", "time": "2:00pm"}, {"days": "Sun", "time": "Closed"}], "id": "6226900039", "name": "USPS COLLECTION BOX - BLUE BOX", "address": {"city": "O FALLON", "state": "IL", "street": "1111 S LINCOLN AVE", "postcode": "62269"}}},
{"geometry": {"type": "Point", "coordinates": [-89.8956310814, 38.5815344001]}, "type": "Feature", "properties": {"collection_times": [{"days": "Mon-Sat", "time": "1:45pm"}, {"days": "Sun", "time": "Closed"}], "id": "6226900040", "name": "USPS COLLECTION BOX - BLUE BOX", "address": {"city": "O FALLON", "state": "IL", "street": "907 E HIGHWAY 50", "postcode": "62269"}}},
{"geometry": {"type": "Point", "coordinates": [-89.9110323686, 38.5818236314]}, "type": "Feature", "properties": {"collection_times": [{"days": "Mon-Fri", "time": "4:45pm"}, {"days": "Sat", "time": "2:00pm"}, {"days": "Sun", "time": "Closed"}], "id": "6226900041", "name": "USPS COLLECTION BOX - PO LOBBY", "address": {"city": "O FALLON", "state": "IL", "street": "1111 S LINCOLN AVE", "postcode": "62269"}}},
{"geometry": {"type": "Point", "coordinates": [-89.9110323686, 38.5818236314]}, "type": "Feature", "properties": {"collection_times": [{"days": "Mon-Fri", "time": "4:45pm"}, {"days": "Sat", "time": "2:00pm"}, {"days": "Sun", "time": "Closed"}], "id": "6226900042", "name": "USPS COLLECTION BOX - PO LOBBY", "address": {"city": "O FALLON", "state": "IL", "street": "1111 S LINCOLN AVE", "postcode": "62269"}}},
{"geometry": {"type": "Point", "coordinates": [-89.8828319576, 38.5836805534]}, "type": "Feature", "properties": {"collection_times": [{"days": "Mon-Sat", "time": "1:45pm"}, {"days": "Sun", "time": "Closed"}], "id": "6226900043", "name": "USPS COLLECTION BOX - BLUE BOX", "address": {"city": "O FALLON", "state": "IL", "street": "715 LAKE POINTE CENTRE DR", "postcode": "62269"}}},
{"geometry": {"type": "Point", "coordinates": [-89.8768058169, 38.5787644995]}, "type": "Feature", "properties": {"collection_times": [{"days": "Mon-Sat", "time": "1:15pm"}, {"days": "Sun", "time": "Closed"}], "id": "6226900044", "name": "USPS COLLECTION BOX - BLUE BOX", "address": {"city": "O FALLON", "state": "IL", "street": "1035 EASTGATE DR", "postcode": "62269"}}},
{"geometry": {"type": "Point", "coordinates": [-89.9108170701, 38.5908247661]}, "type": "Feature", "properties": {"collection_times": [{"days": "Mon-Fri", "time": "3:00pm"}, {"days": "Sat", "time": "1:45pm"}, {"days": "Sun", "time": "Closed"}], "id": "6226900045", "name": "USPS COLLECTION BOX - BLUE BOX", "address": {"city": "O FALLON", "state": "IL", "street": "200 S LINCOLN AVE", "postcode": "62269"}}},
{"geometry": {"type": "Point", "coordinates": [-89.9110323686, 38.5818236314]}, "type": "Feature", "properties": {"collection_times": [{"days": "Mon-Fri", "time": "4:45pm"}, {"days": "Sat", "time": "2:00pm"}, {"days": "Sun", "time": "Closed"}], "id": "6226900047", "name": "USPS COLLECTION BOX - APC", "address": {"city": "O FALLON", "state": "IL", "street": "1111 S LINCOLN AVE", "postcode": "62269"}}},
{"geometry": {"type": "Point", "coordinates": [-89.9157668809, 38.6015075828]}, "type": "Feature", "properties": {"collection_times": [{"days": "Mon-Sat", "time": "1:15pm"}, {"days": "Sun", "time": "Closed"}], "id": "6226900048", "name": "USPS COLLECTION BOX - BLUE BOX", "address": {"city": "O FALLON", "state": "IL", "street": "1911 FRANK SCOTT PKWY E", "postcode": "62269"}}},
{"geometry": {"type": "Point", "coordinates": [-89.550445058, 38.4343812469]}, "type": "Feature", "properties": {"collection_times": [{"days": "Mon-Fri", "time": "4:45pm"}, {"days": "Sat", "time": "10:45am"}, {"days": "Sun", "time": "Closed"}], "id": "6227100001", "name": "USPS COLLECTION BOX - BLUE BOX", "address": {"city": "OKAWVILLE", "state": "IL", "street": "113 E WALNUT ST", "postcode": "62271"}}},
{"geometry": {"type": "Point", "coordinates": [-89.550445058, 38.4343812469]}, "type": "Feature", "properties": {"collection_times": [{"days": "Mon-Fri", "time": "4:45pm"}, {"days": "Sat", "time": "10:00am"}, {"days": "Sun", "time": "Closed"}], "id": "6227100003", "name": "USPS COLLECTION BOX - PO LOBBY", "address": {"city": "OKAWVILLE", "state": "IL", "street": "113 E WALNUT ST", "postcode": "62271"}}},
{"geometry": {"type": "Point", "coordinates": [-89.6184663739, 38.0166638947]}, "type": "Feature", "properties": {"collection_times": [{"days": "Mon-Fri", "time": "3:30pm"}, {"days": "Sat", "time": "9:45am"}, {"days": "Sun", "time": "Closed"}], "id": "6227200001", "name": "USPS COLLECTION BOX - BLUE BOX", "address": {"city": "PERCY", "state": "IL", "street": "112 E PINE ST", "postcode": "62272"}}},
{"geometry": {"type": "Point", "coordinates": [-89.6184663739, 38.0166638947]}, "type": "Feature", "properties": {"collection_times": [{"days": "Mon-Fri", "time": "3:15pm"}, {"days": "Sat", "time": "9:45am"}, {"days": "Sun", "time": "Closed"}], "id": "6227200002", "name": "USPS COLLECTION BOX - PO LOBBY", "address": {"city": "PERCY", "state": "IL", "street": "112 E PINE ST", "postcode": "62272"}}},
{"geometry": {"type": "Point", "coordinates": [-89.5922826762, 38.7796503065]}, "type": "Feature", "properties": {"collection_times": [{"days": "Mon-Fri", "time": "11:15am"}, {"days": "Sat", "time": "12:00pm"}, {"days": "Sun", "time": "Closed"}], "id": "6227300003", "name": "USPS COLLECTION BOX - BLUE BOX", "address": {"city": "PIERRON", "state": "IL", "street": "237 ILLINOIS ROUTE 143", "postcode": "62273"}}},
{"geometry": {"type": "Point", "coordinates": [-89.5922826762, 38.7796503065]}, "type": "Feature", "properties": {"collection_times": [{"days": "Mon-Fri", "time": "11:15am"}, {"days": "Sat", "time": "12:00pm"}, {"days": "Sun", "time": "Closed"}], "id": "6227300004", "name": "USPS COLLECTION BOX - PO LOBBY", "address": {"city": "PIERRON", "state": "IL", "street": "237 ILLINOIS ROUTE 143", "postcode": "62273"}}},
{"geometry": {"type": "Point", "coordinates": [-89.3830080639, 38.0785288264]}, "type": "Feature", "properties": {"collection_times": [{"days": "Mon-Fri", "time": "4:45pm"}, {"days": "Sat", "time": "3:30pm"}, {"days": "Sun", "time": "Closed"}], "id": "6227400001", "name": "USPS COLLECTION BOX - BLUE BOX", "address": {"city": "PINCKNEYVILLE", "state": "IL", "street": "215 S WALNUT ST", "postcode": "62274"}}},
{"geometry": {"type": "Point", "coordinates": [-89.3819278775, 38.0758189473]}, "type": "Feature", "properties": {"collection_times": [{"days": "Mon-Sat", "time": "11:00am"}, {"days": "Sun", "time": "Closed"}], "id": "6227400005", "name": "USPS COLLECTION BOX - BLUE BOX", "address": {"city": "PINCKNEYVILLE", "state": "IL", "street": "412 S MAIN ST", "postcode": "62274"}}},
{"geometry": {"type": "Point", "coordinates": [-89.38939893, 38.0753690697]}, "type": "Feature", "properties": {"collection_times": [{"days": "Mon-Sat", "time": "2:00pm"}, {"days": "Sun", "time": "Closed"}], "id": "6227400006", "name": "USPS COLLECTION BOX - BLUE BOX", "address": {"city": "PINCKNEYVILLE", "state": "IL", "street": "509 S DUCKWORTH ST", "postcode": "62274"}}},
{"geometry": {"type": "Point", "coordinates": [-89.3768153591, 38.0738568182]}, "type": "Feature", "properties": {"collection_times": [{"days": "Mon-Sat", "time": "10:15am"}, {"days": "Sun", "time": "Closed"}], "id": "6227400007", "name": "USPS COLLECTION BOX - BLUE BOX", "address": {"city": "PINCKNEYVILLE", "state": "IL", "street": "608 S EAST ST", "postcode": "62274"}}},
{"geometry": {"type": "Point", "coordinates": [-89.3821177077, 38.0724267598]}, "type": "Feature", "properties": {"collection_times": [{"days": "Mon-Sat", "time": "1:30pm"}, {"days": "Sun", "time": "Closed"}], "id": "6227400008", "name": "USPS COLLECTION BOX - BLUE BOX", "address": {"city": "PINCKNEYVILLE", "state": "IL", "street": "901 S MAIN ST", "postcode": "62274"}}},
{"geometry": {"type": "Point", "coordinates": [-89.3779728098, 38.0823130344]}, "type": "Feature", "properties": {"collection_times": [{"days": "Mon-Sat", "time": "1:45pm"}, {"days": "Sun", "time": "Closed"}], "id": "6227400009", "name": "USPS COLLECTION BOX - BLUE BOX", "address": {"city": "PINCKNEYVILLE", "state": "IL", "street": "401 E CLINTON ST", "postcode": "62274"}}},
{"geometry": {"type": "Point", "coordinates": [-89.3800957295, 38.0813961307]}, "type": "Feature", "properties": {"collection_times": [{"days": "Mon-Sat", "time": "2:15pm"}, {"days": "Sun", "time": "Closed"}], "id": "6227400010", "name": "USPS COLLECTION BOX - BLUE BOX", "address": {"city": "PINCKNEYVILLE", "state": "IL", "street": "201 E LAUREL ST", "postcode": "62274"}}},
{"geometry": {"type": "Point", "coordinates": [-89.3953956128, 38.0771076839]}, "type": "Feature", "properties": {"collection_times": [{"days": "Mon-Sat", "time": "11:00am"}, {"days": "Sun", "time": "Closed"}], "id": "6227400011", "name": "USPS COLLECTION BOX - BLUE BOX", "address": {"city": "PINCKNEYVILLE", "state": "IL", "street": "29 SUNNY LN", "postcode": "62274"}}},
{"geometry": {"type": "Point", "coordinates": [-89.4025196614, 38.0888727217]}, "type": "Feature", "properties": {"collection_times": [{"days": "Mon-Sat", "time": "3:00pm"}, {"days": "Sun", "time": "Closed"}], "id": "6227400012", "name": "USPS COLLECTION BOX - BLUE BOX", "address": {"city": "PINCKNEYVILLE", "state": "IL", "street": "1 PUBLIC SQ", "postcode": "62274"}}},
{"geometry": {"type": "Point", "coordinates": [-89.3830080639, 38.0785288264]}, "type": "Feature", "properties": {"collection_times": [{"days": "Mon-Fri", "time": "4:45pm"}, {"days": "Sat", "time": "3:30pm"}, {"days": "Sun", "time": "Closed"}], "id": "6227400013", "name": "USPS COLLECTION BOX - BLUE BOX", "address": {"city": "PINCKNEYVILLE", "state": "IL", "street": "215 S WALNUT ST", "postcode": "62274"}}},
{"geometry": {"type": "Point", "coordinates": [-89.3828682275, 38.078542815]}, "type": "Feature", "properties": {"collection_times": [{"days": "Mon-Fri", "time": "4:45pm"}, {"days": "Sat", "time": "3:30pm"}, {"days": "Sun", "time": "Closed"}], "id": "6227400016", "name": "USPS COLLECTION BOX - PO LOBBY", "address": {"city": "PINCKNEYVILLE", "state": "IL", "street": "212 S WALNUT ST", "postcode": "62274"}}},
{"geometry": {"type": "Point", "coordinates": [-89.3828682275, 38.078542815]}, "type": "Feature", "properties": {"collection_times": [{"days": "Mon-Fri", "time": "4:45pm"}, {"days": "Sat", "time": "3:30pm"}, {"days": "Sun", "time": "Closed"}], "id": "6227400017", "name": "USPS COLLECTION BOX - PO LOBBY", "address": {"city": "PINCKNEYVILLE", "state": "IL", "street": "212 S WALNUT ST", "postcode": "62274"}}},
{"geometry": {"type": "Point", "coordinates": [-89.5408786864, 38.8280830055]}, "type": "Feature", "properties": {"collection_times": [{"days": "Mon-Fri", "time": "4:30pm"}, {"days": "Sat", "time": "10:00am"}, {"days": "Sun", "time": "Closed"}], "id": "6227500001", "name": "USPS COLLECTION BOX - BLUE BOX", "address": {"city": "POCAHONTAS", "state": "IL", "street": "107 PARK ST", "postcode": "62275"}}},
{"geometry": {"type": "Point", "coordinates": [-89.5408786864, 38.8280830055]}, "type": "Feature", "properties": {"collection_times": [{"days": "Mon-Fri", "time": "4:30pm"}, {"days": "Sat", "time": "1:00pm"}, {"days": "Sun", "time": "Closed"}], "id": "6227500003", "name": "USPS COLLECTION BOX - PO LOBBY", "address": {"city": "POCAHONTAS", "state": "IL", "street": "107 PARK ST", "postcode": "62275"}}},
{"geometry": {"type": "Point", "coordinates": [-90.098544802, 38.086578203]}, "type": "Feature", "properties": {"collection_times": [{"days": "Mon-Fri", "time": "11:15am"}, {"days": "Sat", "time": "8:45am"}, {"days": "Sun", "time": "Closed"}], "id": "6227700001", "name": "USPS COLLECTION BOX - BLUE BOX", "address": {"city": "PR DU ROCHER", "state": "IL", "street": "211 HENRY ST", "postcode": "62277"}}},
{"geometry": {"type": "Point", "coordinates": [-90.098544802, 38.086578203]}, "type": "Feature", "properties": {"collection_times": [{"days": "Mon-Fri", "time": "11:15am"}, {"days": "Sat", "time": "8:45am"}, {"days": "Sun", "time": "Closed"}], "id": "6227700003", "name": "USPS COLLECTION BOX - PO LOBBY", "address": {"city": "PR DU ROCHER", "state": "IL", "street": "211 HENRY ST", "postcode": "62277"}}},
{"geometry": {"type": "Point", "coordinates": [-89.9940010024, 38.2112515233]}, "type": "Feature", "properties": {"collection_times": [{"days": "Mon-Fri", "time": "5:00pm"}, {"days": "Sat", "time": "12:00pm"}, {"days": "Sun", "time": "Closed"}], "id": "6227800001", "name": "USPS COLLECTION BOX - BLUE BOX", "address": {"city": "RED BUD", "state": "IL", "street": "150 S MAIN ST", "postcode": "62278"}}},
{"geometry": {"type": "Point", "coordinates": [-89.9940010024, 38.2112515233]}, "type": "Feature", "properties": {"collection_times": [{"days": "Mon-Fri", "time": "5:00pm"}, {"days": "Sat", "time": "12:00pm"}, {"days": "Sun", "time": "Closed"}], "id": "6227800010", "name": "USPS COLLECTION BOX - BLUE BOX", "address": {"city": "RED BUD", "state": "IL", "street": "150 S MAIN ST", "postcode": "62278"}}},
{"geometry": {"type": "Point", "coordinates": [-89.9940010024, 38.2112515233]}, "type": "Feature", "properties": {"collection_times": [{"days": "Mon-Fri", "time": "5:00pm"}, {"days": "Sat", "time": "12:00pm"}, {"days": "Sun", "time": "Closed"}], "id": "6227800012", "name": "USPS COLLECTION BOX - PO LOBBY", "address": {"city": "RED BUD", "state": "IL", "street": "150 S MAIN ST", "postcode": "62278"}}},
{"geometry": {"type": "Point", "coordinates": [-90.1340832851, 38.1533124259]}, "type": "Feature", "properties": {"collection_times": [{"days": "Mon-Fri", "time": "3:00pm"}, {"days": "Sat", "time": "9:45am"}, {"days": "Sun", "time": "Closed"}], "id": "6227900001", "name": "USPS COLLECTION BOX - BLUE BOX", "address": {"city": "RENAULT", "state": "IL", "street": "2130 MAIN ST", "postcode": "62279"}}},
{"geometry": {"type": "Point", "coordinates": [-90.1340832851, 38.1533124259]}, "type": "Feature", "properties": {"collection_times": [{"days": "Mon-Sat", "time": "9:45am"}, {"days": "Sun", "time": "Closed"}], "id": "6227900002", "name": "USPS COLLECTION BOX - PO LOBBY", "address": {"city": "RENAULT", "state": "IL", "street": "2130 MAIN ST", "postcode": "62279"}}},
{"geometry": {"type": "Point", "coordinates": [-89.70098416, 37.841143968]}, "type": "Feature", "properties": {"collection_times": [{"days": "Mon-Fri", "time": "11:45am"}, {"days": "Sat", "time": "9:30am"}, {"days": "Sun", "time": "Closed"}], "id": "6228000001", "name": "USPS COLLECTION BOX - BLUE BOX", "address": {"city": "ROCKWOOD", "state": "IL", "street": "900 ORIGINAL ST", "postcode": "62280"}}},
{"geometry": {"type": "Point", "coordinates": [-89.70098416, 37.841143968]}, "type": "Feature", "properties": {"collection_times": [{"days": "Mon-Fri", "time": "11:45am"}, {"days": "Sat", "time": "9:30am"}, {"days": "Sun", "time": "Closed"}], "id": "6228000002", "name": "USPS COLLECTION BOX - PO LOBBY", "address": {"city": "ROCKWOOD", "state": "IL", "street": "900 ORIGINAL ST", "postcode": "62280"}}},
{"geometry": {"type": "Point", "coordinates": [-89.7868459613, 38.705890558]}, "type": "Feature", "properties": {"collection_times": [{"days": "Mon-Fri", "time": "4:30pm"}, {"days": "Sat", "time": "9:45am"}, {"days": "Sun", "time": "Closed"}], "id": "6228100001", "name": "USPS COLLECTION BOX - BLUE BOX", "address": {"city": "SAINT JACOB", "state": "IL", "street": "309 N DOUGLAS ST", "postcode": "62281"}}},
{"geometry": {"type": "Point", "coordinates": [-89.7868459613, 38.705890558]}, "type": "Feature", "properties": {"collection_times": [{"days": "Mon-Fri", "time": "4:45pm"}, {"days": "Sat", "time": "11:45am"}, {"days": "Sun", "time": "Closed"}], "id": "6228100002", "name": "USPS COLLECTION BOX - PO LOBBY", "address": {"city": "SAINT JACOB", "state": "IL", "street": "309 N DOUGLAS ST", "postcode": "62281"}}},
{"geometry": {"type": "Point", "coordinates": [-89.7980789959, 38.490295636]}, "type": "Feature", "properties": {"collection_times": [{"days": "Mon-Fri", "time": "4:30pm"}, {"days": "Sat", "time": "9:30am"}, {"days": "Sun", "time": "Closed"}], "id": "6228200001", "name": "USPS COLLECTION BOX - BLUE BOX", "address": {"city": "SAINT LIBORY", "state": "IL", "street": "7340 STATE ROUTE 15", "postcode": "62282"}}},
{"geometry": {"type": "Point", "coordinates": [-89.7980789959, 38.490295636]}, "type": "Feature", "properties": {"collection_times": [{"days": "Mon-Fri", "time": "4:30pm"}, {"days": "Sat", "time": "9:30am"}, {"days": "Sun", "time": "Closed"}], "id": "6228200002", "name": "USPS COLLECTION BOX - PO LOBBY", "address": {"city": "SAINT LIBORY", "state": "IL", "street": "7340 STATE ROUTE 15", "postcode": "62282"}}},
{"geometry": {"type": "Point", "coordinates": [-89.3408182085, 38.89588087]}, "type": "Feature", "properties": {"collection_times": [{"days": "Mon-Fri", "time": "4:15pm"}, {"days": "Sat", "time": "9:15am"}, {"days": "Sun", "time": "Closed"}], "id": "6228400001", "name": "USPS COLLECTION BOX - BLUE BOX", "address": {"city": "SMITHBORO", "state": "IL", "street": "205 S MAIN ST", "postcode": "62284"}}},
{"geometry": {"type": "Point", "coordinates": [-89.3408182085, 38.89588087]}, "type": "Feature", "properties": {"collection_times": [{"days": "Mon-Fri", "time": "4:00pm"}, {"days": "Sat", "time": "1:30pm"}, {"days": "Sun", "time": "Closed"}], "id": "6228400002", "name": "USPS COLLECTION BOX - PO LOBBY", "address": {"city": "SMITHBORO", "state": "IL", "street": "205 S MAIN ST", "postcode": "62284"}}},
{"geometry": {"type": "Point", "coordinates": [-89.9921636836, 38.4043011918]}, "type": "Feature", "properties": {"collection_times": [{"days": "Mon-Fri", "time": "4:30pm"}, {"days": "Sat", "time": "11:00am"}, {"days": "Sun", "time": "Closed"}], "id": "6228500001", "name": "USPS COLLECTION BOX - BLUE BOX", "address": {"city": "SMITHTON", "state": "IL", "street": "512 S MAIN ST", "postcode": "62285"}}},
{"geometry": {"type": "Point", "coordinates": [-89.9921636836, 38.4043011918]}, "type": "Feature", "properties": {"collection_times": [{"days": "Mon-Fri", "time": "4:15pm"}, {"days": "Sat", "time": "11:15am"}, {"days": "Sun", "time": "Closed"}], "id": "6228500002", "name": "USPS COLLECTION BOX - PO LOBBY", "address": {"city": "SMITHTON", "state": "IL", "street": "512 S MAIN ST", "postcode": "62285"}}},
{"geometry": {"type": "Point", "coordinates": [-89.7069456552, 38.1214829732]}, "type": "Feature", "properties": {"collection_times": [{"days": "Mon-Fri", "time": "5:15pm"}, {"days": "Sat", "time": "4:15pm"}, {"days": "Sun", "time": "Closed"}], "id": "6228600001", "name": "USPS COLLECTION BOX - PO LOBBY", "address": {"city": "SPARTA", "state": "IL", "street": "208 W BROADWAY ST", "postcode": "62286"}}},
{"geometry": {"type": "Point", "coordinates": [-89.7048152585, 38.1414497918]}, "type": "Feature", "properties": {"collection_times": [{"days": "Mon-Fri", "time": "3:00pm"}, {"days": "Sat", "time": "1:00pm"}, {"days": "Sun", "time": "Closed"}], "id": "6228600003", "name": "USPS COLLECTION BOX - BLUE BOX", "address": {"city": "SPARTA", "state": "IL", "street": "1371 SPARTA CENTRE DR", "postcode": "62286"}}},
{"geometry": {"type": "Point", "coordinates": [-89.7035720663, 38.1373728277]}, "type": "Feature", "properties": {"collection_times": [{"days": "Mon-Fri", "time": "3:00pm"}, {"days": "Sat", "time": "1:00pm"}, {"days": "Sun", "time": "Closed"}], "id": "6228600004", "name": "USPS COLLECTION BOX - BLUE BOX", "address": {"city": "SPARTA", "state": "IL", "street": "1410 N MARKET ST", "postcode": "62286"}}},
{"geometry": {"type": "Point", "coordinates": [-89.6921757042, 38.1245307763]}, "type": "Feature", "properties": {"collection_times": [{"days": "Mon-Fri", "time": "3:00pm"}, {"days": "Sat", "time": "1:00pm"}, {"days": "Sun", "time": "Closed"}], "id": "6228600006", "name": "USPS COLLECTION BOX - BLUE BOX", "address": {"city": "SPARTA", "state": "IL", "street": "818 E BROADWAY ST", "postcode": "62286"}}},
{"geometry": {"type": "Point", "coordinates": [-89.7096308499, 38.1203105458]}, "type": "Feature", "properties": {"collection_times": [{"days": "Mon-Sat", "time": "11:00am"}, {"days": "Sun", "time": "Closed"}], "id": "6228600008", "name": "USPS COLLECTION BOX - BLUE BOX", "address": {"city": "SPARTA", "state": "IL", "street": "500 W 2ND ST", "postcode": "62286"}}},
{"geometry": {"type": "Point", "coordinates": [-89.7058187866, 38.1176886551]}, "type": "Feature", "properties": {"collection_times": [{"days": "Mon-Fri", "time": "3:00pm"}, {"days": "Sat", "time": "1:00pm"}, {"days": "Sun", "time": "Closed"}], "id": "6228600013", "name": "USPS COLLECTION BOX - BLUE BOX", "address": {"city": "SPARTA", "state": "IL", "street": "313 W BELMONT ST", "postcode": "62286"}}},
{"geometry": {"type": "Point", "coordinates": [-89.7069456552, 38.1214829732]}, "type": "Feature", "properties": {"collection_times": [{"days": "Mon-Fri", "time": "5:15pm"}, {"days": "Sat", "time": "4:15pm"}, {"days": "Sun", "time": "Closed"}], "id": "6228600015", "name": "USPS COLLECTION BOX - BLUE BOX", "address": {"city": "SPARTA", "state": "IL", "street": "208 W BROADWAY ST", "postcode": "62286"}}},
{"geometry": {"type": "Point", "coordinates": [-89.6603475391, 38.0072832441]}, "type": "Feature", "properties": {"collection_times": [{"days": "Mon-Fri", "time": "5:00pm"}, {"days": "Sat", "time": "4:00pm"}, {"days": "Sun", "time": "Closed"}], "id": "6228800001", "name": "USPS COLLECTION BOX - BLUE BOX", "address": {"city": "STEELEVILLE", "state": "IL", "street": "408 W ILLINOIS ST", "postcode": "62288"}}},
{"geometry": {"type": "Point", "coordinates": [-89.6585252711, 38.0068954854]}, "type": "Feature", "properties": {"collection_times": [{"days": "Mon-Sat", "time": "1:00pm"}, {"days": "Sun", "time": "Closed"}], "id": "6228800002", "name": "USPS COLLECTION BOX - BLUE BOX", "address": {"city": "STEELEVILLE", "state": "IL", "street": "101 E BROADWAY", "postcode": "62288"}}},
{"geometry": {"type": "Point", "coordinates": [-89.6647482681, 38.0029815419]}, "type": "Feature", "properties": {"collection_times": [{"days": "Mon-Sat", "time": "1:00pm"}, {"days": "Sun", "time": "Closed"}], "id": "6228800004", "name": "USPS COLLECTION BOX - BLUE BOX", "address": {"city": "STEELEVILLE", "state": "IL", "street": "604 S GARFIELD ST", "postcode": "62288"}}},
{"geometry": {"type": "Point", "coordinates": [-89.6574722146, 38.0022339364]}, "type": "Feature", "properties": {"collection_times": [{"days": "Mon-Sat", "time": "1:00pm"}, {"days": "Sun", "time": "Closed"}], "id": "6228800007", "name": "USPS COLLECTION BOX - BLUE BOX", "address": {"city": "STEELEVILLE", "state": "IL", "street": "201 E JEFFERSON ST", "postcode": "62288"}}},
{"geometry": {"type": "Point", "coordinates": [-89.6640084038, 38.0057342347]}, "type": "Feature", "properties": {"collection_times": [{"days": "Mon-Sat", "time": "1:00pm"}, {"days": "Sun", "time": "Closed"}], "id": "6228800008", "name": "USPS COLLECTION BOX - BLUE BOX", "address": {"city": "STEELEVILLE", "state": "IL", "street": "512 W SOUTH ST", "postcode": "62288"}}},
{"geometry": {"type": "Point", "coordinates": [-89.6619432872, 38.0068905505]}, "type": "Feature", "properties": {"collection_times": [{"days": "Mon-Fri", "time": "5:00pm"}, {"days": "Sat", "time": "4:00pm"}, {"days": "Sun", "time": "Closed"}], "id": "6228800012", "name": "USPS COLLECTION BOX - PO LOBBY", "address": {"city": "STEELEVILLE", "state": "IL", "street": "409 W BROADWAY", "postcode": "62288"}}},
{"geometry": {"type": "Point", "coordinates": [-89.8061717874, 38.603654389]}, "type": "Feature", "properties": {"collection_times": [{"days": "Mon-Fri", "time": "4:00pm"}, {"days": "Sat", "time": "10:30am"}, {"days": "Sun", "time": "Closed"}], "id": "6228900001", "name": "USPS COLLECTION BOX - BLUE BOX", "address": {"city": "SUMMERFIELD", "state": "IL", "street": "101 E PARK ST", "postcode": "62289"}}},
{"geometry": {"type": "Point", "coordinates": [-89.8061717874, 38.603654389]}, "type": "Feature", "properties": {"collection_times": [{"days": "Mon-Fri", "time": "4:15pm"}, {"days": "Sat", "time": "10:15am"}, {"days": "Sun", "time": "Closed"}], "id": "6228900002", "name": "USPS COLLECTION BOX - PO LOBBY", "address": {"city": "SUMMERFIELD", "state": "IL", "street": "101 E PARK ST", "postcode": "62289"}}},
{"geometry": {"type": "Point", "coordinates": [-89.6810148356, 38.2114140082]}, "type": "Feature", "properties": {"collection_times": [{"days": "Mon-Fri", "time": "2:45pm"}, {"days": "Sat", "time": "9:15am"}, {"days": "Sun", "time": "Closed"}], "id": "6229200001", "name": "USPS COLLECTION BOX - BLUE BOX", "address": {"city": "TILDEN", "state": "IL", "street": "722 N CENTRE ST", "postcode": "62292"}}},
{"geometry": {"type": "Point", "coordinates": [-89.6810148356, 38.2114140082]}, "type": "Feature", "properties": {"collection_times": [{"days": "Mon-Fri", "time": "2:45pm"}, {"days": "Sat", "time": "9:15am"}, {"days": "Sun", "time": "Closed"}], "id": "6229200002", "name": "USPS COLLECTION BOX - PO LOBBY", "address": {"city": "TILDEN", "state": "IL", "street": "722 N CENTRE ST", "postcode": "62292"}}},
{"geometry": {"type": "Point", "coordinates": [-89.6809254702, 38.605490906]}, "type": "Feature", "properties": {"collection_times": [{"days": "Mon-Fri", "time": "4:00pm"}, {"days": "Sat", "time": "11:00am"}, {"days": "Sun", "time": "Closed"}], "id": "6229300002", "name": "USPS COLLECTION BOX - BLUE BOX", "address": {"city": "TRENTON", "state": "IL", "street": "120 E BROADWAY", "postcode": "62293"}}},
{"geometry": {"type": "Point", "coordinates": [-89.6809254702, 38.605490906]}, "type": "Feature", "properties": {"collection_times": [{"days": "Mon-Fri", "time": "4:00pm"}, {"days": "Sat", "time": "11:00am"}, {"days": "Sun", "time": "Closed"}], "id": "6229300013", "name": "USPS COLLECTION BOX - PO LOBBY", "address": {"city": "TRENTON", "state": "IL", "street": "120 E BROADWAY", "postcode": "62293"}}},
{"geometry": {"type": "Point", "coordinates": [-89.8955273407, 38.7322331778]}, "type": "Feature", "properties": {"collection_times": [{"days": "Mon-Fri", "time": "4:45pm"}, {"days": "Sat", "time": "4:00pm"}, {"days": "Sun", "time": "Closed"}], "id": "6229400001", "name": "USPS COLLECTION BOX - BLUE BOX", "address": {"city": "TROY", "state": "IL", "street": "515 EDWARDSVILLE RD", "postcode": "62294"}}},
{"geometry": {"type": "Point", "coordinates": [-89.8844391297, 38.7206505882]}, "type": "Feature", "properties": {"collection_times": [{"days": "Mon-Fri", "time": "3:00pm"}, {"days": "Sat", "time": "2:00pm"}, {"days": "Sun", "time": "Closed"}], "id": "6229400004", "name": "USPS COLLECTION BOX - BLUE BOX", "address": {"city": "TROY", "state": "IL", "street": "819 EDWARDSVILLE RD", "postcode": "62294"}}},
{"geometry": {"type": "Point", "coordinates": [-89.8955273407, 38.7322331778]}, "type": "Feature", "properties": {"collection_times": [{"days": "Mon-Fri", "time": "4:45pm"}, {"days": "Sat", "time": "4:00pm"}, {"days": "Sun", "time": "Closed"}], "id": "6229400009", "name": "USPS COLLECTION BOX - BLUE BOX", "address": {"city": "TROY", "state": "IL", "street": "515 EDWARDSVILLE RD", "postcode": "62294"}}},
{"geometry": {"type": "Point", "coordinates": [-89.8955273407, 38.7322331778]}, "type": "Feature", "properties": {"collection_times": [{"days": "Mon-Fri", "time": "4:45pm"}, {"days": "Sat", "time": "4:00pm"}, {"days": "Sun", "time": "Closed"}], "id": "6229400010", "name": "USPS COLLECTION BOX - PO LOBBY", "address": {"city": "TROY", "state": "IL", "street": "515 EDWARDSVILLE RD", "postcode": "62294"}}},
{"geometry": {"type": "Point", "coordinates": [-89.8839426083, 38.729174183]}, "type": "Feature", "properties": {"collection_times": [{"days": "Mon-Fri", "time": "3:15pm"}, {"days": "Sat", "time": "2:00pm"}, {"days": "Sun", "time": "Closed"}], "id": "6229400012", "name": "USPS COLLECTION BOX - BLUE BOX", "address": {"city": "TROY", "state": "IL", "street": "116 E MARKET ST", "postcode": "62294"}}},
{"geometry": {"type": "Point", "coordinates": [-90.2822484407, 38.3107261083]}, "type": "Feature", "properties": {"collection_times": [{"days": "Mon-Fri", "time": "2:45pm"}, {"days": "Sat", "time": "9:30am"}, {"days": "Sun", "time": "Closed"}], "id": "6229500001", "name": "USPS COLLECTION BOX - BLUE BOX", "address": {"city": "VALMEYER", "state": "IL", "street": "100 KNOBLOCH BLVD", "postcode": "62295"}}},
{"geometry": {"type": "Point", "coordinates": [-90.2822484407, 38.3107261083]}, "type": "Feature", "properties": {"collection_times": [{"days": "Mon-Fri", "time": "2:45pm"}, {"days": "Sat", "time": "9:45am"}, {"days": "Sun", "time": "Closed"}], "id": "6229500004", "name": "USPS COLLECTION BOX - PO LOBBY", "address": {"city": "VALMEYER", "state": "IL", "street": "100 KNOBLOCH BLVD", "postcode": "62295"}}},
{"geometry": {"type": "Point", "coordinates": [-90.1538299643, 38.3345532678]}, "type": "Feature", "properties": {"collection_times": [{"days": "Mon-Fri", "time": "5:00pm"}, {"days": "Sat", "time": "3:45pm"}, {"days": "Sun", "time": "Closed"}], "id": "6229800001", "name": "USPS COLLECTION BOX - BLUE BOX", "address": {"city": "WATERLOO", "state": "IL", "street": "305 E 3RD ST", "postcode": "62298"}}},
{"geometry": {"type": "Point", "coordinates": [-90.1504444495, 38.3359989894]}, "type": "Feature", "properties": {"collection_times": [{"days": "Mon-Sat", "time": "11:00am"}, {"days": "Sun", "time": "Closed"}], "id": "6229800002", "name": "USPS COLLECTION BOX - BLUE BOX", "address": {"city": "WATERLOO", "state": "IL", "street": "113 S MAIN ST", "postcode": "62298"}}},
{"geometry": {"type": "Point", "coordinates": [-90.1480559416, 38.3320572244]}, "type": "Feature", "properties": {"collection_times": [{"days": "Mon-Sat", "time": "10:00am"}, {"days": "Sun", "time": "Closed"}], "id": "6229800006", "name": "USPS COLLECTION BOX - BLUE BOX", "address": {"city": "WATERLOO", "state": "IL", "street": "501 N MARKET ST", "postcode": "62298"}}},
{"geometry": {"type": "Point", "coordinates": [-90.1490065149, 38.325518326]}, "type": "Feature", "properties": {"collection_times": [{"days": "Mon-Sat", "time": "10:00am"}, {"days": "Sun", "time": "Closed"}], "id": "6229800007", "name": "USPS COLLECTION BOX - BLUE BOX", "address": {"city": "WATERLOO", "state": "IL", "street": "150 WATERLOO COMMONS DR", "postcode": "62298"}}},
{"geometry": {"type": "Point", "coordinates": [-90.1504467017, 38.3295564491]}, "type": "Feature", "properties": {"collection_times": [{"days": "Mon-Sat", "time": "2:00pm"}, {"days": "Sun", "time": "Closed"}], "id": "6229800008", "name": "USPS COLLECTION BOX - BLUE BOX", "address": {"city": "WATERLOO", "state": "IL", "street": "529 S CHURCH ST", "postcode": "62298"}}},
{"geometry": {"type": "Point", "coordinates": [-90.1538299643, 38.3345532678]}, "type": "Feature", "properties": {"collection_times": [{"days": "Mon-Fri", "time": "5:00pm"}, {"days": "Sat", "time": "3:45pm"}, {"days": "Sun", "time": "Closed"}], "id": "6229800009", "name": "USPS COLLECTION BOX - BLUE BOX", "address": {"city": "WATERLOO", "state": "IL", "street": "305 E 3RD ST", "postcode": "62298"}}},
{"geometry": {"type": "Point", "coordinates": [-90.1538299643, 38.3345532678]}, "type": "Feature", "properties": {"collection_times": [{"days": "Mon-Fri", "time": "5:00pm"}, {"days": "Sat", "time": "3:45pm"}, {"days": "Sun", "time": "Closed"}], "id": "6229800011", "name": "USPS COLLECTION BOX - PO LOBBY", "address": {"city": "WATERLOO", "state": "IL", "street": "305 E 3RD ST", "postcode": "62298"}}},
{"geometry": {"type": "Point", "coordinates": [-90.1538299643, 38.3345532678]}, "type": "Feature", "properties": {"collection_times": [{"days": "Mon-Fri", "time": "5:00pm"}, {"days": "Sat", "time": "3:45pm"}, {"days": "Sun", "time": "Closed"}], "id": "6229800012", "name": "USPS COLLECTION BOX - PO LOBBY", "address": {"city": "WATERLOO", "state": "IL", "street": "305 E 3RD ST", "postcode": "62298"}}},
{"geometry": {"type": "Point", "coordinates": [-90.1549738856, 38.3589506135]}, "type": "Feature", "properties": {"collection_times": [{"days": "Mon-Sat", "time": "10:30am"}, {"days": "Sun", "time": "Closed"}], "id": "6229800013", "name": "USPS COLLECTION BOX - BLUE BOX", "address": {"city": "WATERLOO", "state": "IL", "street": "961 N MARKET ST", "postcode": "62298"}}},
{"geometry": {"type": "Point", "coordinates": [-90.1632901502, 38.3384680176]}, "type": "Feature", "properties": {"collection_times": [{"days": "Mon-Sat", "time": "10:00am"}, {"days": "Sun", "time": "Closed"}], "id": "6229800014", "name": "USPS COLLECTION BOX - BLUE BOX", "address": {"city": "WATERLOO", "state": "IL", "street": "901 ILLINOIS AVE", "postcode": "62298"}}}
]}
