{"type": "FeatureCollection", "features": [
{"geometry": {"type": "Point", "coordinates": [-91.3591410056, 39.9499532273]}, "type": "Feature", "properties": {"collection_times": [{"days": "Mon-Fri", "time": "5:00pm"}, {"days": "Sat", "time": "3:00pm"}, {"days": "Sun", "time": "Closed"}], "id": "6230100001", "name": "USPS COLLECTION BOX - BLUE BOX", "address": {"city": "QUINCY", "state": "IL", "street": "3535 LOCUST ST", "postcode": "62301"}}},
{"geometry": {"type": "Point", "coordinates": [-91.3965007287, 39.9496436582]}, "type": "Feature", "properties": {"collection_times": [{"days": "Mon-Fri", "time": "2:40pm"}, {"days": "Sat", "time": "12:15pm"}, {"days": "Sun", "time": "Closed"}], "id": "6230100004", "name": "USPS COLLECTION BOX - BLUE BOX", "address": {"city": "QUINCY", "state": "IL", "street": "1526 N 12TH ST", "postcode": "62301"}}},
{"geometry": {"type": "Point", "coordinates": [-91.3933365799, 39.9135960988]}, "type": "Feature", "properties": {"collection_times": [{"days": "Mon-Fri", "time": "4:10pm"}, {"days": "Sat", "time": "1:00pm"}, {"days": "Sun", "time": "Closed"}], "id": "6230100006", "name": "USPS COLLECTION BOX - BLUE BOX", "address": {"city": "QUINCY", "state": "IL", "street": "1410 HARRISON ST", "postcode": "62301"}}},
{"geometry": {"type": "Point", "coordinates": [-91.4032605321, 39.933225773]}, "type": "Feature", "properties": {"collection_times": [{"days": "Mon-Fri", "time": "4:25pm"}, {"days": "Sat", "time": "12:15pm"}, {"days": "Sun", "time": "Closed"}], "id": "6230100014", "name": "USPS COLLECTION BOX - BLUE BOX", "address": {"city": "QUINCY", "state": "IL", "street": "200 N 8TH ST", "postcode": "62301"}}},
{"geometry": {"type": "Point", "coordinates": [-91.3842859124, 39.931759119]}, "type": "Feature", "properties": {"collection_times": [{"days": "Mon-Fri", "time": "3:10pm"}, {"days": "Sat", "time": "1:30pm"}, {"days": "Sun", "time": "Closed"}], "id": "6230100016", "name": "USPS COLLECTION BOX - BLUE BOX", "address": {"city": "QUINCY", "state": "IL", "street": "2001 MAINE ST", "postcode": "62301"}}},
{"geometry": {"type": "Point", "coordinates": [-91.3775595496, 39.9369577183]}, "type": "Feature", "properties": {"collection_times": [{"days": "Mon-Fri", "time": "3:25pm"}, {"days": "Sat", "time": "1:45pm"}, {"days": "Sun", "time": "Closed"}], "id": "6230100019", "name": "USPS COLLECTION BOX - BLUE BOX", "address": {"city": "QUINCY", "state": "IL", "street": "520 N 24TH ST", "postcode": "62301"}}},
{"geometry": {"type": "Point", "coordinates": [-91.3567397139, 39.9351025153]}, "type": "Feature", "properties": {"collection_times": [{"days": "Mon-Fri", "time": "4:10pm"}, {"days": "Sat", "time": "2:45pm"}, {"days": "Sun", "time": "Closed"}], "id": "6230100028", "name": "USPS COLLECTION BOX - BLUE BOX", "address": {"city": "QUINCY", "state": "IL", "street": "3700 BROADWAY ST", "postcode": "62301"}}},
{"geometry": {"type": "Point", "coordinates": [-91.4116404112, 39.9322705786]}, "type": "Feature", "properties": {"collection_times": [{"days": "Mon-Fri", "time": "2:55pm"}, {"days": "Sat", "time": "12:30pm"}, {"days": "Sun", "time": "Closed"}], "id": "6230100029", "name": "USPS COLLECTION BOX - BLUE BOX", "address": {"city": "QUINCY", "state": "IL", "street": "116 N 3RD ST", "postcode": "62301"}}},
{"geometry": {"type": "Point", "coordinates": [-91.4090257159, 39.9319196686]}, "type": "Feature", "properties": {"collection_times": [{"days": "Mon-Fri", "time": "2:55pm"}, {"days": "Sat", "time": "12:30pm"}, {"days": "Sun", "time": "Closed"}], "id": "6230100035", "name": "USPS COLLECTION BOX - BLUE BOX", "address": {"city": "QUINCY", "state": "IL", "street": "440 MAINE ST", "postcode": "62301"}}},
{"geometry": {"type": "Point", "coordinates": [-91.4066670057, 39.9345555652]}, "type": "Feature", "properties": {"collection_times": [{"days": "Mon-Fri", "time": "2:55pm"}, {"days": "Sat", "time": "12:30pm"}, {"days": "Sun", "time": "Closed"}], "id": "6230100040", "name": "USPS COLLECTION BOX - BLUE BOX", "address": {"city": "QUINCY", "state": "IL", "street": "300 N 6TH ST", "postcode": "62301"}}},
{"geometry": {"type": "Point", "coordinates": [-91.4032605321, 39.933225773]}, "type": "Feature", "properties": {"collection_times": [{"days": "Mon-Fri", "time": "4:25pm"}, {"days": "Sat", "time": "12:15pm"}, {"days": "Sun", "time": "Closed"}], "id": "6230100046", "name": "USPS COLLECTION BOX - BLUE BOX", "address": {"city": "QUINCY", "state": "IL", "street": "200 N 8TH ST", "postcode": "62301"}}},
{"geometry": {"type": "Point", "coordinates": [-91.4032636019, 39.9265233689]}, "type": "Feature", "properties": {"collection_times": [{"days": "Mon-Fri", "time": "3:55pm"}, {"days": "Sat", "time": "12:45pm"}, {"days": "Sun", "time": "Closed"}], "id": "6230100048", "name": "USPS COLLECTION BOX - BLUE BOX", "address": {"city": "QUINCY", "state": "IL", "street": "800 STATE ST", "postcode": "62301"}}},
{"geometry": {"type": "Point", "coordinates": [-91.4026493566, 39.9210897197]}, "type": "Feature", "properties": {"collection_times": [{"days": "Mon-Fri", "time": "3:55pm"}, {"days": "Sat", "time": "12:45pm"}, {"days": "Sun", "time": "Closed"}], "id": "6230100050", "name": "USPS COLLECTION BOX - BLUE BOX", "address": {"city": "QUINCY", "state": "IL", "street": "837 JEFFERSON ST", "postcode": "62301"}}},
{"geometry": {"type": "Point", "coordinates": [-91.3999222983, 39.9357059077]}, "type": "Feature", "properties": {"collection_times": [{"days": "Mon-Fri", "time": "3:25pm"}, {"days": "Sat", "time": "12:15pm"}, {"days": "Sun", "time": "Closed"}], "id": "6230100052", "name": "USPS COLLECTION BOX - BLUE BOX", "address": {"city": "QUINCY", "state": "IL", "street": "1005 BROADWAY ST", "postcode": "62301"}}},
{"geometry": {"type": "Point", "coordinates": [-91.3966332529, 39.9508071464]}, "type": "Feature", "properties": {"collection_times": [{"days": "Mon-Fri", "time": "2:40pm"}, {"days": "Sat-Sun", "time": "Closed"}], "id": "6230100054", "name": "USPS COLLECTION BOX - BLUE BOX", "address": {"city": "QUINCY", "state": "IL", "street": "1707 N 12TH ST", "postcode": "62301"}}},
{"geometry": {"type": "Point", "coordinates": [-91.3966332529, 39.9508071464]}, "type": "Feature", "properties": {"collection_times": [{"days": "Mon-Fri", "time": "2:40pm"}, {"days": "Sat", "time": "12:00pm"}, {"days": "Sun", "time": "Closed"}], "id": "6230100055", "name": "USPS COLLECTION BOX - BLUE BOX", "address": {"city": "QUINCY", "state": "IL", "street": "1707 N 12TH ST", "postcode": "62301"}}},
{"geometry": {"type": "Point", "coordinates": [-91.3598101452, 39.9375281049]}, "type": "Feature", "properties": {"collection_times": [{"days": "Mon-Fri", "time": "3:55pm"}, {"days": "Sat", "time": "2:30pm"}, {"days": "Sun", "time": "Closed"}], "id": "6230100057", "name": "USPS COLLECTION BOX - BLUE BOX", "address": {"city": "QUINCY", "state": "IL", "street": "3429 QUINCY MALL", "postcode": "62301"}}},
{"geometry": {"type": "Point", "coordinates": [-91.3837878886, 39.9620216656]}, "type": "Feature", "properties": {"collection_times": [{"days": "Mon-Fri", "time": "2:40pm"}, {"days": "Sat", "time": "12:00pm"}, {"days": "Sun", "time": "Closed"}], "id": "6230100058", "name": "USPS COLLECTION BOX - BLUE BOX", "address": {"city": "QUINCY", "state": "IL", "street": "2008 HOLLISTER WHITNEY PKWY", "postcode": "62301"}}},
{"geometry": {"type": "Point", "coordinates": [-91.3776544144, 39.9261598941]}, "type": "Feature", "properties": {"collection_times": [{"days": "Mon-Fri", "time": "3:25pm"}, {"days": "Sat", "time": "1:45pm"}, {"days": "Sun", "time": "Closed"}], "id": "6230100063", "name": "USPS COLLECTION BOX - BLUE BOX", "address": {"city": "QUINCY", "state": "IL", "street": "500 S 24TH ST", "postcode": "62301"}}},
{"geometry": {"type": "Point", "coordinates": [-91.378918539, 39.9343472543]}, "type": "Feature", "properties": {"collection_times": [{"days": "Mon-Fri", "time": "3:25pm"}, {"days": "Sat", "time": "1:30pm"}, {"days": "Sun", "time": "Closed"}], "id": "6230100068", "name": "USPS COLLECTION BOX - BLUE BOX", "address": {"city": "QUINCY", "state": "IL", "street": "2325 VERMONT ST", "postcode": "62301"}}},
{"geometry": {"type": "Point", "coordinates": [-91.4032605321, 39.933225773]}, "type": "Feature", "properties": {"collection_times": [{"days": "Mon-Fri", "time": "4:25pm"}, {"days": "Sat", "time": "12:15pm"}, {"days": "Sun", "time": "Closed"}], "id": "6230100070", "name": "USPS COLLECTION BOX - BLUE BOX", "address": {"city": "QUINCY", "state": "IL", "street": "200 N 8TH ST", "postcode": "62301"}}},
{"geometry": {"type": "Point", "coordinates": [-91.4032605321, 39.933225773]}, "type": "Feature", "properties": {"collection_times": [{"days": "Mon-Fri", "time": "4:25pm"}, {"days": "Sat", "time": "12:15pm"}, {"days": "Sun", "time": "Closed"}], "id": "6230100073", "name": "USPS COLLECTION BOX - BLUE BOX", "address": {"city": "QUINCY", "state": "IL", "street": "200 N 8TH ST", "postcode": "62301"}}},
{"geometry": {"type": "Point", "coordinates": [-91.4032605321, 39.933225773]}, "type": "Feature", "properties": {"collection_times": [{"days": "Mon-Fri", "time": "4:25pm"}, {"days": "Sat", "time": "12:15pm"}, {"days": "Sun", "time": "Closed"}], "id": "6230100074", "name": "USPS COLLECTION BOX - BLUE BOX", "address": {"city": "QUINCY", "state": "IL", "street": "200 N 8TH ST", "postcode": "62301"}}},
{"geometry": {"type": "Point", "coordinates": [-91.3896272454, 39.9305304047]}, "type": "Feature", "properties": {"collection_times": [{"days": "Mon-Fri", "time": "3:10pm"}, {"days": "Sat", "time": "12:15pm"}, {"days": "Sun", "time": "Closed"}], "id": "6230100076", "name": "USPS COLLECTION BOX - BLUE BOX", "address": {"city": "QUINCY", "state": "IL", "street": "915 VERMONT ST", "postcode": "62301"}}},
{"geometry": {"type": "Point", "coordinates": [-91.3591410056, 39.9499532273]}, "type": "Feature", "properties": {"collection_times": [{"days": "Mon-Fri", "time": "5:00pm"}, {"days": "Sat", "time": "3:00pm"}, {"days": "Sun", "time": "Closed"}], "id": "6230100077", "name": "USPS COLLECTION BOX - BLUE BOX", "address": {"city": "QUINCY", "state": "IL", "street": "3535 LOCUST ST", "postcode": "62301"}}},
{"geometry": {"type": "Point", "coordinates": [-91.3591410056, 39.9499532273]}, "type": "Feature", "properties": {"collection_times": [{"days": "Mon-Fri", "time": "5:00pm"}, {"days": "Sat", "time": "3:00pm"}, {"days": "Sun", "time": "Closed"}], "id": "6230100078", "name": "USPS COLLECTION BOX - BLUE BOX", "address": {"city": "QUINCY", "state": "IL", "street": "3535 LOCUST ST", "postcode": "62301"}}},
{"geometry": {"type": "Point", "coordinates": [-91.3591410056, 39.9499532273]}, "type": "Feature", "properties": {"collection_times": [{"days": "Mon-Fri", "time": "5:00pm"}, {"days": "Sat", "time": "3:00pm"}, {"days": "Sun", "time": "Closed"}], "id": "6230100079", "name": "USPS COLLECTION BOX - BLUE BOX", "address": {"city": "QUINCY", "state": "IL", "street": "3535 LOCUST ST", "postcode": "62301"}}},
{"geometry": {"type": "Point", "coordinates": [-91.403412177, 39.9345082772]}, "type": "Feature", "properties": {"collection_times": [{"days": "Mon-Fri", "time": "2:55pm"}, {"days": "Sat", "time": "12:15pm"}, {"days": "Sun", "time": "Closed"}], "id": "6230100090", "name": "USPS COLLECTION BOX - BLUE BOX", "address": {"city": "QUINCY", "state": "IL", "street": "301 N 8TH ST", "postcode": "62301"}}},
{"geometry": {"type": "Point", "coordinates": [-91.3591410056, 39.9499532273]}, "type": "Feature", "properties": {"collection_times": [{"days": "Mon-Fri", "time": "5:00pm"}, {"days": "Sat", "time": "3:00pm"}, {"days": "Sun", "time": "Closed"}], "id": "6230100091", "name": "USPS COLLECTION BOX - PO LOBBY", "address": {"city": "QUINCY", "state": "IL", "street": "3535 LOCUST ST", "postcode": "62301"}}},
{"geometry": {"type": "Point", "coordinates": [-91.4032605321, 39.933225773]}, "type": "Feature", "properties": {"collection_times": [{"days": "Mon-Fri", "time": "4:25pm"}, {"days": "Sat", "time": "12:15pm"}, {"days": "Sun", "time": "Closed"}], "id": "6230100097", "name": "USPS COLLECTION BOX - PO LOBBY", "address": {"city": "QUINCY", "state": "IL", "street": "200 N 8TH ST", "postcode": "62301"}}},
{"geometry": {"type": "Point", "coordinates": [-91.4042207383, 39.9293862923]}, "type": "Feature", "properties": {"collection_times": [{"days": "Mon-Fri", "time": "3:40pm"}, {"days": "Sat", "time": "12:45pm"}, {"days": "Sun", "time": "Closed"}], "id": "6230100099", "name": "USPS COLLECTION BOX - BLUE BOX", "address": {"city": "QUINCY", "state": "IL", "street": "735 YORK ST", "postcode": "62301"}}},
{"geometry": {"type": "Point", "coordinates": [-91.3789376693, 39.9651884284]}, "type": "Feature", "properties": {"collection_times": [{"days": "Mon-Fri", "time": "2:40pm"}, {"days": "Sat", "time": "12:00pm"}, {"days": "Sun", "time": "Closed"}], "id": "6230100101", "name": "USPS COLLECTION BOX - BLUE BOX", "address": {"city": "QUINCY", "state": "IL", "street": "2331 KOCHS LN", "postcode": "62301"}}},
{"geometry": {"type": "Point", "coordinates": [-91.3902787393, 39.9330697005]}, "type": "Feature", "properties": {"collection_times": [{"days": "Mon-Fri", "time": "3:10pm"}, {"days": "Sat", "time": "1:15pm"}, {"days": "Sun", "time": "Closed"}], "id": "6230100102", "name": "USPS COLLECTION BOX - BLUE BOX", "address": {"city": "QUINCY", "state": "IL", "street": "1600 HAMPSHIRE ST", "postcode": "62301"}}},
{"geometry": {"type": "Point", "coordinates": [-91.3390835902, 39.9349871836]}, "type": "Feature", "properties": {"collection_times": [{"days": "Mon-Fri", "time": "4:10pm"}, {"days": "Sat", "time": "2:45pm"}, {"days": "Sun", "time": "Closed"}], "id": "6230100103", "name": "USPS COLLECTION BOX - BLUE BOX", "address": {"city": "QUINCY", "state": "IL", "street": "4820 BROADWAY ST", "postcode": "62301"}}},
{"geometry": {"type": "Point", "coordinates": [-91.404141017, 39.9305313093]}, "type": "Feature", "properties": {"collection_times": [{"days": "Mon-Fri", "time": "3:40pm"}, {"days": "Sat", "time": "12:45pm"}, {"days": "Sun", "time": "Closed"}], "id": "6230100107", "name": "USPS COLLECTION BOX - BLUE BOX", "address": {"city": "QUINCY", "state": "IL", "street": "740 JERSEY ST", "postcode": "62301"}}},
{"geometry": {"type": "Point", "coordinates": [-91.3584713077, 39.9285480524]}, "type": "Feature", "properties": {"collection_times": [{"days": "Mon-Fri", "time": "4:25pm"}, {"days": "Sat", "time": "2:30pm"}, {"days": "Sun", "time": "Closed"}], "id": "6230100108", "name": "USPS COLLECTION BOX - BLUE BOX", "address": {"city": "QUINCY", "state": "IL", "street": "338 S 36TH ST", "postcode": "62301"}}},
{"geometry": {"type": "Point", "coordinates": [-91.3332433738, 39.9353542137]}, "type": "Feature", "properties": {"collection_times": [{"days": "Mon-Fri", "time": "4:10pm"}, {"days": "Sat", "time": "2:45pm"}, {"days": "Sun", "time": "Closed"}], "id": "6230100109", "name": "USPS COLLECTION BOX - BLUE BOX", "address": {"city": "QUINCY", "state": "IL", "street": "5211 BROADWAY ST", "postcode": "62301"}}},
{"geometry": {"type": "Point", "coordinates": [-91.3663743546, 39.9351721807]}, "type": "Feature", "properties": {"collection_times": [{"days": "Mon-Fri", "time": "3:55pm"}, {"days": "Sat", "time": "2:00pm"}, {"days": "Sun", "time": "Closed"}], "id": "6230100115", "name": "USPS COLLECTION BOX - BLUE BOX", "address": {"city": "QUINCY", "state": "IL", "street": "3100 BROADWAY ST", "postcode": "62301"}}},
{"geometry": {"type": "Point", "coordinates": [-91.3591410056, 39.9499532273]}, "type": "Feature", "properties": {"collection_times": [{"days": "Mon-Fri", "time": "5:00pm"}, {"days": "Sat", "time": "3:00pm"}, {"days": "Sun", "time": "Closed"}], "id": "6230100116", "name": "USPS COLLECTION BOX - BLUE BOX", "address": {"city": "QUINCY", "state": "IL", "street": "3535 LOCUST ST", "postcode": "62301"}}},
{"geometry": {"type": "Point", "coordinates": [-91.3582778817, 39.9303907675]}, "type": "Feature", "properties": {"collection_times": [{"days": "Mon-Fri", "time": "4:25pm"}, {"days": "Sat", "time": "2:30pm"}, {"days": "Sun", "time": "Closed"}], "id": "6230100119", "name": "USPS COLLECTION BOX - BLUE BOX", "address": {"city": "QUINCY", "state": "IL", "street": "195 S 36TH ST", "postcode": "62301"}}},
{"geometry": {"type": "Point", "coordinates": [-91.3972336758, 39.964990928]}, "type": "Feature", "properties": {"collection_times": [{"days": "Mon-Fri", "time": "2:40pm"}, {"days": "Sat", "time": "12:00pm"}, {"days": "Sun", "time": "Closed"}], "id": "6230100120", "name": "USPS COLLECTION BOX - BLUE BOX", "address": {"city": "QUINCY", "state": "IL", "street": "1200 KOCHS LN", "postcode": "62301"}}},
{"geometry": {"type": "Point", "coordinates": [-91.4082263284, 39.9319108798]}, "type": "Feature", "properties": {"collection_times": [{"days": "Mon-Fri", "time": "3:10pm"}, {"days": "Sat-Sun", "time": "Closed"}], "id": "6230100123", "name": "USPS COLLECTION BOX - BLUE BOX", "address": {"city": "QUINCY", "state": "IL", "street": "510 MAINE ST", "postcode": "62301"}}},
{"geometry": {"type": "Point", "coordinates": [-90.9515303492, 40.2302853383]}, "type": "Feature", "properties": {"collection_times": [{"days": "Mon-Fri", "time": "2:45pm"}, {"days": "Sat", "time": "9:00am"}, {"days": "Sun", "time": "Closed"}], "id": "6231100001", "name": "USPS COLLECTION BOX - BLUE BOX", "address": {"city": "AUGUSTA", "state": "IL", "street": "503 MAIN ST", "postcode": "62311"}}},
{"geometry": {"type": "Point", "coordinates": [-90.9515303492, 40.2302853383]}, "type": "Feature", "properties": {"collection_times": [{"days": "Mon-Fri", "time": "2:45pm"}, {"days": "Sat", "time": "9:15am"}, {"days": "Sun", "time": "Closed"}], "id": "6231100002", "name": "USPS COLLECTION BOX - PO LOBBY", "address": {"city": "AUGUSTA", "state": "IL", "street": "503 MAIN ST", "postcode": "62311"}}},
{"geometry": {"type": "Point", "coordinates": [-90.9515303492, 40.2302853383]}, "type": "Feature", "properties": {"collection_times": [{"days": "Mon-Fri", "time": "2:45pm"}, {"days": "Sat", "time": "9:15am"}, {"days": "Sun", "time": "Closed"}], "id": "6231100004", "name": "USPS COLLECTION BOX - PO LOBBY", "address": {"city": "AUGUSTA", "state": "IL", "street": "503 MAIN ST", "postcode": "62311"}}},
{"geometry": {"type": "Point", "coordinates": [-91.0414492846, 39.6958284355]}, "type": "Feature", "properties": {"collection_times": [{"days": "Mon-Fri", "time": "3:45pm"}, {"days": "Sat", "time": "9:30am"}, {"days": "Sun", "time": "Closed"}], "id": "6231200001", "name": "USPS COLLECTION BOX - BLUE BOX", "address": {"city": "BARRY", "state": "IL", "street": "600 DECATUR ST", "postcode": "62312"}}},
{"geometry": {"type": "Point", "coordinates": [-91.0414492846, 39.6958284355]}, "type": "Feature", "properties": {"collection_times": [{"days": "Mon-Fri", "time": "3:45pm"}, {"days": "Sat", "time": "9:30am"}, {"days": "Sun", "time": "Closed"}], "id": "6231200005", "name": "USPS COLLECTION BOX - PO LOBBY", "address": {"city": "BARRY", "state": "IL", "street": "600 DECATUR ST", "postcode": "62312"}}},
{"geometry": {"type": "Point", "coordinates": [-91.0414492846, 39.6958284355]}, "type": "Feature", "properties": {"collection_times": [{"days": "Mon-Fri", "time": "3:45pm"}, {"days": "Sat", "time": "9:30am"}, {"days": "Sun", "time": "Closed"}], "id": "6231200006", "name": "USPS COLLECTION BOX - PO LOBBY", "address": {"city": "BARRY", "state": "IL", "street": "600 DECATUR ST", "postcode": "62312"}}},
{"geometry": {"type": "Point", "coordinates": [-91.2000343727, 40.3287783602]}, "type": "Feature", "properties": {"collection_times": [{"days": "Mon-Fri", "time": "11:45am"}, {"days": "Sat", "time": "9:15am"}, {"days": "Sun", "time": "Closed"}], "id": "6231300001", "name": "USPS COLLECTION BOX - BLUE BOX", "address": {"city": "BASCO", "state": "IL", "street": "12 N MAIN ST", "postcode": "62313"}}},
{"geometry": {"type": "Point", "coordinates": [-91.2000343727, 40.3287783602]}, "type": "Feature", "properties": {"collection_times": [{"days": "Mon-Fri", "time": "11:45am"}, {"days": "Sat", "time": "9:15am"}, {"days": "Sun", "time": "Closed"}], "id": "6231300002", "name": "USPS COLLECTION BOX - PO LOBBY", "address": {"city": "BASCO", "state": "IL", "street": "12 N MAIN ST", "postcode": "62313"}}},
{"geometry": {"type": "Point", "coordinates": [-90.9075152856, 39.7281289095]}, "type": "Feature", "properties": {"collection_times": [{"days": "Mon-Fri", "time": "11:15am"}, {"days": "Sat", "time": "9:00am"}, {"days": "Sun", "time": "Closed"}], "id": "6231400001", "name": "USPS COLLECTION BOX - BLUE BOX", "address": {"city": "BAYLIS", "state": "IL", "street": "140 N MAIN ST", "postcode": "62314"}}},
{"geometry": {"type": "Point", "coordinates": [-90.9075152856, 39.7281289095]}, "type": "Feature", "properties": {"collection_times": [{"days": "Mon-Fri", "time": "11:15am"}, {"days": "Sat", "time": "9:00am"}, {"days": "Sun", "time": "Closed"}], "id": "6231400003", "name": "USPS COLLECTION BOX - PO LOBBY", "address": {"city": "BAYLIS", "state": "IL", "street": "140 N MAIN ST", "postcode": "62314"}}},
{"geometry": {"type": "Point", "coordinates": [-91.0644191297, 40.2316497374]}, "type": "Feature", "properties": {"collection_times": [{"days": "Mon-Fri", "time": "11:15am"}, {"days": "Sat", "time": "8:45am"}, {"days": "Sun", "time": "Closed"}], "id": "6231600001", "name": "USPS COLLECTION BOX - BLUE BOX", "address": {"city": "BOWEN", "state": "IL", "street": "114 E 5TH ST", "postcode": "62316"}}},
{"geometry": {"type": "Point", "coordinates": [-91.0644191297, 40.2316497374]}, "type": "Feature", "properties": {"collection_times": [{"days": "Mon-Fri", "time": "11:15am"}, {"days": "Sat", "time": "8:45am"}, {"days": "Sun", "time": "Closed"}], "id": "6231600002", "name": "USPS COLLECTION BOX - PO LOBBY", "address": {"city": "BOWEN", "state": "IL", "street": "114 E 5TH ST", "postcode": "62316"}}},
{"geometry": {"type": "Point", "coordinates": [-90.7709036201, 40.1472869752]}, "type": "Feature", "properties": {"collection_times": [{"days": "Mon-Fri", "time": "11:45am"}, {"days": "Sat", "time": "11:00am"}, {"days": "Sun", "time": "Closed"}], "id": "6231900001", "name": "USPS COLLECTION BOX - BLUE BOX", "address": {"city": "CAMDEN", "state": "IL", "street": "400 BROADWAY", "postcode": "62319"}}},
{"geometry": {"type": "Point", "coordinates": [-90.7709036201, 40.1472869752]}, "type": "Feature", "properties": {"collection_times": [{"days": "Mon-Fri", "time": "11:45am"}, {"days": "Sat", "time": "11:15am"}, {"days": "Sun", "time": "Closed"}], "id": "6231900002", "name": "USPS COLLECTION BOX - PO LOBBY", "address": {"city": "CAMDEN", "state": "IL", "street": "400 BROADWAY", "postcode": "62319"}}},
{"geometry": {"type": "Point", "coordinates": [-91.0661309449, 40.0420208924]}, "type": "Feature", "properties": {"collection_times": [{"days": "Mon-Fri", "time": "3:20pm"}, {"days": "Sat", "time": "9:00am"}, {"days": "Sun", "time": "Closed"}], "id": "6232000001", "name": "USPS COLLECTION BOX - BLUE BOX", "address": {"city": "CAMP POINT", "state": "IL", "street": "108 N ILLINOIS ST", "postcode": "62320"}}},
{"geometry": {"type": "Point", "coordinates": [-91.0661309449, 40.0420208924]}, "type": "Feature", "properties": {"collection_times": [{"days": "Mon-Fri", "time": "3:20pm"}, {"days": "Sat", "time": "9:00am"}, {"days": "Sun", "time": "Closed"}], "id": "6232000002", "name": "USPS COLLECTION BOX - PO LOBBY", "address": {"city": "CAMP POINT", "state": "IL", "street": "108 N ILLINOIS ST", "postcode": "62320"}}},
{"geometry": {"type": "Point", "coordinates": [-91.134664147, 40.413688719]}, "type": "Feature", "properties": {"collection_times": [{"days": "Mon-Fri", "time": "2:10pm"}, {"days": "Sat", "time": "11:00am"}, {"days": "Sun", "time": "Closed"}], "id": "6232100002", "name": "USPS COLLECTION BOX - BLUE BOX", "address": {"city": "CARTHAGE", "state": "IL", "street": "615 MAIN ST", "postcode": "62321"}}},
{"geometry": {"type": "Point", "coordinates": [-91.1365912538, 40.4136022916]}, "type": "Feature", "properties": {"collection_times": [{"days": "Mon-Fri", "time": "2:10pm"}, {"days": "Sat", "time": "11:00am"}, {"days": "Sun", "time": "Closed"}], "id": "6232100005", "name": "USPS COLLECTION BOX - BLUE BOX", "address": {"city": "CARTHAGE", "state": "IL", "street": "500 MAIN ST", "postcode": "62321"}}},
{"geometry": {"type": "Point", "coordinates": [-91.134664147, 40.413688719]}, "type": "Feature", "properties": {"collection_times": [{"days": "Mon-Fri", "time": "2:10pm"}, {"days": "Sat", "time": "11:00am"}, {"days": "Sun", "time": "Closed"}], "id": "6232100010", "name": "USPS COLLECTION BOX - PO LOBBY", "address": {"city": "CARTHAGE", "state": "IL", "street": "615 MAIN ST", "postcode": "62321"}}},
{"geometry": {"type": "Point", "coordinates": [-91.1334611567, 40.4096734922]}, "type": "Feature", "properties": {"collection_times": [{"days": "Mon-Fri", "time": "2:10pm"}, {"days": "Sat", "time": "11:00am"}, {"days": "Sun", "time": "Closed"}], "id": "6232100015", "name": "USPS COLLECTION BOX - BLUE BOX", "address": {"city": "CARTHAGE", "state": "IL", "street": "630 LOCUST ST", "postcode": "62321"}}},
{"geometry": {"type": "Point", "coordinates": [-90.790452727, 40.4252213691]}, "type": "Feature", "properties": {"collection_times": [{"days": "Mon-Fri", "time": "4:15pm"}, {"days": "Sat", "time": "10:00am"}, {"days": "Sun", "time": "Closed"}], "id": "6232600001", "name": "USPS COLLECTION BOX - BLUE BOX", "address": {"city": "COLCHESTER", "state": "IL", "street": "105 W MARKET ST", "postcode": "62326"}}},
{"geometry": {"type": "Point", "coordinates": [-90.790452727, 40.4252213691]}, "type": "Feature", "properties": {"collection_times": [{"days": "Mon-Fri", "time": "4:15pm"}, {"days": "Sat", "time": "10:00am"}, {"days": "Sun", "time": "Closed"}], "id": "6232600002", "name": "USPS COLLECTION BOX - PO LOBBY", "address": {"city": "COLCHESTER", "state": "IL", "street": "105 W MARKET ST", "postcode": "62326"}}},
{"geometry": {"type": "Point", "coordinates": [-90.790452727, 40.4252213691]}, "type": "Feature", "properties": {"collection_times": [{"days": "Mon-Fri", "time": "4:15pm"}, {"days": "Sat", "time": "10:00am"}, {"days": "Sun", "time": "Closed"}], "id": "6232600004", "name": "USPS COLLECTION BOX - PO LOBBY", "address": {"city": "COLCHESTER", "state": "IL", "street": "105 W MARKET ST", "postcode": "62326"}}},
{"geometry": {"type": "Point", "coordinates": [-91.1669994658, 40.6365415588]}, "type": "Feature", "properties": {"collection_times": [{"days": "Mon-Fri", "time": "1:55pm"}, {"days": "Sat", "time": "10:30am"}, {"days": "Sun", "time": "Closed"}], "id": "6233000001", "name": "USPS COLLECTION BOX - BLUE BOX", "address": {"city": "DALLAS CITY", "state": "IL", "street": "45 E 3RD ST", "postcode": "62330"}}},
{"geometry": {"type": "Point", "coordinates": [-91.1669994658, 40.6365415588]}, "type": "Feature", "properties": {"collection_times": [{"days": "Mon-Fri", "time": "1:55pm"}, {"days": "Sat", "time": "10:30am"}, {"days": "Sun", "time": "Closed"}], "id": "6233000003", "name": "USPS COLLECTION BOX - PO LOBBY", "address": {"city": "DALLAS CITY", "state": "IL", "street": "45 E 3RD ST", "postcode": "62330"}}},
{"geometry": {"type": "Point", "coordinates": [-91.2497086232, 40.394971709]}, "type": "Feature", "properties": {"collection_times": [{"days": "Mon-Fri", "time": "2:20pm"}, {"days": "Sat", "time": "9:00am"}, {"days": "Sun", "time": "Closed"}], "id": "6233400001", "name": "USPS COLLECTION BOX - BLUE BOX", "address": {"city": "ELVASTON", "state": "IL", "street": "104 W MAINE ST", "postcode": "62334"}}},
{"geometry": {"type": "Point", "coordinates": [-91.2497086232, 40.394971709]}, "type": "Feature", "properties": {"collection_times": [{"days": "Mon-Fri", "time": "2:20pm"}, {"days": "Sat", "time": "9:00am"}, {"days": "Sun", "time": "Closed"}], "id": "6233400002", "name": "USPS COLLECTION BOX - PO LOBBY", "address": {"city": "ELVASTON", "state": "IL", "street": "104 W MAINE ST", "postcode": "62334"}}},
{"geometry": {"type": "Point", "coordinates": [-91.2497086232, 40.394971709]}, "type": "Feature", "properties": {"collection_times": [{"days": "Mon-Fri", "time": "2:20pm"}, {"days": "Sat", "time": "9:00am"}, {"days": "Sun", "time": "Closed"}], "id": "6233400003", "name": "USPS COLLECTION BOX - PO LOBBY", "address": {"city": "ELVASTON", "state": "IL", "street": "104 W MAINE ST", "postcode": "62334"}}},
{"geometry": {"type": "Point", "coordinates": [-91.1703143638, 40.4690072942]}, "type": "Feature", "properties": {"collection_times": [{"days": "Mon-Fri", "time": "11:15am"}, {"days": "Sat", "time": "9:15am"}, {"days": "Sun", "time": "Closed"}], "id": "6233600001", "name": "USPS COLLECTION BOX - BLUE BOX", "address": {"city": "FERRIS", "state": "IL", "street": "131 MAIN ST", "postcode": "62336"}}},
{"geometry": {"type": "Point", "coordinates": [-91.1703143638, 40.4690072942]}, "type": "Feature", "properties": {"collection_times": [{"days": "Mon-Fri", "time": "11:15am"}, {"days": "Sat", "time": "9:30am"}, {"days": "Sun", "time": "Closed"}], "id": "6233600002", "name": "USPS COLLECTION BOX - PO LOBBY", "address": {"city": "FERRIS", "state": "IL", "street": "131 MAIN ST", "postcode": "62336"}}},
{"geometry": {"type": "Point", "coordinates": [-91.2508217257, 39.9856590746]}, "type": "Feature", "properties": {"collection_times": [{"days": "Mon-Fri", "time": "11:15am"}, {"days": "Sat", "time": "9:00am"}, {"days": "Sun", "time": "Closed"}], "id": "6233800001", "name": "USPS COLLECTION BOX - BLUE BOX", "address": {"city": "FOWLER", "state": "IL", "street": "1321 HIGHWAY 24", "postcode": "62338"}}},
{"geometry": {"type": "Point", "coordinates": [-91.2508217257, 39.9856590746]}, "type": "Feature", "properties": {"collection_times": [{"days": "Mon-Fri", "time": "11:15am"}, {"days": "Sat", "time": "9:00am"}, {"days": "Sun", "time": "Closed"}], "id": "6233800002", "name": "USPS COLLECTION BOX - PO LOBBY", "address": {"city": "FOWLER", "state": "IL", "street": "1321 HIGHWAY 24", "postcode": "62338"}}},
{"geometry": {"type": "Point", "coordinates": [-91.0644260984, 40.150886426]}, "type": "Feature", "properties": {"collection_times": [{"days": "Mon-Fri", "time": "3:00pm"}, {"days": "Sat", "time": "8:30am"}, {"days": "Sun", "time": "Closed"}], "id": "6233900001", "name": "USPS COLLECTION BOX - BLUE BOX", "address": {"city": "GOLDEN", "state": "IL", "street": "707 SMITH ST", "postcode": "62339"}}},
{"geometry": {"type": "Point", "coordinates": [-91.0644260984, 40.150886426]}, "type": "Feature", "properties": {"collection_times": [{"days": "Mon-Fri", "time": "2:45pm"}, {"days": "Sat", "time": "8:30am"}, {"days": "Sun", "time": "Closed"}], "id": "6233900002", "name": "USPS COLLECTION BOX - PO LOBBY", "address": {"city": "GOLDEN", "state": "IL", "street": "707 SMITH ST", "postcode": "62339"}}},
{"geometry": {"type": "Point", "coordinates": [-90.7253446063, 39.7085930218]}, "type": "Feature", "properties": {"collection_times": [{"days": "Mon-Fri", "time": "2:45pm"}, {"days": "Sat", "time": "9:30am"}, {"days": "Sun", "time": "Closed"}], "id": "6234000001", "name": "USPS COLLECTION BOX - BLUE BOX", "address": {"city": "GRIGGSVILLE", "state": "IL", "street": "102 W QUINCY ST", "postcode": "62340"}}},
{"geometry": {"type": "Point", "coordinates": [-90.7253446063, 39.7085930218]}, "type": "Feature", "properties": {"collection_times": [{"days": "Mon-Fri", "time": "2:45pm"}, {"days": "Sat", "time": "9:45am"}, {"days": "Sun", "time": "Closed"}], "id": "6234000002", "name": "USPS COLLECTION BOX - PO LOBBY", "address": {"city": "GRIGGSVILLE", "state": "IL", "street": "102 W QUINCY ST", "postcode": "62340"}}},
{"geometry": {"type": "Point", "coordinates": [-91.3433102362, 40.3930293064]}, "type": "Feature", "properties": {"collection_times": [{"days": "Mon-Fri", "time": "2:50pm"}, {"days": "Sat", "time": "9:00am"}, {"days": "Sun", "time": "Closed"}], "id": "6234100001", "name": "USPS COLLECTION BOX - BLUE BOX", "address": {"city": "HAMILTON", "state": "IL", "street": "1160 BROADWAY ST", "postcode": "62341"}}},
{"geometry": {"type": "Point", "coordinates": [-91.3433102362, 40.3930293064]}, "type": "Feature", "properties": {"collection_times": [{"days": "Mon-Fri", "time": "2:50pm"}, {"days": "Sat", "time": "9:00am"}, {"days": "Sun", "time": "Closed"}], "id": "6234100002", "name": "USPS COLLECTION BOX - BLUE BOX", "address": {"city": "HAMILTON", "state": "IL", "street": "1160 BROADWAY ST", "postcode": "62341"}}},
{"geometry": {"type": "Point", "coordinates": [-91.3433102362, 40.3930293064]}, "type": "Feature", "properties": {"collection_times": [{"days": "Mon-Fri", "time": "2:50pm"}, {"days": "Sat", "time": "9:00am"}, {"days": "Sun", "time": "Closed"}], "id": "6234100005", "name": "USPS COLLECTION BOX - PO LOBBY", "address": {"city": "HAMILTON", "state": "IL", "street": "1160 BROADWAY ST", "postcode": "62341"}}},
{"geometry": {"type": "Point", "coordinates": [-91.3433102362, 40.3930293064]}, "type": "Feature", "properties": {"collection_times": [{"days": "Mon-Fri", "time": "2:50pm"}, {"days": "Sat", "time": "9:00am"}, {"days": "Sun", "time": "Closed"}], "id": "6234100008", "name": "USPS COLLECTION BOX - PO LOBBY", "address": {"city": "HAMILTON", "state": "IL", "street": "1160 BROADWAY ST", "postcode": "62341"}}},
{"geometry": {"type": "Point", "coordinates": [-91.264030764, 39.7167257835]}, "type": "Feature", "properties": {"collection_times": [{"days": "Mon-Fri", "time": "3:25pm"}, {"days": "Sat", "time": "8:30am"}, {"days": "Sun", "time": "Closed"}], "id": "6234300001", "name": "USPS COLLECTION BOX - BLUE BOX", "address": {"city": "HULL", "state": "IL", "street": "201 E HULL AVE", "postcode": "62343"}}},
{"geometry": {"type": "Point", "coordinates": [-91.264030764, 39.7167257835]}, "type": "Feature", "properties": {"collection_times": [{"days": "Mon-Fri", "time": "3:05pm"}, {"days": "Sat", "time": "11:30am"}, {"days": "Sun", "time": "Closed"}], "id": "6234300002", "name": "USPS COLLECTION BOX - PO LOBBY", "address": {"city": "HULL", "state": "IL", "street": "201 E HULL AVE", "postcode": "62343"}}},
{"geometry": {"type": "Point", "coordinates": [-91.1775575258, 39.6406228551]}, "type": "Feature", "properties": {"collection_times": [{"days": "Mon-Fri", "time": "3:35pm"}, {"days": "Sat", "time": "9:30am"}, {"days": "Sun", "time": "Closed"}], "id": "6234500001", "name": "USPS COLLECTION BOX - BLUE BOX", "address": {"city": "KINDERHOOK", "state": "IL", "street": "185 S HARPER ST", "postcode": "62345"}}},
{"geometry": {"type": "Point", "coordinates": [-91.1775575258, 39.6406228551]}, "type": "Feature", "properties": {"collection_times": [{"days": "Mon-Fri", "time": "3:20pm"}, {"days": "Sat", "time": "9:30am"}, {"days": "Sun", "time": "Closed"}], "id": "6234500002", "name": "USPS COLLECTION BOX - PO LOBBY", "address": {"city": "KINDERHOOK", "state": "IL", "street": "185 S HARPER ST", "postcode": "62345"}}},
{"geometry": {"type": "Point", "coordinates": [-91.0012090908, 40.1475516662]}, "type": "Feature", "properties": {"collection_times": [{"days": "Mon-Fri", "time": "2:30pm"}, {"days": "Sat", "time": "10:00am"}, {"days": "Sun", "time": "Closed"}], "id": "6234600001", "name": "USPS COLLECTION BOX - BLUE BOX", "address": {"city": "LA PRAIRIE", "state": "IL", "street": "101 E MAIN ST", "postcode": "62346"}}},
{"geometry": {"type": "Point", "coordinates": [-91.1074936867, 39.8795247213]}, "type": "Feature", "properties": {"collection_times": [{"days": "Mon-Fri", "time": "3:30pm"}, {"days": "Sat", "time": "8:30am"}, {"days": "Sun", "time": "Closed"}], "id": "6234700001", "name": "USPS COLLECTION BOX - BLUE BOX", "address": {"city": "LIBERTY", "state": "IL", "street": "407 S MAIN ST", "postcode": "62347"}}},
{"geometry": {"type": "Point", "coordinates": [-91.1074936867, 39.8795247213]}, "type": "Feature", "properties": {"collection_times": [{"days": "Mon-Fri", "time": "3:30pm"}, {"days": "Sat", "time": "8:30am"}, {"days": "Sun", "time": "Closed"}], "id": "6234700002", "name": "USPS COLLECTION BOX - PO LOBBY", "address": {"city": "LIBERTY", "state": "IL", "street": "407 S MAIN ST", "postcode": "62347"}}},
{"geometry": {"type": "Point", "coordinates": [-91.1074936867, 39.8795247213]}, "type": "Feature", "properties": {"collection_times": [{"days": "Mon-Fri", "time": "3:30pm"}, {"days": "Sat", "time": "8:30am"}, {"days": "Sun", "time": "Closed"}], "id": "6234700003", "name": "USPS COLLECTION BOX - PO LOBBY", "address": {"city": "LIBERTY", "state": "IL", "street": "407 S MAIN ST", "postcode": "62347"}}},
{"geometry": {"type": "Point", "coordinates": [-91.4654355642, 40.1624985019]}, "type": "Feature", "properties": {"collection_times": [{"days": "Mon-Fri", "time": "3:15pm"}, {"days": "Sat", "time": "9:30am"}, {"days": "Sun", "time": "Closed"}], "id": "6234800001", "name": "USPS COLLECTION BOX - BLUE BOX", "address": {"city": "LIMA", "state": "IL", "street": "514 N RANGE LINE RD", "postcode": "62348"}}},
{"geometry": {"type": "Point", "coordinates": [-91.2034996393, 40.1678406536]}, "type": "Feature", "properties": {"collection_times": [{"days": "Mon-Fri", "time": "3:30pm"}, {"days": "Sat", "time": "8:30am"}, {"days": "Sun", "time": "Closed"}], "id": "6234900001", "name": "USPS COLLECTION BOX - BLUE BOX", "address": {"city": "LORAINE", "state": "IL", "street": "113 N BROAD ST", "postcode": "62349"}}},
{"geometry": {"type": "Point", "coordinates": [-91.2034996393, 40.1678406536]}, "type": "Feature", "properties": {"collection_times": [{"days": "Mon-Fri", "time": "3:25pm"}, {"days": "Sat", "time": "10:00am"}, {"days": "Sun", "time": "Closed"}], "id": "6234900002", "name": "USPS COLLECTION BOX - PO LOBBY", "address": {"city": "LORAINE", "state": "IL", "street": "113 N BROAD ST", "postcode": "62349"}}},
{"geometry": {"type": "Point", "coordinates": [-91.2865221829, 40.0881847402]}, "type": "Feature", "properties": {"collection_times": [{"days": "Mon-Fri", "time": "2:10pm"}, {"days": "Sat", "time": "9:00am"}, {"days": "Sun", "time": "Closed"}], "id": "6235100001", "name": "USPS COLLECTION BOX - BLUE BOX", "address": {"city": "MENDON", "state": "IL", "street": "102 W COLLINS ST", "postcode": "62351"}}},
{"geometry": {"type": "Point", "coordinates": [-91.2865221829, 40.0881847402]}, "type": "Feature", "properties": {"collection_times": [{"days": "Mon-Fri", "time": "2:10pm"}, {"days": "Sat", "time": "9:00am"}, {"days": "Sun", "time": "Closed"}], "id": "6235100002", "name": "USPS COLLECTION BOX - PO LOBBY", "address": {"city": "MENDON", "state": "IL", "street": "102 W COLLINS ST", "postcode": "62351"}}},
{"geometry": {"type": "Point", "coordinates": [-91.2865221829, 40.0881847402]}, "type": "Feature", "properties": {"collection_times": [{"days": "Mon-Fri", "time": "2:10pm"}, {"days": "Sat", "time": "9:00am"}, {"days": "Sun", "time": "Closed"}], "id": "6235100003", "name": "USPS COLLECTION BOX - PO LOBBY", "address": {"city": "MENDON", "state": "IL", "street": "102 W COLLINS ST", "postcode": "62351"}}},
{"geometry": {"type": "Point", "coordinates": [-90.6483866869, 39.5640334892]}, "type": "Feature", "properties": {"collection_times": [{"days": "Mon-Fri", "time": "4:00pm"}, {"days": "Sat", "time": "9:30am"}, {"days": "Sun", "time": "Closed"}], "id": "6235200001", "name": "USPS COLLECTION BOX - BLUE BOX", "address": {"city": "MILTON", "state": "IL", "street": "435 PITTSFIELD ST", "postcode": "62352"}}},
{"geometry": {"type": "Point", "coordinates": [-90.6483866869, 39.5640334892]}, "type": "Feature", "properties": {"collection_times": [{"days": "Mon-Fri", "time": "4:00pm"}, {"days": "Sat", "time": "9:30am"}, {"days": "Sun", "time": "Closed"}], "id": "6235200002", "name": "USPS COLLECTION BOX - PO LOBBY", "address": {"city": "MILTON", "state": "IL", "street": "435 PITTSFIELD ST", "postcode": "62352"}}},
{"geometry": {"type": "Point", "coordinates": [-90.6483866869, 39.5640334892]}, "type": "Feature", "properties": {"collection_times": [{"days": "Mon-Fri", "time": "4:00pm"}, {"days": "Sat", "time": "9:30am"}, {"days": "Sun", "time": "Closed"}], "id": "6235200003", "name": "USPS COLLECTION BOX - PO LOBBY", "address": {"city": "MILTON", "state": "IL", "street": "435 PITTSFIELD ST", "postcode": "62352"}}},
{"geometry": {"type": "Point", "coordinates": [-90.7653606259, 39.9857858867]}, "type": "Feature", "properties": {"collection_times": [{"days": "Mon-Fri", "time": "4:00pm"}, {"days": "Sat", "time": "10:30am"}, {"days": "Sun", "time": "Closed"}], "id": "6235300001", "name": "USPS COLLECTION BOX - BLUE BOX", "address": {"city": "MOUNT STERLING", "state": "IL", "street": "130 W MAIN ST", "postcode": "62353"}}},
{"geometry": {"type": "Point", "coordinates": [-90.7637361984, 39.9867008281]}, "type": "Feature", "properties": {"collection_times": [{"days": "Mon-Fri", "time": "2:30pm"}, {"days": "Sat", "time": "10:30am"}, {"days": "Sun", "time": "Closed"}], "id": "6235300002", "name": "USPS COLLECTION BOX - BLUE BOX", "address": {"city": "MOUNT STERLING", "state": "IL", "street": "200 COURT ST", "postcode": "62353"}}},
{"geometry": {"type": "Point", "coordinates": [-90.7653606259, 39.9857858867]}, "type": "Feature", "properties": {"collection_times": [{"days": "Mon-Fri", "time": "4:00pm"}, {"days": "Sat", "time": "10:30am"}, {"days": "Sun", "time": "Closed"}], "id": "6235300005", "name": "USPS COLLECTION BOX - PO LOBBY", "address": {"city": "MOUNT STERLING", "state": "IL", "street": "130 W MAIN ST", "postcode": "62353"}}},
{"geometry": {"type": "Point", "coordinates": [-90.7653606259, 39.9857858867]}, "type": "Feature", "properties": {"collection_times": [{"days": "Mon-Fri", "time": "4:00pm"}, {"days": "Sat", "time": "10:30am"}, {"days": "Sun", "time": "Closed"}], "id": "6235300006", "name": "USPS COLLECTION BOX - PO LOBBY", "address": {"city": "MOUNT STERLING", "state": "IL", "street": "130 W MAIN ST", "postcode": "62353"}}},
{"geometry": {"type": "Point", "coordinates": [-91.3802371791, 40.5503548843]}, "type": "Feature", "properties": {"collection_times": [{"days": "Mon-Fri", "time": "2:30pm"}, {"days": "Sat", "time": "10:30am"}, {"days": "Sun", "time": "Closed"}], "id": "6235400001", "name": "USPS COLLECTION BOX - BLUE BOX", "address": {"city": "NAUVOO", "state": "IL", "street": "55 N BARNETT ST", "postcode": "62354"}}},
{"geometry": {"type": "Point", "coordinates": [-91.3802371791, 40.5503548843]}, "type": "Feature", "properties": {"collection_times": [{"days": "Mon-Fri", "time": "2:30pm"}, {"days": "Sat", "time": "10:30am"}, {"days": "Sun", "time": "Closed"}], "id": "6235400002", "name": "USPS COLLECTION BOX - PO LOBBY", "address": {"city": "NAUVOO", "state": "IL", "street": "55 N BARNETT ST", "postcode": "62354"}}},
{"geometry": {"type": "Point", "coordinates": [-90.7907385372, 39.4429982033]}, "type": "Feature", "properties": {"collection_times": [{"days": "Mon-Fri", "time": "11:15am"}, {"days": "Sat", "time": "8:45am"}, {"days": "Sun", "time": "Closed"}], "id": "6235500001", "name": "USPS COLLECTION BOX - BLUE BOX", "address": {"city": "NEBO", "state": "IL", "street": "133 S UNION ST", "postcode": "62355"}}},
{"geometry": {"type": "Point", "coordinates": [-90.7907385372, 39.4429982033]}, "type": "Feature", "properties": {"collection_times": [{"days": "Mon-Fri", "time": "11:15am"}, {"days": "Sat", "time": "8:45am"}, {"days": "Sun", "time": "Closed"}], "id": "6235500003", "name": "USPS COLLECTION BOX - PO LOBBY", "address": {"city": "NEBO", "state": "IL", "street": "133 S UNION ST", "postcode": "62355"}}},
{"geometry": {"type": "Point", "coordinates": [-91.0889218528, 39.6245338856]}, "type": "Feature", "properties": {"collection_times": [{"days": "Mon-Fri", "time": "11:15am"}, {"days": "Sat", "time": "9:00am"}, {"days": "Sun", "time": "Closed"}], "id": "6235600001", "name": "USPS COLLECTION BOX - BLUE BOX", "address": {"city": "NEW CANTON", "state": "IL", "street": "140 N MAIN ST", "postcode": "62356"}}},
{"geometry": {"type": "Point", "coordinates": [-91.0889218528, 39.6245338856]}, "type": "Feature", "properties": {"collection_times": [{"days": "Mon-Fri", "time": "11:15am"}, {"days": "Sat", "time": "9:00am"}, {"days": "Sun", "time": "Closed"}], "id": "6235600002", "name": "USPS COLLECTION BOX - PO LOBBY", "address": {"city": "NEW CANTON", "state": "IL", "street": "140 N MAIN ST", "postcode": "62356"}}},
{"geometry": {"type": "Point", "coordinates": [-91.0889218528, 39.6245338856]}, "type": "Feature", "properties": {"collection_times": [{"days": "Mon-Fri", "time": "11:15am"}, {"days": "Sat", "time": "9:00am"}, {"days": "Sun", "time": "Closed"}], "id": "6235600003", "name": "USPS COLLECTION BOX - PO LOBBY", "address": {"city": "NEW CANTON", "state": "IL", "street": "140 N MAIN ST", "postcode": "62356"}}},
{"geometry": {"type": "Point", "coordinates": [-90.8524202595, 39.7075597776]}, "type": "Feature", "properties": {"collection_times": [{"days": "Mon-Sat", "time": "1:30pm"}, {"days": "Sun", "time": "Closed"}], "id": "6235700001", "name": "USPS COLLECTION BOX - BLUE BOX", "address": {"city": "NEW SALEM", "state": "IL", "street": "201 GRIGGSVILLE ST", "postcode": "62357"}}},
{"geometry": {"type": "Point", "coordinates": [-90.8524202595, 39.7075597776]}, "type": "Feature", "properties": {"collection_times": [{"days": "Mon-Fri", "time": "10:45am"}, {"days": "Sat", "time": "1:45pm"}, {"days": "Sun", "time": "Closed"}], "id": "6235700002", "name": "USPS COLLECTION BOX - PO LOBBY", "address": {"city": "NEW SALEM", "state": "IL", "street": "201 GRIGGSVILLE ST", "postcode": "62357"}}},
{"geometry": {"type": "Point", "coordinates": [-91.2674978306, 40.5954117898]}, "type": "Feature", "properties": {"collection_times": [{"days": "Mon-Fri", "time": "11:45am"}, {"days": "Sat", "time": "9:00am"}, {"days": "Sun", "time": "Closed"}], "id": "6235800002", "name": "USPS COLLECTION BOX - BLUE BOX", "address": {"city": "NIOTA", "state": "IL", "street": "275 ARBOR ST", "postcode": "62358"}}},
{"geometry": {"type": "Point", "coordinates": [-91.2674978306, 40.5954117898]}, "type": "Feature", "properties": {"collection_times": [{"days": "Mon-Fri", "time": "11:45am"}, {"days": "Sat", "time": "9:00am"}, {"days": "Sun", "time": "Closed"}], "id": "6235800003", "name": "USPS COLLECTION BOX - PO LOBBY", "address": {"city": "NIOTA", "state": "IL", "street": "275 ARBOR ST", "postcode": "62358"}}},
{"geometry": {"type": "Point", "coordinates": [-91.2417503346, 39.8187985118]}, "type": "Feature", "properties": {"collection_times": [{"days": "Mon-Fri", "time": "2:30pm"}, {"days": "Sat", "time": "9:00am"}, {"days": "Sun", "time": "Closed"}], "id": "6236000001", "name": "USPS COLLECTION BOX - BLUE BOX", "address": {"city": "PAYSON", "state": "IL", "street": "206 N MAIN ST", "postcode": "62360"}}},
{"geometry": {"type": "Point", "coordinates": [-91.2417503346, 39.8187985118]}, "type": "Feature", "properties": {"collection_times": [{"days": "Mon-Fri", "time": "2:30pm"}, {"days": "Sat", "time": "9:00am"}, {"days": "Sun", "time": "Closed"}], "id": "6236000002", "name": "USPS COLLECTION BOX - PO LOBBY", "address": {"city": "PAYSON", "state": "IL", "street": "206 N MAIN ST", "postcode": "62360"}}},
{"geometry": {"type": "Point", "coordinates": [-90.6494716276, 39.4300880903]}, "type": "Feature", "properties": {"collection_times": [{"days": "Mon-Fri", "time": "11:45am"}, {"days": "Sat", "time": "8:45am"}, {"days": "Sun", "time": "Closed"}], "id": "6236100001", "name": "USPS COLLECTION BOX - BLUE BOX", "address": {"city": "PEARL", "state": "IL", "street": "105 N FRONT ST", "postcode": "62361"}}},
{"geometry": {"type": "Point", "coordinates": [-90.6494716276, 39.4300880903]}, "type": "Feature", "properties": {"collection_times": [{"days": "Mon-Fri", "time": "11:45am"}, {"days": "Sat", "time": "8:45am"}, {"days": "Sun", "time": "Closed"}], "id": "6236100002", "name": "USPS COLLECTION BOX - PO LOBBY", "address": {"city": "PEARL", "state": "IL", "street": "105 N FRONT ST", "postcode": "62361"}}},
{"geometry": {"type": "Point", "coordinates": [-90.7415370756, 39.7965838467]}, "type": "Feature", "properties": {"collection_times": [{"days": "Mon-Fri", "time": "3:45pm"}, {"days": "Sat", "time": "9:30am"}, {"days": "Sun", "time": "Closed"}], "id": "6236200001", "name": "USPS COLLECTION BOX - BLUE BOX", "address": {"city": "PERRY", "state": "IL", "street": "209 MAIN ST", "postcode": "62362"}}},
{"geometry": {"type": "Point", "coordinates": [-90.7415370756, 39.7965838467]}, "type": "Feature", "properties": {"collection_times": [{"days": "Mon-Fri", "time": "3:45pm"}, {"days": "Sat", "time": "9:30am"}, {"days": "Sun", "time": "Closed"}], "id": "6236200002", "name": "USPS COLLECTION BOX - PO LOBBY", "address": {"city": "PERRY", "state": "IL", "street": "209 MAIN ST", "postcode": "62362"}}},
{"geometry": {"type": "Point", "coordinates": [-90.8061738175, 39.6064437729]}, "type": "Feature", "properties": {"collection_times": [{"days": "Mon-Fri", "time": "4:00pm"}, {"days": "Sat", "time": "11:00am"}, {"days": "Sun", "time": "Closed"}], "id": "6236300001", "name": "USPS COLLECTION BOX - BLUE BOX", "address": {"city": "PITTSFIELD", "state": "IL", "street": "129 S MADISON ST", "postcode": "62363"}}},
{"geometry": {"type": "Point", "coordinates": [-90.8061738175, 39.6064437729]}, "type": "Feature", "properties": {"collection_times": [{"days": "Mon-Fri", "time": "4:00pm"}, {"days": "Sat", "time": "11:00am"}, {"days": "Sun", "time": "Closed"}], "id": "6236300010", "name": "USPS COLLECTION BOX - PO LOBBY", "address": {"city": "PITTSFIELD", "state": "IL", "street": "129 S MADISON ST", "postcode": "62363"}}},
{"geometry": {"type": "Point", "coordinates": [-90.8061738175, 39.6064437729]}, "type": "Feature", "properties": {"collection_times": [{"days": "Mon-Fri", "time": "4:00pm"}, {"days": "Sat", "time": "11:00am"}, {"days": "Sun", "time": "Closed"}], "id": "6236300011", "name": "USPS COLLECTION BOX - PO LOBBY", "address": {"city": "PITTSFIELD", "state": "IL", "street": "129 S MADISON ST", "postcode": "62363"}}},
{"geometry": {"type": "Point", "coordinates": [-91.1847492171, 39.7859547684]}, "type": "Feature", "properties": {"collection_times": [{"days": "Mon-Fri", "time": "12:45pm"}, {"days": "Sat", "time": "8:45am"}, {"days": "Sun", "time": "Closed"}], "id": "6236500001", "name": "USPS COLLECTION BOX - BLUE BOX", "address": {"city": "PLAINVILLE", "state": "IL", "street": "230 E MAIN ST", "postcode": "62365"}}},
{"geometry": {"type": "Point", "coordinates": [-91.1847492171, 39.7859547684]}, "type": "Feature", "properties": {"collection_times": [{"days": "Mon-Fri", "time": "3:00pm"}, {"days": "Sat", "time": "10:30am"}, {"days": "Sun", "time": "Closed"}], "id": "6236500002", "name": "USPS COLLECTION BOX - PO LOBBY", "address": {"city": "PLAINVILLE", "state": "IL", "street": "230 E MAIN ST", "postcode": "62365"}}},
{"geometry": {"type": "Point", "coordinates": [-90.8721089011, 39.4434439719]}, "type": "Feature", "properties": {"collection_times": [{"days": "Mon-Fri", "time": "4:15pm"}, {"days": "Sat", "time": "9:30am"}, {"days": "Sun", "time": "Closed"}], "id": "6236600001", "name": "USPS COLLECTION BOX - BLUE BOX", "address": {"city": "PLEASANT HILL", "state": "IL", "street": "108 E QUINCY ST", "postcode": "62366"}}},
{"geometry": {"type": "Point", "coordinates": [-90.8721089011, 39.4434439719]}, "type": "Feature", "properties": {"collection_times": [{"days": "Mon-Fri", "time": "4:15pm"}, {"days": "Sat", "time": "9:30am"}, {"days": "Sun", "time": "Closed"}], "id": "6236600002", "name": "USPS COLLECTION BOX - PO LOBBY", "address": {"city": "PLEASANT HILL", "state": "IL", "street": "108 E QUINCY ST", "postcode": "62366"}}},
{"geometry": {"type": "Point", "coordinates": [-90.963668976, 40.3271337702]}, "type": "Feature", "properties": {"collection_times": [{"days": "Mon-Fri", "time": "2:45pm"}, {"days": "Sat", "time": "9:00am"}, {"days": "Sun", "time": "Closed"}], "id": "6236700001", "name": "USPS COLLECTION BOX - BLUE BOX", "address": {"city": "PLYMOUTH", "state": "IL", "street": "107 EASTSIDE SQ", "postcode": "62367"}}},
{"geometry": {"type": "Point", "coordinates": [-90.963668976, 40.3271337702]}, "type": "Feature", "properties": {"collection_times": [{"days": "Mon-Fri", "time": "2:45pm"}, {"days": "Sat", "time": "9:00am"}, {"days": "Sun", "time": "Closed"}], "id": "6236700003", "name": "USPS COLLECTION BOX - PO LOBBY", "address": {"city": "PLYMOUTH", "state": "IL", "street": "107 EASTSIDE SQ", "postcode": "62367"}}},
{"geometry": {"type": "Point", "coordinates": [-91.0185276385, 39.5350926275]}, "type": "Feature", "properties": {"collection_times": [{"days": "Mon-Fri", "time": "1:45pm"}, {"days": "Sat", "time": "10:30am"}, {"days": "Sun", "time": "Closed"}], "id": "6237000001", "name": "USPS COLLECTION BOX - BLUE BOX", "address": {"city": "ROCKPORT", "state": "IL", "street": "301 MERCHANT ST", "postcode": "62370"}}},
{"geometry": {"type": "Point", "coordinates": [-91.0185276385, 39.5350926275]}, "type": "Feature", "properties": {"collection_times": [{"days": "Mon-Fri", "time": "1:45pm"}, {"days": "Sat", "time": "10:30am"}, {"days": "Sun", "time": "Closed"}], "id": "6237000002", "name": "USPS COLLECTION BOX - PO LOBBY", "address": {"city": "ROCKPORT", "state": "IL", "street": "301 MERCHANT ST", "postcode": "62370"}}},
{"geometry": {"type": "Point", "coordinates": [-90.8379951782, 40.4114938118]}, "type": "Feature", "properties": {"collection_times": [{"days": "Mon-Fri", "time": "3:45pm"}, {"days": "Sat", "time": "9:30am"}, {"days": "Sun", "time": "Closed"}], "id": "6237400001", "name": "USPS COLLECTION BOX - BLUE BOX", "address": {"city": "TENNESSEE", "state": "IL", "street": "209 W BUSHNELL ST", "postcode": "62374"}}},
{"geometry": {"type": "Point", "coordinates": [-90.8379951782, 40.4114938118]}, "type": "Feature", "properties": {"collection_times": [{"days": "Mon-Fri", "time": "3:45pm"}, {"days": "Sat", "time": "9:30am"}, {"days": "Sun", "time": "Closed"}], "id": "6237400002", "name": "USPS COLLECTION BOX - PO LOBBY", "address": {"city": "TENNESSEE", "state": "IL", "street": "209 W BUSHNELL ST", "postcode": "62374"}}},
{"geometry": {"type": "Point", "coordinates": [-90.87397733, 40.0089974126]}, "type": "Feature", "properties": {"collection_times": [{"days": "Mon-Fri", "time": "3:15pm"}, {"days": "Sat", "time": "12:15pm"}, {"days": "Sun", "time": "Closed"}], "id": "6237500001", "name": "USPS COLLECTION BOX - BLUE BOX", "address": {"city": "TIMEWELL", "state": "IL", "street": "201 S MAIN ST", "postcode": "62375"}}},
{"geometry": {"type": "Point", "coordinates": [-90.87397733, 40.0089974126]}, "type": "Feature", "properties": {"collection_times": [{"days": "Mon-Fri", "time": "3:15pm"}, {"days": "Sat", "time": "12:15pm"}, {"days": "Sun", "time": "Closed"}], "id": "6237500002", "name": "USPS COLLECTION BOX - PO LOBBY", "address": {"city": "TIMEWELL", "state": "IL", "street": "201 S MAIN ST", "postcode": "62375"}}},
{"geometry": {"type": "Point", "coordinates": [-91.366657279, 40.0787005051]}, "type": "Feature", "properties": {"collection_times": [{"days": "Mon-Fri", "time": "4:00pm"}, {"days": "Sat", "time": "8:45am"}, {"days": "Sun", "time": "Closed"}], "id": "6237600001", "name": "USPS COLLECTION BOX - BLUE BOX", "address": {"city": "URSA", "state": "IL", "street": "107 N WARSAW ST", "postcode": "62376"}}},
{"geometry": {"type": "Point", "coordinates": [-91.366657279, 40.0787005051]}, "type": "Feature", "properties": {"collection_times": [{"days": "Mon-Fri", "time": "11:45am"}, {"days": "Sat", "time": "8:45am"}, {"days": "Sun", "time": "Closed"}], "id": "6237600002", "name": "USPS COLLECTION BOX - PO LOBBY", "address": {"city": "URSA", "state": "IL", "street": "107 N WARSAW ST", "postcode": "62376"}}},
{"geometry": {"type": "Point", "coordinates": [-91.366657279, 40.0787005051]}, "type": "Feature", "properties": {"collection_times": [{"days": "Mon-Fri", "time": "11:45am"}, {"days": "Sat", "time": "8:45am"}, {"days": "Sun", "time": "Closed"}], "id": "6237600003", "name": "USPS COLLECTION BOX - PO LOBBY", "address": {"city": "URSA", "state": "IL", "street": "107 N WARSAW ST", "postcode": "62376"}}},
{"geometry": {"type": "Point", "coordinates": [-90.6559071618, 39.8844288661]}, "type": "Feature", "properties": {"collection_times": [{"days": "Mon-Fri", "time": "11:45am"}, {"days": "Sat", "time": "8:45am"}, {"days": "Sun", "time": "Closed"}], "id": "6237800001", "name": "USPS COLLECTION BOX - BLUE BOX", "address": {"city": "VERSAILLES", "state": "IL", "street": "120 N MAIN ST", "postcode": "62378"}}},
{"geometry": {"type": "Point", "coordinates": [-90.6559071618, 39.8844288661]}, "type": "Feature", "properties": {"collection_times": [{"days": "Mon-Fri", "time": "11:45am"}, {"days": "Sat", "time": "8:45am"}, {"days": "Sun", "time": "Closed"}], "id": "6237800002", "name": "USPS COLLECTION BOX - PO LOBBY", "address": {"city": "VERSAILLES", "state": "IL", "street": "120 N MAIN ST", "postcode": "62378"}}},
{"geometry": {"type": "Point", "coordinates": [-91.4354144163, 40.3594215097]}, "type": "Feature", "properties": {"collection_times": [{"days": "Mon-Fri", "time": "3:05pm"}, {"days": "Sat", "time": "9:45am"}, {"days": "Sun", "time": "Closed"}], "id": "6237900002", "name": "USPS COLLECTION BOX - BLUE BOX", "address": {"city": "WARSAW", "state": "IL", "street": "520 MAIN ST", "postcode": "62379"}}},
{"geometry": {"type": "Point", "coordinates": [-91.4354144163, 40.3594215097]}, "type": "Feature", "properties": {"collection_times": [{"days": "Mon-Fri", "time": "3:05pm"}, {"days": "Sat", "time": "10:00am"}, {"days": "Sun", "time": "Closed"}], "id": "6237900004", "name": "USPS COLLECTION BOX - PO LOBBY", "address": {"city": "WARSAW", "state": "IL", "street": "520 MAIN ST", "postcode": "62379"}}},
{"geometry": {"type": "Point", "coordinates": [-91.182386082, 40.2552539417]}, "type": "Feature", "properties": {"collection_times": [{"days": "Mon-Fri", "time": "1:00pm"}, {"days": "Sat", "time": "12:45pm"}, {"days": "Sun", "time": "Closed"}], "id": "6238000001", "name": "USPS COLLECTION BOX - BLUE BOX", "address": {"city": "WEST POINT", "state": "IL", "street": "100 E CENTER ST", "postcode": "62380"}}},
{"geometry": {"type": "Point", "coordinates": [-91.182386082, 40.2552539417]}, "type": "Feature", "properties": {"collection_times": [{"days": "Mon-Sat", "time": "12:45pm"}, {"days": "Sun", "time": "Closed"}], "id": "6238000002", "name": "USPS COLLECTION BOX - PO LOBBY", "address": {"city": "WEST POINT", "state": "IL", "street": "100 E CENTER ST", "postcode": "62380"}}}
]}
