{"type": "FeatureCollection", "features": [
{"geometry": {"type": "Point", "coordinates": [-88.5407617776, 39.1226897026]}, "type": "Feature", "properties": {"collection_times": [{"days": "Mon-Fri", "time": "5:00pm"}, {"days": "Sat", "time": "3:00pm"}, {"days": "Sun", "time": "Closed"}], "id": "6240100001", "name": "USPS COLLECTION BOX - BLUE BOX", "address": {"city": "EFFINGHAM", "state": "IL", "street": "210 N 3RD ST", "postcode": "62401"}}},
{"geometry": {"type": "Point", "coordinates": [-88.5407617776, 39.1226897026]}, "type": "Feature", "properties": {"collection_times": [{"days": "Mon-Fri", "time": "5:00pm"}, {"days": "Sat", "time": "3:00pm"}, {"days": "Sun", "time": "Closed"}], "id": "6240100002", "name": "USPS COLLECTION BOX - BLUE BOX", "address": {"city": "EFFINGHAM", "state": "IL", "street": "210 N 3RD ST", "postcode": "62401"}}},
{"geometry": {"type": "Point", "coordinates": [-88.5607678231, 39.1311910053]}, "type": "Feature", "properties": {"collection_times": [{"days": "Mon-Sat", "time": "2:30pm"}, {"days": "Sun", "time": "Closed"}], "id": "6240100003", "name": "USPS COLLECTION BOX - BLUE BOX", "address": {"city": "EFFINGHAM", "state": "IL", "street": "1006 N KELLER DR", "postcode": "62401"}}},
{"geometry": {"type": "Point", "coordinates": [-88.5459635303, 39.12182093]}, "type": "Feature", "properties": {"collection_times": [{"days": "Mon-Sat", "time": "2:30pm"}, {"days": "Sun", "time": "Closed"}], "id": "6240100005", "name": "USPS COLLECTION BOX - BLUE BOX", "address": {"city": "EFFINGHAM", "state": "IL", "street": "101 S MERCHANT ST", "postcode": "62401"}}},
{"geometry": {"type": "Point", "coordinates": [-88.556397249, 39.1230716543]}, "type": "Feature", "properties": {"collection_times": [{"days": "Mon-Sat", "time": "12:00pm"}, {"days": "Sun", "time": "Closed"}], "id": "6240100007", "name": "USPS COLLECTION BOX - BLUE BOX", "address": {"city": "EFFINGHAM", "state": "IL", "street": "105 N KELLER DR", "postcode": "62401"}}},
{"geometry": {"type": "Point", "coordinates": [-88.5608254806, 39.139390202]}, "type": "Feature", "properties": {"collection_times": [{"days": "Mon-Sat", "time": "2:30pm"}, {"days": "Sun", "time": "Closed"}], "id": "6240100010", "name": "USPS COLLECTION BOX - BLUE BOX", "address": {"city": "EFFINGHAM", "state": "IL", "street": "1204 AVENUE OF MID AMERICA", "postcode": "62401"}}},
{"geometry": {"type": "Point", "coordinates": [-88.5643300536, 39.1372621747]}, "type": "Feature", "properties": {"collection_times": [{"days": "Mon-Sat", "time": "2:30pm"}, {"days": "Sun", "time": "Closed"}], "id": "6240100011", "name": "USPS COLLECTION BOX - BLUE BOX", "address": {"city": "EFFINGHAM", "state": "IL", "street": "1204 N KELLER DR", "postcode": "62401"}}},
{"geometry": {"type": "Point", "coordinates": [-88.5529672632, 39.1276193304]}, "type": "Feature", "properties": {"collection_times": [{"days": "Mon-Sat", "time": "2:30pm"}, {"days": "Sun", "time": "Closed"}], "id": "6240100029", "name": "USPS COLLECTION BOX - BLUE BOX", "address": {"city": "EFFINGHAM", "state": "IL", "street": "900 W TEMPLE AVE", "postcode": "62401"}}},
{"geometry": {"type": "Point", "coordinates": [-88.5407617776, 39.1226897026]}, "type": "Feature", "properties": {"collection_times": [{"days": "Mon-Fri", "time": "5:00pm"}, {"days": "Sat", "time": "3:00pm"}, {"days": "Sun", "time": "Closed"}], "id": "6240100033", "name": "USPS COLLECTION BOX - BLUE BOX", "address": {"city": "EFFINGHAM", "state": "IL", "street": "210 N 3RD ST", "postcode": "62401"}}},
{"geometry": {"type": "Point", "coordinates": [-88.546902467, 39.1039740739]}, "type": "Feature", "properties": {"collection_times": [{"days": "Mon-Sat", "time": "12:00pm"}, {"days": "Sun", "time": "Closed"}], "id": "6240100034", "name": "USPS COLLECTION BOX - BLUE BOX", "address": {"city": "EFFINGHAM", "state": "IL", "street": "2000 S BANKER ST", "postcode": "62401"}}},
{"geometry": {"type": "Point", "coordinates": [-88.5247762945, 39.1458478358]}, "type": "Feature", "properties": {"collection_times": [{"days": "Mon-Sat", "time": "2:30pm"}, {"days": "Sun", "time": "Closed"}], "id": "6240100035", "name": "USPS COLLECTION BOX - BLUE BOX", "address": {"city": "EFFINGHAM", "state": "IL", "street": "1207 NETWORK CENTRE DR", "postcode": "62401"}}},
{"geometry": {"type": "Point", "coordinates": [-88.5407617776, 39.1226897026]}, "type": "Feature", "properties": {"collection_times": [{"days": "Mon-Fri", "time": "5:00pm"}, {"days": "Sat", "time": "3:00pm"}, {"days": "Sun", "time": "Closed"}], "id": "6240100036", "name": "USPS COLLECTION BOX - PO LOBBY", "address": {"city": "EFFINGHAM", "state": "IL", "street": "210 N 3RD ST", "postcode": "62401"}}},
{"geometry": {"type": "Point", "coordinates": [-88.5423308235, 39.1050978501]}, "type": "Feature", "properties": {"collection_times": [{"days": "Mon-Sat", "time": "2:30pm"}, {"days": "Sun", "time": "Closed"}], "id": "6240100039", "name": "USPS COLLECTION BOX - BLUE BOX", "address": {"city": "EFFINGHAM", "state": "IL", "street": "1901 S 4TH ST", "postcode": "62401"}}},
{"geometry": {"type": "Point", "coordinates": [-87.7099414346, 38.5267228791]}, "type": "Feature", "properties": {"collection_times": [{"days": "Mon-Fri", "time": "2:30pm"}, {"days": "Sat", "time": "10:00am"}, {"days": "Sun", "time": "Closed"}], "id": "6241000001", "name": "USPS COLLECTION BOX - BLUE BOX", "address": {"city": "ALLENDALE", "state": "IL", "street": "304 E MAIN ST", "postcode": "62410"}}},
{"geometry": {"type": "Point", "coordinates": [-87.7099414346, 38.5267228791]}, "type": "Feature", "properties": {"collection_times": [{"days": "Mon-Fri", "time": "2:30pm"}, {"days": "Sat", "time": "10:00am"}, {"days": "Sun", "time": "Closed"}], "id": "6241000002", "name": "USPS COLLECTION BOX - PO LOBBY", "address": {"city": "ALLENDALE", "state": "IL", "street": "304 E MAIN ST", "postcode": "62410"}}},
{"geometry": {"type": "Point", "coordinates": [-88.7486151308, 39.0605647389]}, "type": "Feature", "properties": {"collection_times": [{"days": "Mon-Fri", "time": "5:00pm"}, {"days": "Sat", "time": "12:00pm"}, {"days": "Sun", "time": "Closed"}], "id": "6241100001", "name": "USPS COLLECTION BOX - BLUE BOX", "address": {"city": "ALTAMONT", "state": "IL", "street": "122 W WASHINGTON AVE", "postcode": "62411"}}},
{"geometry": {"type": "Point", "coordinates": [-88.7486151308, 39.0605647389]}, "type": "Feature", "properties": {"collection_times": [{"days": "Mon-Fri", "time": "5:00pm"}, {"days": "Sat", "time": "12:00pm"}, {"days": "Sun", "time": "Closed"}], "id": "6241100002", "name": "USPS COLLECTION BOX - PO LOBBY", "address": {"city": "ALTAMONT", "state": "IL", "street": "122 W WASHINGTON AVE", "postcode": "62411"}}},
{"geometry": {"type": "Point", "coordinates": [-87.8163656653, 39.1446943071]}, "type": "Feature", "properties": {"collection_times": [{"days": "Mon-Fri", "time": "2:10pm"}, {"days": "Sat", "time": "11:00am"}, {"days": "Sun", "time": "Closed"}], "id": "6241300001", "name": "USPS COLLECTION BOX - BLUE BOX", "address": {"city": "ANNAPOLIS", "state": "IL", "street": "7047 E 2000TH AVE", "postcode": "62413"}}},
{"geometry": {"type": "Point", "coordinates": [-87.8163656653, 39.1446943071]}, "type": "Feature", "properties": {"collection_times": [{"days": "Mon-Fri", "time": "2:10pm"}, {"days": "Sat", "time": "11:15am"}, {"days": "Sun", "time": "Closed"}], "id": "6241300002", "name": "USPS COLLECTION BOX - PO LOBBY", "address": {"city": "ANNAPOLIS", "state": "IL", "street": "7047 E 2000TH AVE", "postcode": "62413"}}},
{"geometry": {"type": "Point", "coordinates": [-88.7882320013, 39.1871045752]}, "type": "Feature", "properties": {"collection_times": [{"days": "Mon-Fri", "time": "4:00pm"}, {"days": "Sat", "time": "9:30am"}, {"days": "Sun", "time": "Closed"}], "id": "6241400001", "name": "USPS COLLECTION BOX - BLUE BOX", "address": {"city": "BEECHER CITY", "state": "IL", "street": "101 S SWEAZY ST", "postcode": "62414"}}},
{"geometry": {"type": "Point", "coordinates": [-88.7882320013, 39.1871045752]}, "type": "Feature", "properties": {"collection_times": [{"days": "Mon-Fri", "time": "4:00pm"}, {"days": "Sat", "time": "9:30am"}, {"days": "Sun", "time": "Closed"}], "id": "6241400002", "name": "USPS COLLECTION BOX - PO LOBBY", "address": {"city": "BEECHER CITY", "state": "IL", "street": "101 S SWEAZY ST", "postcode": "62414"}}},
{"geometry": {"type": "Point", "coordinates": [-87.7586796494, 38.7063893587]}, "type": "Feature", "properties": {"collection_times": [{"days": "Mon-Fri", "time": "12:15pm"}, {"days": "Sat", "time": "10:15am"}, {"days": "Sun", "time": "Closed"}], "id": "6241700001", "name": "USPS COLLECTION BOX - BLUE BOX", "address": {"city": "BRIDGEPORT", "state": "IL", "street": "250 E OLIVE ST", "postcode": "62417"}}},
{"geometry": {"type": "Point", "coordinates": [-87.7586796494, 38.7063893587]}, "type": "Feature", "properties": {"collection_times": [{"days": "Mon-Fri", "time": "12:15pm"}, {"days": "Sat", "time": "10:15am"}, {"days": "Sun", "time": "Closed"}], "id": "6241700005", "name": "USPS COLLECTION BOX - PO LOBBY", "address": {"city": "BRIDGEPORT", "state": "IL", "street": "250 E OLIVE ST", "postcode": "62417"}}},
{"geometry": {"type": "Point", "coordinates": [-88.9545051339, 38.9964779361]}, "type": "Feature", "properties": {"collection_times": [{"days": "Mon-Fri", "time": "4:10pm"}, {"days": "Sat", "time": "11:45am"}, {"days": "Sun", "time": "Closed"}], "id": "6241800001", "name": "USPS COLLECTION BOX - BLUE BOX", "address": {"city": "BROWNSTOWN", "state": "IL", "street": "102 E MAIN ST", "postcode": "62418"}}},
{"geometry": {"type": "Point", "coordinates": [-88.9545051339, 38.9964779361]}, "type": "Feature", "properties": {"collection_times": [{"days": "Mon-Fri", "time": "4:10pm"}, {"days": "Sat", "time": "11:45am"}, {"days": "Sun", "time": "Closed"}], "id": "6241800002", "name": "USPS COLLECTION BOX - PO LOBBY", "address": {"city": "BROWNSTOWN", "state": "IL", "street": "102 E MAIN ST", "postcode": "62418"}}},
{"geometry": {"type": "Point", "coordinates": [-88.0437110868, 38.6503174281]}, "type": "Feature", "properties": {"collection_times": [{"days": "Mon-Fri", "time": "4:15pm"}, {"days": "Sat", "time": "10:30am"}, {"days": "Sun", "time": "Closed"}], "id": "6241900001", "name": "USPS COLLECTION BOX - BLUE BOX", "address": {"city": "CALHOUN", "state": "IL", "street": "101 E MAIN ST", "postcode": "62419"}}},
{"geometry": {"type": "Point", "coordinates": [-88.0437110868, 38.6503174281]}, "type": "Feature", "properties": {"collection_times": [{"days": "Mon-Fri", "time": "4:15pm"}, {"days": "Sat", "time": "12:30pm"}, {"days": "Sun", "time": "Closed"}], "id": "6241900002", "name": "USPS COLLECTION BOX - PO LOBBY", "address": {"city": "CALHOUN", "state": "IL", "street": "101 E MAIN ST", "postcode": "62419"}}},
{"geometry": {"type": "Point", "coordinates": [-87.9943639827, 39.2997281276]}, "type": "Feature", "properties": {"collection_times": [{"days": "Mon-Fri", "time": "4:15pm"}, {"days": "Sat", "time": "10:15am"}, {"days": "Sun", "time": "Closed"}], "id": "6242000001", "name": "USPS COLLECTION BOX - BLUE BOX", "address": {"city": "CASEY", "state": "IL", "street": "100 W ALABAMA AVE", "postcode": "62420"}}},
{"geometry": {"type": "Point", "coordinates": [-87.9943639827, 39.2997281276]}, "type": "Feature", "properties": {"collection_times": [{"days": "Mon-Fri", "time": "4:15pm"}, {"days": "Sat", "time": "10:15am"}, {"days": "Sun", "time": "Closed"}], "id": "6242000008", "name": "USPS COLLECTION BOX - PO LOBBY", "address": {"city": "CASEY", "state": "IL", "street": "100 W ALABAMA AVE", "postcode": "62420"}}},
{"geometry": {"type": "Point", "coordinates": [-87.9715375087, 38.7207329951]}, "type": "Feature", "properties": {"collection_times": [{"days": "Mon-Fri", "time": "11:15am"}, {"days": "Sat", "time": "9:30am"}, {"days": "Sun", "time": "Closed"}], "id": "6242100001", "name": "USPS COLLECTION BOX - BLUE BOX", "address": {"city": "CLAREMONT", "state": "IL", "street": "100 N WASHINGTON BLVD", "postcode": "62421"}}},
{"geometry": {"type": "Point", "coordinates": [-87.9715375087, 38.7207329951]}, "type": "Feature", "properties": {"collection_times": [{"days": "Mon-Fri", "time": "11:15am"}, {"days": "Sat", "time": "9:30am"}, {"days": "Sun", "time": "Closed"}], "id": "6242100003", "name": "USPS COLLECTION BOX - PO LOBBY", "address": {"city": "CLAREMONT", "state": "IL", "street": "100 N WASHINGTON BLVD", "postcode": "62421"}}},
{"geometry": {"type": "Point", "coordinates": [-88.9037346125, 39.2183627078]}, "type": "Feature", "properties": {"collection_times": [{"days": "Mon-Fri", "time": "4:30pm"}, {"days": "Sat", "time": "10:00am"}, {"days": "Sun", "time": "Closed"}], "id": "6242200001", "name": "USPS COLLECTION BOX - BLUE BOX", "address": {"city": "COWDEN", "state": "IL", "street": "1 POSTAL WAY", "postcode": "62422"}}},
{"geometry": {"type": "Point", "coordinates": [-88.9037346125, 39.2183627078]}, "type": "Feature", "properties": {"collection_times": [{"days": "Mon-Fri", "time": "4:30pm"}, {"days": "Sat", "time": "10:00am"}, {"days": "Sun", "time": "Closed"}], "id": "6242200002", "name": "USPS COLLECTION BOX - PO LOBBY", "address": {"city": "COWDEN", "state": "IL", "street": "1 POSTAL WAY", "postcode": "62422"}}},
{"geometry": {"type": "Point", "coordinates": [-88.3800945558, 39.0592084356]}, "type": "Feature", "properties": {"collection_times": [{"days": "Mon-Fri", "time": "4:00pm"}, {"days": "Sat", "time": "9:00am"}, {"days": "Sun", "time": "Closed"}], "id": "6242400001", "name": "USPS COLLECTION BOX - BLUE BOX", "address": {"city": "DIETERICH", "state": "IL", "street": "201 S MAIN ST", "postcode": "62424"}}},
{"geometry": {"type": "Point", "coordinates": [-88.3800945558, 39.0592084356]}, "type": "Feature", "properties": {"collection_times": [{"days": "Mon-Fri", "time": "3:45pm"}, {"days": "Sat", "time": "9:30am"}, {"days": "Sun", "time": "Closed"}], "id": "6242400002", "name": "USPS COLLECTION BOX - PO LOBBY", "address": {"city": "DIETERICH", "state": "IL", "street": "201 S MAIN ST", "postcode": "62424"}}},
{"geometry": {"type": "Point", "coordinates": [-88.0838087194, 38.8349961279]}, "type": "Feature", "properties": {"collection_times": [{"days": "Mon-Fri", "time": "11:45am"}, {"days": "Sat", "time": "9:45am"}, {"days": "Sun", "time": "Closed"}], "id": "6242500001", "name": "USPS COLLECTION BOX - BLUE BOX", "address": {"city": "DUNDAS", "state": "IL", "street": "7220 N WASHINGTON ST", "postcode": "62425"}}},
{"geometry": {"type": "Point", "coordinates": [-88.0838087194, 38.8349961279]}, "type": "Feature", "properties": {"collection_times": [{"days": "Mon-Fri", "time": "11:45am"}, {"days": "Sat", "time": "9:45am"}, {"days": "Sun", "time": "Closed"}], "id": "6242500002", "name": "USPS COLLECTION BOX - PO LOBBY", "address": {"city": "DUNDAS", "state": "IL", "street": "7220 N WASHINGTON ST", "postcode": "62425"}}},
{"geometry": {"type": "Point", "coordinates": [-88.6650855141, 38.923256297]}, "type": "Feature", "properties": {"collection_times": [{"days": "Mon-Fri", "time": "2:45pm"}, {"days": "Sat", "time": "9:15am"}, {"days": "Sun", "time": "Closed"}], "id": "6242600001", "name": "USPS COLLECTION BOX - BLUE BOX", "address": {"city": "EDGEWOOD", "state": "IL", "street": "807 BROAD ST", "postcode": "62426"}}},
{"geometry": {"type": "Point", "coordinates": [-88.6650855141, 38.923256297]}, "type": "Feature", "properties": {"collection_times": [{"days": "Mon-Fri", "time": "2:45pm"}, {"days": "Sat", "time": "9:30am"}, {"days": "Sun", "time": "Closed"}], "id": "6242600002", "name": "USPS COLLECTION BOX - PO LOBBY", "address": {"city": "EDGEWOOD", "state": "IL", "street": "807 BROAD ST", "postcode": "62426"}}},
{"geometry": {"type": "Point", "coordinates": [-87.6718386842, 38.9005415413]}, "type": "Feature", "properties": {"collection_times": [{"days": "Mon-Fri", "time": "3:15pm"}, {"days": "Sat", "time": "10:00am"}, {"days": "Sun", "time": "Closed"}], "id": "6242700001", "name": "USPS COLLECTION BOX - BLUE BOX", "address": {"city": "FLAT ROCK", "state": "IL", "street": "201 W 2ND ST", "postcode": "62427"}}},
{"geometry": {"type": "Point", "coordinates": [-87.6718386842, 38.9005415413]}, "type": "Feature", "properties": {"collection_times": [{"days": "Mon-Fri", "time": "3:15pm"}, {"days": "Sat", "time": "10:00am"}, {"days": "Sun", "time": "Closed"}], "id": "6242700002", "name": "USPS COLLECTION BOX - PO LOBBY", "address": {"city": "FLAT ROCK", "state": "IL", "street": "201 W 2ND ST", "postcode": "62427"}}},
{"geometry": {"type": "Point", "coordinates": [-88.1641262117, 39.2473149067]}, "type": "Feature", "properties": {"collection_times": [{"days": "Mon-Fri", "time": "4:15pm"}, {"days": "Sat", "time": "10:30am"}, {"days": "Sun", "time": "Closed"}], "id": "6242800001", "name": "USPS COLLECTION BOX - BLUE BOX", "address": {"city": "GREENUP", "state": "IL", "street": "125 E CUMBERLAND ST", "postcode": "62428"}}},
{"geometry": {"type": "Point", "coordinates": [-88.1645166521, 39.247182763]}, "type": "Feature", "properties": {"collection_times": [{"days": "Mon-Fri", "time": "4:15pm"}, {"days": "Sat", "time": "10:30am"}, {"days": "Sun", "time": "Closed"}], "id": "6242800003", "name": "USPS COLLECTION BOX - PO LOBBY", "address": {"city": "GREENUP", "state": "IL", "street": "125 E CUMBERLAND ST", "postcode": "62428"}}},
{"geometry": {"type": "Point", "coordinates": [-88.984718786, 39.2142136527]}, "type": "Feature", "properties": {"collection_times": [{"days": "Mon-Fri", "time": "2:45pm"}, {"days": "Sat", "time": "9:45am"}, {"days": "Sun", "time": "Closed"}], "id": "6243100001", "name": "USPS COLLECTION BOX - BLUE BOX", "address": {"city": "HERRICK", "state": "IL", "street": "9 S BROADWAY ST", "postcode": "62431"}}},
{"geometry": {"type": "Point", "coordinates": [-88.984718786, 39.2142136527]}, "type": "Feature", "properties": {"collection_times": [{"days": "Mon-Fri", "time": "2:45pm"}, {"days": "Sat", "time": "9:45am"}, {"days": "Sun", "time": "Closed"}], "id": "6243100004", "name": "USPS COLLECTION BOX - PO LOBBY", "address": {"city": "HERRICK", "state": "IL", "street": "9 S BROADWAY ST", "postcode": "62431"}}},
{"geometry": {"type": "Point", "coordinates": [-88.1489042615, 39.1559763574]}, "type": "Feature", "properties": {"collection_times": [{"days": "Mon-Fri", "time": "11:45am"}, {"days": "Sat", "time": "9:15am"}, {"days": "Sun", "time": "Closed"}], "id": "6243200001", "name": "USPS COLLECTION BOX - BLUE BOX", "address": {"city": "HIDALGO", "state": "IL", "street": "117 E HARRISON ST", "postcode": "62432"}}},
{"geometry": {"type": "Point", "coordinates": [-88.1489042615, 39.1559763574]}, "type": "Feature", "properties": {"collection_times": [{"days": "Mon-Fri", "time": "11:45am"}, {"days": "Sat", "time": "9:15am"}, {"days": "Sun", "time": "Closed"}], "id": "6243200002", "name": "USPS COLLECTION BOX - PO LOBBY", "address": {"city": "HIDALGO", "state": "IL", "street": "117 E HARRISON ST", "postcode": "62432"}}},
{"geometry": {"type": "Point", "coordinates": [-87.65658074, 39.1098170628]}, "type": "Feature", "properties": {"collection_times": [{"days": "Mon-Fri", "time": "2:50pm"}, {"days": "Sat", "time": "9:15am"}, {"days": "Sun", "time": "Closed"}], "id": "6243300001", "name": "USPS COLLECTION BOX - BLUE BOX", "address": {"city": "HUTSONVILLE", "state": "IL", "street": "114 S MAIN ST", "postcode": "62433"}}},
{"geometry": {"type": "Point", "coordinates": [-87.65658074, 39.1098170628]}, "type": "Feature", "properties": {"collection_times": [{"days": "Mon-Fri", "time": "2:50pm"}, {"days": "Sat", "time": "9:15am"}, {"days": "Sun", "time": "Closed"}], "id": "6243300002", "name": "USPS COLLECTION BOX - PO LOBBY", "address": {"city": "HUTSONVILLE", "state": "IL", "street": "114 S MAIN ST", "postcode": "62433"}}},
{"geometry": {"type": "Point", "coordinates": [-88.3327738966, 38.8354089311]}, "type": "Feature", "properties": {"collection_times": [{"days": "Mon-Fri", "time": "12:45pm"}, {"days": "Sat", "time": "10:30am"}, {"days": "Sun", "time": "Closed"}], "id": "6243400001", "name": "USPS COLLECTION BOX - BLUE BOX", "address": {"city": "INGRAHAM", "state": "IL", "street": "5253 OLD INGRAHAM RD", "postcode": "62434"}}},
{"geometry": {"type": "Point", "coordinates": [-88.3327738966, 38.8354089311]}, "type": "Feature", "properties": {"collection_times": [{"days": "Mon-Fri", "time": "12:45pm"}, {"days": "Sat", "time": "9:15am"}, {"days": "Sun", "time": "Closed"}], "id": "6243400002", "name": "USPS COLLECTION BOX - PO LOBBY", "address": {"city": "INGRAHAM", "state": "IL", "street": "5253 OLD INGRAHAM RD", "postcode": "62434"}}},
{"geometry": {"type": "Point", "coordinates": [-88.2454618724, 39.2079353569]}, "type": "Feature", "properties": {"collection_times": [{"days": "Mon-Fri", "time": "11:45am"}, {"days": "Sat", "time": "9:15am"}, {"days": "Sun", "time": "Closed"}], "id": "6243600001", "name": "USPS COLLECTION BOX - BLUE BOX", "address": {"city": "JEWETT", "state": "IL", "street": "1100 CUMBERLAND RD", "postcode": "62436"}}},
{"geometry": {"type": "Point", "coordinates": [-88.2454618724, 39.2079353569]}, "type": "Feature", "properties": {"collection_times": [{"days": "Mon-Fri", "time": "11:45am"}, {"days": "Sat", "time": "9:15am"}, {"days": "Sun", "time": "Closed"}], "id": "6243600002", "name": "USPS COLLECTION BOX - PO LOBBY", "address": {"city": "JEWETT", "state": "IL", "street": "1100 CUMBERLAND RD", "postcode": "62436"}}},
{"geometry": {"type": "Point", "coordinates": [-87.6811943206, 38.7286485146]}, "type": "Feature", "properties": {"collection_times": [{"days": "Mon-Sat", "time": "3:30pm"}, {"days": "Sun", "time": "Closed"}], "id": "6243900003", "name": "USPS COLLECTION BOX - BLUE BOX", "address": {"city": "LAWRENCEVILLE", "state": "IL", "street": "1014 JEFFERSON ST", "postcode": "62439"}}},
{"geometry": {"type": "Point", "coordinates": [-87.6811943206, 38.7286485146]}, "type": "Feature", "properties": {"collection_times": [{"days": "Mon-Sat", "time": "3:30pm"}, {"days": "Sun", "time": "Closed"}], "id": "6243900014", "name": "USPS COLLECTION BOX - PO LOBBY", "address": {"city": "LAWRENCEVILLE", "state": "IL", "street": "1014 JEFFERSON ST", "postcode": "62439"}}},
{"geometry": {"type": "Point", "coordinates": [-88.288514195, 39.4178840682]}, "type": "Feature", "properties": {"collection_times": [{"days": "Mon-Fri", "time": "3:30pm"}, {"days": "Sat", "time": "10:00am"}, {"days": "Sun", "time": "Closed"}], "id": "6244000001", "name": "USPS COLLECTION BOX - BLUE BOX", "address": {"city": "LERNA", "state": "IL", "street": "513 MAIN ST", "postcode": "62440"}}},
{"geometry": {"type": "Point", "coordinates": [-88.288514195, 39.4178840682]}, "type": "Feature", "properties": {"collection_times": [{"days": "Mon-Fri", "time": "3:30pm"}, {"days": "Sat", "time": "9:45am"}, {"days": "Sun", "time": "Closed"}], "id": "6244000002", "name": "USPS COLLECTION BOX - PO LOBBY", "address": {"city": "LERNA", "state": "IL", "street": "513 MAIN ST", "postcode": "62440"}}},
{"geometry": {"type": "Point", "coordinates": [-87.6947651265, 39.3911544634]}, "type": "Feature", "properties": {"collection_times": [{"days": "Mon-Fri", "time": "4:10pm"}, {"days": "Sat", "time": "4:00pm"}, {"days": "Sun", "time": "Closed"}], "id": "6244100001", "name": "USPS COLLECTION BOX - BLUE BOX", "address": {"city": "MARSHALL", "state": "IL", "street": "115 N 7TH ST", "postcode": "62441"}}},
{"geometry": {"type": "Point", "coordinates": [-87.6947651265, 39.3911544634]}, "type": "Feature", "properties": {"collection_times": [{"days": "Mon-Fri", "time": "4:10pm"}, {"days": "Sat", "time": "4:00pm"}, {"days": "Sun", "time": "Closed"}], "id": "6244100003", "name": "USPS COLLECTION BOX - PO LOBBY", "address": {"city": "MARSHALL", "state": "IL", "street": "115 N 7TH ST", "postcode": "62441"}}},
{"geometry": {"type": "Point", "coordinates": [-87.6947651265, 39.3911544634]}, "type": "Feature", "properties": {"collection_times": [{"days": "Mon-Fri", "time": "4:10pm"}, {"days": "Sat", "time": "4:00pm"}, {"days": "Sun", "time": "Closed"}], "id": "6244100006", "name": "USPS COLLECTION BOX - BLUE BOX", "address": {"city": "MARSHALL", "state": "IL", "street": "115 N 7TH ST", "postcode": "62441"}}},
{"geometry": {"type": "Point", "coordinates": [-87.8824529327, 39.3332041302]}, "type": "Feature", "properties": {"collection_times": [{"days": "Mon-Fri", "time": "4:30pm"}, {"days": "Sat", "time": "10:45am"}, {"days": "Sun", "time": "Closed"}], "id": "6244200001", "name": "USPS COLLECTION BOX - BLUE BOX", "address": {"city": "MARTINSVILLE", "state": "IL", "street": "2 N YORK ST", "postcode": "62442"}}},
{"geometry": {"type": "Point", "coordinates": [-87.8824529327, 39.3332041302]}, "type": "Feature", "properties": {"collection_times": [{"days": "Mon-Fri", "time": "4:30pm"}, {"days": "Sat", "time": "10:45am"}, {"days": "Sun", "time": "Closed"}], "id": "6244200002", "name": "USPS COLLECTION BOX - PO LOBBY", "address": {"city": "MARTINSVILLE", "state": "IL", "street": "2 N YORK ST", "postcode": "62442"}}},
{"geometry": {"type": "Point", "coordinates": [-88.6377494504, 38.9735046187]}, "type": "Feature", "properties": {"collection_times": [{"days": "Mon-Fri", "time": "11:45am"}, {"days": "Sat", "time": "9:15am"}, {"days": "Sun", "time": "Closed"}], "id": "6244300001", "name": "USPS COLLECTION BOX - BLUE BOX", "address": {"city": "MASON", "state": "IL", "street": "755 ADAMS ST", "postcode": "62443"}}},
{"geometry": {"type": "Point", "coordinates": [-88.6377494504, 38.9735046187]}, "type": "Feature", "properties": {"collection_times": [{"days": "Mon-Fri", "time": "11:45am"}, {"days": "Sat", "time": "9:15am"}, {"days": "Sun", "time": "Closed"}], "id": "6244300003", "name": "USPS COLLECTION BOX - PO LOBBY", "address": {"city": "MASON", "state": "IL", "street": "755 ADAMS ST", "postcode": "62443"}}},
{"geometry": {"type": "Point", "coordinates": [-88.3818337136, 39.1641491372]}, "type": "Feature", "properties": {"collection_times": [{"days": "Mon-Fri", "time": "11:45am"}, {"days": "Sat", "time": "8:30am"}, {"days": "Sun", "time": "Closed"}], "id": "6244500001", "name": "USPS COLLECTION BOX - BLUE BOX", "address": {"city": "MONTROSE", "state": "IL", "street": "301 W NATIONAL RD", "postcode": "62445"}}},
{"geometry": {"type": "Point", "coordinates": [-88.3818337136, 39.1641491372]}, "type": "Feature", "properties": {"collection_times": [{"days": "Mon-Fri", "time": "11:45am"}, {"days": "Sat", "time": "8:15am"}, {"days": "Sun", "time": "Closed"}], "id": "6244500002", "name": "USPS COLLECTION BOX - PO LOBBY", "address": {"city": "MONTROSE", "state": "IL", "street": "301 W NATIONAL RD", "postcode": "62445"}}},
{"geometry": {"type": "Point", "coordinates": [-88.2044753777, 38.533971988]}, "type": "Feature", "properties": {"collection_times": [{"days": "Mon-Fri", "time": "11:45am"}, {"days": "Sat", "time": "9:45am"}, {"days": "Sun", "time": "Closed"}], "id": "6244600001", "name": "USPS COLLECTION BOX - BLUE BOX", "address": {"city": "MOUNT ERIE", "state": "IL", "street": "102 W MAIN ST", "postcode": "62446"}}},
{"geometry": {"type": "Point", "coordinates": [-88.2044753777, 38.533971988]}, "type": "Feature", "properties": {"collection_times": [{"days": "Mon-Fri", "time": "11:45am"}, {"days": "Sat", "time": "9:45am"}, {"days": "Sun", "time": "Closed"}], "id": "6244600002", "name": "USPS COLLECTION BOX - PO LOBBY", "address": {"city": "MOUNT ERIE", "state": "IL", "street": "102 W MAIN ST", "postcode": "62446"}}},
{"geometry": {"type": "Point", "coordinates": [-88.4502736214, 39.3187656774]}, "type": "Feature", "properties": {"collection_times": [{"days": "Mon-Fri", "time": "3:45pm"}, {"days": "Sat", "time": "8:45am"}, {"days": "Sun", "time": "Closed"}], "id": "6244700001", "name": "USPS COLLECTION BOX - BLUE BOX", "address": {"city": "NEOGA", "state": "IL", "street": "256 E 6TH ST", "postcode": "62447"}}},
{"geometry": {"type": "Point", "coordinates": [-88.4502736214, 39.3187656774]}, "type": "Feature", "properties": {"collection_times": [{"days": "Mon-Fri", "time": "3:45pm"}, {"days": "Sat", "time": "8:45am"}, {"days": "Sun", "time": "Closed"}], "id": "6244700002", "name": "USPS COLLECTION BOX - PO LOBBY", "address": {"city": "NEOGA", "state": "IL", "street": "256 E 6TH ST", "postcode": "62447"}}},
{"geometry": {"type": "Point", "coordinates": [-88.1621109284, 38.9908823321]}, "type": "Feature", "properties": {"collection_times": [{"days": "Mon-Fri", "time": "5:00pm"}, {"days": "Sat", "time": "10:00am"}, {"days": "Sun", "time": "Closed"}], "id": "6244800001", "name": "USPS COLLECTION BOX - BLUE BOX", "address": {"city": "NEWTON", "state": "IL", "street": "201 W JOURDAN ST", "postcode": "62448"}}},
{"geometry": {"type": "Point", "coordinates": [-88.1621109284, 38.9908823321]}, "type": "Feature", "properties": {"collection_times": [{"days": "Mon-Fri", "time": "5:00pm"}, {"days": "Sat", "time": "10:00am"}, {"days": "Sun", "time": "Closed"}], "id": "6244800004", "name": "USPS COLLECTION BOX - BLUE BOX", "address": {"city": "NEWTON", "state": "IL", "street": "201 W JOURDAN ST", "postcode": "62448"}}},
{"geometry": {"type": "Point", "coordinates": [-88.1621109284, 38.9908823321]}, "type": "Feature", "properties": {"collection_times": [{"days": "Mon-Fri", "time": "5:00pm"}, {"days": "Sat", "time": "10:00am"}, {"days": "Sun", "time": "Closed"}], "id": "6244800013", "name": "USPS COLLECTION BOX - PO LOBBY", "address": {"city": "NEWTON", "state": "IL", "street": "201 W JOURDAN ST", "postcode": "62448"}}},
{"geometry": {"type": "Point", "coordinates": [-88.1621109284, 38.9908823321]}, "type": "Feature", "properties": {"collection_times": [{"days": "Mon-Fri", "time": "5:00pm"}, {"days": "Sat", "time": "10:00am"}, {"days": "Sun", "time": "Closed"}], "id": "6244800016", "name": "USPS COLLECTION BOX - PO LOBBY", "address": {"city": "NEWTON", "state": "IL", "street": "201 W JOURDAN ST", "postcode": "62448"}}},
{"geometry": {"type": "Point", "coordinates": [-87.9088683159, 39.0028716579]}, "type": "Feature", "properties": {"collection_times": [{"days": "Mon-Fri", "time": "3:45pm"}, {"days": "Sat", "time": "8:00am"}, {"days": "Sun", "time": "Closed"}], "id": "6244900002", "name": "USPS COLLECTION BOX - BLUE BOX", "address": {"city": "OBLONG", "state": "IL", "street": "207 N RANGE ST", "postcode": "62449"}}},
{"geometry": {"type": "Point", "coordinates": [-87.9088683159, 39.0028716579]}, "type": "Feature", "properties": {"collection_times": [{"days": "Mon-Fri", "time": "3:45pm"}, {"days": "Sat", "time": "10:15am"}, {"days": "Sun", "time": "Closed"}], "id": "6244900003", "name": "USPS COLLECTION BOX - PO LOBBY", "address": {"city": "OBLONG", "state": "IL", "street": "207 N RANGE ST", "postcode": "62449"}}},
{"geometry": {"type": "Point", "coordinates": [-88.0848200146, 38.7284704869]}, "type": "Feature", "properties": {"collection_times": [{"days": "Mon-Fri", "time": "4:30pm"}, {"days": "Sat", "time": "3:30pm"}, {"days": "Sun", "time": "Closed"}], "id": "6245000001", "name": "USPS COLLECTION BOX - BLUE BOX", "address": {"city": "OLNEY", "state": "IL", "street": "330 S WHITTLE AVE", "postcode": "62450"}}},
{"geometry": {"type": "Point", "coordinates": [-88.0849011955, 38.7305436421]}, "type": "Feature", "properties": {"collection_times": [{"days": "Mon-Sat", "time": "3:00pm"}, {"days": "Sun", "time": "Closed"}], "id": "6245000002", "name": "USPS COLLECTION BOX - BLUE BOX", "address": {"city": "OLNEY", "state": "IL", "street": "100 E MARKET ST", "postcode": "62450"}}},
{"geometry": {"type": "Point", "coordinates": [-88.0944349417, 38.7316069453]}, "type": "Feature", "properties": {"collection_times": [{"days": "Mon-Sat", "time": "2:45pm"}, {"days": "Sun", "time": "Closed"}], "id": "6245000012", "name": "USPS COLLECTION BOX - BLUE BOX", "address": {"city": "OLNEY", "state": "IL", "street": "215 N WEST ST", "postcode": "62450"}}},
{"geometry": {"type": "Point", "coordinates": [-88.0940472233, 38.7249638589]}, "type": "Feature", "properties": {"collection_times": [{"days": "Mon-Sat", "time": "2:00pm"}, {"days": "Sun", "time": "Closed"}], "id": "6245000021", "name": "USPS COLLECTION BOX - BLUE BOX", "address": {"city": "OLNEY", "state": "IL", "street": "710 S WEST ST", "postcode": "62450"}}},
{"geometry": {"type": "Point", "coordinates": [-88.0799279306, 38.7247218577]}, "type": "Feature", "properties": {"collection_times": [{"days": "Mon-Sat", "time": "3:00pm"}, {"days": "Sun", "time": "Closed"}], "id": "6245000028", "name": "USPS COLLECTION BOX - BLUE BOX", "address": {"city": "OLNEY", "state": "IL", "street": "208 N BOONE ST", "postcode": "62450"}}},
{"geometry": {"type": "Point", "coordinates": [-88.0848200146, 38.7284704869]}, "type": "Feature", "properties": {"collection_times": [{"days": "Mon-Fri", "time": "4:30pm"}, {"days": "Sat", "time": "3:30pm"}, {"days": "Sun", "time": "Closed"}], "id": "6245000031", "name": "USPS COLLECTION BOX - PO LOBBY", "address": {"city": "OLNEY", "state": "IL", "street": "330 S WHITTLE AVE", "postcode": "62450"}}},
{"geometry": {"type": "Point", "coordinates": [-87.6128980486, 39.0028069634]}, "type": "Feature", "properties": {"collection_times": [{"days": "Mon-Fri", "time": "3:30pm"}, {"days": "Sat", "time": "10:15am"}, {"days": "Sun", "time": "Closed"}], "id": "6245100001", "name": "USPS COLLECTION BOX - BLUE BOX", "address": {"city": "PALESTINE", "state": "IL", "street": "107 W MARKET ST", "postcode": "62451"}}},
{"geometry": {"type": "Point", "coordinates": [-87.6128980486, 39.0028069634]}, "type": "Feature", "properties": {"collection_times": [{"days": "Mon-Fri", "time": "3:30pm"}, {"days": "Sat", "time": "10:15am"}, {"days": "Sun", "time": "Closed"}], "id": "6245100004", "name": "USPS COLLECTION BOX - PO LOBBY", "address": {"city": "PALESTINE", "state": "IL", "street": "107 W MARKET ST", "postcode": "62451"}}},
{"geometry": {"type": "Point", "coordinates": [-88.0565732314, 38.5897891827]}, "type": "Feature", "properties": {"collection_times": [{"days": "Mon-Fri", "time": "11:45am"}, {"days": "Sat", "time": "9:30am"}, {"days": "Sun", "time": "Closed"}], "id": "6245200001", "name": "USPS COLLECTION BOX - BLUE BOX", "address": {"city": "PARKERSBURG", "state": "IL", "street": "101 N MAIN ST", "postcode": "62452"}}},
{"geometry": {"type": "Point", "coordinates": [-88.0565732314, 38.5897891827]}, "type": "Feature", "properties": {"collection_times": [{"days": "Mon-Fri", "time": "11:45am"}, {"days": "Sat", "time": "9:30am"}, {"days": "Sun", "time": "Closed"}], "id": "6245200002", "name": "USPS COLLECTION BOX - PO LOBBY", "address": {"city": "PARKERSBURG", "state": "IL", "street": "101 N MAIN ST", "postcode": "62452"}}},
{"geometry": {"type": "Point", "coordinates": [-87.7393846514, 39.0048831525]}, "type": "Feature", "properties": {"collection_times": [{"days": "Mon-Sat", "time": "3:55pm"}, {"days": "Sun", "time": "Closed"}], "id": "6245400001", "name": "USPS COLLECTION BOX - BLUE BOX", "address": {"city": "ROBINSON", "state": "IL", "street": "101 E WALNUT ST", "postcode": "62454"}}},
{"geometry": {"type": "Point", "coordinates": [-87.7393846514, 39.0048831525]}, "type": "Feature", "properties": {"collection_times": [{"days": "Mon-Sat", "time": "3:55pm"}, {"days": "Sun", "time": "Closed"}], "id": "6245400002", "name": "USPS COLLECTION BOX - BLUE BOX", "address": {"city": "ROBINSON", "state": "IL", "street": "101 E WALNUT ST", "postcode": "62454"}}},
{"geometry": {"type": "Point", "coordinates": [-87.7524811846, 39.0057580853]}, "type": "Feature", "properties": {"collection_times": [{"days": "Mon-Sat", "time": "11:00am"}, {"days": "Sun", "time": "Closed"}], "id": "6245400007", "name": "USPS COLLECTION BOX - BLUE BOX", "address": {"city": "ROBINSON", "state": "IL", "street": "1306 W MAIN ST", "postcode": "62454"}}},
{"geometry": {"type": "Point", "coordinates": [-87.7393846514, 39.0048831525]}, "type": "Feature", "properties": {"collection_times": [{"days": "Mon-Sat", "time": "3:55pm"}, {"days": "Sun", "time": "Closed"}], "id": "6245400008", "name": "USPS COLLECTION BOX - PO LOBBY", "address": {"city": "ROBINSON", "state": "IL", "street": "101 E WALNUT ST", "postcode": "62454"}}},
{"geometry": {"type": "Point", "coordinates": [-88.8485199205, 39.0284009914]}, "type": "Feature", "properties": {"collection_times": [{"days": "Mon-Fri", "time": "3:45pm"}, {"days": "Sat", "time": "10:00am"}, {"days": "Sun", "time": "Closed"}], "id": "6245800002", "name": "USPS COLLECTION BOX - BLUE BOX", "address": {"city": "SAINT ELMO", "state": "IL", "street": "112 E 5TH ST", "postcode": "62458"}}},
{"geometry": {"type": "Point", "coordinates": [-88.8485199205, 39.0284009914]}, "type": "Feature", "properties": {"collection_times": [{"days": "Mon-Fri", "time": "4:00pm"}, {"days": "Sat", "time": "10:00am"}, {"days": "Sun", "time": "Closed"}], "id": "6245800003", "name": "USPS COLLECTION BOX - PO LOBBY", "address": {"city": "SAINT ELMO", "state": "IL", "street": "112 E 5TH ST", "postcode": "62458"}}},
{"geometry": {"type": "Point", "coordinates": [-88.0232357791, 38.9323856797]}, "type": "Feature", "properties": {"collection_times": [{"days": "Mon-Fri", "time": "4:15pm"}, {"days": "Sat", "time": "9:45am"}, {"days": "Sun", "time": "Closed"}], "id": "6245900001", "name": "USPS COLLECTION BOX - PO LOBBY", "address": {"city": "SAINTE MARIE", "state": "IL", "street": "104 N MAIN ST", "postcode": "62459"}}},
{"geometry": {"type": "Point", "coordinates": [-88.0232357791, 38.9323856797]}, "type": "Feature", "properties": {"collection_times": [{"days": "Mon-Fri", "time": "4:00pm"}, {"days": "Sat", "time": "9:45am"}, {"days": "Sun", "time": "Closed"}], "id": "6245900002", "name": "USPS COLLECTION BOX - BLUE BOX", "address": {"city": "SAINTE MARIE", "state": "IL", "street": "104 N MAIN ST", "postcode": "62459"}}},
{"geometry": {"type": "Point", "coordinates": [-87.648240597, 38.5914065488]}, "type": "Feature", "properties": {"collection_times": [{"days": "Mon-Fri", "time": "2:15pm"}, {"days": "Sat", "time": "8:45am"}, {"days": "Sun", "time": "Closed"}], "id": "6246000001", "name": "USPS COLLECTION BOX - BLUE BOX", "address": {"city": "ST FRANCISVILLE", "state": "IL", "street": "803 MAIN ST", "postcode": "62460"}}},
{"geometry": {"type": "Point", "coordinates": [-87.648240597, 38.5914065488]}, "type": "Feature", "properties": {"collection_times": [{"days": "Mon-Fri", "time": "2:15pm"}, {"days": "Sat", "time": "8:45am"}, {"days": "Sun", "time": "Closed"}], "id": "6246000002", "name": "USPS COLLECTION BOX - PO LOBBY", "address": {"city": "ST FRANCISVILLE", "state": "IL", "street": "803 MAIN ST", "postcode": "62460"}}},
{"geometry": {"type": "Point", "coordinates": [-88.6589773992, 39.1919275818]}, "type": "Feature", "properties": {"collection_times": [{"days": "Mon-Fri", "time": "11:45am"}, {"days": "Sat", "time": "9:15am"}, {"days": "Sun", "time": "Closed"}], "id": "6246100001", "name": "USPS COLLECTION BOX - BLUE BOX", "address": {"city": "SHUMWAY", "state": "IL", "street": "101 E MAIN ST", "postcode": "62461"}}},
{"geometry": {"type": "Point", "coordinates": [-88.6589773992, 39.1919275818]}, "type": "Feature", "properties": {"collection_times": [{"days": "Mon-Fri", "time": "11:45am"}, {"days": "Sat", "time": "9:30am"}, {"days": "Sun", "time": "Closed"}], "id": "6246100002", "name": "USPS COLLECTION BOX - PO LOBBY", "address": {"city": "SHUMWAY", "state": "IL", "street": "101 E MAIN ST", "postcode": "62461"}}},
{"geometry": {"type": "Point", "coordinates": [-88.4941681673, 39.2268941398]}, "type": "Feature", "properties": {"collection_times": [{"days": "Mon-Fri", "time": "3:15pm"}, {"days": "Sat", "time": "9:30am"}, {"days": "Sun", "time": "Closed"}], "id": "6246200001", "name": "USPS COLLECTION BOX - BLUE BOX", "address": {"city": "SIGEL", "state": "IL", "street": "102 E LOUIS ST", "postcode": "62462"}}},
{"geometry": {"type": "Point", "coordinates": [-88.4941681673, 39.2268941398]}, "type": "Feature", "properties": {"collection_times": [{"days": "Mon-Fri", "time": "3:15pm"}, {"days": "Sat", "time": "9:30am"}, {"days": "Sun", "time": "Closed"}], "id": "6246200002", "name": "USPS COLLECTION BOX - PO LOBBY", "address": {"city": "SIGEL", "state": "IL", "street": "102 E LOUIS ST", "postcode": "62462"}}},
{"geometry": {"type": "Point", "coordinates": [-88.6279297375, 39.26365405]}, "type": "Feature", "properties": {"collection_times": [{"days": "Mon-Fri", "time": "3:00pm"}, {"days": "Sat", "time": "10:00am"}, {"days": "Sun", "time": "Closed"}], "id": "6246300001", "name": "USPS COLLECTION BOX - BLUE BOX", "address": {"city": "STEWARDSON", "state": "IL", "street": "101 W MAIN ST", "postcode": "62463"}}},
{"geometry": {"type": "Point", "coordinates": [-88.6279297375, 39.26365405]}, "type": "Feature", "properties": {"collection_times": [{"days": "Mon-Fri", "time": "2:45pm"}, {"days": "Sat", "time": "10:00am"}, {"days": "Sun", "time": "Closed"}], "id": "6246300002", "name": "USPS COLLECTION BOX - PO LOBBY", "address": {"city": "STEWARDSON", "state": "IL", "street": "101 W MAIN ST", "postcode": "62463"}}},
{"geometry": {"type": "Point", "coordinates": [-87.8334331093, 38.9954941084]}, "type": "Feature", "properties": {"collection_times": [{"days": "Mon-Fri", "time": "1:45pm"}, {"days": "Sat", "time": "1:15pm"}, {"days": "Sun", "time": "Closed"}], "id": "6246400001", "name": "USPS COLLECTION BOX - BLUE BOX", "address": {"city": "STOY", "state": "IL", "street": "49 MAIN ST", "postcode": "62464"}}},
{"geometry": {"type": "Point", "coordinates": [-87.8334331093, 38.9954941084]}, "type": "Feature", "properties": {"collection_times": [{"days": "Mon-Fri", "time": "1:45pm"}, {"days": "Sat", "time": "1:15pm"}, {"days": "Sun", "time": "Closed"}], "id": "6246400002", "name": "USPS COLLECTION BOX - PO LOBBY", "address": {"city": "STOY", "state": "IL", "street": "49 MAIN ST", "postcode": "62464"}}},
{"geometry": {"type": "Point", "coordinates": [-88.6199761847, 39.3511012495]}, "type": "Feature", "properties": {"collection_times": [{"days": "Mon-Fri", "time": "3:15pm"}, {"days": "Sat", "time": "9:45am"}, {"days": "Sun", "time": "Closed"}], "id": "6246500001", "name": "USPS COLLECTION BOX - BLUE BOX", "address": {"city": "STRASBURG", "state": "IL", "street": "106 E COMMERCIAL ST", "postcode": "62465"}}},
{"geometry": {"type": "Point", "coordinates": [-88.6199761847, 39.3511012495]}, "type": "Feature", "properties": {"collection_times": [{"days": "Mon-Fri", "time": "3:15pm"}, {"days": "Sat", "time": "9:45am"}, {"days": "Sun", "time": "Closed"}], "id": "6246500002", "name": "USPS COLLECTION BOX - PO LOBBY", "address": {"city": "STRASBURG", "state": "IL", "street": "106 E COMMERCIAL ST", "postcode": "62465"}}},
{"geometry": {"type": "Point", "coordinates": [-87.8618960481, 38.7157047767]}, "type": "Feature", "properties": {"collection_times": [{"days": "Mon-Fri", "time": "2:55pm"}, {"days": "Sat", "time": "10:00am"}, {"days": "Sun", "time": "Closed"}], "id": "6246600001", "name": "USPS COLLECTION BOX - BLUE BOX", "address": {"city": "SUMNER", "state": "IL", "street": "120 W SOUTH AVE", "postcode": "62466"}}},
{"geometry": {"type": "Point", "coordinates": [-87.8618960481, 38.7157047767]}, "type": "Feature", "properties": {"collection_times": [{"days": "Mon-Fri", "time": "2:55pm"}, {"days": "Sat", "time": "10:00am"}, {"days": "Sun", "time": "Closed"}], "id": "6246600002", "name": "USPS COLLECTION BOX - PO LOBBY", "address": {"city": "SUMNER", "state": "IL", "street": "120 W SOUTH AVE", "postcode": "62466"}}},
{"geometry": {"type": "Point", "coordinates": [-88.4704286397, 39.1330221569]}, "type": "Feature", "properties": {"collection_times": [{"days": "Mon-Fri", "time": "4:15pm"}, {"days": "Sat", "time": "8:00am"}, {"days": "Sun", "time": "Closed"}], "id": "6246700001", "name": "USPS COLLECTION BOX - BLUE BOX", "address": {"city": "TEUTOPOLIS", "state": "IL", "street": "100 W MAIN ST", "postcode": "62467"}}},
{"geometry": {"type": "Point", "coordinates": [-88.4704286397, 39.1330221569]}, "type": "Feature", "properties": {"collection_times": [{"days": "Mon-Fri", "time": "4:15pm"}, {"days": "Sat", "time": "8:00am"}, {"days": "Sun", "time": "Closed"}], "id": "6246700002", "name": "USPS COLLECTION BOX - PO LOBBY", "address": {"city": "TEUTOPOLIS", "state": "IL", "street": "100 W MAIN ST", "postcode": "62467"}}},
{"geometry": {"type": "Point", "coordinates": [-88.2441932284, 39.2730270713]}, "type": "Feature", "properties": {"collection_times": [{"days": "Mon-Fri", "time": "3:45pm"}, {"days": "Sat", "time": "10:15am"}, {"days": "Sun", "time": "Closed"}], "id": "6246800003", "name": "USPS COLLECTION BOX - PO LOBBY", "address": {"city": "TOLEDO", "state": "IL", "street": "806 COURT HOUSE SQ", "postcode": "62468"}}},
{"geometry": {"type": "Point", "coordinates": [-88.2441932284, 39.2730270713]}, "type": "Feature", "properties": {"collection_times": [{"days": "Mon-Fri", "time": "3:45pm"}, {"days": "Sat", "time": "10:15am"}, {"days": "Sun", "time": "Closed"}], "id": "6246800004", "name": "USPS COLLECTION BOX - BLUE BOX", "address": {"city": "TOLEDO", "state": "IL", "street": "806 COURT HOUSE SQ", "postcode": "62468"}}},
{"geometry": {"type": "Point", "coordinates": [-88.3511125174, 39.3743177451]}, "type": "Feature", "properties": {"collection_times": [{"days": "Mon-Fri", "time": "4:30pm"}, {"days": "Sat", "time": "10:00am"}, {"days": "Sun", "time": "Closed"}], "id": "6246900001", "name": "USPS COLLECTION BOX - BLUE BOX", "address": {"city": "TRILLA", "state": "IL", "street": "102 W TRILLA RD", "postcode": "62469"}}},
{"geometry": {"type": "Point", "coordinates": [-88.3511125174, 39.3743177451]}, "type": "Feature", "properties": {"collection_times": [{"days": "Mon-Fri", "time": "4:30pm"}, {"days": "Sat", "time": "11:30am"}, {"days": "Sun", "time": "Closed"}], "id": "6246900002", "name": "USPS COLLECTION BOX - PO LOBBY", "address": {"city": "TRILLA", "state": "IL", "street": "102 W TRILLA RD", "postcode": "62469"}}},
{"geometry": {"type": "Point", "coordinates": [-89.098977969, 38.9605004274]}, "type": "Feature", "properties": {"collection_times": [{"days": "Mon-Fri", "time": "2:30pm"}, {"days": "Sat", "time": "2:00pm"}, {"days": "Sun", "time": "Closed"}], "id": "6247100003", "name": "USPS COLLECTION BOX - BLUE BOX", "address": {"city": "VANDALIA", "state": "IL", "street": "221 S 7TH ST", "postcode": "62471"}}},
{"geometry": {"type": "Point", "coordinates": [-89.0982171196, 38.9707038807]}, "type": "Feature", "properties": {"collection_times": [{"days": "Mon-Fri", "time": "2:30pm"}, {"days": "Sat", "time": "2:00pm"}, {"days": "Sun", "time": "Closed"}], "id": "6247100007", "name": "USPS COLLECTION BOX - BLUE BOX", "address": {"city": "VANDALIA", "state": "IL", "street": "650 W TAYLOR ST", "postcode": "62471"}}},
{"geometry": {"type": "Point", "coordinates": [-89.0965053493, 38.9761059137]}, "type": "Feature", "properties": {"collection_times": [{"days": "Mon-Fri", "time": "2:30pm"}, {"days": "Sat", "time": "2:00pm"}, {"days": "Sun", "time": "Closed"}], "id": "6247100008", "name": "USPS COLLECTION BOX - BLUE BOX", "address": {"city": "VANDALIA", "state": "IL", "street": "520 W GOCHENOUR ST", "postcode": "62471"}}},
{"geometry": {"type": "Point", "coordinates": [-89.0946348585, 38.959528613]}, "type": "Feature", "properties": {"collection_times": [{"days": "Mon-Fri", "time": "3:50pm"}, {"days": "Sat", "time": "3:00pm"}, {"days": "Sun", "time": "Closed"}], "id": "6247100009", "name": "USPS COLLECTION BOX - PO LOBBY", "address": {"city": "VANDALIA", "state": "IL", "street": "304 S 4TH ST", "postcode": "62471"}}},
{"geometry": {"type": "Point", "coordinates": [-89.0946348585, 38.959528613]}, "type": "Feature", "properties": {"collection_times": [{"days": "Mon-Fri", "time": "3:50pm"}, {"days": "Sat", "time": "3:00pm"}, {"days": "Sun", "time": "Closed"}], "id": "6247100014", "name": "USPS COLLECTION BOX - BLUE BOX", "address": {"city": "VANDALIA", "state": "IL", "street": "304 S 4TH ST", "postcode": "62471"}}},
{"geometry": {"type": "Point", "coordinates": [-88.5714271802, 39.0252234949]}, "type": "Feature", "properties": {"collection_times": [{"days": "Mon-Fri", "time": "11:45am"}, {"days": "Sat", "time": "8:00am"}, {"days": "Sun", "time": "Closed"}], "id": "6247300001", "name": "USPS COLLECTION BOX - BLUE BOX", "address": {"city": "WATSON", "state": "IL", "street": "101 S MONROE ST", "postcode": "62473"}}},
{"geometry": {"type": "Point", "coordinates": [-88.5714271802, 39.0252234949]}, "type": "Feature", "properties": {"collection_times": [{"days": "Mon-Fri", "time": "11:45am"}, {"days": "Sat", "time": "9:15am"}, {"days": "Sun", "time": "Closed"}], "id": "6247300002", "name": "USPS COLLECTION BOX - PO LOBBY", "address": {"city": "WATSON", "state": "IL", "street": "101 S MONROE ST", "postcode": "62473"}}},
{"geometry": {"type": "Point", "coordinates": [-88.5714271802, 39.0252234949]}, "type": "Feature", "properties": {"collection_times": [{"days": "Mon-Fri", "time": "11:45am"}, {"days": "Sat", "time": "9:15am"}, {"days": "Sun", "time": "Closed"}], "id": "6247300003", "name": "USPS COLLECTION BOX - PO LOBBY", "address": {"city": "WATSON", "state": "IL", "street": "101 S MONROE ST", "postcode": "62473"}}},
{"geometry": {"type": "Point", "coordinates": [-87.9968658638, 39.456077338]}, "type": "Feature", "properties": {"collection_times": [{"days": "Mon-Fri", "time": "11:45am"}, {"days": "Sat", "time": "8:45am"}, {"days": "Sun", "time": "Closed"}], "id": "6247400001", "name": "USPS COLLECTION BOX - BLUE BOX", "address": {"city": "WESTFIELD", "state": "IL", "street": "130 W STATE ST", "postcode": "62474"}}},
{"geometry": {"type": "Point", "coordinates": [-87.9968658638, 39.456077338]}, "type": "Feature", "properties": {"collection_times": [{"days": "Mon-Fri", "time": "11:45am"}, {"days": "Sat", "time": "9:15am"}, {"days": "Sun", "time": "Closed"}], "id": "6247400002", "name": "USPS COLLECTION BOX - PO LOBBY", "address": {"city": "WESTFIELD", "state": "IL", "street": "130 W STATE ST", "postcode": "62474"}}},
{"geometry": {"type": "Point", "coordinates": [-88.0844343171, 38.8525378786]}, "type": "Feature", "properties": {"collection_times": [{"days": "Mon-Fri", "time": "11:45am"}, {"days": "Sat", "time": "10:00am"}, {"days": "Sun", "time": "Closed"}], "id": "6247500001", "name": "USPS COLLECTION BOX - BLUE BOX", "address": {"city": "WEST LIBERTY", "state": "IL", "street": "107 N SILVER ST", "postcode": "62475"}}},
{"geometry": {"type": "Point", "coordinates": [-88.0844343171, 38.8525378786]}, "type": "Feature", "properties": {"collection_times": [{"days": "Mon-Fri", "time": "11:45am"}, {"days": "Sat", "time": "10:00am"}, {"days": "Sun", "time": "Closed"}], "id": "6247500002", "name": "USPS COLLECTION BOX - PO LOBBY", "address": {"city": "WEST LIBERTY", "state": "IL", "street": "107 N SILVER ST", "postcode": "62475"}}},
{"geometry": {"type": "Point", "coordinates": [-88.0043760652, 38.5211250191]}, "type": "Feature", "properties": {"collection_times": [{"days": "Mon-Fri", "time": "3:00pm"}, {"days": "Sat", "time": "10:00am"}, {"days": "Sun", "time": "Closed"}], "id": "6247600001", "name": "USPS COLLECTION BOX - BLUE BOX", "address": {"city": "WEST SALEM", "state": "IL", "street": "115 E NORTH ST", "postcode": "62476"}}},
{"geometry": {"type": "Point", "coordinates": [-88.0043760652, 38.5211250191]}, "type": "Feature", "properties": {"collection_times": [{"days": "Mon-Fri", "time": "3:00pm"}, {"days": "Sat", "time": "10:00am"}, {"days": "Sun", "time": "Closed"}], "id": "6247600002", "name": "USPS COLLECTION BOX - PO LOBBY", "address": {"city": "WEST SALEM", "state": "IL", "street": "115 E NORTH ST", "postcode": "62476"}}},
{"geometry": {"type": "Point", "coordinates": [-88.0043760652, 38.5211250191]}, "type": "Feature", "properties": {"collection_times": [{"days": "Mon-Fri", "time": "3:00pm"}, {"days": "Sat", "time": "10:00am"}, {"days": "Sun", "time": "Closed"}], "id": "6247600003", "name": "USPS COLLECTION BOX - PO LOBBY", "address": {"city": "WEST SALEM", "state": "IL", "street": "115 E NORTH ST", "postcode": "62476"}}},
{"geometry": {"type": "Point", "coordinates": [-87.6676567255, 39.2160111266]}, "type": "Feature", "properties": {"collection_times": [{"days": "Mon-Fri", "time": "11:45am"}, {"days": "Sat", "time": "10:30am"}, {"days": "Sun", "time": "Closed"}], "id": "6247700001", "name": "USPS COLLECTION BOX - BLUE BOX", "address": {"city": "WEST UNION", "state": "IL", "street": "211 W UNION ST", "postcode": "62477"}}},
{"geometry": {"type": "Point", "coordinates": [-87.6676567255, 39.2160111266]}, "type": "Feature", "properties": {"collection_times": [{"days": "Mon-Fri", "time": "11:45am"}, {"days": "Sat", "time": "10:45am"}, {"days": "Sun", "time": "Closed"}], "id": "6247700002", "name": "USPS COLLECTION BOX - PO LOBBY", "address": {"city": "WEST UNION", "state": "IL", "street": "211 W UNION ST", "postcode": "62477"}}},
{"geometry": {"type": "Point", "coordinates": [-87.6723766644, 39.171643279]}, "type": "Feature", "properties": {"collection_times": [{"days": "Mon-Fri", "time": "12:15pm"}, {"days": "Sat", "time": "10:30am"}, {"days": "Sun", "time": "Closed"}], "id": "6247800001", "name": "USPS COLLECTION BOX - BLUE BOX", "address": {"city": "WEST YORK", "state": "IL", "street": "21962 N 1470TH ST - NBOO", "postcode": "62478"}}},
{"geometry": {"type": "Point", "coordinates": [-87.6723766644, 39.171643279]}, "type": "Feature", "properties": {"collection_times": [{"days": "Mon-Fri", "time": "12:15pm"}, {"days": "Sat", "time": "10:30am"}, {"days": "Sun", "time": "Closed"}], "id": "6247800002", "name": "USPS COLLECTION BOX - PO LOBBY", "address": {"city": "WEST YORK", "state": "IL", "street": "21962 N 1470TH ST", "postcode": "62478"}}},
{"geometry": {"type": "Point", "coordinates": [-88.3166020904, 39.0470054323]}, "type": "Feature", "properties": {"collection_times": [{"days": "Mon-Fri", "time": "11:15am"}, {"days": "Sat", "time": "9:30am"}, {"days": "Sun", "time": "Closed"}], "id": "6247900001", "name": "USPS COLLECTION BOX - BLUE BOX", "address": {"city": "WHEELER", "state": "IL", "street": "13244 N MAIN ST", "postcode": "62479"}}},
{"geometry": {"type": "Point", "coordinates": [-88.3166020904, 39.0470054323]}, "type": "Feature", "properties": {"collection_times": [{"days": "Mon-Fri", "time": "11:15am"}, {"days": "Sat", "time": "9:30am"}, {"days": "Sun", "time": "Closed"}], "id": "6247900002", "name": "USPS COLLECTION BOX - PO LOBBY", "address": {"city": "WHEELER", "state": "IL", "street": "13244 N MAIN ST", "postcode": "62479"}}},
{"geometry": {"type": "Point", "coordinates": [-88.0220781264, 38.9968389032]}, "type": "Feature", "properties": {"collection_times": [{"days": "Mon-Fri", "time": "12:00pm"}, {"days": "Sat", "time": "10:45am"}, {"days": "Sun", "time": "Closed"}], "id": "6248000001", "name": "USPS COLLECTION BOX - BLUE BOX", "address": {"city": "WILLOW HILL", "state": "IL", "street": "201 N CUMBERLAND ST", "postcode": "62480"}}},
{"geometry": {"type": "Point", "coordinates": [-88.0220781264, 38.9968389032]}, "type": "Feature", "properties": {"collection_times": [{"days": "Mon-Fri", "time": "12:00pm"}, {"days": "Sat", "time": "10:45am"}, {"days": "Sun", "time": "Closed"}], "id": "6248000002", "name": "USPS COLLECTION BOX - PO LOBBY", "address": {"city": "WILLOW HILL", "state": "IL", "street": "201 N CUMBERLAND ST", "postcode": "62480"}}},
{"geometry": {"type": "Point", "coordinates": [-88.0249666343, 39.1205906981]}, "type": "Feature", "properties": {"collection_times": [{"days": "Mon-Fri", "time": "11:15am"}, {"days": "Sat", "time": "9:30am"}, {"days": "Sun", "time": "Closed"}], "id": "6248100001", "name": "USPS COLLECTION BOX - BLUE BOX", "address": {"city": "YALE", "state": "IL", "street": "200 S RANGE ST", "postcode": "62481"}}},
{"geometry": {"type": "Point", "coordinates": [-88.0249666343, 39.1205906981]}, "type": "Feature", "properties": {"collection_times": [{"days": "Mon-Fri", "time": "11:15am"}, {"days": "Sat", "time": "9:30am"}, {"days": "Sun", "time": "Closed"}], "id": "6248100003", "name": "USPS COLLECTION BOX - PO LOBBY", "address": {"city": "YALE", "state": "IL", "street": "200 S RANGE ST", "postcode": "62481"}}}
]}
