{"type": "FeatureCollection", "features": [
{"geometry": {"type": "Point", "coordinates": [-88.8225111739, 39.983247019]}, "type": "Feature", "properties": {"collection_times": [{"days": "Mon-Fri", "time": "2:15pm"}, {"days": "Sat", "time": "8:45am"}, {"days": "Sun", "time": "Closed"}], "id": "6250100001", "name": "USPS COLLECTION BOX - BLUE BOX", "address": {"city": "ARGENTA", "state": "IL", "street": "187 N NORTH ST", "postcode": "62501"}}},
{"geometry": {"type": "Point", "coordinates": [-88.8225111739, 39.983247019]}, "type": "Feature", "properties": {"collection_times": [{"days": "Mon-Fri", "time": "2:15pm"}, {"days": "Sat", "time": "8:45am"}, {"days": "Sun", "time": "Closed"}], "id": "6250100002", "name": "USPS COLLECTION BOX - PO LOBBY", "address": {"city": "ARGENTA", "state": "IL", "street": "187 N NORTH ST", "postcode": "62501"}}},
{"geometry": {"type": "Point", "coordinates": [-89.0494499442, 39.5206048466]}, "type": "Feature", "properties": {"collection_times": [{"days": "Mon-Fri", "time": "2:45pm"}, {"days": "Sat", "time": "9:45am"}, {"days": "Sun", "time": "Closed"}], "id": "6251000003", "name": "USPS COLLECTION BOX - PO LOBBY", "address": {"city": "ASSUMPTION", "state": "IL", "street": "219 N CHESTNUT ST", "postcode": "62510"}}},
{"geometry": {"type": "Point", "coordinates": [-89.0494499442, 39.5206048466]}, "type": "Feature", "properties": {"collection_times": [{"days": "Mon-Fri", "time": "2:45pm"}, {"days": "Sat", "time": "9:45am"}, {"days": "Sun", "time": "Closed"}], "id": "6251000004", "name": "USPS COLLECTION BOX - BLUE BOX", "address": {"city": "ASSUMPTION", "state": "IL", "street": "219 N CHESTNUT ST", "postcode": "62510"}}},
{"geometry": {"type": "Point", "coordinates": [-89.1932136198, 40.1422109496]}, "type": "Feature", "properties": {"collection_times": [{"days": "Mon-Fri", "time": "11:45am"}, {"days": "Sat", "time": "10:15am"}, {"days": "Sun", "time": "Closed"}], "id": "6251200000", "name": "USPS COLLECTION BOX - BLUE BOX", "address": {"city": "BEASON", "state": "IL", "street": "1555 BROADWAY ST", "postcode": "62512"}}},
{"geometry": {"type": "Point", "coordinates": [-89.1932136198, 40.1422109496]}, "type": "Feature", "properties": {"collection_times": [{"days": "Mon-Fri", "time": "11:45am"}, {"days": "Sat", "time": "10:15am"}, {"days": "Sun", "time": "Closed"}], "id": "6251200001", "name": "USPS COLLECTION BOX - PO LOBBY", "address": {"city": "BEASON", "state": "IL", "street": "1555 BROADWAY ST", "postcode": "62512"}}},
{"geometry": {"type": "Point", "coordinates": [-89.1192194504, 39.7002365742]}, "type": "Feature", "properties": {"collection_times": [{"days": "Mon-Fri", "time": "2:30pm"}, {"days": "Sat", "time": "9:30am"}, {"days": "Sun", "time": "Closed"}], "id": "6251300001", "name": "USPS COLLECTION BOX - BLUE BOX", "address": {"city": "BLUE MOUND", "state": "IL", "street": "230 W NILES ST", "postcode": "62513"}}},
{"geometry": {"type": "Point", "coordinates": [-89.1192194504, 39.7002365742]}, "type": "Feature", "properties": {"collection_times": [{"days": "Mon-Fri", "time": "2:30pm"}, {"days": "Sat", "time": "9:30am"}, {"days": "Sun", "time": "Closed"}], "id": "6251300002", "name": "USPS COLLECTION BOX - PO LOBBY", "address": {"city": "BLUE MOUND", "state": "IL", "street": "230 W NILES ST", "postcode": "62513"}}},
{"geometry": {"type": "Point", "coordinates": [-89.0472842879, 39.7654174948]}, "type": "Feature", "properties": {"collection_times": [{"days": "Mon-Fri", "time": "1:45pm"}, {"days": "Sat", "time": "10:30am"}, {"days": "Sun", "time": "Closed"}], "id": "6251400000", "name": "USPS COLLECTION BOX - BLUE BOX", "address": {"city": "BOODY", "state": "IL", "street": "6164 S ROUTE 48", "postcode": "62514"}}},
{"geometry": {"type": "Point", "coordinates": [-89.0472842879, 39.7654174948]}, "type": "Feature", "properties": {"collection_times": [{"days": "Mon-Fri", "time": "1:45pm"}, {"days": "Sat", "time": "11:45am"}, {"days": "Sun", "time": "Closed"}], "id": "6251400001", "name": "USPS COLLECTION BOX - PO LOBBY", "address": {"city": "BOODY", "state": "IL", "street": "6164 S ROUTE 48", "postcode": "62514"}}},
{"geometry": {"type": "Point", "coordinates": [-89.4058795597, 39.852546541]}, "type": "Feature", "properties": {"collection_times": [{"days": "Mon-Fri", "time": "11:45am"}, {"days": "Sat", "time": "9:30am"}, {"days": "Sun", "time": "Closed"}], "id": "6251500001", "name": "USPS COLLECTION BOX - BLUE BOX", "address": {"city": "BUFFALO", "state": "IL", "street": "102 W ELM ST", "postcode": "62515"}}},
{"geometry": {"type": "Point", "coordinates": [-89.4058795597, 39.852546541]}, "type": "Feature", "properties": {"collection_times": [{"days": "Mon-Fri", "time": "11:45am"}, {"days": "Sat", "time": "9:45am"}, {"days": "Sun", "time": "Closed"}], "id": "6251500002", "name": "USPS COLLECTION BOX - PO LOBBY", "address": {"city": "BUFFALO", "state": "IL", "street": "102 W ELM ST", "postcode": "62515"}}},
{"geometry": {"type": "Point", "coordinates": [-89.184835652, 40.0528172632]}, "type": "Feature", "properties": {"collection_times": [{"days": "Mon-Fri", "time": "12:15pm"}, {"days": "Sat", "time": "10:00am"}, {"days": "Sun", "time": "Closed"}], "id": "6251800000", "name": "USPS COLLECTION BOX - BLUE BOX", "address": {"city": "CHESTNUT", "state": "IL", "street": "120 E OLIVE ST", "postcode": "62518"}}},
{"geometry": {"type": "Point", "coordinates": [-89.184835652, 40.0528172632]}, "type": "Feature", "properties": {"collection_times": [{"days": "Mon-Fri", "time": "12:15pm"}, {"days": "Sat", "time": "10:00am"}, {"days": "Sun", "time": "Closed"}], "id": "6251800001", "name": "USPS COLLECTION BOX - PO LOBBY", "address": {"city": "CHESTNUT", "state": "IL", "street": "120 E OLIVE ST", "postcode": "62518"}}},
{"geometry": {"type": "Point", "coordinates": [-89.402370479, 39.9373395971]}, "type": "Feature", "properties": {"collection_times": [{"days": "Mon-Fri", "time": "2:15pm"}, {"days": "Sat", "time": "11:45am"}, {"days": "Sun", "time": "Closed"}], "id": "6251900000", "name": "USPS COLLECTION BOX - BLUE BOX", "address": {"city": "CORNLAND", "state": "IL", "street": "1017 DAY ST", "postcode": "62519"}}},
{"geometry": {"type": "Point", "coordinates": [-89.402370479, 39.9373395971]}, "type": "Feature", "properties": {"collection_times": [{"days": "Mon-Fri", "time": "2:15pm"}, {"days": "Sat", "time": "11:45am"}, {"days": "Sun", "time": "Closed"}], "id": "6251900001", "name": "USPS COLLECTION BOX - PO LOBBY", "address": {"city": "CORNLAND", "state": "IL", "street": "1017 DAY ST", "postcode": "62519"}}},
{"geometry": {"type": "Point", "coordinates": [-89.4632757949, 39.852953579]}, "type": "Feature", "properties": {"collection_times": [{"days": "Mon-Fri", "time": "11:30am"}, {"days": "Sat", "time": "9:00am"}, {"days": "Sun", "time": "Closed"}], "id": "6252000001", "name": "USPS COLLECTION BOX - BLUE BOX", "address": {"city": "DAWSON", "state": "IL", "street": "106 N CONSTANT ST", "postcode": "62520"}}},
{"geometry": {"type": "Point", "coordinates": [-89.4632757949, 39.852953579]}, "type": "Feature", "properties": {"collection_times": [{"days": "Mon-Fri", "time": "11:30am"}, {"days": "Sat", "time": "9:15am"}, {"days": "Sun", "time": "Closed"}], "id": "6252000002", "name": "USPS COLLECTION BOX - PO LOBBY", "address": {"city": "DAWSON", "state": "IL", "street": "106 N CONSTANT ST", "postcode": "62520"}}},
{"geometry": {"type": "Point", "coordinates": [-88.9572312301, 39.8218148415]}, "type": "Feature", "properties": {"collection_times": [{"days": "Mon-Sat", "time": "5:00pm"}, {"days": "Sun", "time": "Closed"}], "id": "6252100015", "name": "USPS COLLECTION BOX - BLUE BOX", "address": {"city": "DECATUR", "state": "IL", "street": "245 W 1ST DR", "postcode": "62521"}}},
{"geometry": {"type": "Point", "coordinates": [-88.9574132618, 39.8219145586]}, "type": "Feature", "properties": {"collection_times": [{"days": "Mon-Sat", "time": "5:00pm"}, {"days": "Sun", "time": "Closed"}], "id": "6252100016", "name": "USPS COLLECTION BOX - BLUE BOX", "address": {"city": "DECATUR", "state": "IL", "street": "280 W 1ST DR", "postcode": "62521"}}},
{"geometry": {"type": "Point", "coordinates": [-88.9310382372, 39.8264458578]}, "type": "Feature", "properties": {"collection_times": [{"days": "Mon-Sat", "time": "5:00pm"}, {"days": "Sun", "time": "Closed"}], "id": "6252100019", "name": "USPS COLLECTION BOX - BLUE BOX", "address": {"city": "DECATUR", "state": "IL", "street": "1800 E LAKE SHORE DR", "postcode": "62521"}}},
{"geometry": {"type": "Point", "coordinates": [-88.9100018732, 39.8202609107]}, "type": "Feature", "properties": {"collection_times": [{"days": "Mon-Sat", "time": "3:00pm"}, {"days": "Sun", "time": "Closed"}], "id": "6252100023", "name": "USPS COLLECTION BOX - BLUE BOX", "address": {"city": "DECATUR", "state": "IL", "street": "1822 S LYNNWOOD CT", "postcode": "62521"}}},
{"geometry": {"type": "Point", "coordinates": [-88.8781453188, 39.8185993063]}, "type": "Feature", "properties": {"collection_times": [{"days": "Mon-Sat", "time": "4:00pm"}, {"days": "Sun", "time": "Closed"}], "id": "6252100034", "name": "USPS COLLECTION BOX - BLUE BOX", "address": {"city": "DECATUR", "state": "IL", "street": "1920 S MOUNT ZION RD", "postcode": "62521"}}},
{"geometry": {"type": "Point", "coordinates": [-88.9124447893, 39.8237041645]}, "type": "Feature", "properties": {"collection_times": [{"days": "Mon-Sat", "time": "3:00pm"}, {"days": "Sun", "time": "Closed"}], "id": "6252100044", "name": "USPS COLLECTION BOX - BLUE BOX", "address": {"city": "DECATUR", "state": "IL", "street": "1707 S COUNTRY CLUB RD", "postcode": "62521"}}},
{"geometry": {"type": "Point", "coordinates": [-88.9243710544, 39.844541596]}, "type": "Feature", "properties": {"collection_times": [{"days": "Mon-Sat", "time": "4:30pm"}, {"days": "Sun", "time": "Closed"}], "id": "6252100060", "name": "USPS COLLECTION BOX - BLUE BOX", "address": {"city": "DECATUR", "state": "IL", "street": "2236 E WILLIAM ST", "postcode": "62521"}}},
{"geometry": {"type": "Point", "coordinates": [-88.8978446496, 39.8504969788]}, "type": "Feature", "properties": {"collection_times": [{"days": "Mon-Sat", "time": "4:30pm"}, {"days": "Sun", "time": "Closed"}], "id": "6252100064", "name": "USPS COLLECTION BOX - BLUE BOX", "address": {"city": "DECATUR", "state": "IL", "street": "3800 E WILLIAM STREET RD", "postcode": "62521"}}},
{"geometry": {"type": "Point", "coordinates": [-88.9356644233, 39.8334166096]}, "type": "Feature", "properties": {"collection_times": [{"days": "Mon-Sat", "time": "5:00pm"}, {"days": "Sun", "time": "Closed"}], "id": "6252100070", "name": "USPS COLLECTION BOX - BLUE BOX", "address": {"city": "DECATUR", "state": "IL", "street": "1595 E CANTRELL ST", "postcode": "62521"}}},
{"geometry": {"type": "Point", "coordinates": [-88.8827010659, 39.8215556677]}, "type": "Feature", "properties": {"collection_times": [{"days": "Mon-Sat", "time": "4:00pm"}, {"days": "Sun", "time": "Closed"}], "id": "6252100071", "name": "USPS COLLECTION BOX - BLUE BOX", "address": {"city": "DECATUR", "state": "IL", "street": "1818 AIRPORT PLZ", "postcode": "62521"}}},
{"geometry": {"type": "Point", "coordinates": [-88.9778730118, 39.849286158]}, "type": "Feature", "properties": {"collection_times": [{"days": "Mon-Sat", "time": "4:00pm"}, {"days": "Sun", "time": "Closed"}], "id": "6252200006", "name": "USPS COLLECTION BOX - BLUE BOX", "address": {"city": "DECATUR", "state": "IL", "street": "1300 W KING ST", "postcode": "62522"}}},
{"geometry": {"type": "Point", "coordinates": [-88.9733947023, 39.8401674297]}, "type": "Feature", "properties": {"collection_times": [{"days": "Mon-Sat", "time": "4:00pm"}, {"days": "Sun", "time": "Closed"}], "id": "6252200014", "name": "USPS COLLECTION BOX - BLUE BOX", "address": {"city": "DECATUR", "state": "IL", "street": "1130 W WOOD ST", "postcode": "62522"}}},
{"geometry": {"type": "Point", "coordinates": [-89.0289080204, 39.8454524686]}, "type": "Feature", "properties": {"collection_times": [{"days": "Mon-Sat", "time": "3:00pm"}, {"days": "Sun", "time": "Closed"}], "id": "6252200015", "name": "USPS COLLECTION BOX - BLUE BOX", "address": {"city": "DECATUR", "state": "IL", "street": "355 N WYCKLES RD", "postcode": "62522"}}},
{"geometry": {"type": "Point", "coordinates": [-88.9536831891, 39.8422550561]}, "type": "Feature", "properties": {"collection_times": [{"days": "Mon-Sat", "time": "5:00pm"}, {"days": "Sun", "time": "Closed"}], "id": "6252300001", "name": "USPS COLLECTION BOX - BLUE BOX", "address": {"city": "DECATUR", "state": "IL", "street": "250 E PARK ST", "postcode": "62523"}}},
{"geometry": {"type": "Point", "coordinates": [-88.9536831891, 39.8422550561]}, "type": "Feature", "properties": {"collection_times": [{"days": "Mon-Sat", "time": "5:00pm"}, {"days": "Sun", "time": "Closed"}], "id": "6252300002", "name": "USPS COLLECTION BOX - BLUE BOX", "address": {"city": "DECATUR", "state": "IL", "street": "250 E PARK ST", "postcode": "62523"}}},
{"geometry": {"type": "Point", "coordinates": [-88.9529507466, 39.8426908217]}, "type": "Feature", "properties": {"collection_times": [{"days": "Mon-Fri", "time": "5:30pm"}, {"days": "Sat", "time": "3:30pm"}, {"days": "Sun", "time": "Closed"}], "id": "6252300005", "name": "USPS COLLECTION BOX - PO LOBBY", "address": {"city": "DECATUR", "state": "IL", "street": "214 N FRANKLIN ST", "postcode": "62523"}}},
{"geometry": {"type": "Point", "coordinates": [-88.9559118109, 39.841178903]}, "type": "Feature", "properties": {"collection_times": [{"days": "Mon-Sat", "time": "4:30pm"}, {"days": "Sun", "time": "Closed"}], "id": "6252300006", "name": "USPS COLLECTION BOX - BLUE BOX", "address": {"city": "DECATUR", "state": "IL", "street": "125 S MAIN ST", "postcode": "62523"}}},
{"geometry": {"type": "Point", "coordinates": [-88.9558560392, 39.8391886097]}, "type": "Feature", "properties": {"collection_times": [{"days": "Mon-Sat", "time": "4:30pm"}, {"days": "Sun", "time": "Closed"}], "id": "6252300013", "name": "USPS COLLECTION BOX - BLUE BOX", "address": {"city": "DECATUR", "state": "IL", "street": "363 S MAIN ST", "postcode": "62523"}}},
{"geometry": {"type": "Point", "coordinates": [-88.9563138497, 39.8425815851]}, "type": "Feature", "properties": {"collection_times": [{"days": "Mon-Sat", "time": "4:00pm"}, {"days": "Sun", "time": "Closed"}], "id": "6252300016", "name": "USPS COLLECTION BOX - BLUE BOX", "address": {"city": "DECATUR", "state": "IL", "street": "158 W PRAIRIE AVE", "postcode": "62523"}}},
{"geometry": {"type": "Point", "coordinates": [-88.9544743369, 39.842846255]}, "type": "Feature", "properties": {"collection_times": [{"days": "Mon-Sat", "time": "4:00pm"}, {"days": "Sun", "time": "Closed"}], "id": "6252300019", "name": "USPS COLLECTION BOX - BLUE BOX", "address": {"city": "DECATUR", "state": "IL", "street": "225 N WATER ST", "postcode": "62523"}}},
{"geometry": {"type": "Point", "coordinates": [-88.9544743369, 39.842846255]}, "type": "Feature", "properties": {"collection_times": [{"days": "Mon-Sat", "time": "4:00pm"}, {"days": "Sun", "time": "Closed"}], "id": "6252300020", "name": "USPS COLLECTION BOX - BLUE BOX", "address": {"city": "DECATUR", "state": "IL", "street": "225 N WATER ST", "postcode": "62523"}}},
{"geometry": {"type": "Point", "coordinates": [-88.9543148157, 39.8411098759]}, "type": "Feature", "properties": {"collection_times": [{"days": "Mon-Sat", "time": "4:30pm"}, {"days": "Sun", "time": "Closed"}], "id": "6252300028", "name": "USPS COLLECTION BOX - BLUE BOX", "address": {"city": "DECATUR", "state": "IL", "street": "132 S WATER ST", "postcode": "62523"}}},
{"geometry": {"type": "Point", "coordinates": [-88.9543858957, 39.8448656198]}, "type": "Feature", "properties": {"collection_times": [{"days": "Mon-Sat", "time": "4:00pm"}, {"days": "Sun", "time": "Closed"}], "id": "6252300032", "name": "USPS COLLECTION BOX - BLUE BOX", "address": {"city": "DECATUR", "state": "IL", "street": "410 N WATER ST", "postcode": "62523"}}},
{"geometry": {"type": "Point", "coordinates": [-88.9530947661, 39.8433621863]}, "type": "Feature", "properties": {"collection_times": [{"days": "Mon-Sat", "time": "5:00pm"}, {"days": "Sun", "time": "Closed"}], "id": "6252300034", "name": "USPS COLLECTION BOX - BLUE BOX", "address": {"city": "DECATUR", "state": "IL", "street": "295 N FRANKLIN ST", "postcode": "62523"}}},
{"geometry": {"type": "Point", "coordinates": [-88.9607839962, 39.8658850478]}, "type": "Feature", "properties": {"collection_times": [{"days": "Mon-Sat", "time": "3:00pm"}, {"days": "Sun", "time": "Closed"}], "id": "6252600002", "name": "USPS COLLECTION BOX - BLUE BOX", "address": {"city": "DECATUR", "state": "IL", "street": "2300 N EDWARD ST", "postcode": "62526"}}},
{"geometry": {"type": "Point", "coordinates": [-88.9642615819, 39.8756977283]}, "type": "Feature", "properties": {"collection_times": [{"days": "Mon-Sat", "time": "3:00pm"}, {"days": "Sun", "time": "Closed"}], "id": "6252600008", "name": "USPS COLLECTION BOX - BLUE BOX", "address": {"city": "DECATUR", "state": "IL", "street": "2884 N MONROE ST", "postcode": "62526"}}},
{"geometry": {"type": "Point", "coordinates": [-88.9246992117, 39.8838825914]}, "type": "Feature", "properties": {"collection_times": [{"days": "Mon-Fri", "time": "5:15pm"}, {"days": "Sat", "time": "4:45pm"}, {"days": "Sun", "time": "Closed"}], "id": "6252600013", "name": "USPS COLLECTION BOX - BLUE BOX", "address": {"city": "DECATUR", "state": "IL", "street": "2300 E HUBBARD AVE", "postcode": "62526"}}},
{"geometry": {"type": "Point", "coordinates": [-88.9874663141, 39.8547107291]}, "type": "Feature", "properties": {"collection_times": [{"days": "Mon-Sat", "time": "3:00pm"}, {"days": "Sun", "time": "Closed"}], "id": "6252600020", "name": "USPS COLLECTION BOX - BLUE BOX", "address": {"city": "DECATUR", "state": "IL", "street": "1310 N SUMMIT AVE", "postcode": "62526"}}},
{"geometry": {"type": "Point", "coordinates": [-88.9707713615, 39.8762630248]}, "type": "Feature", "properties": {"collection_times": [{"days": "Mon-Sat", "time": "3:00pm"}, {"days": "Sun", "time": "Closed"}], "id": "6252600023", "name": "USPS COLLECTION BOX - BLUE BOX", "address": {"city": "DECATUR", "state": "IL", "street": "985 W PERSHING RD", "postcode": "62526"}}},
{"geometry": {"type": "Point", "coordinates": [-88.9728576279, 39.8671300809]}, "type": "Feature", "properties": {"collection_times": [{"days": "Mon-Sat", "time": "3:00pm"}, {"days": "Sun", "time": "Closed"}], "id": "6252600029", "name": "USPS COLLECTION BOX - BLUE BOX", "address": {"city": "DECATUR", "state": "IL", "street": "2320 N OAKLAND AVE", "postcode": "62526"}}},
{"geometry": {"type": "Point", "coordinates": [-88.9728576279, 39.8671300809]}, "type": "Feature", "properties": {"collection_times": [{"days": "Mon-Sat", "time": "3:00pm"}, {"days": "Sun", "time": "Closed"}], "id": "6252600030", "name": "USPS COLLECTION BOX - BLUE BOX", "address": {"city": "DECATUR", "state": "IL", "street": "2320 N OAKLAND AVE", "postcode": "62526"}}},
{"geometry": {"type": "Point", "coordinates": [-88.9549639998, 39.8757264341]}, "type": "Feature", "properties": {"collection_times": [{"days": "Mon-Fri", "time": "5:00pm"}, {"days": "Sat", "time": "4:30pm"}, {"days": "Sun", "time": "Closed"}], "id": "6252600044", "name": "USPS COLLECTION BOX - BLUE BOX", "address": {"city": "DECATUR", "state": "IL", "street": "2960 N WATER ST", "postcode": "62526"}}},
{"geometry": {"type": "Point", "coordinates": [-88.9549639998, 39.8757264341]}, "type": "Feature", "properties": {"collection_times": [{"days": "Mon-Fri", "time": "5:00pm"}, {"days": "Sat", "time": "4:30pm"}, {"days": "Sun", "time": "Closed"}], "id": "6252600049", "name": "USPS COLLECTION BOX - BLUE BOX", "address": {"city": "DECATUR", "state": "IL", "street": "2960 N WATER ST", "postcode": "62526"}}},
{"geometry": {"type": "Point", "coordinates": [-88.9549717142, 39.8768706973]}, "type": "Feature", "properties": {"collection_times": [{"days": "Mon-Fri", "time": "5:15pm"}, {"days": "Sat", "time": "4:00pm"}, {"days": "Sun", "time": "Closed"}], "id": "6252600053", "name": "USPS COLLECTION BOX - BLUE BOX", "address": {"city": "DECATUR", "state": "IL", "street": "3000 N WATER ST", "postcode": "62526"}}},
{"geometry": {"type": "Point", "coordinates": [-88.9424112424, 39.8769926037]}, "type": "Feature", "properties": {"collection_times": [{"days": "Mon-Fri", "time": "5:15pm"}, {"days": "Sat", "time": "4:30pm"}, {"days": "Sun", "time": "Closed"}], "id": "6252600058", "name": "USPS COLLECTION BOX - BLUE BOX", "address": {"city": "DECATUR", "state": "IL", "street": "1155 E PERSHING RD", "postcode": "62526"}}},
{"geometry": {"type": "Point", "coordinates": [-88.9351484135, 39.8918348548]}, "type": "Feature", "properties": {"collection_times": [{"days": "Mon-Fri", "time": "5:30pm"}, {"days": "Sat", "time": "5:00pm"}, {"days": "Sun", "time": "Closed"}], "id": "6252600059", "name": "USPS COLLECTION BOX - PO LOBBY", "address": {"city": "DECATUR", "state": "IL", "street": "1601 E MOUND RD", "postcode": "62526"}}},
{"geometry": {"type": "Point", "coordinates": [-88.9550685235, 39.8757702538]}, "type": "Feature", "properties": {"collection_times": [{"days": "Mon-Sat", "time": "2:30pm"}, {"days": "Sun", "time": "Closed"}], "id": "6252600060", "name": "USPS COLLECTION BOX - BLUE BOX", "address": {"city": "DECATUR", "state": "IL", "street": "4725 N MARTIN LUTHER KING DR", "postcode": "62526"}}},
{"geometry": {"type": "Point", "coordinates": [-88.938482572, 39.8770804352]}, "type": "Feature", "properties": {"collection_times": [{"days": "Mon-Sat", "time": "3:30pm"}, {"days": "Sun", "time": "Closed"}], "id": "6252600062", "name": "USPS COLLECTION BOX - BLUE BOX", "address": {"city": "DECATUR", "state": "IL", "street": "1385 N STATE ROUTE 48", "postcode": "62526"}}},
{"geometry": {"type": "Point", "coordinates": [-88.9280998307, 39.8598110979]}, "type": "Feature", "properties": {"collection_times": [{"days": "Mon-Sat", "time": "5:00pm"}, {"days": "Sun", "time": "Closed"}], "id": "6252600064", "name": "USPS COLLECTION BOX - BLUE BOX", "address": {"city": "DECATUR", "state": "IL", "street": "1715 N 21ST ST", "postcode": "62526"}}},
{"geometry": {"type": "Point", "coordinates": [-88.9363823282, 39.8910439741]}, "type": "Feature", "properties": {"collection_times": [{"days": "Mon-Fri", "time": "5:30pm"}, {"days": "Sat", "time": "5:00pm"}, {"days": "Sun", "time": "Closed"}], "id": "6252600068", "name": "USPS COLLECTION BOX - BLUE BOX", "address": {"city": "DECATUR", "state": "IL", "street": "3770 N WOODFORD ST", "postcode": "62526"}}},
{"geometry": {"type": "Point", "coordinates": [-88.9351484135, 39.8918348548]}, "type": "Feature", "properties": {"collection_times": [{"days": "Mon-Fri", "time": "5:30pm"}, {"days": "Sat", "time": "5:00pm"}, {"days": "Sun", "time": "Closed"}], "id": "6252600072", "name": "USPS COLLECTION BOX - APC", "address": {"city": "DECATUR", "state": "IL", "street": "1601 E MOUND RD", "postcode": "62526"}}},
{"geometry": {"type": "Point", "coordinates": [-89.6579606593, 39.5656329066]}, "type": "Feature", "properties": {"collection_times": [{"days": "Mon-Fri", "time": "1:45pm"}, {"days": "Sat", "time": "9:15am"}, {"days": "Sun", "time": "Closed"}], "id": "6253000001", "name": "USPS COLLECTION BOX - BLUE BOX", "address": {"city": "DIVERNON", "state": "IL", "street": "157 W DODDS ST", "postcode": "62530"}}},
{"geometry": {"type": "Point", "coordinates": [-89.6579606593, 39.5656329066]}, "type": "Feature", "properties": {"collection_times": [{"days": "Mon-Fri", "time": "2:15pm"}, {"days": "Sat", "time": "9:15am"}, {"days": "Sun", "time": "Closed"}], "id": "6253000003", "name": "USPS COLLECTION BOX - PO LOBBY", "address": {"city": "DIVERNON", "state": "IL", "street": "157 W DODDS ST", "postcode": "62530"}}},
{"geometry": {"type": "Point", "coordinates": [-89.3630573577, 39.6731261538]}, "type": "Feature", "properties": {"collection_times": [{"days": "Mon-Fri", "time": "2:45pm"}, {"days": "Sat", "time": "9:45am"}, {"days": "Sun", "time": "Closed"}], "id": "6253100001", "name": "USPS COLLECTION BOX - BLUE BOX", "address": {"city": "EDINBURG", "state": "IL", "street": "103 N GRANT ST", "postcode": "62531"}}},
{"geometry": {"type": "Point", "coordinates": [-89.3630573577, 39.6731261538]}, "type": "Feature", "properties": {"collection_times": [{"days": "Mon-Fri", "time": "2:45pm"}, {"days": "Sat", "time": "9:45am"}, {"days": "Sun", "time": "Closed"}], "id": "6253100002", "name": "USPS COLLECTION BOX - PO LOBBY", "address": {"city": "EDINBURG", "state": "IL", "street": "103 N GRANT ST", "postcode": "62531"}}},
{"geometry": {"type": "Point", "coordinates": [-88.9808193034, 39.7782130965]}, "type": "Feature", "properties": {"collection_times": [{"days": "Mon-Fri", "time": "11:00am"}, {"days": "Sat", "time": "10:15am"}, {"days": "Sun", "time": "Closed"}], "id": "6253200000", "name": "USPS COLLECTION BOX - BLUE BOX", "address": {"city": "ELWIN", "state": "IL", "street": "4945 S TAYLOR ST", "postcode": "62532"}}},
{"geometry": {"type": "Point", "coordinates": [-88.9808193034, 39.7782130965]}, "type": "Feature", "properties": {"collection_times": [{"days": "Mon-Fri", "time": "11:00am"}, {"days": "Sat", "time": "10:15am"}, {"days": "Sun", "time": "Closed"}], "id": "6253200001", "name": "USPS COLLECTION BOX - PO LOBBY", "address": {"city": "ELWIN", "state": "IL", "street": "4945 S TAYLOR ST", "postcode": "62532"}}},
{"geometry": {"type": "Point", "coordinates": [-89.6516426277, 39.4425596477]}, "type": "Feature", "properties": {"collection_times": [{"days": "Mon-Fri", "time": "3:30pm"}, {"days": "Sat", "time": "10:00am"}, {"days": "Sun", "time": "Closed"}], "id": "6253300001", "name": "USPS COLLECTION BOX - BLUE BOX", "address": {"city": "FARMERSVILLE", "state": "IL", "street": "206 S CLEVELAND ST", "postcode": "62533"}}},
{"geometry": {"type": "Point", "coordinates": [-89.6516426277, 39.4425596477]}, "type": "Feature", "properties": {"collection_times": [{"days": "Mon-Fri", "time": "3:30pm"}, {"days": "Sat", "time": "10:15am"}, {"days": "Sun", "time": "Closed"}], "id": "6253300002", "name": "USPS COLLECTION BOX - PO LOBBY", "address": {"city": "FARMERSVILLE", "state": "IL", "street": "206 S CLEVELAND ST", "postcode": "62533"}}},
{"geometry": {"type": "Point", "coordinates": [-88.7533287077, 39.519744754]}, "type": "Feature", "properties": {"collection_times": [{"days": "Mon-Fri", "time": "3:00pm"}, {"days": "Sat", "time": "9:45am"}, {"days": "Sun", "time": "Closed"}], "id": "6253400000", "name": "USPS COLLECTION BOX - BLUE BOX", "address": {"city": "FINDLAY", "state": "IL", "street": "215 E SOUTH 2ND ST", "postcode": "62534"}}},
{"geometry": {"type": "Point", "coordinates": [-88.7533287077, 39.519744754]}, "type": "Feature", "properties": {"collection_times": [{"days": "Mon-Fri", "time": "3:00pm"}, {"days": "Sat", "time": "9:45am"}, {"days": "Sun", "time": "Closed"}], "id": "6253400001", "name": "USPS COLLECTION BOX - PO LOBBY", "address": {"city": "FINDLAY", "state": "IL", "street": "215 E SOUTH 2ND ST", "postcode": "62534"}}},
{"geometry": {"type": "Point", "coordinates": [-88.9521876935, 39.9325873029]}, "type": "Feature", "properties": {"collection_times": [{"days": "Mon-Fri", "time": "4:00pm"}, {"days": "Sat", "time": "10:30am"}, {"days": "Sun", "time": "Closed"}], "id": "6253500001", "name": "USPS COLLECTION BOX - BLUE BOX", "address": {"city": "FORSYTH", "state": "IL", "street": "300 E RUEHL ST", "postcode": "62535"}}},
{"geometry": {"type": "Point", "coordinates": [-88.9521876935, 39.9325873029]}, "type": "Feature", "properties": {"collection_times": [{"days": "Mon-Fri", "time": "4:00pm"}, {"days": "Sat", "time": "10:30am"}, {"days": "Sun", "time": "Closed"}], "id": "6253500002", "name": "USPS COLLECTION BOX - PO LOBBY", "address": {"city": "FORSYTH", "state": "IL", "street": "300 E RUEHL ST", "postcode": "62535"}}},
{"geometry": {"type": "Point", "coordinates": [-89.6486423097, 39.6248925952]}, "type": "Feature", "properties": {"collection_times": [{"days": "Mon-Fri", "time": "4:00pm"}, {"days": "Sat", "time": "12:30pm"}, {"days": "Sun", "time": "Closed"}], "id": "6253600000", "name": "USPS COLLECTION BOX - BLUE BOX", "address": {"city": "GLENARM", "state": "IL", "street": "53 JUDD RD", "postcode": "62536"}}},
{"geometry": {"type": "Point", "coordinates": [-89.6486423097, 39.6248925952]}, "type": "Feature", "properties": {"collection_times": [{"days": "Mon-Fri", "time": "3:45pm"}, {"days": "Sat", "time": "12:00pm"}, {"days": "Sun", "time": "Closed"}], "id": "6253600001", "name": "USPS COLLECTION BOX - PO LOBBY", "address": {"city": "GLENARM", "state": "IL", "street": "53 JUDD RD", "postcode": "62536"}}},
{"geometry": {"type": "Point", "coordinates": [-89.0803339272, 39.8417193449]}, "type": "Feature", "properties": {"collection_times": [{"days": "Mon-Fri", "time": "3:30pm"}, {"days": "Sat", "time": "10:15am"}, {"days": "Sun", "time": "Closed"}], "id": "6253700000", "name": "USPS COLLECTION BOX - BLUE BOX", "address": {"city": "HARRISTOWN", "state": "IL", "street": "1355 N MEREDIAN ST", "postcode": "62537"}}},
{"geometry": {"type": "Point", "coordinates": [-89.0803339272, 39.8417193449]}, "type": "Feature", "properties": {"collection_times": [{"days": "Mon-Fri", "time": "3:30pm"}, {"days": "Sat", "time": "10:15am"}, {"days": "Sun", "time": "Closed"}], "id": "6253700001", "name": "USPS COLLECTION BOX - PO LOBBY", "address": {"city": "HARRISTOWN", "state": "IL", "street": "1355 N MEREDIAN ST", "postcode": "62537"}}},
{"geometry": {"type": "Point", "coordinates": [-89.5315353399, 39.3557878693]}, "type": "Feature", "properties": {"collection_times": [{"days": "Mon-Fri", "time": "4:00pm"}, {"days": "Sat", "time": "10:00am"}, {"days": "Sun", "time": "Closed"}], "id": "6253800000", "name": "USPS COLLECTION BOX - BLUE BOX", "address": {"city": "HARVEL", "state": "IL", "street": "125 MAIN ST", "postcode": "62538"}}},
{"geometry": {"type": "Point", "coordinates": [-89.5315353399, 39.3557878693]}, "type": "Feature", "properties": {"collection_times": [{"days": "Mon-Fri", "time": "4:00pm"}, {"days": "Sat", "time": "1:30pm"}, {"days": "Sun", "time": "Closed"}], "id": "6253800001", "name": "USPS COLLECTION BOX - PO LOBBY", "address": {"city": "HARVEL", "state": "IL", "street": "125 MAIN ST", "postcode": "62538"}}},
{"geometry": {"type": "Point", "coordinates": [-89.2426339084, 39.8524936033]}, "type": "Feature", "properties": {"collection_times": [{"days": "Mon-Fri", "time": "12:15pm"}, {"days": "Sat", "time": "10:45am"}, {"days": "Sun", "time": "Closed"}], "id": "6253900001", "name": "USPS COLLECTION BOX - BLUE BOX", "address": {"city": "ILLIOPOLIS", "state": "IL", "street": "463 LOUISA ST", "postcode": "62539"}}},
{"geometry": {"type": "Point", "coordinates": [-89.2426339084, 39.8524936033]}, "type": "Feature", "properties": {"collection_times": [{"days": "Mon-Fri", "time": "12:15pm"}, {"days": "Sat", "time": "10:45am"}, {"days": "Sun", "time": "Closed"}], "id": "6253900002", "name": "USPS COLLECTION BOX - PO LOBBY", "address": {"city": "ILLIOPOLIS", "state": "IL", "street": "463 LOUISA ST", "postcode": "62539"}}},
{"geometry": {"type": "Point", "coordinates": [-89.4141747687, 39.5880608292]}, "type": "Feature", "properties": {"collection_times": [{"days": "Mon-Fri", "time": "4:00pm"}, {"days": "Sat", "time": "10:30am"}, {"days": "Sun", "time": "Closed"}], "id": "6254000000", "name": "USPS COLLECTION BOX - BLUE BOX", "address": {"city": "KINCAID", "state": "IL", "street": "607 DIAL ST", "postcode": "62540"}}},
{"geometry": {"type": "Point", "coordinates": [-89.4141747687, 39.5880608292]}, "type": "Feature", "properties": {"collection_times": [{"days": "Mon-Fri", "time": "4:00pm"}, {"days": "Sat", "time": "10:30am"}, {"days": "Sun", "time": "Closed"}], "id": "6254000001", "name": "USPS COLLECTION BOX - PO LOBBY", "address": {"city": "KINCAID", "state": "IL", "street": "607 DIAL ST", "postcode": "62540"}}},
{"geometry": {"type": "Point", "coordinates": [-89.3499776108, 39.9697278122]}, "type": "Feature", "properties": {"collection_times": [{"days": "Mon-Fri", "time": "3:45pm"}, {"days": "Sat", "time": "12:15pm"}, {"days": "Sun", "time": "Closed"}], "id": "6254100000", "name": "USPS COLLECTION BOX - BLUE BOX", "address": {"city": "LAKE FORK", "state": "IL", "street": "201 OAK ST", "postcode": "62541"}}},
{"geometry": {"type": "Point", "coordinates": [-89.3499776108, 39.9697278122]}, "type": "Feature", "properties": {"collection_times": [{"days": "Mon-Fri", "time": "3:45pm"}, {"days": "Sat", "time": "12:15pm"}, {"days": "Sun", "time": "Closed"}], "id": "6254100001", "name": "USPS COLLECTION BOX - PO LOBBY", "address": {"city": "LAKE FORK", "state": "IL", "street": "201 OAK ST", "postcode": "62541"}}},
{"geometry": {"type": "Point", "coordinates": [-89.1615801416, 39.9666354829]}, "type": "Feature", "properties": {"collection_times": [{"days": "Mon-Fri", "time": "12:15pm"}, {"days": "Sat", "time": "10:15am"}, {"days": "Sun", "time": "Closed"}], "id": "6254300000", "name": "USPS COLLECTION BOX - BLUE BOX", "address": {"city": "LATHAM", "state": "IL", "street": "221 N MACON ST", "postcode": "62543"}}},
{"geometry": {"type": "Point", "coordinates": [-89.1615801416, 39.9666354829]}, "type": "Feature", "properties": {"collection_times": [{"days": "Mon-Fri", "time": "12:15pm"}, {"days": "Sat", "time": "10:15am"}, {"days": "Sun", "time": "Closed"}], "id": "6254300001", "name": "USPS COLLECTION BOX - PO LOBBY", "address": {"city": "LATHAM", "state": "IL", "street": "221 N MACON ST", "postcode": "62543"}}},
{"geometry": {"type": "Point", "coordinates": [-88.9994545829, 39.7094446215]}, "type": "Feature", "properties": {"collection_times": [{"days": "Mon-Fri", "time": "2:45pm"}, {"days": "Sat", "time": "9:15am"}, {"days": "Sun", "time": "Closed"}], "id": "6254400001", "name": "USPS COLLECTION BOX - PO LOBBY", "address": {"city": "MACON", "state": "IL", "street": "101 W DUNN ST", "postcode": "62544"}}},
{"geometry": {"type": "Point", "coordinates": [-88.9994545829, 39.7094446215]}, "type": "Feature", "properties": {"collection_times": [{"days": "Mon-Fri", "time": "2:45pm"}, {"days": "Sat", "time": "9:15am"}, {"days": "Sun", "time": "Closed"}], "id": "6254400002", "name": "USPS COLLECTION BOX - BLUE BOX", "address": {"city": "MACON", "state": "IL", "street": "101 W DUNN ST", "postcode": "62544"}}},
{"geometry": {"type": "Point", "coordinates": [-89.398728499, 39.8097784214]}, "type": "Feature", "properties": {"collection_times": [{"days": "Mon-Fri", "time": "12:15pm"}, {"days": "Sat", "time": "10:15am"}, {"days": "Sun", "time": "Closed"}], "id": "6254500000", "name": "USPS COLLECTION BOX - BLUE BOX", "address": {"city": "MECHANICSBURG", "state": "IL", "street": "301 W MAIN ST", "postcode": "62545"}}},
{"geometry": {"type": "Point", "coordinates": [-89.398728499, 39.8097784214]}, "type": "Feature", "properties": {"collection_times": [{"days": "Mon-Fri", "time": "12:15pm"}, {"days": "Sat", "time": "10:15am"}, {"days": "Sun", "time": "Closed"}], "id": "6254500001", "name": "USPS COLLECTION BOX - PO LOBBY", "address": {"city": "MECHANICSBURG", "state": "IL", "street": "301 W MAIN ST", "postcode": "62545"}}},
{"geometry": {"type": "Point", "coordinates": [-89.4556221632, 39.4214121728]}, "type": "Feature", "properties": {"collection_times": [{"days": "Mon-Fri", "time": "2:45pm"}, {"days": "Sat", "time": "9:45am"}, {"days": "Sun", "time": "Closed"}], "id": "6254600001", "name": "USPS COLLECTION BOX - BLUE BOX", "address": {"city": "MORRISONVILLE", "state": "IL", "street": "601 RICKS ST", "postcode": "62546"}}},
{"geometry": {"type": "Point", "coordinates": [-89.4556221632, 39.4214121728]}, "type": "Feature", "properties": {"collection_times": [{"days": "Mon-Fri", "time": "2:45pm"}, {"days": "Sat", "time": "9:45am"}, {"days": "Sun", "time": "Closed"}], "id": "6254600002", "name": "USPS COLLECTION BOX - PO LOBBY", "address": {"city": "MORRISONVILLE", "state": "IL", "street": "601 RICKS ST", "postcode": "62546"}}},
{"geometry": {"type": "Point", "coordinates": [-89.2591874846, 39.7626187882]}, "type": "Feature", "properties": {"collection_times": [{"days": "Mon-Fri", "time": "12:45pm"}, {"days": "Sat", "time": "10:15am"}, {"days": "Sun", "time": "Closed"}], "id": "6254700000", "name": "USPS COLLECTION BOX - BLUE BOX", "address": {"city": "MOUNT AUBURN", "state": "IL", "street": "240 E ARCH ST", "postcode": "62547"}}},
{"geometry": {"type": "Point", "coordinates": [-89.2591874846, 39.7626187882]}, "type": "Feature", "properties": {"collection_times": [{"days": "Mon-Fri", "time": "12:45pm"}, {"days": "Sat", "time": "10:15am"}, {"days": "Sun", "time": "Closed"}], "id": "6254700001", "name": "USPS COLLECTION BOX - PO LOBBY", "address": {"city": "MOUNT AUBURN", "state": "IL", "street": "240 E ARCH ST", "postcode": "62547"}}},
{"geometry": {"type": "Point", "coordinates": [-89.2839061945, 40.0098129357]}, "type": "Feature", "properties": {"collection_times": [{"days": "Mon-Fri", "time": "3:00pm"}, {"days": "Sat", "time": "10:00am"}, {"days": "Sun", "time": "Closed"}], "id": "6254800001", "name": "USPS COLLECTION BOX - BLUE BOX", "address": {"city": "MOUNT PULASKI", "state": "IL", "street": "121 N LAFAYETTE ST", "postcode": "62548"}}},
{"geometry": {"type": "Point", "coordinates": [-89.2839061945, 40.0098129357]}, "type": "Feature", "properties": {"collection_times": [{"days": "Mon-Fri", "time": "3:00pm"}, {"days": "Sat", "time": "9:30am"}, {"days": "Sun", "time": "Closed"}], "id": "6254800002", "name": "USPS COLLECTION BOX - PO LOBBY", "address": {"city": "MOUNT PULASKI", "state": "IL", "street": "121 N LAFAYETTE ST", "postcode": "62548"}}},
{"geometry": {"type": "Point", "coordinates": [-89.2851946443, 40.0085109853]}, "type": "Feature", "properties": {"collection_times": [{"days": "Mon-Sat", "time": "2:30pm"}, {"days": "Sun", "time": "Closed"}], "id": "6254800003", "name": "USPS COLLECTION BOX - BLUE BOX", "address": {"city": "MOUNT PULASKI", "state": "IL", "street": "100 E COOKE ST", "postcode": "62548"}}},
{"geometry": {"type": "Point", "coordinates": [-88.8746329195, 39.7717802065]}, "type": "Feature", "properties": {"collection_times": [{"days": "Mon-Fri", "time": "4:15pm"}, {"days": "Sat", "time": "1:00pm"}, {"days": "Sun", "time": "Closed"}], "id": "6254900000", "name": "USPS COLLECTION BOX - BLUE BOX", "address": {"city": "MT ZION", "state": "IL", "street": "450 W MAIN ST", "postcode": "62549"}}},
{"geometry": {"type": "Point", "coordinates": [-88.8704905053, 39.7826039034]}, "type": "Feature", "properties": {"collection_times": [{"days": "Mon-Sat", "time": "1:30pm"}, {"days": "Sun", "time": "Closed"}], "id": "6254900002", "name": "USPS COLLECTION BOX - BLUE BOX", "address": {"city": "MT ZION", "state": "IL", "street": "1100 N STATE HIGHWAY 121", "postcode": "62549"}}},
{"geometry": {"type": "Point", "coordinates": [-88.8746329195, 39.7717802065]}, "type": "Feature", "properties": {"collection_times": [{"days": "Mon-Fri", "time": "4:15pm"}, {"days": "Sat", "time": "12:00pm"}, {"days": "Sun", "time": "Closed"}], "id": "6254900003", "name": "USPS COLLECTION BOX - PO LOBBY", "address": {"city": "MT ZION", "state": "IL", "street": "450 W MAIN ST", "postcode": "62549"}}},
{"geometry": {"type": "Point", "coordinates": [-89.0204189347, 39.6249386643]}, "type": "Feature", "properties": {"collection_times": [{"days": "Mon-Fri", "time": "4:30pm"}, {"days": "Sat", "time": "11:00am"}, {"days": "Sun", "time": "Closed"}], "id": "6255000002", "name": "USPS COLLECTION BOX - BLUE BOX", "address": {"city": "MOWEAQUA", "state": "IL", "street": "128 W MAIN ST", "postcode": "62550"}}},
{"geometry": {"type": "Point", "coordinates": [-89.0201400023, 39.624836612]}, "type": "Feature", "properties": {"collection_times": [{"days": "Mon-Fri", "time": "4:30pm"}, {"days": "Sat", "time": "11:00am"}, {"days": "Sun", "time": "Closed"}], "id": "6255000003", "name": "USPS COLLECTION BOX - PO LOBBY", "address": {"city": "MOWEAQUA", "state": "IL", "street": "115 W MAIN ST", "postcode": "62550"}}},
{"geometry": {"type": "Point", "coordinates": [-89.1688772466, 39.8533321636]}, "type": "Feature", "properties": {"collection_times": [{"days": "Mon-Fri", "time": "12:15pm"}, {"days": "Sat", "time": "10:45am"}, {"days": "Sun", "time": "Closed"}], "id": "6255100000", "name": "USPS COLLECTION BOX - PO LOBBY", "address": {"city": "NIANTIC", "state": "IL", "street": "147 E LEWIS ST", "postcode": "62551"}}},
{"geometry": {"type": "Point", "coordinates": [-89.1688772466, 39.8533321636]}, "type": "Feature", "properties": {"collection_times": [{"days": "Mon-Fri", "time": "12:15pm"}, {"days": "Sat", "time": "10:45am"}, {"days": "Sun", "time": "Closed"}], "id": "6255100001", "name": "USPS COLLECTION BOX - BLUE BOX", "address": {"city": "NIANTIC", "state": "IL", "street": "147 E LEWIS ST", "postcode": "62551"}}},
{"geometry": {"type": "Point", "coordinates": [-89.0901501309, 39.268739482]}, "type": "Feature", "properties": {"collection_times": [{"days": "Mon-Fri", "time": "3:45pm"}, {"days": "Sat", "time": "9:30am"}, {"days": "Sun", "time": "Closed"}], "id": "6255300000", "name": "USPS COLLECTION BOX - BLUE BOX", "address": {"city": "OCONEE", "state": "IL", "street": "100 OAK ST", "postcode": "62553"}}},
{"geometry": {"type": "Point", "coordinates": [-89.0901501309, 39.268739482]}, "type": "Feature", "properties": {"collection_times": [{"days": "Mon-Fri", "time": "3:45pm"}, {"days": "Sat", "time": "11:45am"}, {"days": "Sun", "time": "Closed"}], "id": "6255300001", "name": "USPS COLLECTION BOX - PO LOBBY", "address": {"city": "OCONEE", "state": "IL", "street": "100 OAK ST", "postcode": "62553"}}},
{"geometry": {"type": "Point", "coordinates": [-88.8671331499, 39.9374209193]}, "type": "Feature", "properties": {"collection_times": [{"days": "Mon-Fri", "time": "11:00am"}, {"days": "Sat", "time": "9:00am"}, {"days": "Sun", "time": "Closed"}], "id": "6255400000", "name": "USPS COLLECTION BOX - BLUE BOX", "address": {"city": "OREANA", "state": "IL", "street": "205 W SOUTH ST", "postcode": "62554"}}},
{"geometry": {"type": "Point", "coordinates": [-88.8671331499, 39.9374209193]}, "type": "Feature", "properties": {"collection_times": [{"days": "Mon-Fri", "time": "11:00am"}, {"days": "Sat", "time": "9:00am"}, {"days": "Sun", "time": "Closed"}], "id": "6255400001", "name": "USPS COLLECTION BOX - PO LOBBY", "address": {"city": "OREANA", "state": "IL", "street": "205 W SOUTH ST", "postcode": "62554"}}},
{"geometry": {"type": "Point", "coordinates": [-89.4047549684, 39.4584880475]}, "type": "Feature", "properties": {"collection_times": [{"days": "Mon-Fri", "time": "3:45pm"}, {"days": "Sat", "time": "10:30am"}, {"days": "Sun", "time": "Closed"}], "id": "6255600000", "name": "USPS COLLECTION BOX - BLUE BOX", "address": {"city": "PALMER", "state": "IL", "street": "910 5TH ST", "postcode": "62556"}}},
{"geometry": {"type": "Point", "coordinates": [-89.4047549684, 39.4584880475]}, "type": "Feature", "properties": {"collection_times": [{"days": "Mon-Fri", "time": "4:00pm"}, {"days": "Sat", "time": "1:00pm"}, {"days": "Sun", "time": "Closed"}], "id": "6255600001", "name": "USPS COLLECTION BOX - PO LOBBY", "address": {"city": "PALMER", "state": "IL", "street": "910 5TH ST", "postcode": "62556"}}},
{"geometry": {"type": "Point", "coordinates": [-89.0824465426, 39.3866880415]}, "type": "Feature", "properties": {"collection_times": [{"days": "Mon-Fri", "time": "4:45pm"}, {"days": "Sat", "time": "12:00pm"}, {"days": "Sun", "time": "Closed"}], "id": "6255700000", "name": "USPS COLLECTION BOX - BLUE BOX", "address": {"city": "PANA", "state": "IL", "street": "214 S LOCUST ST", "postcode": "62557"}}},
{"geometry": {"type": "Point", "coordinates": [-89.0824465426, 39.3866880415]}, "type": "Feature", "properties": {"collection_times": [{"days": "Mon-Fri", "time": "4:45pm"}, {"days": "Sat", "time": "12:00pm"}, {"days": "Sun", "time": "Closed"}], "id": "6255700001", "name": "USPS COLLECTION BOX - BLUE BOX", "address": {"city": "PANA", "state": "IL", "street": "214 S LOCUST ST", "postcode": "62557"}}},
{"geometry": {"type": "Point", "coordinates": [-89.0824465426, 39.3866880415]}, "type": "Feature", "properties": {"collection_times": [{"days": "Mon-Fri", "time": "4:45pm"}, {"days": "Sat", "time": "12:00pm"}, {"days": "Sun", "time": "Closed"}], "id": "6255700012", "name": "USPS COLLECTION BOX - PO LOBBY", "address": {"city": "PANA", "state": "IL", "street": "214 S LOCUST ST", "postcode": "62557"}}},
{"geometry": {"type": "Point", "coordinates": [-89.5788471865, 39.5908103594]}, "type": "Feature", "properties": {"collection_times": [{"days": "Mon-Fri", "time": "4:30pm"}, {"days": "Sat", "time": "11:00am"}, {"days": "Sun", "time": "Closed"}], "id": "6255800000", "name": "USPS COLLECTION BOX - BLUE BOX", "address": {"city": "PAWNEE", "state": "IL", "street": "620 5TH ST", "postcode": "62558"}}},
{"geometry": {"type": "Point", "coordinates": [-89.5788471865, 39.5908103594]}, "type": "Feature", "properties": {"collection_times": [{"days": "Mon-Fri", "time": "4:30pm"}, {"days": "Sat", "time": "11:00am"}, {"days": "Sun", "time": "Closed"}], "id": "6255800001", "name": "USPS COLLECTION BOX - PO LOBBY", "address": {"city": "PAWNEE", "state": "IL", "street": "620 5TH ST", "postcode": "62558"}}},
{"geometry": {"type": "Point", "coordinates": [-89.5720099109, 39.3196442931]}, "type": "Feature", "properties": {"collection_times": [{"days": "Mon-Fri", "time": "4:30pm"}, {"days": "Sat", "time": "11:00am"}, {"days": "Sun", "time": "Closed"}], "id": "6256000001", "name": "USPS COLLECTION BOX - BLUE BOX", "address": {"city": "RAYMOND", "state": "IL", "street": "110 N MCGOWN ST", "postcode": "62560"}}},
{"geometry": {"type": "Point", "coordinates": [-89.5717590957, 39.3197206042]}, "type": "Feature", "properties": {"collection_times": [{"days": "Mon-Fri", "time": "4:30pm"}, {"days": "Sat", "time": "11:00am"}, {"days": "Sun", "time": "Closed"}], "id": "6256000002", "name": "USPS COLLECTION BOX - PO LOBBY", "address": {"city": "RAYMOND", "state": "IL", "street": "401 E BROAD ST", "postcode": "62560"}}},
{"geometry": {"type": "Point", "coordinates": [-89.5395709812, 39.849183212]}, "type": "Feature", "properties": {"collection_times": [{"days": "Mon-Fri", "time": "5:00pm"}, {"days": "Sat", "time": "11:00am"}, {"days": "Sun", "time": "Closed"}], "id": "6256100000", "name": "USPS COLLECTION BOX - BLUE BOX", "address": {"city": "RIVERTON", "state": "IL", "street": "619 N 7TH ST", "postcode": "62561"}}},
{"geometry": {"type": "Point", "coordinates": [-89.5395709812, 39.849183212]}, "type": "Feature", "properties": {"collection_times": [{"days": "Mon-Fri", "time": "5:00pm"}, {"days": "Sat", "time": "11:00am"}, {"days": "Sun", "time": "Closed"}], "id": "6256100003", "name": "USPS COLLECTION BOX - PO LOBBY", "address": {"city": "RIVERTON", "state": "IL", "street": "619 N 7TH ST", "postcode": "62561"}}},
{"geometry": {"type": "Point", "coordinates": [-89.5363503416, 39.7492321155]}, "type": "Feature", "properties": {"collection_times": [{"days": "Mon-Fri", "time": "4:30pm"}, {"days": "Sat", "time": "11:30am"}, {"days": "Sun", "time": "Closed"}], "id": "6256300002", "name": "USPS COLLECTION BOX - BLUE BOX", "address": {"city": "ROCHESTER", "state": "IL", "street": "200 S WALNUT ST", "postcode": "62563"}}},
{"geometry": {"type": "Point", "coordinates": [-89.5363503416, 39.7492321155]}, "type": "Feature", "properties": {"collection_times": [{"days": "Mon-Fri", "time": "4:30pm"}, {"days": "Sat", "time": "11:30am"}, {"days": "Sun", "time": "Closed"}], "id": "6256300003", "name": "USPS COLLECTION BOX - BLUE BOX", "address": {"city": "ROCHESTER", "state": "IL", "street": "200 S WALNUT ST", "postcode": "62563"}}},
{"geometry": {"type": "Point", "coordinates": [-89.5363503416, 39.7492321155]}, "type": "Feature", "properties": {"collection_times": [{"days": "Mon-Fri", "time": "5:00pm"}, {"days": "Sat", "time": "12:00pm"}, {"days": "Sun", "time": "Closed"}], "id": "6256300005", "name": "USPS COLLECTION BOX - PO LOBBY", "address": {"city": "ROCHESTER", "state": "IL", "street": "200 S WALNUT ST", "postcode": "62563"}}},
{"geometry": {"type": "Point", "coordinates": [-88.7921697515, 39.4055599925]}, "type": "Feature", "properties": {"collection_times": [{"days": "Mon-Fri", "time": "5:00pm"}, {"days": "Sat", "time": "3:00pm"}, {"days": "Sun", "time": "Closed"}], "id": "6256500001", "name": "USPS COLLECTION BOX - BLUE BOX", "address": {"city": "SHELBYVILLE", "state": "IL", "street": "200 S MORGAN ST", "postcode": "62565"}}},
{"geometry": {"type": "Point", "coordinates": [-88.7921697515, 39.4055599925]}, "type": "Feature", "properties": {"collection_times": [{"days": "Mon-Fri", "time": "5:00pm"}, {"days": "Sat", "time": "3:00pm"}, {"days": "Sun", "time": "Closed"}], "id": "6256500002", "name": "USPS COLLECTION BOX - BLUE BOX", "address": {"city": "SHELBYVILLE", "state": "IL", "street": "200 S MORGAN ST", "postcode": "62565"}}},
{"geometry": {"type": "Point", "coordinates": [-88.7920476326, 39.4082944004]}, "type": "Feature", "properties": {"collection_times": [{"days": "Mon-Fri", "time": "3:30pm"}, {"days": "Sat", "time": "11:30am"}, {"days": "Sun", "time": "Closed"}], "id": "6256500005", "name": "USPS COLLECTION BOX - BLUE BOX", "address": {"city": "SHELBYVILLE", "state": "IL", "street": "249 N MORGAN ST", "postcode": "62565"}}},
{"geometry": {"type": "Point", "coordinates": [-88.7937405477, 39.4119005533]}, "type": "Feature", "properties": {"collection_times": [{"days": "Mon-Fri", "time": "3:30pm"}, {"days": "Sat", "time": "11:30am"}, {"days": "Sun", "time": "Closed"}], "id": "6256500006", "name": "USPS COLLECTION BOX - BLUE BOX", "address": {"city": "SHELBYVILLE", "state": "IL", "street": "611 N BROADWAY ST", "postcode": "62565"}}},
{"geometry": {"type": "Point", "coordinates": [-88.8085858054, 39.406548535]}, "type": "Feature", "properties": {"collection_times": [{"days": "Mon-Fri", "time": "3:30pm"}, {"days": "Sat", "time": "11:30am"}, {"days": "Sun", "time": "Closed"}], "id": "6256500013", "name": "USPS COLLECTION BOX - BLUE BOX", "address": {"city": "SHELBYVILLE", "state": "IL", "street": "1313 W MAIN ST", "postcode": "62565"}}},
{"geometry": {"type": "Point", "coordinates": [-88.8625900994, 39.434769577]}, "type": "Feature", "properties": {"collection_times": [{"days": "Mon-Fri", "time": "3:30pm"}, {"days": "Sat", "time": "11:30am"}, {"days": "Sun", "time": "Closed"}], "id": "6256500017", "name": "USPS COLLECTION BOX - BLUE BOX", "address": {"city": "SHELBYVILLE", "state": "IL", "street": "2000 W MAIN ST", "postcode": "62565"}}},
{"geometry": {"type": "Point", "coordinates": [-88.7921697515, 39.4055599925]}, "type": "Feature", "properties": {"collection_times": [{"days": "Mon-Fri", "time": "5:00pm"}, {"days": "Sat", "time": "3:00pm"}, {"days": "Sun", "time": "Closed"}], "id": "6256500018", "name": "USPS COLLECTION BOX - PO LOBBY", "address": {"city": "SHELBYVILLE", "state": "IL", "street": "200 S MORGAN ST", "postcode": "62565"}}},
{"geometry": {"type": "Point", "coordinates": [-89.1899189406, 39.6398411294]}, "type": "Feature", "properties": {"collection_times": [{"days": "Mon-Fri", "time": "11:15am"}, {"days": "Sat", "time": "9:45am"}, {"days": "Sun", "time": "Closed"}], "id": "6256700001", "name": "USPS COLLECTION BOX - BLUE BOX", "address": {"city": "STONINGTON", "state": "IL", "street": "502 N MAIN ST", "postcode": "62567"}}},
{"geometry": {"type": "Point", "coordinates": [-89.1899189406, 39.6398411294]}, "type": "Feature", "properties": {"collection_times": [{"days": "Mon-Fri", "time": "11:15am"}, {"days": "Sat", "time": "9:45am"}, {"days": "Sun", "time": "Closed"}], "id": "6256700002", "name": "USPS COLLECTION BOX - PO LOBBY", "address": {"city": "STONINGTON", "state": "IL", "street": "502 N MAIN ST", "postcode": "62567"}}},
{"geometry": {"type": "Point", "coordinates": [-89.2947825768, 39.5473518131]}, "type": "Feature", "properties": {"collection_times": [{"days": "Mon-Fri", "time": "5:30pm"}, {"days": "Sat", "time": "1:00pm"}, {"days": "Sun", "time": "Closed"}], "id": "6256800000", "name": "USPS COLLECTION BOX - PO LOBBY", "address": {"city": "TAYLORVILLE", "state": "IL", "street": "300 S MAIN ST", "postcode": "62568"}}},
{"geometry": {"type": "Point", "coordinates": [-89.2947825768, 39.5473518131]}, "type": "Feature", "properties": {"collection_times": [{"days": "Mon-Fri", "time": "5:00pm"}, {"days": "Sat", "time": "1:00pm"}, {"days": "Sun", "time": "Closed"}], "id": "6256800002", "name": "USPS COLLECTION BOX - BLUE BOX", "address": {"city": "TAYLORVILLE", "state": "IL", "street": "300 S MAIN ST", "postcode": "62568"}}},
{"geometry": {"type": "Point", "coordinates": [-89.4234227727, 39.5879986428]}, "type": "Feature", "properties": {"collection_times": [{"days": "Mon-Fri", "time": "5:00pm"}, {"days": "Sat", "time": "1:00pm"}, {"days": "Sun", "time": "Closed"}], "id": "6256800004", "name": "USPS COLLECTION BOX - BLUE BOX", "address": {"city": "TAYLORVILLE", "state": "IL", "street": "303 S MAIN ST", "postcode": "62568"}}},
{"geometry": {"type": "Point", "coordinates": [-89.2948675797, 39.5493988005]}, "type": "Feature", "properties": {"collection_times": [{"days": "Mon-Fri", "time": "4:45pm"}, {"days": "Sat", "time": "12:00pm"}, {"days": "Sun", "time": "Closed"}], "id": "6256800006", "name": "USPS COLLECTION BOX - BLUE BOX", "address": {"city": "TAYLORVILLE", "state": "IL", "street": "102 N MAIN ST", "postcode": "62568"}}},
{"geometry": {"type": "Point", "coordinates": [-89.2977092055, 39.5492933851]}, "type": "Feature", "properties": {"collection_times": [{"days": "Mon-Fri", "time": "4:45pm"}, {"days": "Sat", "time": "12:00pm"}, {"days": "Sun", "time": "Closed"}], "id": "6256800007", "name": "USPS COLLECTION BOX - BLUE BOX", "address": {"city": "TAYLORVILLE", "state": "IL", "street": "322 W MAIN CROSS ST", "postcode": "62568"}}},
{"geometry": {"type": "Point", "coordinates": [-89.2962297331, 39.5494235416]}, "type": "Feature", "properties": {"collection_times": [{"days": "Mon-Fri", "time": "5:00pm"}, {"days": "Sat", "time": "12:00pm"}, {"days": "Sun", "time": "Closed"}], "id": "6256800009", "name": "USPS COLLECTION BOX - BLUE BOX", "address": {"city": "TAYLORVILLE", "state": "IL", "street": "201 W MAIN CROSS ST", "postcode": "62568"}}},
{"geometry": {"type": "Point", "coordinates": [-89.293314736, 39.5589004882]}, "type": "Feature", "properties": {"collection_times": [{"days": "Mon-Fri", "time": "4:30pm"}, {"days": "Sat", "time": "12:00pm"}, {"days": "Sun", "time": "Closed"}], "id": "6256800011", "name": "USPS COLLECTION BOX - BLUE BOX", "address": {"city": "TAYLORVILLE", "state": "IL", "street": "117 E BIDWELL ST", "postcode": "62568"}}},
{"geometry": {"type": "Point", "coordinates": [-89.2949423529, 39.5474355595]}, "type": "Feature", "properties": {"collection_times": [{"days": "Mon-Fri", "time": "5:00pm"}, {"days": "Sat", "time": "12:00pm"}, {"days": "Sun", "time": "Closed"}], "id": "6256800013", "name": "USPS COLLECTION BOX - BLUE BOX", "address": {"city": "TAYLORVILLE", "state": "IL", "street": "105 W FRANKLIN ST", "postcode": "62568"}}},
{"geometry": {"type": "Point", "coordinates": [-89.2962136824, 39.5474388276]}, "type": "Feature", "properties": {"collection_times": [{"days": "Mon-Fri", "time": "5:00pm"}, {"days": "Sat", "time": "12:00pm"}, {"days": "Sun", "time": "Closed"}], "id": "6256800015", "name": "USPS COLLECTION BOX - BLUE BOX", "address": {"city": "TAYLORVILLE", "state": "IL", "street": "203 W FRANKLIN ST", "postcode": "62568"}}},
{"geometry": {"type": "Point", "coordinates": [-89.2950499804, 39.5484425721]}, "type": "Feature", "properties": {"collection_times": [{"days": "Mon-Fri", "time": "5:00pm"}, {"days": "Sat", "time": "12:00pm"}, {"days": "Sun", "time": "Closed"}], "id": "6256800018", "name": "USPS COLLECTION BOX - BLUE BOX", "address": {"city": "TAYLORVILLE", "state": "IL", "street": "109 W MARKET ST", "postcode": "62568"}}},
{"geometry": {"type": "Point", "coordinates": [-89.305233991, 39.5528570705]}, "type": "Feature", "properties": {"collection_times": [{"days": "Mon-Fri", "time": "4:45pm"}, {"days": "Sat", "time": "12:00pm"}, {"days": "Sun", "time": "Closed"}], "id": "6256800021", "name": "USPS COLLECTION BOX - BLUE BOX", "address": {"city": "TAYLORVILLE", "state": "IL", "street": "905 W SPRESSER ST", "postcode": "62568"}}},
{"geometry": {"type": "Point", "coordinates": [-89.3026131201, 39.5529644349]}, "type": "Feature", "properties": {"collection_times": [{"days": "Mon-Fri", "time": "4:45pm"}, {"days": "Sat", "time": "12:00pm"}, {"days": "Sun", "time": "Closed"}], "id": "6256800023", "name": "USPS COLLECTION BOX - BLUE BOX", "address": {"city": "TAYLORVILLE", "state": "IL", "street": "410 N SHUMWAY ST", "postcode": "62568"}}},
{"geometry": {"type": "Point", "coordinates": [-89.2973174437, 39.5538677896]}, "type": "Feature", "properties": {"collection_times": [{"days": "Mon-Fri", "time": "4:30pm"}, {"days": "Sat", "time": "12:00pm"}, {"days": "Sun", "time": "Closed"}], "id": "6256800024", "name": "USPS COLLECTION BOX - BLUE BOX", "address": {"city": "TAYLORVILLE", "state": "IL", "street": "500 N WEBSTER ST", "postcode": "62568"}}},
{"geometry": {"type": "Point", "coordinates": [-89.3173295156, 39.5672822526]}, "type": "Feature", "properties": {"collection_times": [{"days": "Mon-Fri", "time": "4:45pm"}, {"days": "Sat", "time": "12:00pm"}, {"days": "Sun", "time": "Closed"}], "id": "6256800025", "name": "USPS COLLECTION BOX - BLUE BOX", "address": {"city": "TAYLORVILLE", "state": "IL", "street": "1175 E 1500 NORTH RD", "postcode": "62568"}}},
{"geometry": {"type": "Point", "coordinates": [-89.4489702903, 39.5898324295]}, "type": "Feature", "properties": {"collection_times": [{"days": "Mon-Fri", "time": "4:00pm"}, {"days": "Sat", "time": "9:30am"}, {"days": "Sun", "time": "Closed"}], "id": "6257000000", "name": "USPS COLLECTION BOX - BLUE BOX", "address": {"city": "TOVEY", "state": "IL", "street": "411 MIDLAND ST", "postcode": "62570"}}},
{"geometry": {"type": "Point", "coordinates": [-89.4489702903, 39.5898324295]}, "type": "Feature", "properties": {"collection_times": [{"days": "Mon-Fri", "time": "4:00pm"}, {"days": "Sat", "time": "9:30am"}, {"days": "Sun", "time": "Closed"}], "id": "6257000001", "name": "USPS COLLECTION BOX - PO LOBBY", "address": {"city": "TOVEY", "state": "IL", "street": "411 MIDLAND ST", "postcode": "62570"}}},
{"geometry": {"type": "Point", "coordinates": [-88.9602616452, 39.3886034061]}, "type": "Feature", "properties": {"collection_times": [{"days": "Mon-Fri", "time": "11:45am"}, {"days": "Sat", "time": "11:15am"}, {"days": "Sun", "time": "Closed"}], "id": "6257100001", "name": "USPS COLLECTION BOX - BLUE BOX", "address": {"city": "TOWER HILL", "state": "IL", "street": "105 S MICHIGAN ST", "postcode": "62571"}}},
{"geometry": {"type": "Point", "coordinates": [-88.9602616452, 39.3886034061]}, "type": "Feature", "properties": {"collection_times": [{"days": "Mon-Fri", "time": "11:45am"}, {"days": "Sat", "time": "11:15am"}, {"days": "Sun", "time": "Closed"}], "id": "6257100002", "name": "USPS COLLECTION BOX - PO LOBBY", "address": {"city": "TOWER HILL", "state": "IL", "street": "105 S MICHIGAN ST", "postcode": "62571"}}},
{"geometry": {"type": "Point", "coordinates": [-89.6532383792, 39.3775869211]}, "type": "Feature", "properties": {"collection_times": [{"days": "Mon-Fri", "time": "11:30am"}, {"days": "Sat", "time": "9:45am"}, {"days": "Sun", "time": "Closed"}], "id": "6257200000", "name": "USPS COLLECTION BOX - BLUE BOX", "address": {"city": "WAGGONER", "state": "IL", "street": "221 W MAIN ST", "postcode": "62572"}}},
{"geometry": {"type": "Point", "coordinates": [-89.0620089279, 39.9313742814]}, "type": "Feature", "properties": {"collection_times": [{"days": "Mon-Fri", "time": "2:45pm"}, {"days": "Sat", "time": "9:45am"}, {"days": "Sun", "time": "Closed"}], "id": "6257300001", "name": "USPS COLLECTION BOX - BLUE BOX", "address": {"city": "WARRENSBURG", "state": "IL", "street": "164 N MAIN ST", "postcode": "62573"}}},
{"geometry": {"type": "Point", "coordinates": [-89.0620089279, 39.9313742814]}, "type": "Feature", "properties": {"collection_times": [{"days": "Mon-Fri", "time": "2:45pm"}, {"days": "Sat", "time": "9:45am"}, {"days": "Sun", "time": "Closed"}], "id": "6257300002", "name": "USPS COLLECTION BOX - PO LOBBY", "address": {"city": "WARRENSBURG", "state": "IL", "street": "164 N MAIN ST", "postcode": "62573"}}}
]}
