{"type": "FeatureCollection", "features": [
{"geometry": {"type": "Point", "coordinates": [-90.0394501902, 39.7251104763]}, "type": "Feature", "properties": {"collection_times": [{"days": "Mon-Fri", "time": "3:45pm"}, {"days": "Sat", "time": "9:15am"}, {"days": "Sun", "time": "Closed"}], "id": "6260100000", "name": "USPS COLLECTION BOX - PO LOBBY", "address": {"city": "ALEXANDER", "state": "IL", "street": "107 S PARK", "postcode": "62601"}}},
{"geometry": {"type": "Point", "coordinates": [-90.0394501902, 39.7251104763]}, "type": "Feature", "properties": {"collection_times": [{"days": "Mon-Fri", "time": "3:45pm"}, {"days": "Sat", "time": "9:30am"}, {"days": "Sun", "time": "Closed"}], "id": "6260100001", "name": "USPS COLLECTION BOX - BLUE BOX", "address": {"city": "ALEXANDER", "state": "IL", "street": "107 S PARK ST", "postcode": "62601"}}},
{"geometry": {"type": "Point", "coordinates": [-90.4351262729, 39.5608160626]}, "type": "Feature", "properties": {"collection_times": [{"days": "Mon-Fri", "time": "3:45pm"}, {"days": "Sat", "time": "9:30am"}, {"days": "Sun", "time": "Closed"}], "id": "6261000000", "name": "USPS COLLECTION BOX - BLUE BOX", "address": {"city": "ALSEY", "state": "IL", "street": "101 MAIN ST", "postcode": "62610"}}},
{"geometry": {"type": "Point", "coordinates": [-90.4351262729, 39.5608160626]}, "type": "Feature", "properties": {"collection_times": [{"days": "Mon-Fri", "time": "3:45pm"}, {"days": "Sat", "time": "9:15am"}, {"days": "Sun", "time": "Closed"}], "id": "6261000001", "name": "USPS COLLECTION BOX - PO LOBBY", "address": {"city": "ALSEY", "state": "IL", "street": "101 MAIN ST", "postcode": "62610"}}},
{"geometry": {"type": "Point", "coordinates": [-90.3711155577, 39.8774966678]}, "type": "Feature", "properties": {"collection_times": [{"days": "Mon-Fri", "time": "11:45am"}, {"days": "Sat", "time": "10:30am"}, {"days": "Sun", "time": "Closed"}], "id": "6261100000", "name": "USPS COLLECTION BOX - BLUE BOX", "address": {"city": "ARENZVILLE", "state": "IL", "street": "213 W FREDERICK ST", "postcode": "62611"}}},
{"geometry": {"type": "Point", "coordinates": [-90.3711155577, 39.8774966678]}, "type": "Feature", "properties": {"collection_times": [{"days": "Mon-Fri", "time": "11:45am"}, {"days": "Sat", "time": "10:30am"}, {"days": "Sun", "time": "Closed"}], "id": "6261100001", "name": "USPS COLLECTION BOX - PO LOBBY", "address": {"city": "ARENZVILLE", "state": "IL", "street": "213 W FREDERICK ST", "postcode": "62611"}}},
{"geometry": {"type": "Point", "coordinates": [-90.0072971345, 39.8887061608]}, "type": "Feature", "properties": {"collection_times": [{"days": "Mon-Fri", "time": "4:00pm"}, {"days": "Sat", "time": "11:00am"}, {"days": "Sun", "time": "Closed"}], "id": "6261200001", "name": "USPS COLLECTION BOX - BLUE BOX", "address": {"city": "ASHLAND", "state": "IL", "street": "124 N YATES ST", "postcode": "62612"}}},
{"geometry": {"type": "Point", "coordinates": [-90.0072971345, 39.8887061608]}, "type": "Feature", "properties": {"collection_times": [{"days": "Mon-Fri", "time": "4:00pm"}, {"days": "Sat", "time": "11:00am"}, {"days": "Sun", "time": "Closed"}], "id": "6261200002", "name": "USPS COLLECTION BOX - PO LOBBY", "address": {"city": "ASHLAND", "state": "IL", "street": "124 N YATES ST", "postcode": "62612"}}},
{"geometry": {"type": "Point", "coordinates": [-89.7238984611, 39.9614481779]}, "type": "Feature", "properties": {"collection_times": [{"days": "Mon-Fri", "time": "4:15pm"}, {"days": "Sat", "time": "11:00am"}, {"days": "Sun", "time": "Closed"}], "id": "6261300001", "name": "USPS COLLECTION BOX - BLUE BOX", "address": {"city": "ATHENS", "state": "IL", "street": "214 N MAIN ST", "postcode": "62613"}}},
{"geometry": {"type": "Point", "coordinates": [-89.7240414982, 39.961446636]}, "type": "Feature", "properties": {"collection_times": [{"days": "Mon-Fri", "time": "4:15pm"}, {"days": "Sat", "time": "10:45am"}, {"days": "Sun", "time": "Closed"}], "id": "6261300002", "name": "USPS COLLECTION BOX - PO LOBBY", "address": {"city": "ATHENS", "state": "IL", "street": "215 N MAIN ST", "postcode": "62613"}}},
{"geometry": {"type": "Point", "coordinates": [-89.7463080222, 39.589878034]}, "type": "Feature", "properties": {"collection_times": [{"days": "Mon-Fri", "time": "5:00pm"}, {"days": "Sat", "time": "11:00am"}, {"days": "Sun", "time": "Closed"}], "id": "6261500000", "name": "USPS COLLECTION BOX - BLUE BOX", "address": {"city": "AUBURN", "state": "IL", "street": "202 S 5TH ST", "postcode": "62615"}}},
{"geometry": {"type": "Point", "coordinates": [-89.7463080222, 39.589878034]}, "type": "Feature", "properties": {"collection_times": [{"days": "Mon-Fri", "time": "5:00pm"}, {"days": "Sat", "time": "11:00am"}, {"days": "Sun", "time": "Closed"}], "id": "6261500002", "name": "USPS COLLECTION BOX - PO LOBBY", "address": {"city": "AUBURN", "state": "IL", "street": "202 S 5TH ST", "postcode": "62615"}}},
{"geometry": {"type": "Point", "coordinates": [-90.1433330086, 40.1910399481]}, "type": "Feature", "properties": {"collection_times": [{"days": "Mon-Fri", "time": "11:45am"}, {"days": "Sat", "time": "9:45am"}, {"days": "Sun", "time": "Closed"}], "id": "6261700001", "name": "USPS COLLECTION BOX - BLUE BOX", "address": {"city": "BATH", "state": "IL", "street": "109 E 1ST ST", "postcode": "62617"}}},
{"geometry": {"type": "Point", "coordinates": [-90.1433330086, 40.1910399481]}, "type": "Feature", "properties": {"collection_times": [{"days": "Mon-Fri", "time": "11:45am"}, {"days": "Sat", "time": "9:45am"}, {"days": "Sun", "time": "Closed"}], "id": "6261700002", "name": "USPS COLLECTION BOX - PO LOBBY", "address": {"city": "BATH", "state": "IL", "street": "109 E 1ST ST", "postcode": "62617"}}},
{"geometry": {"type": "Point", "coordinates": [-90.4349189192, 40.0181782738]}, "type": "Feature", "properties": {"collection_times": [{"days": "Mon-Fri", "time": "5:00pm"}, {"days": "Sat", "time": "3:30pm"}, {"days": "Sun", "time": "Closed"}], "id": "6261800001", "name": "USPS COLLECTION BOX - BLUE BOX", "address": {"city": "BEARDSTOWN", "state": "IL", "street": "101 E MAIN ST", "postcode": "62618"}}},
{"geometry": {"type": "Point", "coordinates": [-90.4338944834, 40.0166590911]}, "type": "Feature", "properties": {"collection_times": [{"days": "Mon-Fri", "time": "4:45pm"}, {"days": "Sat", "time": "3:00pm"}, {"days": "Sun", "time": "Closed"}], "id": "6261800003", "name": "USPS COLLECTION BOX - BLUE BOX", "address": {"city": "BEARDSTOWN", "state": "IL", "street": "300 S STATE ST", "postcode": "62618"}}},
{"geometry": {"type": "Point", "coordinates": [-90.4349189192, 40.0181782738]}, "type": "Feature", "properties": {"collection_times": [{"days": "Mon-Fri", "time": "5:00pm"}, {"days": "Sat", "time": "3:45pm"}, {"days": "Sun", "time": "Closed"}], "id": "6261800009", "name": "USPS COLLECTION BOX - PO LOBBY", "address": {"city": "BEARDSTOWN", "state": "IL", "street": "101 E MAIN ST", "postcode": "62618"}}},
{"geometry": {"type": "Point", "coordinates": [-90.5344639138, 39.7503289942]}, "type": "Feature", "properties": {"collection_times": [{"days": "Mon-Fri", "time": "12:45pm"}, {"days": "Sat", "time": "10:15am"}, {"days": "Sun", "time": "Closed"}], "id": "6262100001", "name": "USPS COLLECTION BOX - BLUE BOX", "address": {"city": "BLUFFS", "state": "IL", "street": "119 E OAKES ST", "postcode": "62621"}}},
{"geometry": {"type": "Point", "coordinates": [-90.5344639138, 39.7503289942]}, "type": "Feature", "properties": {"collection_times": [{"days": "Mon-Fri", "time": "12:45pm"}, {"days": "Sat", "time": "10:15am"}, {"days": "Sun", "time": "Closed"}], "id": "6262100002", "name": "USPS COLLECTION BOX - PO LOBBY", "address": {"city": "BLUFFS", "state": "IL", "street": "119 E OAKES ST", "postcode": "62621"}}},
{"geometry": {"type": "Point", "coordinates": [-90.3460942455, 39.9900848199]}, "type": "Feature", "properties": {"collection_times": [{"days": "Mon-Fri", "time": "4:15pm"}, {"days": "Sat", "time": "8:15am"}, {"days": "Sun", "time": "Closed"}], "id": "6262200000", "name": "USPS COLLECTION BOX - BLUE BOX", "address": {"city": "BLUFF SPRINGS", "state": "IL", "street": "7463 S BLUFF SPRINGS RD", "postcode": "62622"}}},
{"geometry": {"type": "Point", "coordinates": [-90.3460942455, 39.9900848199]}, "type": "Feature", "properties": {"collection_times": [{"days": "Mon-Fri", "time": "4:15pm"}, {"days": "Sat", "time": "8:00am"}, {"days": "Sun", "time": "Closed"}], "id": "6262200001", "name": "USPS COLLECTION BOX - PO LOBBY", "address": {"city": "BLUFF SPRINGS", "state": "IL", "street": "7463 S BLUFF SPRINGS RD", "postcode": "62622"}}},
{"geometry": {"type": "Point", "coordinates": [-89.6739709036, 39.9344135125]}, "type": "Feature", "properties": {"collection_times": [{"days": "Mon-Fri", "time": "4:30pm"}, {"days": "Sat", "time": "10:00am"}, {"days": "Sun", "time": "Closed"}], "id": "6262500000", "name": "USPS COLLECTION BOX - BLUE BOX", "address": {"city": "CANTRALL", "state": "IL", "street": "9446 STATE ROUTE 29", "postcode": "62625"}}},
{"geometry": {"type": "Point", "coordinates": [-89.6739709036, 39.9344135125]}, "type": "Feature", "properties": {"collection_times": [{"days": "Mon-Fri", "time": "11:45am"}, {"days": "Sat", "time": "11:15am"}, {"days": "Sun", "time": "Closed"}], "id": "6262500001", "name": "USPS COLLECTION BOX - PO LOBBY", "address": {"city": "CANTRALL", "state": "IL", "street": "9446 STATE ROUTE 29", "postcode": "62625"}}},
{"geometry": {"type": "Point", "coordinates": [-89.8812563928, 39.2785973605]}, "type": "Feature", "properties": {"collection_times": [{"days": "Mon-Fri", "time": "5:00pm"}, {"days": "Sat", "time": "4:30pm"}, {"days": "Sun", "time": "Closed"}], "id": "6262600000", "name": "USPS COLLECTION BOX - BLUE BOX", "address": {"city": "CARLINVILLE", "state": "IL", "street": "129 E 1ST SOUTH ST", "postcode": "62626"}}},
{"geometry": {"type": "Point", "coordinates": [-89.8795490141, 39.2797929934]}, "type": "Feature", "properties": {"collection_times": [{"days": "Mon-Fri", "time": "4:30pm"}, {"days": "Sat", "time": "3:45pm"}, {"days": "Sun", "time": "Closed"}], "id": "6262600003", "name": "USPS COLLECTION BOX - BLUE BOX", "address": {"city": "CARLINVILLE", "state": "IL", "street": "240 E MAIN ST", "postcode": "62626"}}},
{"geometry": {"type": "Point", "coordinates": [-89.8801309481, 39.2797057262]}, "type": "Feature", "properties": {"collection_times": [{"days": "Mon-Fri", "time": "4:30pm"}, {"days": "Sat-Sun", "time": "Closed"}], "id": "6262600004", "name": "USPS COLLECTION BOX - BLUE BOX", "address": {"city": "CARLINVILLE", "state": "IL", "street": "201 E MAIN ST", "postcode": "62626"}}},
{"geometry": {"type": "Point", "coordinates": [-89.8889064666, 39.2819422037]}, "type": "Feature", "properties": {"collection_times": [{"days": "Mon-Fri", "time": "4:30pm"}, {"days": "Sat", "time": "3:45pm"}, {"days": "Sun", "time": "Closed"}], "id": "6262600008", "name": "USPS COLLECTION BOX - BLUE BOX", "address": {"city": "CARLINVILLE", "state": "IL", "street": "130 N CHILES ST", "postcode": "62626"}}},
{"geometry": {"type": "Point", "coordinates": [-89.8754759148, 39.2934121128]}, "type": "Feature", "properties": {"collection_times": [{"days": "Mon-Fri", "time": "4:30pm"}, {"days": "Sat", "time": "3:45pm"}, {"days": "Sun", "time": "Closed"}], "id": "6262600011", "name": "USPS COLLECTION BOX - BLUE BOX", "address": {"city": "CARLINVILLE", "state": "IL", "street": "120 CARLINVILLE PLZ", "postcode": "62626"}}},
{"geometry": {"type": "Point", "coordinates": [-89.8812563928, 39.2785973605]}, "type": "Feature", "properties": {"collection_times": [{"days": "Mon-Fri", "time": "5:00pm"}, {"days": "Sat", "time": "4:30pm"}, {"days": "Sun", "time": "Closed"}], "id": "6262600012", "name": "USPS COLLECTION BOX - PO LOBBY", "address": {"city": "CARLINVILLE", "state": "IL", "street": "129 E 1ST SOUTH ST", "postcode": "62626"}}},
{"geometry": {"type": "Point", "coordinates": [-90.1520746621, 40.047548256]}, "type": "Feature", "properties": {"collection_times": [{"days": "Mon-Fri", "time": "10:45am"}, {"days": "Sat", "time": "9:15am"}, {"days": "Sun", "time": "Closed"}], "id": "6262700000", "name": "USPS COLLECTION BOX - BLUE BOX", "address": {"city": "CHANDLERVILLE", "state": "IL", "street": "201 S MAIN ST", "postcode": "62627"}}},
{"geometry": {"type": "Point", "coordinates": [-90.1520746621, 40.047548256]}, "type": "Feature", "properties": {"collection_times": [{"days": "Mon-Fri", "time": "10:45am"}, {"days": "Sat", "time": "9:15am"}, {"days": "Sun", "time": "Closed"}], "id": "6262700001", "name": "USPS COLLECTION BOX - PO LOBBY", "address": {"city": "CHANDLERVILLE", "state": "IL", "street": "201 S MAIN ST", "postcode": "62627"}}},
{"geometry": {"type": "Point", "coordinates": [-90.4014179841, 39.7657340186]}, "type": "Feature", "properties": {"collection_times": [{"days": "Mon-Fri", "time": "11:15am"}, {"days": "Sat", "time": "9:45am"}, {"days": "Sun", "time": "Closed"}], "id": "6262800001", "name": "USPS COLLECTION BOX - BLUE BOX", "address": {"city": "CHAPIN", "state": "IL", "street": "520 SUPERIOR ST", "postcode": "62628"}}},
{"geometry": {"type": "Point", "coordinates": [-90.4014179841, 39.7657340186]}, "type": "Feature", "properties": {"collection_times": [{"days": "Mon-Fri", "time": "11:15am"}, {"days": "Sat", "time": "9:45am"}, {"days": "Sun", "time": "Closed"}], "id": "6262800002", "name": "USPS COLLECTION BOX - PO LOBBY", "address": {"city": "CHAPIN", "state": "IL", "street": "520 SUPERIOR ST", "postcode": "62628"}}},
{"geometry": {"type": "Point", "coordinates": [-89.7042864985, 39.6763770929]}, "type": "Feature", "properties": {"collection_times": [{"days": "Mon-Fri", "time": "5:00pm"}, {"days": "Sat", "time": "3:30pm"}, {"days": "Sun", "time": "Closed"}], "id": "6262900001", "name": "USPS COLLECTION BOX - BLUE BOX", "address": {"city": "CHATHAM", "state": "IL", "street": "111 E WALNUT ST", "postcode": "62629"}}},
{"geometry": {"type": "Point", "coordinates": [-89.7042864985, 39.6763770929]}, "type": "Feature", "properties": {"collection_times": [{"days": "Mon-Fri", "time": "5:00pm"}, {"days": "Sat", "time": "3:30pm"}, {"days": "Sun", "time": "Closed"}], "id": "6262900005", "name": "USPS COLLECTION BOX - PO LOBBY", "address": {"city": "CHATHAM", "state": "IL", "street": "111 E WALNUT ST", "postcode": "62629"}}},
{"geometry": {"type": "Point", "coordinates": [-89.6980251019, 39.6723282513]}, "type": "Feature", "properties": {"collection_times": [{"days": "Mon-Sat", "time": "2:00pm"}, {"days": "Sun", "time": "Closed"}], "id": "6262900006", "name": "USPS COLLECTION BOX - BLUE BOX", "address": {"city": "CHATHAM", "state": "IL", "street": "600 E SPRUCE ST", "postcode": "62629"}}},
{"geometry": {"type": "Point", "coordinates": [-89.7063393718, 39.6859907353]}, "type": "Feature", "properties": {"collection_times": [{"days": "Mon-Sat", "time": "1:00pm"}, {"days": "Sun", "time": "Closed"}], "id": "6262900007", "name": "USPS COLLECTION BOX - BLUE BOX", "address": {"city": "CHATHAM", "state": "IL", "street": "50 W PLUMMER BLVD", "postcode": "62629"}}},
{"geometry": {"type": "Point", "coordinates": [-89.7042864985, 39.6763770931]}, "type": "Feature", "properties": {"collection_times": [{"days": "Mon-Fri", "time": "5:00pm"}, {"days": "Sat", "time": "3:30pm"}, {"days": "Sun", "time": "Closed"}], "id": "6262900008", "name": "USPS COLLECTION BOX - BLUE BOX", "address": {"city": "CHATHAM", "state": "IL", "street": "111 E WALNUT ST", "postcode": "62629"}}},
{"geometry": {"type": "Point", "coordinates": [-90.0923789826, 39.2674067856]}, "type": "Feature", "properties": {"collection_times": [{"days": "Mon-Fri", "time": "11:15am"}, {"days": "Sat", "time": "9:45am"}, {"days": "Sun", "time": "Closed"}], "id": "6263000001", "name": "USPS COLLECTION BOX - BLUE BOX", "address": {"city": "CHESTERFIELD", "state": "IL", "street": "20 S MAIN ST", "postcode": "62630"}}},
{"geometry": {"type": "Point", "coordinates": [-90.0923789826, 39.2674067856]}, "type": "Feature", "properties": {"collection_times": [{"days": "Mon-Fri", "time": "11:15am"}, {"days": "Sat", "time": "9:45am"}, {"days": "Sun", "time": "Closed"}], "id": "6263000002", "name": "USPS COLLECTION BOX - PO LOBBY", "address": {"city": "CHESTERFIELD", "state": "IL", "street": "20 S MAIN ST", "postcode": "62630"}}},
{"geometry": {"type": "Point", "coordinates": [-90.3728362297, 39.8164783196]}, "type": "Feature", "properties": {"collection_times": [{"days": "Mon-Fri", "time": "4:00pm"}, {"days": "Sat", "time": "10:00am"}, {"days": "Sun", "time": "Closed"}], "id": "6263100000", "name": "USPS COLLECTION BOX - BLUE BOX", "address": {"city": "CONCORD", "state": "IL", "street": "403 STATE ST", "postcode": "62631"}}},
{"geometry": {"type": "Point", "coordinates": [-90.3728362297, 39.8164783196]}, "type": "Feature", "properties": {"collection_times": [{"days": "Mon-Fri", "time": "3:45pm"}, {"days": "Sat", "time": "12:45pm"}, {"days": "Sun", "time": "Closed"}], "id": "6263100001", "name": "USPS COLLECTION BOX - PO LOBBY", "address": {"city": "CONCORD", "state": "IL", "street": "403 STATE ST", "postcode": "62631"}}},
{"geometry": {"type": "Point", "coordinates": [-89.8440260383, 40.2324226663]}, "type": "Feature", "properties": {"collection_times": [{"days": "Mon-Fri", "time": "11:45am"}, {"days": "Sat", "time": "9:30am"}, {"days": "Sun", "time": "Closed"}], "id": "6263300001", "name": "USPS COLLECTION BOX - BLUE BOX", "address": {"city": "EASTON", "state": "IL", "street": "104 S 2ND ST", "postcode": "62633"}}},
{"geometry": {"type": "Point", "coordinates": [-89.8440260383, 40.2324226663]}, "type": "Feature", "properties": {"collection_times": [{"days": "Mon-Fri", "time": "11:45am"}, {"days": "Sat", "time": "9:30am"}, {"days": "Sun", "time": "Closed"}], "id": "6263300002", "name": "USPS COLLECTION BOX - PO LOBBY", "address": {"city": "EASTON", "state": "IL", "street": "104 S 2ND ST", "postcode": "62633"}}},
{"geometry": {"type": "Point", "coordinates": [-89.4820837448, 40.0202421734]}, "type": "Feature", "properties": {"collection_times": [{"days": "Mon-Fri", "time": "11:45am"}, {"days": "Sat", "time": "9:15am"}, {"days": "Sun", "time": "Closed"}], "id": "6263400000", "name": "USPS COLLECTION BOX - PO LOBBY", "address": {"city": "ELKHART", "state": "IL", "street": "106 N BOGARDUS ST", "postcode": "62634"}}},
{"geometry": {"type": "Point", "coordinates": [-89.4820837448, 40.0202421734]}, "type": "Feature", "properties": {"collection_times": [{"days": "Mon-Fri", "time": "11:45am"}, {"days": "Sat", "time": "9:15am"}, {"days": "Sun", "time": "Closed"}], "id": "6263400003", "name": "USPS COLLECTION BOX - BLUE BOX", "address": {"city": "ELKHART", "state": "IL", "street": "106 N BOGARDUS ST", "postcode": "62634"}}},
{"geometry": {"type": "Point", "coordinates": [-89.4848523299, 40.2986605056]}, "type": "Feature", "properties": {"collection_times": [{"days": "Mon-Fri", "time": "11:45am"}, {"days": "Sat", "time": "9:45am"}, {"days": "Sun", "time": "Closed"}], "id": "6263500001", "name": "USPS COLLECTION BOX - BLUE BOX", "address": {"city": "EMDEN", "state": "IL", "street": "304 LINCOLN ST", "postcode": "62635"}}},
{"geometry": {"type": "Point", "coordinates": [-89.4848523299, 40.2986605056]}, "type": "Feature", "properties": {"collection_times": [{"days": "Mon-Fri", "time": "11:45am"}, {"days": "Sat", "time": "9:45am"}, {"days": "Sun", "time": "Closed"}], "id": "6263500002", "name": "USPS COLLECTION BOX - PO LOBBY", "address": {"city": "EMDEN", "state": "IL", "street": "304 LINCOLN ST", "postcode": "62635"}}},
{"geometry": {"type": "Point", "coordinates": [-90.0462471756, 39.6222997972]}, "type": "Feature", "properties": {"collection_times": [{"days": "Mon-Fri", "time": "11:15am"}, {"days": "Sat", "time": "9:45am"}, {"days": "Sun", "time": "Closed"}], "id": "6263800000", "name": "USPS COLLECTION BOX - BLUE BOX", "address": {"city": "FRANKLIN", "state": "IL", "street": "312 WYATT ST", "postcode": "62638"}}},
{"geometry": {"type": "Point", "coordinates": [-90.0462471756, 39.6222997972]}, "type": "Feature", "properties": {"collection_times": [{"days": "Mon-Fri", "time": "11:15am"}, {"days": "Sat", "time": "9:45am"}, {"days": "Sun", "time": "Closed"}], "id": "6263800001", "name": "USPS COLLECTION BOX - PO LOBBY", "address": {"city": "FRANKLIN", "state": "IL", "street": "312 WYATT ST", "postcode": "62638"}}},
{"geometry": {"type": "Point", "coordinates": [-89.7792649193, 39.4458753818]}, "type": "Feature", "properties": {"collection_times": [{"days": "Mon-Fri", "time": "4:30pm"}, {"days": "Sat", "time": "11:00am"}, {"days": "Sun", "time": "Closed"}], "id": "6264000000", "name": "USPS COLLECTION BOX - BLUE BOX", "address": {"city": "GIRARD", "state": "IL", "street": "153 S 2ND ST", "postcode": "62640"}}},
{"geometry": {"type": "Point", "coordinates": [-89.7792649193, 39.4458753818]}, "type": "Feature", "properties": {"collection_times": [{"days": "Mon-Fri", "time": "4:30pm"}, {"days": "Sat", "time": "11:00am"}, {"days": "Sun", "time": "Closed"}], "id": "6264000001", "name": "USPS COLLECTION BOX - PO LOBBY", "address": {"city": "GIRARD", "state": "IL", "street": "153 S 2ND ST", "postcode": "62640"}}},
{"geometry": {"type": "Point", "coordinates": [-89.780507751, 39.4463157391]}, "type": "Feature", "properties": {"collection_times": [{"days": "Mon-Fri", "time": "2:00pm"}, {"days": "Sat", "time": "11:00am"}, {"days": "Sun", "time": "Closed"}], "id": "6264000002", "name": "USPS COLLECTION BOX - BLUE BOX", "address": {"city": "GIRARD", "state": "IL", "street": "102 S 3RD ST", "postcode": "62640"}}},
{"geometry": {"type": "Point", "coordinates": [-89.7401339892, 40.0843950873]}, "type": "Feature", "properties": {"collection_times": [{"days": "Mon-Fri", "time": "4:00pm"}, {"days": "Sat", "time": "10:00am"}, {"days": "Sun", "time": "Closed"}], "id": "6264200001", "name": "USPS COLLECTION BOX - BLUE BOX", "address": {"city": "GREENVIEW", "state": "IL", "street": "158 W WASHINGTON ST", "postcode": "62642"}}},
{"geometry": {"type": "Point", "coordinates": [-89.7401339892, 40.0843950873]}, "type": "Feature", "properties": {"collection_times": [{"days": "Mon-Fri", "time": "3:45pm"}, {"days": "Sat", "time": "9:15am"}, {"days": "Sun", "time": "Closed"}], "id": "6264200002", "name": "USPS COLLECTION BOX - PO LOBBY", "address": {"city": "GREENVIEW", "state": "IL", "street": "158 W WASHINGTON ST", "postcode": "62642"}}},
{"geometry": {"type": "Point", "coordinates": [-89.4407974161, 40.249155174]}, "type": "Feature", "properties": {"collection_times": [{"days": "Mon-Fri", "time": "11:45am"}, {"days": "Sat", "time": "10:00am"}, {"days": "Sun", "time": "Closed"}], "id": "6264300001", "name": "USPS COLLECTION BOX - BLUE BOX", "address": {"city": "HARTSBURG", "state": "IL", "street": "112 N 2ND ST", "postcode": "62643"}}},
{"geometry": {"type": "Point", "coordinates": [-89.4407974161, 40.249155174]}, "type": "Feature", "properties": {"collection_times": [{"days": "Mon-Fri", "time": "11:45am"}, {"days": "Sat", "time": "10:00am"}, {"days": "Sun", "time": "Closed"}], "id": "6264300002", "name": "USPS COLLECTION BOX - PO LOBBY", "address": {"city": "HARTSBURG", "state": "IL", "street": "112 N 2ND ST", "postcode": "62643"}}},
{"geometry": {"type": "Point", "coordinates": [-90.0637488429, 40.2997521112]}, "type": "Feature", "properties": {"collection_times": [{"days": "Mon-Fri", "time": "5:00pm"}, {"days": "Sat", "time": "3:30pm"}, {"days": "Sun", "time": "Closed"}], "id": "6264400004", "name": "USPS COLLECTION BOX - BLUE BOX", "address": {"city": "HAVANA", "state": "IL", "street": "128 S ORANGE ST", "postcode": "62644"}}},
{"geometry": {"type": "Point", "coordinates": [-90.0637522369, 40.3001244147]}, "type": "Feature", "properties": {"collection_times": [{"days": "Mon-Sat", "time": "9:30am"}, {"days": "Sun", "time": "Closed"}], "id": "6264400009", "name": "USPS COLLECTION BOX - BLUE BOX", "address": {"city": "HAVANA", "state": "IL", "street": "100 N ORANGE ST", "postcode": "62644"}}},
{"geometry": {"type": "Point", "coordinates": [-90.0606540839, 40.3001178028]}, "type": "Feature", "properties": {"collection_times": [{"days": "Mon-Sat", "time": "3:30pm"}, {"days": "Sun", "time": "Closed"}], "id": "6264400012", "name": "USPS COLLECTION BOX - BLUE BOX", "address": {"city": "HAVANA", "state": "IL", "street": "100 N BROADWAY ST", "postcode": "62644"}}},
{"geometry": {"type": "Point", "coordinates": [-90.0480502497, 40.2968850519]}, "type": "Feature", "properties": {"collection_times": [{"days": "Mon-Sat", "time": "10:00am"}, {"days": "Sun", "time": "Closed"}], "id": "6264400014", "name": "USPS COLLECTION BOX - BLUE BOX", "address": {"city": "HAVANA", "state": "IL", "street": "1001 E LAUREL AVE", "postcode": "62644"}}},
{"geometry": {"type": "Point", "coordinates": [-90.0606540839, 40.3001178028]}, "type": "Feature", "properties": {"collection_times": [{"days": "Mon-Sat", "time": "3:30pm"}, {"days": "Sun", "time": "Closed"}], "id": "6264400016", "name": "USPS COLLECTION BOX - BLUE BOX", "address": {"city": "HAVANA", "state": "IL", "street": "100 N BROADWAY ST", "postcode": "62644"}}},
{"geometry": {"type": "Point", "coordinates": [-90.0637488429, 40.2997521112]}, "type": "Feature", "properties": {"collection_times": [{"days": "Mon-Fri", "time": "5:00pm"}, {"days": "Sat", "time": "3:30pm"}, {"days": "Sun", "time": "Closed"}], "id": "6264400018", "name": "USPS COLLECTION BOX - PO LOBBY", "address": {"city": "HAVANA", "state": "IL", "street": "128 S ORANGE ST", "postcode": "62644"}}},
{"geometry": {"type": "Point", "coordinates": [-90.0823993887, 39.3595404313]}, "type": "Feature", "properties": {"collection_times": [{"days": "Mon-Fri", "time": "11:45am"}, {"days": "Sat", "time": "10:00am"}, {"days": "Sun", "time": "Closed"}], "id": "6264900000", "name": "USPS COLLECTION BOX - BLUE BOX", "address": {"city": "HETTICK", "state": "IL", "street": "116 E POST ST", "postcode": "62649"}}},
{"geometry": {"type": "Point", "coordinates": [-90.0823993887, 39.3595404313]}, "type": "Feature", "properties": {"collection_times": [{"days": "Mon-Fri", "time": "11:45am"}, {"days": "Sat", "time": "10:00am"}, {"days": "Sun", "time": "Closed"}], "id": "6264900001", "name": "USPS COLLECTION BOX - PO LOBBY", "address": {"city": "HETTICK", "state": "IL", "street": "116 E POST ST", "postcode": "62649"}}},
{"geometry": {"type": "Point", "coordinates": [-90.2299620339, 39.7361335638]}, "type": "Feature", "properties": {"collection_times": [{"days": "Mon-Fri", "time": "4:00pm"}, {"days": "Sat", "time": "3:30pm"}, {"days": "Sun", "time": "Closed"}], "id": "6265000001", "name": "USPS COLLECTION BOX - BLUE BOX", "address": {"city": "JACKSONVILLE", "state": "IL", "street": "200 W DOUGLAS AVE", "postcode": "62650"}}},
{"geometry": {"type": "Point", "coordinates": [-90.2623675576, 39.72312587]}, "type": "Feature", "properties": {"collection_times": [{"days": "Mon-Fri", "time": "4:15pm"}, {"days": "Sat", "time": "2:15pm"}, {"days": "Sun", "time": "Closed"}], "id": "6265000005", "name": "USPS COLLECTION BOX - BLUE BOX", "address": {"city": "JACKSONVILLE", "state": "IL", "street": "1802 W MORTON AVE", "postcode": "62650"}}},
{"geometry": {"type": "Point", "coordinates": [-90.2598493646, 39.7453241304]}, "type": "Feature", "properties": {"collection_times": [{"days": "Mon-Fri", "time": "4:15pm"}, {"days": "Sat", "time": "2:15pm"}, {"days": "Sun", "time": "Closed"}], "id": "6265000006", "name": "USPS COLLECTION BOX - BLUE BOX", "address": {"city": "JACKSONVILLE", "state": "IL", "street": "1600 W WALNUT ST", "postcode": "62650"}}},
{"geometry": {"type": "Point", "coordinates": [-90.2578564762, 39.7452095889]}, "type": "Feature", "properties": {"collection_times": [{"days": "Mon-Fri", "time": "4:15pm"}, {"days": "Sat", "time": "2:15pm"}, {"days": "Sun", "time": "Closed"}], "id": "6265000007", "name": "USPS COLLECTION BOX - BLUE BOX", "address": {"city": "JACKSONVILLE", "state": "IL", "street": "1515 W WALNUT ST", "postcode": "62650"}}},
{"geometry": {"type": "Point", "coordinates": [-90.235065667, 39.7241441752]}, "type": "Feature", "properties": {"collection_times": [{"days": "Mon-Fri", "time": "3:45pm"}, {"days": "Sat", "time": "2:45pm"}, {"days": "Sun", "time": "Closed"}], "id": "6265000009", "name": "USPS COLLECTION BOX - BLUE BOX", "address": {"city": "JACKSONVILLE", "state": "IL", "street": "836 S FAYETTE ST", "postcode": "62650"}}},
{"geometry": {"type": "Point", "coordinates": [-90.2410327004, 39.7231451663]}, "type": "Feature", "properties": {"collection_times": [{"days": "Mon-Fri", "time": "3:45pm"}, {"days": "Sat", "time": "3:00pm"}, {"days": "Sun", "time": "Closed"}], "id": "6265000010", "name": "USPS COLLECTION BOX - BLUE BOX", "address": {"city": "JACKSONVILLE", "state": "IL", "street": "901 W MORTON AVE", "postcode": "62650"}}},
{"geometry": {"type": "Point", "coordinates": [-90.2304488743, 39.7342284545]}, "type": "Feature", "properties": {"collection_times": [{"days": "Mon-Fri", "time": "4:00pm"}, {"days": "Sat", "time": "3:30pm"}, {"days": "Sun", "time": "Closed"}], "id": "6265000017", "name": "USPS COLLECTION BOX - BLUE BOX", "address": {"city": "JACKSONVILLE", "state": "IL", "street": "235 W STATE ST", "postcode": "62650"}}},
{"geometry": {"type": "Point", "coordinates": [-90.2317510433, 39.7335840657]}, "type": "Feature", "properties": {"collection_times": [{"days": "Mon-Fri", "time": "4:00pm"}, {"days": "Sat", "time": "3:30pm"}, {"days": "Sun", "time": "Closed"}], "id": "6265000020", "name": "USPS COLLECTION BOX - BLUE BOX", "address": {"city": "JACKSONVILLE", "state": "IL", "street": "309 W MORGAN ST", "postcode": "62650"}}},
{"geometry": {"type": "Point", "coordinates": [-90.2441137542, 39.7224438351]}, "type": "Feature", "properties": {"collection_times": [{"days": "Mon-Fri", "time": "4:45pm"}, {"days": "Sat", "time": "2:45pm"}, {"days": "Sun", "time": "Closed"}], "id": "6265000024", "name": "USPS COLLECTION BOX - BLUE BOX", "address": {"city": "JACKSONVILLE", "state": "IL", "street": "1122 VETERANS DR", "postcode": "62650"}}},
{"geometry": {"type": "Point", "coordinates": [-90.2291500493, 39.7085983224]}, "type": "Feature", "properties": {"collection_times": [{"days": "Mon-Sat", "time": "2:45pm"}, {"days": "Sun", "time": "Closed"}], "id": "6265000030", "name": "USPS COLLECTION BOX - BLUE BOX", "address": {"city": "JACKSONVILLE", "state": "IL", "street": "1800 S MAIN ST", "postcode": "62650"}}},
{"geometry": {"type": "Point", "coordinates": [-90.2299330714, 39.7349522355]}, "type": "Feature", "properties": {"collection_times": [{"days": "Mon-Sat", "time": "5:30pm"}, {"days": "Sun", "time": "Closed"}], "id": "6265000044", "name": "USPS COLLECTION BOX - BLUE BOX", "address": {"city": "JACKSONVILLE", "state": "IL", "street": "200 W COURT ST", "postcode": "62650"}}},
{"geometry": {"type": "Point", "coordinates": [-90.2298412316, 39.7349022358]}, "type": "Feature", "properties": {"collection_times": [{"days": "Mon-Sat", "time": "5:30pm"}, {"days": "Sun", "time": "Closed"}], "id": "6265000045", "name": "USPS COLLECTION BOX - BLUE BOX", "address": {"city": "JACKSONVILLE", "state": "IL", "street": "200 N SANDY ST", "postcode": "62650"}}},
{"geometry": {"type": "Point", "coordinates": [-90.2579159174, 39.7380448309]}, "type": "Feature", "properties": {"collection_times": [{"days": "Mon-Fri", "time": "4:15pm"}, {"days": "Sat", "time": "2:15pm"}, {"days": "Sun", "time": "Closed"}], "id": "6265000046", "name": "USPS COLLECTION BOX - BLUE BOX", "address": {"city": "JACKSONVILLE", "state": "IL", "street": "1608 W LAFAYETTE AVE", "postcode": "62650"}}},
{"geometry": {"type": "Point", "coordinates": [-90.2482969874, 39.7231473714]}, "type": "Feature", "properties": {"collection_times": [{"days": "Mon-Fri", "time": "4:30pm"}, {"days": "Sat", "time": "2:45pm"}, {"days": "Sun", "time": "Closed"}], "id": "6265000047", "name": "USPS COLLECTION BOX - BLUE BOX", "address": {"city": "JACKSONVILLE", "state": "IL", "street": "1211 W MORTON AVE", "postcode": "62650"}}},
{"geometry": {"type": "Point", "coordinates": [-90.2299330714, 39.7349522355]}, "type": "Feature", "properties": {"collection_times": [{"days": "Mon-Sat", "time": "5:30pm"}, {"days": "Sun", "time": "Closed"}], "id": "6265000048", "name": "USPS COLLECTION BOX - PO LOBBY", "address": {"city": "JACKSONVILLE", "state": "IL", "street": "200 W COURT ST", "postcode": "62650"}}},
{"geometry": {"type": "Point", "coordinates": [-90.2441137542, 39.7224438351]}, "type": "Feature", "properties": {"collection_times": [{"days": "Mon-Fri", "time": "4:45pm"}, {"days": "Sat", "time": "2:45pm"}, {"days": "Sun", "time": "Closed"}], "id": "6265000051", "name": "USPS COLLECTION BOX - BLUE BOX", "address": {"city": "JACKSONVILLE", "state": "IL", "street": "1122 VETERANS DR", "postcode": "62650"}}},
{"geometry": {"type": "Point", "coordinates": [-90.2299330714, 39.7349522355]}, "type": "Feature", "properties": {"collection_times": [{"days": "Mon-Sat", "time": "5:30pm"}, {"days": "Sun", "time": "Closed"}], "id": "6265000052", "name": "USPS COLLECTION BOX - BLUE BOX", "address": {"city": "JACKSONVILLE", "state": "IL", "street": "200 W COURT ST", "postcode": "62650"}}},
{"geometry": {"type": "Point", "coordinates": [-90.2298412316, 39.7349022358]}, "type": "Feature", "properties": {"collection_times": [{"days": "Mon-Sat", "time": "5:30pm"}, {"days": "Sun", "time": "Closed"}], "id": "6265000053", "name": "USPS COLLECTION BOX - BLUE BOX", "address": {"city": "JACKSONVILLE", "state": "IL", "street": "200 N SANDY ST", "postcode": "62650"}}},
{"geometry": {"type": "Point", "coordinates": [-90.0103990729, 40.1523755438]}, "type": "Feature", "properties": {"collection_times": [{"days": "Mon-Fri", "time": "4:00pm"}, {"days": "Sat", "time": "10:00am"}, {"days": "Sun", "time": "Closed"}], "id": "6265500000", "name": "USPS COLLECTION BOX - BLUE BOX", "address": {"city": "KILBOURNE", "state": "IL", "street": "109 N 5TH ST", "postcode": "62655"}}},
{"geometry": {"type": "Point", "coordinates": [-90.0103990729, 40.1523755438]}, "type": "Feature", "properties": {"collection_times": [{"days": "Mon-Fri", "time": "4:00pm"}, {"days": "Sat", "time": "10:00am"}, {"days": "Sun", "time": "Closed"}], "id": "6265500001", "name": "USPS COLLECTION BOX - PO LOBBY", "address": {"city": "KILBOURNE", "state": "IL", "street": "109 N 5TH ST", "postcode": "62655"}}},
{"geometry": {"type": "Point", "coordinates": [-89.3614498192, 40.1461100168]}, "type": "Feature", "properties": {"collection_times": [{"days": "Mon-Fri", "time": "5:00pm"}, {"days": "Sat", "time": "4:30pm"}, {"days": "Sun", "time": "Closed"}], "id": "6265600000", "name": "USPS COLLECTION BOX - BLUE BOX", "address": {"city": "LINCOLN", "state": "IL", "street": "700 BROADWAY ST", "postcode": "62656"}}},
{"geometry": {"type": "Point", "coordinates": [-89.3614498192, 40.1461100168]}, "type": "Feature", "properties": {"collection_times": [{"days": "Mon-Fri", "time": "5:00pm"}, {"days": "Sat", "time": "4:30pm"}, {"days": "Sun", "time": "Closed"}], "id": "6265600001", "name": "USPS COLLECTION BOX - BLUE BOX", "address": {"city": "LINCOLN", "state": "IL", "street": "700 BROADWAY ST", "postcode": "62656"}}},
{"geometry": {"type": "Point", "coordinates": [-89.3487614514, 40.1497056048]}, "type": "Feature", "properties": {"collection_times": [{"days": "Mon-Sat", "time": "3:45pm"}, {"days": "Sun", "time": "Closed"}], "id": "6265600007", "name": "USPS COLLECTION BOX - BLUE BOX", "address": {"city": "LINCOLN", "state": "IL", "street": "100 CAMPUS VIEW DR", "postcode": "62656"}}},
{"geometry": {"type": "Point", "coordinates": [-89.3538507594, 40.1494389248]}, "type": "Feature", "properties": {"collection_times": [{"days": "Mon-Sat", "time": "3:45pm"}, {"days": "Sun", "time": "Closed"}], "id": "6265600008", "name": "USPS COLLECTION BOX - BLUE BOX", "address": {"city": "LINCOLN", "state": "IL", "street": "1100 KEOKUK ST", "postcode": "62656"}}},
{"geometry": {"type": "Point", "coordinates": [-89.3614790526, 40.1475495115]}, "type": "Feature", "properties": {"collection_times": [{"days": "Mon-Fri", "time": "4:30pm"}, {"days": "Sat", "time": "4:00pm"}, {"days": "Sun", "time": "Closed"}], "id": "6265600009", "name": "USPS COLLECTION BOX - BLUE BOX", "address": {"city": "LINCOLN", "state": "IL", "street": "200 N KICKAPOO ST", "postcode": "62656"}}},
{"geometry": {"type": "Point", "coordinates": [-89.3614790526, 40.1475495115]}, "type": "Feature", "properties": {"collection_times": [{"days": "Mon-Fri", "time": "4:30pm"}, {"days": "Sat", "time": "4:00pm"}, {"days": "Sun", "time": "Closed"}], "id": "6265600010", "name": "USPS COLLECTION BOX - BLUE BOX", "address": {"city": "LINCOLN", "state": "IL", "street": "200 N KICKAPOO ST", "postcode": "62656"}}},
{"geometry": {"type": "Point", "coordinates": [-89.3425512118, 40.163734596]}, "type": "Feature", "properties": {"collection_times": [{"days": "Mon-Sat", "time": "4:00pm"}, {"days": "Sun", "time": "Closed"}], "id": "6265600012", "name": "USPS COLLECTION BOX - BLUE BOX", "address": {"city": "LINCOLN", "state": "IL", "street": "2200 N KICKAPOO ST", "postcode": "62656"}}},
{"geometry": {"type": "Point", "coordinates": [-89.3608389335, 40.1553899576]}, "type": "Feature", "properties": {"collection_times": [{"days": "Mon-Sat", "time": "4:00pm"}, {"days": "Sun", "time": "Closed"}], "id": "6265600013", "name": "USPS COLLECTION BOX - BLUE BOX", "address": {"city": "LINCOLN", "state": "IL", "street": "800 N OTTAWA ST", "postcode": "62656"}}},
{"geometry": {"type": "Point", "coordinates": [-89.380330133, 40.1576649433]}, "type": "Feature", "properties": {"collection_times": [{"days": "Mon-Sat", "time": "4:00pm"}, {"days": "Sun", "time": "Closed"}], "id": "6265600015", "name": "USPS COLLECTION BOX - BLUE BOX", "address": {"city": "LINCOLN", "state": "IL", "street": "901 WOODLAWN RD", "postcode": "62656"}}},
{"geometry": {"type": "Point", "coordinates": [-89.3891282417, 40.1576569761]}, "type": "Feature", "properties": {"collection_times": [{"days": "Mon-Sat", "time": "4:00pm"}, {"days": "Sun", "time": "Closed"}], "id": "6265600017", "name": "USPS COLLECTION BOX - BLUE BOX", "address": {"city": "LINCOLN", "state": "IL", "street": "1501 WOODLAWN RD", "postcode": "62656"}}},
{"geometry": {"type": "Point", "coordinates": [-89.3614498192, 40.1461100168]}, "type": "Feature", "properties": {"collection_times": [{"days": "Mon-Fri", "time": "5:00pm"}, {"days": "Sat", "time": "4:30pm"}, {"days": "Sun", "time": "Closed"}], "id": "6265600019", "name": "USPS COLLECTION BOX - PO LOBBY", "address": {"city": "LINCOLN", "state": "IL", "street": "700 BROADWAY ST", "postcode": "62656"}}},
{"geometry": {"type": "Point", "coordinates": [-89.8467883704, 39.674989597]}, "type": "Feature", "properties": {"collection_times": [{"days": "Mon-Fri", "time": "3:15pm"}, {"days": "Sat", "time": "10:00am"}, {"days": "Sun", "time": "Closed"}], "id": "6266100001", "name": "USPS COLLECTION BOX - BLUE BOX", "address": {"city": "LOAMI", "state": "IL", "street": "100 CHURCH ST", "postcode": "62661"}}},
{"geometry": {"type": "Point", "coordinates": [-89.8467883704, 39.674989597]}, "type": "Feature", "properties": {"collection_times": [{"days": "Mon-Fri", "time": "3:15pm"}, {"days": "Sat", "time": "10:00am"}, {"days": "Sun", "time": "Closed"}], "id": "6266100002", "name": "USPS COLLECTION BOX - PO LOBBY", "address": {"city": "LOAMI", "state": "IL", "street": "100 CHURCH ST", "postcode": "62661"}}},
{"geometry": {"type": "Point", "coordinates": [-90.3322125307, 39.5406667775]}, "type": "Feature", "properties": {"collection_times": [{"days": "Mon-Fri", "time": "3:45pm"}, {"days": "Sat", "time": "9:30am"}, {"days": "Sun", "time": "Closed"}], "id": "6266300000", "name": "USPS COLLECTION BOX - BLUE BOX", "address": {"city": "MANCHESTER", "state": "IL", "street": "308 MAIN ST", "postcode": "62663"}}},
{"geometry": {"type": "Point", "coordinates": [-90.3322125307, 39.5406667775]}, "type": "Feature", "properties": {"collection_times": [{"days": "Mon-Fri", "time": "3:45pm"}, {"days": "Sat", "time": "9:30am"}, {"days": "Sun", "time": "Closed"}], "id": "6266300001", "name": "USPS COLLECTION BOX - PO LOBBY", "address": {"city": "MANCHESTER", "state": "IL", "street": "308 MAIN ST", "postcode": "62663"}}},
{"geometry": {"type": "Point", "coordinates": [-89.6986147593, 40.2022744519]}, "type": "Feature", "properties": {"collection_times": [{"days": "Mon-Fri", "time": "3:45pm"}, {"days": "Sat", "time": "11:30am"}, {"days": "Sun", "time": "Closed"}], "id": "6266400001", "name": "USPS COLLECTION BOX - BLUE BOX", "address": {"city": "MASON CITY", "state": "IL", "street": "155 W CHESTNUT ST", "postcode": "62664"}}},
{"geometry": {"type": "Point", "coordinates": [-89.6986147593, 40.2022744519]}, "type": "Feature", "properties": {"collection_times": [{"days": "Mon-Fri", "time": "3:45pm"}, {"days": "Sat", "time": "11:30am"}, {"days": "Sun", "time": "Closed"}], "id": "6266400004", "name": "USPS COLLECTION BOX - PO LOBBY", "address": {"city": "MASON CITY", "state": "IL", "street": "155 W CHESTNUT ST", "postcode": "62664"}}},
{"geometry": {"type": "Point", "coordinates": [-90.5614294329, 39.8304780783]}, "type": "Feature", "properties": {"collection_times": [{"days": "Mon-Fri", "time": "2:45pm"}, {"days": "Sat", "time": "9:30am"}, {"days": "Sun", "time": "Closed"}], "id": "6266500001", "name": "USPS COLLECTION BOX - BLUE BOX", "address": {"city": "MEREDOSIA", "state": "IL", "street": "113 S WASHINGTON ST", "postcode": "62665"}}},
{"geometry": {"type": "Point", "coordinates": [-90.5614294329, 39.8304780783]}, "type": "Feature", "properties": {"collection_times": [{"days": "Mon-Fri", "time": "2:45pm"}, {"days": "Sat", "time": "9:30am"}, {"days": "Sun", "time": "Closed"}], "id": "6266500002", "name": "USPS COLLECTION BOX - PO LOBBY", "address": {"city": "MEREDOSIA", "state": "IL", "street": "113 S WASHINGTON ST", "postcode": "62665"}}},
{"geometry": {"type": "Point", "coordinates": [-89.5918285842, 40.0995421579]}, "type": "Feature", "properties": {"collection_times": [{"days": "Mon-Fri", "time": "11:45am"}, {"days": "Sat", "time": "9:30am"}, {"days": "Sun", "time": "Closed"}], "id": "6266600000", "name": "USPS COLLECTION BOX - BLUE BOX", "address": {"city": "MIDDLETOWN", "state": "IL", "street": "407 5TH ST", "postcode": "62666"}}},
{"geometry": {"type": "Point", "coordinates": [-89.5918285842, 40.0995421579]}, "type": "Feature", "properties": {"collection_times": [{"days": "Mon-Fri", "time": "11:45am"}, {"days": "Sat", "time": "9:30am"}, {"days": "Sun", "time": "Closed"}], "id": "6266600001", "name": "USPS COLLECTION BOX - PO LOBBY", "address": {"city": "MIDDLETOWN", "state": "IL", "street": "407 5TH ST", "postcode": "62666"}}},
{"geometry": {"type": "Point", "coordinates": [-89.9819475332, 39.4788256204]}, "type": "Feature", "properties": {"collection_times": [{"days": "Mon-Fri", "time": "11:45am"}, {"days": "Sat", "time": "10:00am"}, {"days": "Sun", "time": "Closed"}], "id": "6266700000", "name": "USPS COLLECTION BOX - BLUE BOX", "address": {"city": "MODESTO", "state": "IL", "street": "108 S MAIN ST", "postcode": "62667"}}},
{"geometry": {"type": "Point", "coordinates": [-89.9819475332, 39.4788256204]}, "type": "Feature", "properties": {"collection_times": [{"days": "Mon-Fri", "time": "11:45am"}, {"days": "Sat", "time": "10:00am"}, {"days": "Sun", "time": "Closed"}], "id": "6266700001", "name": "USPS COLLECTION BOX - PO LOBBY", "address": {"city": "MODESTO", "state": "IL", "street": "108 S MAIN ST", "postcode": "62667"}}},
{"geometry": {"type": "Point", "coordinates": [-90.2512010964, 39.5856653398]}, "type": "Feature", "properties": {"collection_times": [{"days": "Mon-Fri", "time": "11:30am"}, {"days": "Sat", "time": "10:15am"}, {"days": "Sun", "time": "Closed"}], "id": "6266800001", "name": "USPS COLLECTION BOX - BLUE BOX", "address": {"city": "MURRAYVILLE", "state": "IL", "street": "105 CHURCH ST", "postcode": "62668"}}},
{"geometry": {"type": "Point", "coordinates": [-90.2512010964, 39.5856653398]}, "type": "Feature", "properties": {"collection_times": [{"days": "Mon-Fri", "time": "11:30am"}, {"days": "Sat", "time": "10:15am"}, {"days": "Sun", "time": "Closed"}], "id": "6266800002", "name": "USPS COLLECTION BOX - PO LOBBY", "address": {"city": "MURRAYVILLE", "state": "IL", "street": "105 CHURCH ST", "postcode": "62668"}}},
{"geometry": {"type": "Point", "coordinates": [-89.9121709957, 39.7248780301]}, "type": "Feature", "properties": {"collection_times": [{"days": "Mon-Fri", "time": "4:00pm"}, {"days": "Sat", "time": "11:00am"}, {"days": "Sun", "time": "Closed"}], "id": "6267000001", "name": "USPS COLLECTION BOX - BLUE BOX", "address": {"city": "NEW BERLIN", "state": "IL", "street": "102 E ILLINOIS ST", "postcode": "62670"}}},
{"geometry": {"type": "Point", "coordinates": [-89.9121709957, 39.7248780301]}, "type": "Feature", "properties": {"collection_times": [{"days": "Mon-Fri", "time": "4:00pm"}, {"days": "Sat", "time": "11:00am"}, {"days": "Sun", "time": "Closed"}], "id": "6267000002", "name": "USPS COLLECTION BOX - PO LOBBY", "address": {"city": "NEW BERLIN", "state": "IL", "street": "102 E ILLINOIS ST", "postcode": "62670"}}},
{"geometry": {"type": "Point", "coordinates": [-89.5804925588, 40.1838877564]}, "type": "Feature", "properties": {"collection_times": [{"days": "Mon-Fri", "time": "11:45am"}, {"days": "Sat", "time": "9:45am"}, {"days": "Sun", "time": "Closed"}], "id": "6267100000", "name": "USPS COLLECTION BOX - BLUE BOX", "address": {"city": "NEW HOLLAND", "state": "IL", "street": "104 W LINCOLN ST", "postcode": "62671"}}},
{"geometry": {"type": "Point", "coordinates": [-89.5804925588, 40.1838877564]}, "type": "Feature", "properties": {"collection_times": [{"days": "Mon-Fri", "time": "11:45am"}, {"days": "Sat", "time": "9:45am"}, {"days": "Sun", "time": "Closed"}], "id": "6267100001", "name": "USPS COLLECTION BOX - PO LOBBY", "address": {"city": "NEW HOLLAND", "state": "IL", "street": "104 W LINCOLN ST", "postcode": "62671"}}},
{"geometry": {"type": "Point", "coordinates": [-89.7347148259, 39.3545620006]}, "type": "Feature", "properties": {"collection_times": [{"days": "Mon-Sat", "time": "9:45am"}, {"days": "Sun", "time": "Closed"}], "id": "6267200000", "name": "USPS COLLECTION BOX - PO LOBBY", "address": {"city": "NILWOOD", "state": "IL", "street": "31 MOREAN ST", "postcode": "62672"}}},
{"geometry": {"type": "Point", "coordinates": [-89.7347148259, 39.3545620006]}, "type": "Feature", "properties": {"collection_times": [{"days": "Mon-Fri", "time": "4:00pm"}, {"days": "Sat", "time": "10:45am"}, {"days": "Sun", "time": "Closed"}], "id": "6267200001", "name": "USPS COLLECTION BOX - BLUE BOX", "address": {"city": "NILWOOD", "state": "IL", "street": "31 MOREAN ST", "postcode": "62672"}}},
{"geometry": {"type": "Point", "coordinates": [-89.9655621602, 40.1046861543]}, "type": "Feature", "properties": {"collection_times": [{"days": "Mon-Fri", "time": "3:30pm"}, {"days": "Sat", "time": "10:30am"}, {"days": "Sun", "time": "Closed"}], "id": "6267300001", "name": "USPS COLLECTION BOX - BLUE BOX", "address": {"city": "OAKFORD", "state": "IL", "street": "105 S WHITLEY ST", "postcode": "62673"}}},
{"geometry": {"type": "Point", "coordinates": [-89.9655621602, 40.1046861543]}, "type": "Feature", "properties": {"collection_times": [{"days": "Mon-Fri", "time": "3:15pm"}, {"days": "Sat", "time": "10:15am"}, {"days": "Sun", "time": "Closed"}], "id": "6267300002", "name": "USPS COLLECTION BOX - PO LOBBY", "address": {"city": "OAKFORD", "state": "IL", "street": "105 S WHITLEY ST", "postcode": "62673"}}},
{"geometry": {"type": "Point", "coordinates": [-89.9958189245, 39.4341653263]}, "type": "Feature", "properties": {"collection_times": [{"days": "Mon-Fri", "time": "11:45am"}, {"days": "Sat", "time": "10:15am"}, {"days": "Sun", "time": "Closed"}], "id": "6267400001", "name": "USPS COLLECTION BOX - BLUE BOX", "address": {"city": "PALMYRA", "state": "IL", "street": "130 S MAIN ST", "postcode": "62674"}}},
{"geometry": {"type": "Point", "coordinates": [-89.9958189245, 39.4341653263]}, "type": "Feature", "properties": {"collection_times": [{"days": "Mon-Fri", "time": "11:45am"}, {"days": "Sat", "time": "10:15am"}, {"days": "Sun", "time": "Closed"}], "id": "6267400002", "name": "USPS COLLECTION BOX - PO LOBBY", "address": {"city": "PALMYRA", "state": "IL", "street": "130 S MAIN ST", "postcode": "62674"}}},
{"geometry": {"type": "Point", "coordinates": [-89.8496199865, 40.0101283783]}, "type": "Feature", "properties": {"collection_times": [{"days": "Mon-Fri", "time": "4:30pm"}, {"days": "Sat", "time": "12:00pm"}, {"days": "Sun", "time": "Closed"}], "id": "6267500001", "name": "USPS COLLECTION BOX - BLUE BOX", "address": {"city": "PETERSBURG", "state": "IL", "street": "220 S 7TH ST", "postcode": "62675"}}},
{"geometry": {"type": "Point", "coordinates": [-89.8492370513, 40.0102206855]}, "type": "Feature", "properties": {"collection_times": [{"days": "Mon-Fri", "time": "3:15pm"}, {"days": "Sat", "time": "1:00pm"}, {"days": "Sun", "time": "Closed"}], "id": "6267500002", "name": "USPS COLLECTION BOX - BLUE BOX", "address": {"city": "PETERSBURG", "state": "IL", "street": "118 E JACKSON ST", "postcode": "62675"}}},
{"geometry": {"type": "Point", "coordinates": [-89.8496199865, 40.0101283783]}, "type": "Feature", "properties": {"collection_times": [{"days": "Mon-Fri", "time": "4:30pm"}, {"days": "Sat", "time": "12:00pm"}, {"days": "Sun", "time": "Closed"}], "id": "6267500005", "name": "USPS COLLECTION BOX - PO LOBBY", "address": {"city": "PETERSBURG", "state": "IL", "street": "220 S 7TH ST", "postcode": "62675"}}},
{"geometry": {"type": "Point", "coordinates": [-89.9204786001, 39.8739095172]}, "type": "Feature", "properties": {"collection_times": [{"days": "Mon-Fri", "time": "2:45pm"}, {"days": "Sat", "time": "9:15am"}, {"days": "Sun", "time": "Closed"}], "id": "6267700001", "name": "USPS COLLECTION BOX - BLUE BOX", "address": {"city": "PLEASANT PLAINS", "state": "IL", "street": "210 N CARTWRIGHT ST", "postcode": "62677"}}},
{"geometry": {"type": "Point", "coordinates": [-89.9204786001, 39.8739095172]}, "type": "Feature", "properties": {"collection_times": [{"days": "Mon-Fri", "time": "2:45pm"}, {"days": "Sat", "time": "9:15am"}, {"days": "Sun", "time": "Closed"}], "id": "6267700002", "name": "USPS COLLECTION BOX - PO LOBBY", "address": {"city": "PLEASANT PLAINS", "state": "IL", "street": "210 N CARTWRIGHT ST", "postcode": "62677"}}},
{"geometry": {"type": "Point", "coordinates": [-90.5635232784, 40.1214283221]}, "type": "Feature", "properties": {"collection_times": [{"days": "Mon-Fri", "time": "4:30pm"}, {"days": "Sat", "time": "4:00pm"}, {"days": "Sun", "time": "Closed"}], "id": "6268100000", "name": "USPS COLLECTION BOX - PO LOBBY", "address": {"city": "RUSHVILLE", "state": "IL", "street": "101 E WASHINGTON ST", "postcode": "62681"}}},
{"geometry": {"type": "Point", "coordinates": [-90.5623738409, 40.1219703556]}, "type": "Feature", "properties": {"collection_times": [{"days": "Mon-Fri", "time": "4:30pm"}, {"days": "Sat", "time": "3:45pm"}, {"days": "Sun", "time": "Closed"}], "id": "6268100001", "name": "USPS COLLECTION BOX - BLUE BOX", "address": {"city": "RUSHVILLE", "state": "IL", "street": "220 N LIBERTY ST", "postcode": "62681"}}},
{"geometry": {"type": "Point", "coordinates": [-90.5624077181, 40.1215541799]}, "type": "Feature", "properties": {"collection_times": [{"days": "Mon-Sat", "time": "12:00pm"}, {"days": "Sun", "time": "Closed"}], "id": "6268100011", "name": "USPS COLLECTION BOX - BLUE BOX", "address": {"city": "RUSHVILLE", "state": "IL", "street": "520 W CLINTON ST", "postcode": "62681"}}},
{"geometry": {"type": "Point", "coordinates": [-89.6040419142, 40.3024712015]}, "type": "Feature", "properties": {"collection_times": [{"days": "Mon-Fri", "time": "11:15am"}, {"days": "Sat", "time": "10:15am"}, {"days": "Sun", "time": "Closed"}], "id": "6268200000", "name": "USPS COLLECTION BOX - BLUE BOX", "address": {"city": "SAN JOSE", "state": "IL", "street": "207 W VINE ST", "postcode": "62682"}}},
{"geometry": {"type": "Point", "coordinates": [-89.6040419142, 40.3024712015]}, "type": "Feature", "properties": {"collection_times": [{"days": "Mon-Fri", "time": "11:15am"}, {"days": "Sat", "time": "10:15am"}, {"days": "Sun", "time": "Closed"}], "id": "6268200001", "name": "USPS COLLECTION BOX - PO LOBBY", "address": {"city": "SAN JOSE", "state": "IL", "street": "207 W VINE ST", "postcode": "62682"}}},
{"geometry": {"type": "Point", "coordinates": [-89.6074999917, 39.8959883024]}, "type": "Feature", "properties": {"collection_times": [{"days": "Mon-Fri", "time": "4:45pm"}, {"days": "Sat", "time": "11:15am"}, {"days": "Sun", "time": "Closed"}], "id": "6268400000", "name": "USPS COLLECTION BOX - BLUE BOX", "address": {"city": "SHERMAN", "state": "IL", "street": "2605 E ANDREW RD", "postcode": "62684"}}},
{"geometry": {"type": "Point", "coordinates": [-89.6074999917, 39.8959883024]}, "type": "Feature", "properties": {"collection_times": [{"days": "Mon-Fri", "time": "4:45pm"}, {"days": "Sat", "time": "11:15am"}, {"days": "Sun", "time": "Closed"}], "id": "6268400001", "name": "USPS COLLECTION BOX - PO LOBBY", "address": {"city": "SHERMAN", "state": "IL", "street": "2605 E ANDREW RD", "postcode": "62684"}}},
{"geometry": {"type": "Point", "coordinates": [-90.0444005758, 39.1177671035]}, "type": "Feature", "properties": {"collection_times": [{"days": "Mon-Fri", "time": "3:15pm"}, {"days": "Sat", "time": "10:15am"}, {"days": "Sun", "time": "Closed"}], "id": "6268500000", "name": "USPS COLLECTION BOX - BLUE BOX", "address": {"city": "SHIPMAN", "state": "IL", "street": "123 KEATING ST", "postcode": "62685"}}},
{"geometry": {"type": "Point", "coordinates": [-90.0444005758, 39.1177671035]}, "type": "Feature", "properties": {"collection_times": [{"days": "Mon-Fri", "time": "3:15pm"}, {"days": "Sat", "time": "10:15am"}, {"days": "Sun", "time": "Closed"}], "id": "6268500001", "name": "USPS COLLECTION BOX - PO LOBBY", "address": {"city": "SHIPMAN", "state": "IL", "street": "123 KEATING ST", "postcode": "62685"}}},
{"geometry": {"type": "Point", "coordinates": [-89.9369629032, 39.944590181]}, "type": "Feature", "properties": {"collection_times": [{"days": "Mon-Fri", "time": "11:45am"}, {"days": "Sat", "time": "10:45am"}, {"days": "Sun", "time": "Closed"}], "id": "6268800000", "name": "USPS COLLECTION BOX - BLUE BOX", "address": {"city": "TALLULA", "state": "IL", "street": "109 W MAIN ST", "postcode": "62688"}}},
{"geometry": {"type": "Point", "coordinates": [-89.9369629032, 39.944590181]}, "type": "Feature", "properties": {"collection_times": [{"days": "Mon-Fri", "time": "11:45am"}, {"days": "Sat", "time": "10:45am"}, {"days": "Sun", "time": "Closed"}], "id": "6268800001", "name": "USPS COLLECTION BOX - PO LOBBY", "address": {"city": "TALLULA", "state": "IL", "street": "109 W MAIN ST", "postcode": "62688"}}},
{"geometry": {"type": "Point", "coordinates": [-89.759705871, 39.5375041019]}, "type": "Feature", "properties": {"collection_times": [{"days": "Mon-Fri", "time": "11:30am"}, {"days": "Sat", "time": "10:00am"}, {"days": "Sun", "time": "Closed"}], "id": "6268900000", "name": "USPS COLLECTION BOX - BLUE BOX", "address": {"city": "THAYER", "state": "IL", "street": "210 E MAIN ST", "postcode": "62689"}}},
{"geometry": {"type": "Point", "coordinates": [-89.759705871, 39.5375041019]}, "type": "Feature", "properties": {"collection_times": [{"days": "Mon-Fri", "time": "11:45am"}, {"days": "Sat", "time": "9:45am"}, {"days": "Sun", "time": "Closed"}], "id": "6268900001", "name": "USPS COLLECTION BOX - PO LOBBY", "address": {"city": "THAYER", "state": "IL", "street": "210 E MAIN ST", "postcode": "62689"}}},
{"geometry": {"type": "Point", "coordinates": [-89.7678025624, 39.5018631485]}, "type": "Feature", "properties": {"collection_times": [{"days": "Mon-Fri", "time": "5:00pm"}, {"days": "Sat", "time": "10:30am"}, {"days": "Sun", "time": "Closed"}], "id": "6269000000", "name": "USPS COLLECTION BOX - BLUE BOX", "address": {"city": "VIRDEN", "state": "IL", "street": "211 N SPRINGFIELD ST", "postcode": "62690"}}},
{"geometry": {"type": "Point", "coordinates": [-89.7678025624, 39.5018631485]}, "type": "Feature", "properties": {"collection_times": [{"days": "Mon-Fri", "time": "5:00pm"}, {"days": "Sat", "time": "10:30am"}, {"days": "Sun", "time": "Closed"}], "id": "6269000005", "name": "USPS COLLECTION BOX - BLUE BOX", "address": {"city": "VIRDEN", "state": "IL", "street": "211 N SPRINGFIELD ST", "postcode": "62690"}}},
{"geometry": {"type": "Point", "coordinates": [-89.7672577243, 39.5109657897]}, "type": "Feature", "properties": {"collection_times": [{"days": "Mon-Sat", "time": "1:45pm"}, {"days": "Sun", "time": "Closed"}], "id": "6269000008", "name": "USPS COLLECTION BOX - BLUE BOX", "address": {"city": "VIRDEN", "state": "IL", "street": "1000 N SPRINGFIELD ST", "postcode": "62690"}}},
{"geometry": {"type": "Point", "coordinates": [-89.7678025624, 39.5018631485]}, "type": "Feature", "properties": {"collection_times": [{"days": "Mon-Fri", "time": "5:00pm"}, {"days": "Sat", "time": "10:30am"}, {"days": "Sun", "time": "Closed"}], "id": "6269000009", "name": "USPS COLLECTION BOX - PO LOBBY", "address": {"city": "VIRDEN", "state": "IL", "street": "211 N SPRINGFIELD ST", "postcode": "62690"}}},
{"geometry": {"type": "Point", "coordinates": [-90.2091011884, 39.9491956728]}, "type": "Feature", "properties": {"collection_times": [{"days": "Mon-Fri", "time": "3:45pm"}, {"days": "Sat", "time": "10:30am"}, {"days": "Sun", "time": "Closed"}], "id": "6269100004", "name": "USPS COLLECTION BOX - PO LOBBY", "address": {"city": "VIRGINIA", "state": "IL", "street": "230 E BEARDSTOWN ST", "postcode": "62691"}}},
{"geometry": {"type": "Point", "coordinates": [-90.2091011884, 39.9491956728]}, "type": "Feature", "properties": {"collection_times": [{"days": "Mon-Fri", "time": "4:30pm"}, {"days": "Sat", "time": "10:30am"}, {"days": "Sun", "time": "Closed"}], "id": "6269100005", "name": "USPS COLLECTION BOX - BLUE BOX", "address": {"city": "VIRGINIA", "state": "IL", "street": "230 E BEARDSTOWN ST", "postcode": "62691"}}},
{"geometry": {"type": "Point", "coordinates": [-89.9534051341, 39.5908166008]}, "type": "Feature", "properties": {"collection_times": [{"days": "Mon-Fri", "time": "2:45pm"}, {"days": "Sat", "time": "9:45am"}, {"days": "Sun", "time": "Closed"}], "id": "6269200001", "name": "USPS COLLECTION BOX - BLUE BOX", "address": {"city": "WAVERLY", "state": "IL", "street": "109 N PEARL ST", "postcode": "62692"}}},
{"geometry": {"type": "Point", "coordinates": [-89.9534051341, 39.5908166008]}, "type": "Feature", "properties": {"collection_times": [{"days": "Mon-Fri", "time": "2:45pm"}, {"days": "Sat", "time": "9:45am"}, {"days": "Sun", "time": "Closed"}], "id": "6269200002", "name": "USPS COLLECTION BOX - PO LOBBY", "address": {"city": "WAVERLY", "state": "IL", "street": "109 N PEARL ST", "postcode": "62692"}}},
{"geometry": {"type": "Point", "coordinates": [-89.9534051341, 39.5908166008]}, "type": "Feature", "properties": {"collection_times": [{"days": "Mon-Fri", "time": "2:45pm"}, {"days": "Sat", "time": "9:45am"}, {"days": "Sun", "time": "Closed"}], "id": "6269200004", "name": "USPS COLLECTION BOX - BLUE BOX", "address": {"city": "WAVERLY", "state": "IL", "street": "109 N PEARL ST", "postcode": "62692"}}},
{"geometry": {"type": "Point", "coordinates": [-89.5482211769, 39.9540590532]}, "type": "Feature", "properties": {"collection_times": [{"days": "Mon-Fri", "time": "4:00pm"}, {"days": "Sat", "time": "11:00am"}, {"days": "Sun", "time": "Closed"}], "id": "6269300001", "name": "USPS COLLECTION BOX - BLUE BOX", "address": {"city": "WILLIAMSVILLE", "state": "IL", "street": "100 E MAIN ST", "postcode": "62693"}}},
{"geometry": {"type": "Point", "coordinates": [-89.5482211769, 39.9540590532]}, "type": "Feature", "properties": {"collection_times": [{"days": "Mon-Fri", "time": "4:00pm"}, {"days": "Sat", "time": "11:00am"}, {"days": "Sun", "time": "Closed"}], "id": "6269300002", "name": "USPS COLLECTION BOX - PO LOBBY", "address": {"city": "WILLIAMSVILLE", "state": "IL", "street": "100 E MAIN ST", "postcode": "62693"}}},
{"geometry": {"type": "Point", "coordinates": [-90.4563861444, 39.6290885386]}, "type": "Feature", "properties": {"collection_times": [{"days": "Mon-Fri", "time": "4:15pm"}, {"days": "Sat", "time": "11:45am"}, {"days": "Sun", "time": "Closed"}], "id": "6269400001", "name": "USPS COLLECTION BOX - BLUE BOX", "address": {"city": "WINCHESTER", "state": "IL", "street": "55 S MAIN ST", "postcode": "62694"}}},
{"geometry": {"type": "Point", "coordinates": [-90.4553498171, 39.6297669358]}, "type": "Feature", "properties": {"collection_times": [{"days": "Mon-Sat", "time": "2:30pm"}, {"days": "Sun", "time": "Closed"}], "id": "6269400004", "name": "USPS COLLECTION BOX - BLUE BOX", "address": {"city": "WINCHESTER", "state": "IL", "street": "2 N HILL ST", "postcode": "62694"}}},
{"geometry": {"type": "Point", "coordinates": [-90.4546049373, 39.6273691176]}, "type": "Feature", "properties": {"collection_times": [{"days": "Mon-Sat", "time": "3:30pm"}, {"days": "Sun", "time": "Closed"}], "id": "6269400008", "name": "USPS COLLECTION BOX - BLUE BOX", "address": {"city": "WINCHESTER", "state": "IL", "street": "156 S WALNUT ST", "postcode": "62694"}}},
{"geometry": {"type": "Point", "coordinates": [-90.4563861444, 39.6290885386]}, "type": "Feature", "properties": {"collection_times": [{"days": "Mon-Fri", "time": "4:15pm"}, {"days": "Sat", "time": "12:00pm"}, {"days": "Sun", "time": "Closed"}], "id": "6269400010", "name": "USPS COLLECTION BOX - PO LOBBY", "address": {"city": "WINCHESTER", "state": "IL", "street": "55 S MAIN ST", "postcode": "62694"}}},
{"geometry": {"type": "Point", "coordinates": [-90.4616972526, 39.6297595464]}, "type": "Feature", "properties": {"collection_times": [{"days": "Mon-Sat", "time": "11:45am"}, {"days": "Sun", "time": "Closed"}], "id": "6269400011", "name": "USPS COLLECTION BOX - BLUE BOX", "address": {"city": "WINCHESTER", "state": "IL", "street": "231 W CHERRY ST", "postcode": "62694"}}},
{"geometry": {"type": "Point", "coordinates": [-90.4557466069, 39.6286165982]}, "type": "Feature", "properties": {"collection_times": [{"days": "Mon-Sat", "time": "3:30pm"}, {"days": "Sun", "time": "Closed"}], "id": "6269400012", "name": "USPS COLLECTION BOX - BLUE BOX", "address": {"city": "WINCHESTER", "state": "IL", "street": "21 S MARKET ST", "postcode": "62694"}}},
{"geometry": {"type": "Point", "coordinates": [-90.2197651461, 39.6288161316]}, "type": "Feature", "properties": {"collection_times": [{"days": "Mon-Fri", "time": "3:45pm"}, {"days": "Sat", "time": "10:00am"}, {"days": "Sun", "time": "Closed"}], "id": "6269500000", "name": "USPS COLLECTION BOX - BLUE BOX", "address": {"city": "WOODSON", "state": "IL", "street": "101 E MAIN ST", "postcode": "62695"}}},
{"geometry": {"type": "Point", "coordinates": [-90.2197651461, 39.6288161316]}, "type": "Feature", "properties": {"collection_times": [{"days": "Mon-Fri", "time": "3:45pm"}, {"days": "Sat", "time": "9:45am"}, {"days": "Sun", "time": "Closed"}], "id": "6269500001", "name": "USPS COLLECTION BOX - PO LOBBY", "address": {"city": "WOODSON", "state": "IL", "street": "101 E MAIN ST", "postcode": "62695"}}}
]}
