{"type": "FeatureCollection", "features": [
{"geometry": {"type": "Point", "coordinates": [-89.653338951, 39.7969821255]}, "type": "Feature", "properties": {"collection_times": [{"days": "Mon-Fri", "time": "4:00pm"}, {"days": "Sat-Sun", "time": "Closed"}], "id": "6270100000", "name": "USPS COLLECTION BOX - BLUE BOX", "address": {"city": "SPRINGFIELD", "state": "IL", "street": "524 S 2ND ST", "postcode": "62701"}}},
{"geometry": {"type": "Point", "coordinates": [-89.6493343096, 39.801195431]}, "type": "Feature", "properties": {"collection_times": [{"days": "Mon-Fri", "time": "5:00pm"}, {"days": "Sat-Sun", "time": "Closed"}], "id": "6270100002", "name": "USPS COLLECTION BOX - BLUE BOX", "address": {"city": "SPRINGFIELD", "state": "IL", "street": "101 S 5TH ST", "postcode": "62701"}}},
{"geometry": {"type": "Point", "coordinates": [-89.6492297443, 39.7994240741]}, "type": "Feature", "properties": {"collection_times": [{"days": "Mon-Fri", "time": "1:00pm"}, {"days": "Sat-Sun", "time": "Closed"}], "id": "6270100007", "name": "USPS COLLECTION BOX - BLUE BOX", "address": {"city": "SPRINGFIELD", "state": "IL", "street": "504 E MONROE ST", "postcode": "62701"}}},
{"geometry": {"type": "Point", "coordinates": [-89.6533207301, 39.7983280809]}, "type": "Feature", "properties": {"collection_times": [{"days": "Mon-Fri", "time": "4:00pm"}, {"days": "Sat-Sun", "time": "Closed"}], "id": "6270100011", "name": "USPS COLLECTION BOX - BLUE BOX", "address": {"city": "SPRINGFIELD", "state": "IL", "street": "200 E CAPITOL AVE", "postcode": "62701"}}},
{"geometry": {"type": "Point", "coordinates": [-89.6544374619, 39.8007514506]}, "type": "Feature", "properties": {"collection_times": [{"days": "Mon-Fri", "time": "2:30pm"}, {"days": "Sat-Sun", "time": "Closed"}], "id": "6270100018", "name": "USPS COLLECTION BOX - BLUE BOX", "address": {"city": "SPRINGFIELD", "state": "IL", "street": "125 E ADAMS ST", "postcode": "62701"}}},
{"geometry": {"type": "Point", "coordinates": [-89.6532598449, 39.799476193]}, "type": "Feature", "properties": {"collection_times": [{"days": "Mon-Fri", "time": "4:15pm"}, {"days": "Sat-Sun", "time": "Closed"}], "id": "6270100021", "name": "USPS COLLECTION BOX - BLUE BOX", "address": {"city": "SPRINGFIELD", "state": "IL", "street": "301 S 2ND ST", "postcode": "62701"}}},
{"geometry": {"type": "Point", "coordinates": [-89.6508164853, 39.799266239]}, "type": "Feature", "properties": {"collection_times": [{"days": "Mon-Sat", "time": "3:00pm"}, {"days": "Sun", "time": "Closed"}], "id": "6270100024", "name": "USPS COLLECTION BOX - BLUE BOX", "address": {"city": "SPRINGFIELD", "state": "IL", "street": "319 N 4TH ST", "postcode": "62701"}}},
{"geometry": {"type": "Point", "coordinates": [-89.6491726168, 39.8020067314]}, "type": "Feature", "properties": {"collection_times": [{"days": "Mon-Fri", "time": "5:00pm"}, {"days": "Sat-Sun", "time": "Closed"}], "id": "6270100031", "name": "USPS COLLECTION BOX - BLUE BOX", "address": {"city": "SPRINGFIELD", "state": "IL", "street": "120 N 5TH ST", "postcode": "62701"}}},
{"geometry": {"type": "Point", "coordinates": [-89.6493533036, 39.8006023359]}, "type": "Feature", "properties": {"collection_times": [{"days": "Mon-Fri", "time": "5:00pm"}, {"days": "Sat-Sun", "time": "Closed"}], "id": "6270100033", "name": "USPS COLLECTION BOX - BLUE BOX", "address": {"city": "SPRINGFIELD", "state": "IL", "street": "201 S 5TH ST", "postcode": "62701"}}},
{"geometry": {"type": "Point", "coordinates": [-89.646371211, 39.8002351954]}, "type": "Feature", "properties": {"collection_times": [{"days": "Mon-Fri", "time": "3:00pm"}, {"days": "Sat", "time": "11:00am"}, {"days": "Sun", "time": "Closed"}], "id": "6270100036", "name": "USPS COLLECTION BOX - BLUE BOX", "address": {"city": "SPRINGFIELD", "state": "IL", "street": "228 S 7TH ST", "postcode": "62701"}}},
{"geometry": {"type": "Point", "coordinates": [-89.6479890441, 39.7990821606]}, "type": "Feature", "properties": {"collection_times": [{"days": "Mon-Fri", "time": "2:30pm"}, {"days": "Sat-Sun", "time": "Closed"}], "id": "6270100037", "name": "USPS COLLECTION BOX - BLUE BOX", "address": {"city": "SPRINGFIELD", "state": "IL", "street": "333 S 6TH ST", "postcode": "62701"}}},
{"geometry": {"type": "Point", "coordinates": [-89.6505596504, 39.7995508161]}, "type": "Feature", "properties": {"collection_times": [{"days": "Mon-Fri", "time": "5:30pm"}, {"days": "Sat", "time": "4:00pm"}, {"days": "Sun", "time": "Closed"}], "id": "6270100038", "name": "USPS COLLECTION BOX - BLUE BOX", "address": {"city": "SPRINGFIELD", "state": "IL", "street": "411 E MONROE ST", "postcode": "62701"}}},
{"geometry": {"type": "Point", "coordinates": [-89.6493443953, 39.7968763636]}, "type": "Feature", "properties": {"collection_times": [{"days": "Mon-Fri", "time": "3:30pm"}, {"days": "Sat-Sun", "time": "Closed"}], "id": "6270100041", "name": "USPS COLLECTION BOX - BLUE BOX", "address": {"city": "SPRINGFIELD", "state": "IL", "street": "528 S 5TH ST", "postcode": "62701"}}},
{"geometry": {"type": "Point", "coordinates": [-89.6479800619, 39.7994042377]}, "type": "Feature", "properties": {"collection_times": [{"days": "Mon-Fri", "time": "2:30pm"}, {"days": "Sat-Sun", "time": "Closed"}], "id": "6270100043", "name": "USPS COLLECTION BOX - BLUE BOX", "address": {"city": "SPRINGFIELD", "state": "IL", "street": "303 S 6TH ST", "postcode": "62701"}}},
{"geometry": {"type": "Point", "coordinates": [-89.6462631602, 39.8042622559]}, "type": "Feature", "properties": {"collection_times": [{"days": "Mon-Fri", "time": "3:00pm"}, {"days": "Sat-Sun", "time": "Closed"}], "id": "6270100057", "name": "USPS COLLECTION BOX - BLUE BOX", "address": {"city": "SPRINGFIELD", "state": "IL", "street": "326 N 7TH ST", "postcode": "62701"}}},
{"geometry": {"type": "Point", "coordinates": [-89.6478657085, 39.7994023757]}, "type": "Feature", "properties": {"collection_times": [{"days": "Mon-Fri", "time": "11:00am"}, {"days": "Sat-Sun", "time": "Closed"}], "id": "6270100062", "name": "USPS COLLECTION BOX - BLUE BOX", "address": {"city": "SPRINGFIELD", "state": "IL", "street": "600 E MONROE ST", "postcode": "62701"}}},
{"geometry": {"type": "Point", "coordinates": [-89.6505596504, 39.7995508161]}, "type": "Feature", "properties": {"collection_times": [{"days": "Mon-Fri", "time": "5:30pm"}, {"days": "Sat", "time": "4:00pm"}, {"days": "Sun", "time": "Closed"}], "id": "6270100069", "name": "USPS COLLECTION BOX - BLUE BOX", "address": {"city": "SPRINGFIELD", "state": "IL", "street": "411 E MONROE ST", "postcode": "62701"}}},
{"geometry": {"type": "Point", "coordinates": [-89.6464445494, 39.8020164768]}, "type": "Feature", "properties": {"collection_times": [{"days": "Mon-Fri", "time": "3:00pm"}, {"days": "Sat-Sun", "time": "Closed"}], "id": "6270100074", "name": "USPS COLLECTION BOX - BLUE BOX", "address": {"city": "SPRINGFIELD", "state": "IL", "street": "127 N 7TH ST", "postcode": "62701"}}},
{"geometry": {"type": "Point", "coordinates": [-89.6449907447, 39.799335488]}, "type": "Feature", "properties": {"collection_times": [{"days": "Mon-Fri", "time": "11:00am"}, {"days": "Sat-Sun", "time": "Closed"}], "id": "6270100077", "name": "USPS COLLECTION BOX - BLUE BOX", "address": {"city": "SPRINGFIELD", "state": "IL", "street": "800 E MONROE ST", "postcode": "62701"}}},
{"geometry": {"type": "Point", "coordinates": [-89.6529814734, 39.8006341691]}, "type": "Feature", "properties": {"collection_times": [{"days": "Mon-Fri", "time": "2:30pm"}, {"days": "Sat-Sun", "time": "Closed"}], "id": "6270100084", "name": "USPS COLLECTION BOX - BLUE BOX", "address": {"city": "SPRINGFIELD", "state": "IL", "street": "220 E ADAMS ST", "postcode": "62701"}}},
{"geometry": {"type": "Point", "coordinates": [-89.6505596504, 39.7995508161]}, "type": "Feature", "properties": {"collection_times": [{"days": "Mon-Fri", "time": "5:00pm"}, {"days": "Sat", "time": "12:00pm"}, {"days": "Sun", "time": "Closed"}], "id": "6270100086", "name": "USPS COLLECTION BOX - PO LOBBY", "address": {"city": "SPRINGFIELD", "state": "IL", "street": "411 E MONROE ST", "postcode": "62701"}}},
{"geometry": {"type": "Point", "coordinates": [-89.6435626178, 39.8004685484]}, "type": "Feature", "properties": {"collection_times": [{"days": "Mon-Fri", "time": "3:00pm"}, {"days": "Sat-Sun", "time": "Closed"}], "id": "6270100091", "name": "USPS COLLECTION BOX - BLUE BOX", "address": {"city": "SPRINGFIELD", "state": "IL", "street": "900 E ADAMS ST", "postcode": "62701"}}},
{"geometry": {"type": "Point", "coordinates": [-89.6480384096, 39.7970864341]}, "type": "Feature", "properties": {"collection_times": [{"days": "Mon-Fri", "time": "1:00pm"}, {"days": "Sat-Sun", "time": "Closed"}], "id": "6270100094", "name": "USPS COLLECTION BOX - BLUE BOX", "address": {"city": "SPRINGFIELD", "state": "IL", "street": "509 S 6TH ST", "postcode": "62701"}}},
{"geometry": {"type": "Point", "coordinates": [-89.6436040541, 39.7982072946]}, "type": "Feature", "properties": {"collection_times": [{"days": "Mon-Fri", "time": "3:00pm"}, {"days": "Sat-Sun", "time": "Closed"}], "id": "6270100096", "name": "USPS COLLECTION BOX - BLUE BOX", "address": {"city": "SPRINGFIELD", "state": "IL", "street": "900 E CAPITOL AVE", "postcode": "62701"}}},
{"geometry": {"type": "Point", "coordinates": [-89.651468454, 39.8007223669]}, "type": "Feature", "properties": {"collection_times": [{"days": "Mon-Fri", "time": "4:00pm"}, {"days": "Sat-Sun", "time": "Closed"}], "id": "6270100097", "name": "USPS COLLECTION BOX - BLUE BOX", "address": {"city": "SPRINGFIELD", "state": "IL", "street": "325 W ADAMS ST", "postcode": "62701"}}},
{"geometry": {"type": "Point", "coordinates": [-89.6489876268, 39.8005408286]}, "type": "Feature", "properties": {"collection_times": [{"days": "Mon-Fri", "time": "2:30pm"}, {"days": "Sat-Sun", "time": "Closed"}], "id": "6270100099", "name": "USPS COLLECTION BOX - BLUE BOX", "address": {"city": "SPRINGFIELD", "state": "IL", "street": "502 S SPRING ST", "postcode": "62701"}}},
{"geometry": {"type": "Point", "coordinates": [-89.6057459719, 39.8103093295]}, "type": "Feature", "properties": {"collection_times": [{"days": "Mon-Fri", "time": "2:30pm"}, {"days": "Sat", "time": "4:00pm"}, {"days": "Sun", "time": "Closed"}], "id": "6270200010", "name": "USPS COLLECTION BOX - BLUE BOX", "address": {"city": "SPRINGFIELD", "state": "IL", "street": "855 N DIRKSEN PKWY", "postcode": "62702"}}},
{"geometry": {"type": "Point", "coordinates": [-89.6446096548, 39.8309074568]}, "type": "Feature", "properties": {"collection_times": [{"days": "Mon-Fri", "time": "9:00am"}, {"days": "Sat-Sun", "time": "Closed"}], "id": "6270200012", "name": "USPS COLLECTION BOX - BLUE BOX", "address": {"city": "SPRINGFIELD", "state": "IL", "street": "801 E SANGAMON AVE", "postcode": "62702"}}},
{"geometry": {"type": "Point", "coordinates": [-89.6806309812, 39.8015217425]}, "type": "Feature", "properties": {"collection_times": [{"days": "Mon-Fri", "time": "4:00pm"}, {"days": "Sat-Sun", "time": "Closed"}], "id": "6270200017", "name": "USPS COLLECTION BOX - BLUE BOX", "address": {"city": "SPRINGFIELD", "state": "IL", "street": "1625 W WASHINGTON ST", "postcode": "62702"}}},
{"geometry": {"type": "Point", "coordinates": [-89.6946473318, 39.8121259282]}, "type": "Feature", "properties": {"collection_times": [{"days": "Mon-Fri", "time": "4:00pm"}, {"days": "Sat", "time": "11:00am"}, {"days": "Sun", "time": "Closed"}], "id": "6270200019", "name": "USPS COLLECTION BOX - BLUE BOX", "address": {"city": "SPRINGFIELD", "state": "IL", "street": "2401 W JEFFERSON ST", "postcode": "62702"}}},
{"geometry": {"type": "Point", "coordinates": [-89.6445721622, 39.8163701169]}, "type": "Feature", "properties": {"collection_times": [{"days": "Mon-Fri", "time": "5:00pm"}, {"days": "Sat", "time": "4:00pm"}, {"days": "Sun", "time": "Closed"}], "id": "6270200022", "name": "USPS COLLECTION BOX - BLUE BOX", "address": {"city": "SPRINGFIELD", "state": "IL", "street": "801 N GRAND AVE", "postcode": "62702"}}},
{"geometry": {"type": "Point", "coordinates": [-89.7064639153, 39.8012921821]}, "type": "Feature", "properties": {"collection_times": [{"days": "Mon-Fri", "time": "4:00pm"}, {"days": "Sat-Sun", "time": "Closed"}], "id": "6270200028", "name": "USPS COLLECTION BOX - BLUE BOX", "address": {"city": "SPRINGFIELD", "state": "IL", "street": "2815 W WASHINGTON ST", "postcode": "62702"}}},
{"geometry": {"type": "Point", "coordinates": [-89.6298330578, 39.8311501611]}, "type": "Feature", "properties": {"collection_times": [{"days": "Mon-Fri", "time": "3:00pm"}, {"days": "Sat", "time": "4:00pm"}, {"days": "Sun", "time": "Closed"}], "id": "6270200035", "name": "USPS COLLECTION BOX - BLUE BOX", "address": {"city": "SPRINGFIELD", "state": "IL", "street": "1927 E SANGAMON AVE", "postcode": "62702"}}},
{"geometry": {"type": "Point", "coordinates": [-89.6604436218, 39.8030968516]}, "type": "Feature", "properties": {"collection_times": [{"days": "Mon-Fri", "time": "3:00pm"}, {"days": "Sat-Sun", "time": "Closed"}], "id": "6270200036", "name": "USPS COLLECTION BOX - BLUE BOX", "address": {"city": "SPRINGFIELD", "state": "IL", "street": "525 W JEFFERSON ST", "postcode": "62702"}}},
{"geometry": {"type": "Point", "coordinates": [-89.6564969503, 39.8074340242]}, "type": "Feature", "properties": {"collection_times": [{"days": "Mon-Fri", "time": "11:00am"}, {"days": "Sat", "time": "3:00pm"}, {"days": "Sun", "time": "Closed"}], "id": "6270200039", "name": "USPS COLLECTION BOX - BLUE BOX", "address": {"city": "SPRINGFIELD", "state": "IL", "street": "230 W CARPENTER ST", "postcode": "62702"}}},
{"geometry": {"type": "Point", "coordinates": [-89.6548245668, 39.8030093945]}, "type": "Feature", "properties": {"collection_times": [{"days": "Mon-Fri", "time": "11:00am"}, {"days": "Sat-Sun", "time": "Closed"}], "id": "6270200045", "name": "USPS COLLECTION BOX - BLUE BOX", "address": {"city": "SPRINGFIELD", "state": "IL", "street": "101 W JEFFERSON ST", "postcode": "62702"}}},
{"geometry": {"type": "Point", "coordinates": [-89.6575453009, 39.8029354385]}, "type": "Feature", "properties": {"collection_times": [{"days": "Mon-Fri", "time": "11:00am"}, {"days": "Sat-Sun", "time": "Closed"}], "id": "6270200047", "name": "USPS COLLECTION BOX - BLUE BOX", "address": {"city": "SPRINGFIELD", "state": "IL", "street": "300 W JEFFERSON ST", "postcode": "62702"}}},
{"geometry": {"type": "Point", "coordinates": [-89.6045494207, 39.8357301049]}, "type": "Feature", "properties": {"collection_times": [{"days": "Mon-Fri", "time": "2:30pm"}, {"days": "Sat", "time": "2:15pm"}, {"days": "Sun", "time": "Closed"}], "id": "6270200048", "name": "USPS COLLECTION BOX - BLUE BOX", "address": {"city": "SPRINGFIELD", "state": "IL", "street": "2450 N DIRKSEN PKWY", "postcode": "62702"}}},
{"geometry": {"type": "Point", "coordinates": [-89.6548851307, 39.8018521678]}, "type": "Feature", "properties": {"collection_times": [{"days": "Mon-Fri", "time": "2:30pm"}, {"days": "Sat-Sun", "time": "Closed"}], "id": "6270200049", "name": "USPS COLLECTION BOX - BLUE BOX", "address": {"city": "SPRINGFIELD", "state": "IL", "street": "100 N 1ST ST", "postcode": "62702"}}},
{"geometry": {"type": "Point", "coordinates": [-89.63923, 39.80153]}, "type": "Feature", "properties": {"collection_times": [{"days": "Mon-Sat", "time": "10:30am"}, {"days": "Sun", "time": "Closed"}], "id": "6270300007", "name": "USPS COLLECTION BOX - BLUE BOX", "address": {"city": "SPRINGFIELD", "state": "IL", "street": "1210 E WASHINGTON ST", "postcode": "62703"}}},
{"geometry": {"type": "Point", "coordinates": [-89.6284203998, 39.7576223204]}, "type": "Feature", "properties": {"collection_times": [{"days": "Mon-Fri", "time": "4:30pm"}, {"days": "Sat", "time": "1:00pm"}, {"days": "Sun", "time": "Closed"}], "id": "6270300008", "name": "USPS COLLECTION BOX - BLUE BOX", "address": {"city": "SPRINGFIELD", "state": "IL", "street": "1826 STEVENSON DR", "postcode": "62703"}}},
{"geometry": {"type": "Point", "coordinates": [-89.6059007898, 39.7889852639]}, "type": "Feature", "properties": {"collection_times": [{"days": "Mon-Sat", "time": "10:00am"}, {"days": "Sun", "time": "Closed"}], "id": "6270300009", "name": "USPS COLLECTION BOX - BLUE BOX", "address": {"city": "SPRINGFIELD", "state": "IL", "street": "1201 S DIRKSEN PKWY", "postcode": "62703"}}},
{"geometry": {"type": "Point", "coordinates": [-89.6168655074, 39.7300796412]}, "type": "Feature", "properties": {"collection_times": [{"days": "Mon-Fri", "time": "4:00pm"}, {"days": "Sat-Sun", "time": "Closed"}], "id": "6270300031", "name": "USPS COLLECTION BOX - BLUE BOX", "address": {"city": "SPRINGFIELD", "state": "IL", "street": "1 UNIVERSITY PLZ", "postcode": "62703"}}},
{"geometry": {"type": "Point", "coordinates": [-89.6485519482, 39.7655648617]}, "type": "Feature", "properties": {"collection_times": [{"days": "Mon-Fri", "time": "1:00pm"}, {"days": "Sat", "time": "4:00pm"}, {"days": "Sun", "time": "Closed"}], "id": "6270300032", "name": "USPS COLLECTION BOX - BLUE BOX", "address": {"city": "SPRINGFIELD", "state": "IL", "street": "2777 S 6TH ST", "postcode": "62703"}}},
{"geometry": {"type": "Point", "coordinates": [-89.6118473934, 39.7656065828]}, "type": "Feature", "properties": {"collection_times": [{"days": "Mon-Sat", "time": "10:30am"}, {"days": "Sun", "time": "Closed"}], "id": "6270300033", "name": "USPS COLLECTION BOX - BLUE BOX", "address": {"city": "SPRINGFIELD", "state": "IL", "street": "3180 ADLOFF LN", "postcode": "62703"}}},
{"geometry": {"type": "Point", "coordinates": [-89.6463237994, 39.7881973749]}, "type": "Feature", "properties": {"collection_times": [{"days": "Mon-Fri", "time": "12:30pm"}, {"days": "Sat", "time": "1:00pm"}, {"days": "Sun", "time": "Closed"}], "id": "6270300042", "name": "USPS COLLECTION BOX - BLUE BOX", "address": {"city": "SPRINGFIELD", "state": "IL", "street": "730 E VINE ST", "postcode": "62703"}}},
{"geometry": {"type": "Point", "coordinates": [-89.6481808561, 39.791367915]}, "type": "Feature", "properties": {"collection_times": [{"days": "Mon-Fri", "time": "12:45pm"}, {"days": "Sat-Sun", "time": "Closed"}], "id": "6270300052", "name": "USPS COLLECTION BOX - BLUE BOX", "address": {"city": "SPRINGFIELD", "state": "IL", "street": "1025 S 6TH ST", "postcode": "62703"}}},
{"geometry": {"type": "Point", "coordinates": [-89.6077503591, 39.7606695914]}, "type": "Feature", "properties": {"collection_times": [{"days": "Mon-Sat", "time": "10:15am"}, {"days": "Sun", "time": "Closed"}], "id": "6270300074", "name": "USPS COLLECTION BOX - BLUE BOX", "address": {"city": "SPRINGFIELD", "state": "IL", "street": "3095 S DIRKSEN PKWY", "postcode": "62703"}}},
{"geometry": {"type": "Point", "coordinates": [-89.6076079813, 39.7584076687]}, "type": "Feature", "properties": {"collection_times": [{"days": "Mon-Sat", "time": "10:30am"}, {"days": "Sun", "time": "Closed"}], "id": "6270300125", "name": "USPS COLLECTION BOX - BLUE BOX", "address": {"city": "SPRINGFIELD", "state": "IL", "street": "3085 STEVENSON DR", "postcode": "62703"}}},
{"geometry": {"type": "Point", "coordinates": [-89.6220240667, 39.7642121604]}, "type": "Feature", "properties": {"collection_times": [{"days": "Mon-Sat", "time": "12:00pm"}, {"days": "Sun", "time": "Closed"}], "id": "6270300129", "name": "USPS COLLECTION BOX - BLUE BOX", "address": {"city": "SPRINGFIELD", "state": "IL", "street": "2924 STANTON ST", "postcode": "62703"}}},
{"geometry": {"type": "Point", "coordinates": [-89.6443616687, 39.7624749856]}, "type": "Feature", "properties": {"collection_times": [{"days": "Mon-Fri", "time": "1:00pm"}, {"days": "Sat", "time": "4:00pm"}, {"days": "Sun", "time": "Closed"}], "id": "6270300131", "name": "USPS COLLECTION BOX - BLUE BOX", "address": {"city": "SPRINGFIELD", "state": "IL", "street": "2960 BAKER DR", "postcode": "62703"}}},
{"geometry": {"type": "Point", "coordinates": [-89.648228939, 39.7849512714]}, "type": "Feature", "properties": {"collection_times": [{"days": "Mon-Fri", "time": "10:00am"}, {"days": "Sat-Sun", "time": "Closed"}], "id": "6270300133", "name": "USPS COLLECTION BOX - BLUE BOX", "address": {"city": "SPRINGFIELD", "state": "IL", "street": "1600 S 6TH ST", "postcode": "62703"}}},
{"geometry": {"type": "Point", "coordinates": [-89.6482510766, 39.7893091879]}, "type": "Feature", "properties": {"collection_times": [{"days": "Mon-Sat", "time": "11:30am"}, {"days": "Sun", "time": "Closed"}], "id": "6270300134", "name": "USPS COLLECTION BOX - BLUE BOX", "address": {"city": "SPRINGFIELD", "state": "IL", "street": "1201 S 6TH ST", "postcode": "62703"}}},
{"geometry": {"type": "Point", "coordinates": [-89.6496056598, 39.7869526849]}, "type": "Feature", "properties": {"collection_times": [{"days": "Mon-Fri", "time": "3:30pm"}, {"days": "Sat", "time": "1:00pm"}, {"days": "Sun", "time": "Closed"}], "id": "6270300139", "name": "USPS COLLECTION BOX - BLUE BOX", "address": {"city": "SPRINGFIELD", "state": "IL", "street": "1310 S 5TH ST", "postcode": "62703"}}},
{"geometry": {"type": "Point", "coordinates": [-89.6497333184, 39.7825160643]}, "type": "Feature", "properties": {"collection_times": [{"days": "Mon-Fri", "time": "3:30pm"}, {"days": "Sat", "time": "4:00pm"}, {"days": "Sun", "time": "Closed"}], "id": "6270300142", "name": "USPS COLLECTION BOX - BLUE BOX", "address": {"city": "SPRINGFIELD", "state": "IL", "street": "1730 S 5TH ST", "postcode": "62703"}}},
{"geometry": {"type": "Point", "coordinates": [-89.6184668909, 39.7579335293]}, "type": "Feature", "properties": {"collection_times": [{"days": "Mon-Fri", "time": "12:30pm"}, {"days": "Sat", "time": "1:00pm"}, {"days": "Sun", "time": "Closed"}], "id": "6270300145", "name": "USPS COLLECTION BOX - BLUE BOX", "address": {"city": "SPRINGFIELD", "state": "IL", "street": "2600 STEVENSON DR", "postcode": "62703"}}},
{"geometry": {"type": "Point", "coordinates": [-89.6481241568, 39.7779951921]}, "type": "Feature", "properties": {"collection_times": [{"days": "Mon-Fri", "time": "10:00am"}, {"days": "Sat-Sun", "time": "Closed"}], "id": "6270300149", "name": "USPS COLLECTION BOX - BLUE BOX", "address": {"city": "SPRINGFIELD", "state": "IL", "street": "200 ILES PARK PL", "postcode": "62703"}}},
{"geometry": {"type": "Point", "coordinates": [-89.6498783803, 39.7763895427]}, "type": "Feature", "properties": {"collection_times": [{"days": "Mon-Fri", "time": "12:30pm"}, {"days": "Sat", "time": "4:00pm"}, {"days": "Sun", "time": "Closed"}], "id": "6270300152", "name": "USPS COLLECTION BOX - BLUE BOX", "address": {"city": "SPRINGFIELD", "state": "IL", "street": "2200 S 5TH ST", "postcode": "62703"}}},
{"geometry": {"type": "Point", "coordinates": [-89.6494406769, 39.7938281704]}, "type": "Feature", "properties": {"collection_times": [{"days": "Mon-Fri", "time": "11:30am"}, {"days": "Sat-Sun", "time": "Closed"}], "id": "6270300160", "name": "USPS COLLECTION BOX - BLUE BOX", "address": {"city": "SPRINGFIELD", "state": "IL", "street": "500 E LAWRENCE AVE", "postcode": "62703"}}},
{"geometry": {"type": "Point", "coordinates": [-89.6495373033, 39.755560222]}, "type": "Feature", "properties": {"collection_times": [{"days": "Mon-Fri", "time": "12:30pm"}, {"days": "Sat", "time": "4:00pm"}, {"days": "Sun", "time": "Closed"}], "id": "6270300164", "name": "USPS COLLECTION BOX - BLUE BOX", "address": {"city": "SPRINGFIELD", "state": "IL", "street": "500 E SAINT JOSEPH ST", "postcode": "62703"}}},
{"geometry": {"type": "Point", "coordinates": [-89.6368207872, 39.7318598454]}, "type": "Feature", "properties": {"collection_times": [{"days": "Mon-Fri", "time": "3:30pm"}, {"days": "Sat-Sun", "time": "Closed"}], "id": "6270300166", "name": "USPS COLLECTION BOX - BLUE BOX", "address": {"city": "SPRINGFIELD", "state": "IL", "street": "4200 RODGER ST", "postcode": "62703"}}},
{"geometry": {"type": "Point", "coordinates": [-89.6248699055, 39.7946933841]}, "type": "Feature", "properties": {"collection_times": [{"days": "Mon-Sat", "time": "7:00pm"}, {"days": "Sun", "time": "Closed"}], "id": "6270300172", "name": "USPS COLLECTION BOX - BLUE BOX", "address": {"city": "SPRINGFIELD", "state": "IL", "street": "2105 E COOK ST", "postcode": "62703"}}},
{"geometry": {"type": "Point", "coordinates": [-89.6248699055, 39.7946933841]}, "type": "Feature", "properties": {"collection_times": [{"days": "Mon-Sat", "time": "7:00pm"}, {"days": "Sun", "time": "Closed"}], "id": "6270300173", "name": "USPS COLLECTION BOX - PO LOBBY", "address": {"city": "SPRINGFIELD", "state": "IL", "street": "2105 E COOK ST", "postcode": "62703"}}},
{"geometry": {"type": "Point", "coordinates": [-89.6862555787, 39.7642539183]}, "type": "Feature", "properties": {"collection_times": [{"days": "Mon-Fri", "time": "3:00pm"}, {"days": "Sat", "time": "12:00pm"}, {"days": "Sun", "time": "Closed"}], "id": "6270400001", "name": "USPS COLLECTION BOX - BLUE BOX", "address": {"city": "SPRINGFIELD", "state": "IL", "street": "1999 WABASH AVE", "postcode": "62704"}}},
{"geometry": {"type": "Point", "coordinates": [-89.6898599617, 39.7640256565]}, "type": "Feature", "properties": {"collection_times": [{"days": "Mon-Fri", "time": "3:00pm"}, {"days": "Sat", "time": "12:00pm"}, {"days": "Sun", "time": "Closed"}], "id": "6270400003", "name": "USPS COLLECTION BOX - BLUE BOX", "address": {"city": "SPRINGFIELD", "state": "IL", "street": "2 ROBINHOOD LN", "postcode": "62704"}}},
{"geometry": {"type": "Point", "coordinates": [-89.6892933949, 39.7568058171]}, "type": "Feature", "properties": {"collection_times": [{"days": "Mon-Fri", "time": "10:30am"}, {"days": "Sat", "time": "12:00pm"}, {"days": "Sun", "time": "Closed"}], "id": "6270400008", "name": "USPS COLLECTION BOX - BLUE BOX", "address": {"city": "SPRINGFIELD", "state": "IL", "street": "2060 WESTCHESTER BLVD", "postcode": "62704"}}},
{"geometry": {"type": "Point", "coordinates": [-89.700865702, 39.7640169059]}, "type": "Feature", "properties": {"collection_times": [{"days": "Mon-Fri", "time": "3:00pm"}, {"days": "Sat", "time": "4:00pm"}, {"days": "Sun", "time": "Closed"}], "id": "6270400014", "name": "USPS COLLECTION BOX - BLUE BOX", "address": {"city": "SPRINGFIELD", "state": "IL", "street": "2 DRAWBRIDGE RD", "postcode": "62704"}}},
{"geometry": {"type": "Point", "coordinates": [-89.6806019382, 39.7674988187]}, "type": "Feature", "properties": {"collection_times": [{"days": "Mon-Fri", "time": "1:00pm"}, {"days": "Sat-Sun", "time": "Closed"}], "id": "6270400017", "name": "USPS COLLECTION BOX - BLUE BOX", "address": {"city": "SPRINGFIELD", "state": "IL", "street": "2901 LEONARD ST", "postcode": "62704"}}},
{"geometry": {"type": "Point", "coordinates": [-89.7091734973, 39.762360199]}, "type": "Feature", "properties": {"collection_times": [{"days": "Mon-Fri", "time": "3:00pm"}, {"days": "Sat", "time": "4:00pm"}, {"days": "Sun", "time": "Closed"}], "id": "6270400019", "name": "USPS COLLECTION BOX - BLUE BOX", "address": {"city": "SPRINGFIELD", "state": "IL", "street": "3100 W WHITE OAKS DR", "postcode": "62704"}}},
{"geometry": {"type": "Point", "coordinates": [-89.654944414, 39.7950466875]}, "type": "Feature", "properties": {"collection_times": [{"days": "Mon-Fri", "time": "11:30am"}, {"days": "Sat-Sun", "time": "Closed"}], "id": "6270400021", "name": "USPS COLLECTION BOX - BLUE BOX", "address": {"city": "SPRINGFIELD", "state": "IL", "street": "107 W COOK ST", "postcode": "62704"}}},
{"geometry": {"type": "Point", "coordinates": [-89.6588633732, 39.7895560628]}, "type": "Feature", "properties": {"collection_times": [{"days": "Mon-Fri", "time": "11:30am"}, {"days": "Sat-Sun", "time": "Closed"}], "id": "6270400023", "name": "USPS COLLECTION BOX - BLUE BOX", "address": {"city": "SPRINGFIELD", "state": "IL", "street": "415 W ALLEN ST", "postcode": "62704"}}},
{"geometry": {"type": "Point", "coordinates": [-89.7030712186, 39.7912510524]}, "type": "Feature", "properties": {"collection_times": [{"days": "Mon-Fri", "time": "4:00pm"}, {"days": "Sat", "time": "12:00pm"}, {"days": "Sun", "time": "Closed"}], "id": "6270400025", "name": "USPS COLLECTION BOX - BLUE BOX", "address": {"city": "SPRINGFIELD", "state": "IL", "street": "959 S DURKIN DR", "postcode": "62704"}}},
{"geometry": {"type": "Point", "coordinates": [-89.6851348365, 39.7997291056]}, "type": "Feature", "properties": {"collection_times": [{"days": "Mon-Sat", "time": "4:00pm"}, {"days": "Sun", "time": "Closed"}], "id": "6270400029", "name": "USPS COLLECTION BOX - BLUE BOX", "address": {"city": "SPRINGFIELD", "state": "IL", "street": "1903 W MONROE ST", "postcode": "62704"}}},
{"geometry": {"type": "Point", "coordinates": [-89.6585068506, 39.7952804974]}, "type": "Feature", "properties": {"collection_times": [{"days": "Mon-Fri", "time": "11:30am"}, {"days": "Sat", "time": "3:00pm"}, {"days": "Sun", "time": "Closed"}], "id": "6270400033", "name": "USPS COLLECTION BOX - BLUE BOX", "address": {"city": "SPRINGFIELD", "state": "IL", "street": "700 S PASFIELD ST", "postcode": "62704"}}},
{"geometry": {"type": "Point", "coordinates": [-89.6560970612, 39.7920992785]}, "type": "Feature", "properties": {"collection_times": [{"days": "Mon-Fri", "time": "11:30am"}, {"days": "Sat", "time": "3:00pm"}, {"days": "Sun", "time": "Closed"}], "id": "6270400049", "name": "USPS COLLECTION BOX - BLUE BOX", "address": {"city": "SPRINGFIELD", "state": "IL", "street": "925 S SPRING ST", "postcode": "62704"}}},
{"geometry": {"type": "Point", "coordinates": [-89.7112743328, 39.7530004314]}, "type": "Feature", "properties": {"collection_times": [{"days": "Mon-Fri", "time": "3:00pm"}, {"days": "Sat", "time": "12:00pm"}, {"days": "Sun", "time": "Closed"}], "id": "6270400054", "name": "USPS COLLECTION BOX - BLUE BOX", "address": {"city": "SPRINGFIELD", "state": "IL", "street": "3000 LINDBERGH BLVD", "postcode": "62704"}}},
{"geometry": {"type": "Point", "coordinates": [-89.6985823492, 39.7925130342]}, "type": "Feature", "properties": {"collection_times": [{"days": "Mon-Fri", "time": "4:00pm"}, {"days": "Sat", "time": "12:00pm"}, {"days": "Sun", "time": "Closed"}], "id": "6270400056", "name": "USPS COLLECTION BOX - BLUE BOX", "address": {"city": "SPRINGFIELD", "state": "IL", "street": "2401 W MONROE ST", "postcode": "62704"}}},
{"geometry": {"type": "Point", "coordinates": [-89.7020936138, 39.7895490232]}, "type": "Feature", "properties": {"collection_times": [{"days": "Mon-Fri", "time": "4:00pm"}, {"days": "Sat", "time": "12:00pm"}, {"days": "Sun", "time": "Closed"}], "id": "6270400060", "name": "USPS COLLECTION BOX - BLUE BOX", "address": {"city": "SPRINGFIELD", "state": "IL", "street": "1150 CENTRE WEST DR", "postcode": "62704"}}},
{"geometry": {"type": "Point", "coordinates": [-89.6932994599, 39.7961200116]}, "type": "Feature", "properties": {"collection_times": [{"days": "Mon-Fri", "time": "4:00pm"}, {"days": "Sat", "time": "12:00pm"}, {"days": "Sun", "time": "Closed"}], "id": "6270400061", "name": "USPS COLLECTION BOX - BLUE BOX", "address": {"city": "SPRINGFIELD", "state": "IL", "street": "2305 W MONROE ST", "postcode": "62704"}}},
{"geometry": {"type": "Point", "coordinates": [-89.6670932416, 39.7866870354]}, "type": "Feature", "properties": {"collection_times": [{"days": "Mon-Fri", "time": "1:00pm"}, {"days": "Sat-Sun", "time": "Closed"}], "id": "6270400063", "name": "USPS COLLECTION BOX - BLUE BOX", "address": {"city": "SPRINGFIELD", "state": "IL", "street": "1315 S STATE ST", "postcode": "62704"}}},
{"geometry": {"type": "Point", "coordinates": [-89.6918602333, 39.7676932022]}, "type": "Feature", "properties": {"collection_times": [{"days": "Mon-Fri", "time": "3:00pm"}, {"days": "Sat", "time": "4:00pm"}, {"days": "Sun", "time": "Closed"}], "id": "6270400066", "name": "USPS COLLECTION BOX - BLUE BOX", "address": {"city": "SPRINGFIELD", "state": "IL", "street": "2841 MONTVALE DR", "postcode": "62704"}}},
{"geometry": {"type": "Point", "coordinates": [-89.6682893718, 39.7751804482]}, "type": "Feature", "properties": {"collection_times": [{"days": "Mon-Fri", "time": "5:30pm"}, {"days": "Sat", "time": "4:00pm"}, {"days": "Sun", "time": "Closed"}], "id": "6270400068", "name": "USPS COLLECTION BOX - BLUE BOX", "address": {"city": "SPRINGFIELD", "state": "IL", "street": "2301 S MACARTHUR BLVD", "postcode": "62704"}}},
{"geometry": {"type": "Point", "coordinates": [-89.6682893718, 39.7751804482]}, "type": "Feature", "properties": {"collection_times": [{"days": "Mon-Fri", "time": "5:30pm"}, {"days": "Sat", "time": "4:00pm"}, {"days": "Sun", "time": "Closed"}], "id": "6270400069", "name": "USPS COLLECTION BOX - BLUE BOX", "address": {"city": "SPRINGFIELD", "state": "IL", "street": "2301 S MACARTHUR BLVD", "postcode": "62704"}}},
{"geometry": {"type": "Point", "coordinates": [-89.6612200281, 39.799635477]}, "type": "Feature", "properties": {"collection_times": [{"days": "Mon-Fri", "time": "11:30am"}, {"days": "Sat-Sun", "time": "Closed"}], "id": "6270400073", "name": "USPS COLLECTION BOX - BLUE BOX", "address": {"city": "SPRINGFIELD", "state": "IL", "street": "300 S NEW ST", "postcode": "62704"}}},
{"geometry": {"type": "Point", "coordinates": [-89.6571436081, 39.8003457516]}, "type": "Feature", "properties": {"collection_times": [{"days": "Mon-Fri", "time": "11:30am"}, {"days": "Sat-Sun", "time": "Closed"}], "id": "6270400079", "name": "USPS COLLECTION BOX - BLUE BOX", "address": {"city": "SPRINGFIELD", "state": "IL", "street": "222 S COLLEGE ST", "postcode": "62704"}}},
{"geometry": {"type": "Point", "coordinates": [-89.6537486824, 39.7870167663]}, "type": "Feature", "properties": {"collection_times": [{"days": "Mon-Fri", "time": "1:00pm"}, {"days": "Sat", "time": "3:00pm"}, {"days": "Sun", "time": "Closed"}], "id": "6270400084", "name": "USPS COLLECTION BOX - BLUE BOX", "address": {"city": "SPRINGFIELD", "state": "IL", "street": "1301 S 2ND ST", "postcode": "62704"}}},
{"geometry": {"type": "Point", "coordinates": [-89.6571378552, 39.7868660645]}, "type": "Feature", "properties": {"collection_times": [{"days": "Mon-Fri", "time": "1:00pm"}, {"days": "Sat-Sun", "time": "Closed"}], "id": "6270400087", "name": "USPS COLLECTION BOX - BLUE BOX", "address": {"city": "SPRINGFIELD", "state": "IL", "street": "1310 S COLLEGE ST", "postcode": "62704"}}},
{"geometry": {"type": "Point", "coordinates": [-89.6609523413, 39.7789375059]}, "type": "Feature", "properties": {"collection_times": [{"days": "Mon-Fri", "time": "1:00pm"}, {"days": "Sat", "time": "12:00pm"}, {"days": "Sun", "time": "Closed"}], "id": "6270400089", "name": "USPS COLLECTION BOX - BLUE BOX", "address": {"city": "SPRINGFIELD", "state": "IL", "street": "2000 S LOWELL AVE", "postcode": "62704"}}},
{"geometry": {"type": "Point", "coordinates": [-89.6828899782, 39.7640885668]}, "type": "Feature", "properties": {"collection_times": [{"days": "Mon-Fri", "time": "5:00pm"}, {"days": "Sat", "time": "4:00pm"}, {"days": "Sun", "time": "Closed"}], "id": "6270400091", "name": "USPS COLLECTION BOX - BLUE BOX", "address": {"city": "SPRINGFIELD", "state": "IL", "street": "1760 WABASH AVE", "postcode": "62704"}}},
{"geometry": {"type": "Point", "coordinates": [-89.6828899782, 39.7640885668]}, "type": "Feature", "properties": {"collection_times": [{"days": "Mon-Fri", "time": "5:00pm"}, {"days": "Sat", "time": "4:00pm"}, {"days": "Sun", "time": "Closed"}], "id": "6270400092", "name": "USPS COLLECTION BOX - BLUE BOX", "address": {"city": "SPRINGFIELD", "state": "IL", "street": "1760 WABASH AVE", "postcode": "62704"}}},
{"geometry": {"type": "Point", "coordinates": [-89.7104870076, 39.7780282632]}, "type": "Feature", "properties": {"collection_times": [{"days": "Mon-Fri", "time": "4:00pm"}, {"days": "Sat", "time": "12:00pm"}, {"days": "Sun", "time": "Closed"}], "id": "6270400098", "name": "USPS COLLECTION BOX - BLUE BOX", "address": {"city": "SPRINGFIELD", "state": "IL", "street": "2921 GREENBRIAR DR", "postcode": "62704"}}},
{"geometry": {"type": "Point", "coordinates": [-89.7048127529, 39.7951538246]}, "type": "Feature", "properties": {"collection_times": [{"days": "Mon-Fri", "time": "4:00pm"}, {"days": "Sat", "time": "12:00pm"}, {"days": "Sun", "time": "Closed"}], "id": "6270400100", "name": "USPS COLLECTION BOX - BLUE BOX", "address": {"city": "SPRINGFIELD", "state": "IL", "street": "2700 W LAWRENCE AVE", "postcode": "62704"}}},
{"geometry": {"type": "Point", "coordinates": [-89.6828899782, 39.7640885668]}, "type": "Feature", "properties": {"collection_times": [{"days": "Mon-Fri", "time": "5:30pm"}, {"days": "Sat", "time": "3:00pm"}, {"days": "Sun", "time": "Closed"}], "id": "6270400103", "name": "USPS COLLECTION BOX - PO LOBBY", "address": {"city": "SPRINGFIELD", "state": "IL", "street": "1760 WABASH AVE", "postcode": "62704"}}},
{"geometry": {"type": "Point", "coordinates": [-89.6828899782, 39.7640885668]}, "type": "Feature", "properties": {"collection_times": [{"days": "Mon-Fri", "time": "5:30pm"}, {"days": "Sat", "time": "3:00pm"}, {"days": "Sun", "time": "Closed"}], "id": "6270400104", "name": "USPS COLLECTION BOX - APC", "address": {"city": "SPRINGFIELD", "state": "IL", "street": "1760 WABASH AVE", "postcode": "62704"}}},
{"geometry": {"type": "Point", "coordinates": [-89.657451121, 39.7962020946]}, "type": "Feature", "properties": {"collection_times": [{"days": "Mon-Fri", "time": "11:30am"}, {"days": "Sat", "time": "1:00pm"}, {"days": "Sun", "time": "Closed"}], "id": "6270400105", "name": "USPS COLLECTION BOX - BLUE BOX", "address": {"city": "SPRINGFIELD", "state": "IL", "street": "300 W EDWARDS ST", "postcode": "62704"}}},
{"geometry": {"type": "Point", "coordinates": [-89.5601341196, 39.8399485094]}, "type": "Feature", "properties": {"collection_times": [{"days": "Mon-Fri", "time": "3:00pm"}, {"days": "Sat-Sun", "time": "Closed"}], "id": "6270700000", "name": "USPS COLLECTION BOX - BLUE BOX", "address": {"city": "SPRINGFIELD", "state": "IL", "street": "4936 LAVERNA RD", "postcode": "62707"}}},
{"geometry": {"type": "Point", "coordinates": [-89.666583124, 39.8449225247]}, "type": "Feature", "properties": {"collection_times": [{"days": "Mon-Fri", "time": "10:00am"}, {"days": "Sat-Sun", "time": "Closed"}], "id": "6270700004", "name": "USPS COLLECTION BOX - BLUE BOX", "address": {"city": "SPRINGFIELD", "state": "IL", "street": "1050 CAPITOL AIRPORT DR", "postcode": "62707"}}},
{"geometry": {"type": "Point", "coordinates": [-89.5809358205, 39.8327618675]}, "type": "Feature", "properties": {"collection_times": [{"days": "Mon-Fri", "time": "3:15pm"}, {"days": "Sat-Sun", "time": "Closed"}], "id": "6270700007", "name": "USPS COLLECTION BOX - BLUE BOX", "address": {"city": "SPRINGFIELD", "state": "IL", "street": "3600 WINCHESTER RD", "postcode": "62707"}}},
{"geometry": {"type": "Point", "coordinates": [-89.6297686914, 39.7140231675]}, "type": "Feature", "properties": {"collection_times": [{"days": "Mon-Fri", "time": "3:30pm"}, {"days": "Sat", "time": "1:00pm"}, {"days": "Sun", "time": "Closed"}], "id": "6271200000", "name": "USPS COLLECTION BOX - BLUE BOX", "address": {"city": "SPRINGFIELD", "state": "IL", "street": "1225 TORONTO RD", "postcode": "62712"}}}
]}
