{"type": "FeatureCollection", "features": [
{"geometry": {"type": "Point", "coordinates": [-89.1333903044, 38.5257077553]}, "type": "Feature", "properties": {"collection_times": [{"days": "Mon-Fri", "time": "5:00pm"}, {"days": "Sat", "time": "3:00pm"}, {"days": "Sun", "time": "Closed"}], "id": "6280100001", "name": "USPS COLLECTION BOX - BLUE BOX", "address": {"city": "CENTRALIA", "state": "IL", "street": "325 S POPLAR ST", "postcode": "62801"}}},
{"geometry": {"type": "Point", "coordinates": [-89.1213609144, 38.5288783665]}, "type": "Feature", "properties": {"collection_times": [{"days": "Mon-Sat", "time": "2:15pm"}, {"days": "Sun", "time": "Closed"}], "id": "6280100003", "name": "USPS COLLECTION BOX - BLUE BOX", "address": {"city": "CENTRALIA", "state": "IL", "street": "1050 ML KING DR", "postcode": "62801"}}},
{"geometry": {"type": "Point", "coordinates": [-89.1526288685, 38.5297740402]}, "type": "Feature", "properties": {"collection_times": [{"days": "Mon-Sat", "time": "2:15pm"}, {"days": "Sun", "time": "Closed"}], "id": "6280100004", "name": "USPS COLLECTION BOX - BLUE BOX", "address": {"city": "CENTRALIA", "state": "IL", "street": "1067 W BROADWAY", "postcode": "62801"}}},
{"geometry": {"type": "Point", "coordinates": [-89.135479013, 38.5187432239]}, "type": "Feature", "properties": {"collection_times": [{"days": "Mon-Sat", "time": "2:00pm"}, {"days": "Sun", "time": "Closed"}], "id": "6280100006", "name": "USPS COLLECTION BOX - BLUE BOX", "address": {"city": "CENTRALIA", "state": "IL", "street": "1311 S POPLAR ST", "postcode": "62801"}}},
{"geometry": {"type": "Point", "coordinates": [-89.1154381373, 38.5251706552]}, "type": "Feature", "properties": {"collection_times": [{"days": "Mon-Sat", "time": "2:00pm"}, {"days": "Sun", "time": "Closed"}], "id": "6280100009", "name": "USPS COLLECTION BOX - BLUE BOX", "address": {"city": "CENTRALIA", "state": "IL", "street": "1422 E MCCORD ST", "postcode": "62801"}}},
{"geometry": {"type": "Point", "coordinates": [-89.1332185677, 38.5258717826]}, "type": "Feature", "properties": {"collection_times": [{"days": "Mon-Sat", "time": "2:30pm"}, {"days": "Sun", "time": "Closed"}], "id": "6280100010", "name": "USPS COLLECTION BOX - BLUE BOX", "address": {"city": "CENTRALIA", "state": "IL", "street": "215 S POPLAR ST", "postcode": "62801"}}},
{"geometry": {"type": "Point", "coordinates": [-89.1303128746, 38.5498313439]}, "type": "Feature", "properties": {"collection_times": [{"days": "Mon-Sat", "time": "1:15pm"}, {"days": "Sun", "time": "Closed"}], "id": "6280100011", "name": "USPS COLLECTION BOX - BLUE BOX", "address": {"city": "CENTRALIA", "state": "IL", "street": "223 N COMMERCIAL ST", "postcode": "62801"}}},
{"geometry": {"type": "Point", "coordinates": [-89.1230006535, 38.5239932259]}, "type": "Feature", "properties": {"collection_times": [{"days": "Mon-Sat", "time": "1:00pm"}, {"days": "Sun", "time": "Closed"}], "id": "6280100014", "name": "USPS COLLECTION BOX - BLUE BOX", "address": {"city": "CENTRALIA", "state": "IL", "street": "301 MELROSE AVE", "postcode": "62801"}}},
{"geometry": {"type": "Point", "coordinates": [-89.11614652, 38.520919013]}, "type": "Feature", "properties": {"collection_times": [{"days": "Mon-Sat", "time": "2:00pm"}, {"days": "Sun", "time": "Closed"}], "id": "6280100016", "name": "USPS COLLECTION BOX - BLUE BOX", "address": {"city": "CENTRALIA", "state": "IL", "street": "429 S PLEASANT AVE", "postcode": "62801"}}},
{"geometry": {"type": "Point", "coordinates": [-89.2637230266, 38.5415567763]}, "type": "Feature", "properties": {"collection_times": [{"days": "Mon-Sat", "time": "1:00pm"}, {"days": "Sun", "time": "Closed"}], "id": "6280100018", "name": "USPS COLLECTION BOX - BLUE BOX", "address": {"city": "CENTRALIA", "state": "IL", "street": "110 N BROADWAY", "postcode": "62801"}}},
{"geometry": {"type": "Point", "coordinates": [-89.1332980139, 38.5273939488]}, "type": "Feature", "properties": {"collection_times": [{"days": "Mon-Sat", "time": "2:00pm"}, {"days": "Sun", "time": "Closed"}], "id": "6280100019", "name": "USPS COLLECTION BOX - BLUE BOX", "address": {"city": "CENTRALIA", "state": "IL", "street": "232 E BROADWAY", "postcode": "62801"}}},
{"geometry": {"type": "Point", "coordinates": [-89.147051869, 38.5294454375]}, "type": "Feature", "properties": {"collection_times": [{"days": "Mon-Sat", "time": "1:30pm"}, {"days": "Sun", "time": "Closed"}], "id": "6280100020", "name": "USPS COLLECTION BOX - BLUE BOX", "address": {"city": "CENTRALIA", "state": "IL", "street": "100 WASHINGTON BLVD", "postcode": "62801"}}},
{"geometry": {"type": "Point", "coordinates": [-89.1339191589, 38.5182458261]}, "type": "Feature", "properties": {"collection_times": [{"days": "Mon-Sat", "time": "2:00pm"}, {"days": "Sun", "time": "Closed"}], "id": "6280100021", "name": "USPS COLLECTION BOX - BLUE BOX", "address": {"city": "CENTRALIA", "state": "IL", "street": "800 S ELM ST", "postcode": "62801"}}},
{"geometry": {"type": "Point", "coordinates": [-89.1304952282, 38.5300818215]}, "type": "Feature", "properties": {"collection_times": [{"days": "Mon-Sat", "time": "2:15pm"}, {"days": "Sun", "time": "Closed"}], "id": "6280100022", "name": "USPS COLLECTION BOX - BLUE BOX", "address": {"city": "CENTRALIA", "state": "IL", "street": "336 N ELM ST", "postcode": "62801"}}},
{"geometry": {"type": "Point", "coordinates": [-89.1307577151, 38.5286395873]}, "type": "Feature", "properties": {"collection_times": [{"days": "Mon-Sat", "time": "2:00pm"}, {"days": "Sun", "time": "Closed"}], "id": "6280100024", "name": "USPS COLLECTION BOX - BLUE BOX", "address": {"city": "CENTRALIA", "state": "IL", "street": "225 N ELM ST", "postcode": "62801"}}},
{"geometry": {"type": "Point", "coordinates": [-89.1333903044, 38.5257077553]}, "type": "Feature", "properties": {"collection_times": [{"days": "Mon-Fri", "time": "5:00pm"}, {"days": "Sat", "time": "3:00pm"}, {"days": "Sun", "time": "Closed"}], "id": "6280100029", "name": "USPS COLLECTION BOX - BLUE BOX", "address": {"city": "CENTRALIA", "state": "IL", "street": "325 S POPLAR ST", "postcode": "62801"}}},
{"geometry": {"type": "Point", "coordinates": [-89.1332338429, 38.5257480459]}, "type": "Feature", "properties": {"collection_times": [{"days": "Mon-Fri", "time": "5:00pm"}, {"days": "Sat", "time": "3:00pm"}, {"days": "Sun", "time": "Closed"}], "id": "6280100032", "name": "USPS COLLECTION BOX - PO LOBBY", "address": {"city": "CENTRALIA", "state": "IL", "street": "314 S POPLAR ST", "postcode": "62801"}}},
{"geometry": {"type": "Point", "coordinates": [-89.2729874335, 38.4421489379]}, "type": "Feature", "properties": {"collection_times": [{"days": "Mon-Fri", "time": "11:45am"}, {"days": "Sat", "time": "9:00am"}, {"days": "Sun", "time": "Closed"}], "id": "6280300001", "name": "USPS COLLECTION BOX - BLUE BOX", "address": {"city": "HOYLETON", "state": "IL", "street": "75 E SAINT LOUIS ST", "postcode": "62803"}}},
{"geometry": {"type": "Point", "coordinates": [-89.2729874335, 38.4421489379]}, "type": "Feature", "properties": {"collection_times": [{"days": "Mon-Fri", "time": "11:45am"}, {"days": "Sat", "time": "9:15am"}, {"days": "Sun", "time": "Closed"}], "id": "6280300002", "name": "USPS COLLECTION BOX - PO LOBBY", "address": {"city": "HOYLETON", "state": "IL", "street": "75 E SAINT LOUIS ST", "postcode": "62803"}}},
{"geometry": {"type": "Point", "coordinates": [-88.0604087862, 38.3770749122]}, "type": "Feature", "properties": {"collection_times": [{"days": "Mon-Sat", "time": "2:40pm"}, {"days": "Sun", "time": "Closed"}], "id": "6280600001", "name": "USPS COLLECTION BOX - BLUE BOX", "address": {"city": "ALBION", "state": "IL", "street": "104 W MAIN ST", "postcode": "62806"}}},
{"geometry": {"type": "Point", "coordinates": [-88.0570257588, 38.3770615344]}, "type": "Feature", "properties": {"collection_times": [{"days": "Mon-Fri", "time": "2:40pm"}, {"days": "Sat-Sun", "time": "Closed"}], "id": "6280600005", "name": "USPS COLLECTION BOX - BLUE BOX", "address": {"city": "ALBION", "state": "IL", "street": "50 E MAIN ST", "postcode": "62806"}}},
{"geometry": {"type": "Point", "coordinates": [-88.0604087862, 38.3770749122]}, "type": "Feature", "properties": {"collection_times": [{"days": "Mon-Sat", "time": "2:40pm"}, {"days": "Sun", "time": "Closed"}], "id": "6280600006", "name": "USPS COLLECTION BOX - BLUE BOX", "address": {"city": "ALBION", "state": "IL", "street": "104 W MAIN ST", "postcode": "62806"}}},
{"geometry": {"type": "Point", "coordinates": [-88.0604087862, 38.3770749122]}, "type": "Feature", "properties": {"collection_times": [{"days": "Mon-Sat", "time": "2:40pm"}, {"days": "Sun", "time": "Closed"}], "id": "6280600007", "name": "USPS COLLECTION BOX - PO LOBBY", "address": {"city": "ALBION", "state": "IL", "street": "104 W MAIN ST", "postcode": "62806"}}},
{"geometry": {"type": "Point", "coordinates": [-88.9106620952, 38.7213432696]}, "type": "Feature", "properties": {"collection_times": [{"days": "Mon-Fri", "time": "11:45am"}, {"days": "Sat", "time": "8:45am"}, {"days": "Sun", "time": "Closed"}], "id": "6280700001", "name": "USPS COLLECTION BOX - BLUE BOX", "address": {"city": "ALMA", "state": "IL", "street": "127 7TH ST", "postcode": "62807"}}},
{"geometry": {"type": "Point", "coordinates": [-88.9106620952, 38.7213432696]}, "type": "Feature", "properties": {"collection_times": [{"days": "Mon-Fri", "time": "11:45am"}, {"days": "Sat", "time": "8:45am"}, {"days": "Sun", "time": "Closed"}], "id": "6280700002", "name": "USPS COLLECTION BOX - PO LOBBY", "address": {"city": "ALMA", "state": "IL", "street": "127 7TH ST", "postcode": "62807"}}},
{"geometry": {"type": "Point", "coordinates": [-89.1889015173, 38.3277403332]}, "type": "Feature", "properties": {"collection_times": [{"days": "Mon-Fri", "time": "2:30pm"}, {"days": "Sat", "time": "9:15am"}, {"days": "Sun", "time": "Closed"}], "id": "6280800001", "name": "USPS COLLECTION BOX - BLUE BOX", "address": {"city": "ASHLEY", "state": "IL", "street": "167 E JACKSON ST", "postcode": "62808"}}},
{"geometry": {"type": "Point", "coordinates": [-89.1889015173, 38.3277403332]}, "type": "Feature", "properties": {"collection_times": [{"days": "Mon-Fri", "time": "2:30pm"}, {"days": "Sat", "time": "9:15am"}, {"days": "Sun", "time": "Closed"}], "id": "6280800002", "name": "USPS COLLECTION BOX - PO LOBBY", "address": {"city": "ASHLEY", "state": "IL", "street": "167 E JACKSON ST", "postcode": "62808"}}},
{"geometry": {"type": "Point", "coordinates": [-88.7476159138, 38.1947069973]}, "type": "Feature", "properties": {"collection_times": [{"days": "Mon-Fri", "time": "2:45pm"}, {"days": "Sat", "time": "10:30am"}, {"days": "Sun", "time": "Closed"}], "id": "6281000001", "name": "USPS COLLECTION BOX - PO LOBBY", "address": {"city": "BELLERIVE", "state": "IL", "street": "101 S MAIN ST", "postcode": "62810"}}},
{"geometry": {"type": "Point", "coordinates": [-88.7476159138, 38.1947069973]}, "type": "Feature", "properties": {"collection_times": [{"days": "Mon-Fri", "time": "3:05pm"}, {"days": "Sat", "time": "9:45am"}, {"days": "Sun", "time": "Closed"}], "id": "6281000003", "name": "USPS COLLECTION BOX - BLUE BOX", "address": {"city": "BELLERIVE", "state": "IL", "street": "101 S MAIN ST", "postcode": "62810"}}},
{"geometry": {"type": "Point", "coordinates": [-87.9117284228, 38.3831913445]}, "type": "Feature", "properties": {"collection_times": [{"days": "Mon-Fri", "time": "2:15pm"}, {"days": "Sat", "time": "9:30am"}, {"days": "Sun", "time": "Closed"}], "id": "6281100001", "name": "USPS COLLECTION BOX - BLUE BOX", "address": {"city": "BELLMONT", "state": "IL", "street": "210 MAIN ST", "postcode": "62811"}}},
{"geometry": {"type": "Point", "coordinates": [-87.9117284228, 38.3831913445]}, "type": "Feature", "properties": {"collection_times": [{"days": "Mon-Fri", "time": "2:15pm"}, {"days": "Sat", "time": "9:30am"}, {"days": "Sun", "time": "Closed"}], "id": "6281100002", "name": "USPS COLLECTION BOX - PO LOBBY", "address": {"city": "BELLMONT", "state": "IL", "street": "210 MAIN ST", "postcode": "62811"}}},
{"geometry": {"type": "Point", "coordinates": [-88.9209655282, 37.9967284608]}, "type": "Feature", "properties": {"collection_times": [{"days": "Mon-Sat", "time": "3:00pm"}, {"days": "Sun", "time": "Closed"}], "id": "6281200020", "name": "USPS COLLECTION BOX - BLUE BOX", "address": {"city": "BENTON", "state": "IL", "street": "701 PUBLIC SQ", "postcode": "62812"}}},
{"geometry": {"type": "Point", "coordinates": [-88.9204664277, 37.9964576455]}, "type": "Feature", "properties": {"collection_times": [{"days": "Mon-Fri", "time": "3:00pm"}, {"days": "Sat-Sun", "time": "Closed"}], "id": "6281200026", "name": "USPS COLLECTION BOX - BLUE BOX", "address": {"city": "BENTON", "state": "IL", "street": "100 PUBLIC SQ", "postcode": "62812"}}},
{"geometry": {"type": "Point", "coordinates": [-88.9204779347, 37.9997619891]}, "type": "Feature", "properties": {"collection_times": [{"days": "Mon-Sat", "time": "3:00pm"}, {"days": "Sun", "time": "Closed"}], "id": "6281200034", "name": "USPS COLLECTION BOX - BLUE BOX", "address": {"city": "BENTON", "state": "IL", "street": "301 N DU QUOIN ST", "postcode": "62812"}}},
{"geometry": {"type": "Point", "coordinates": [-88.9204779347, 37.9997619891]}, "type": "Feature", "properties": {"collection_times": [{"days": "Mon-Sat", "time": "3:00pm"}, {"days": "Sun", "time": "Closed"}], "id": "6281200035", "name": "USPS COLLECTION BOX - PO LOBBY", "address": {"city": "BENTON", "state": "IL", "street": "301 N DU QUOIN ST", "postcode": "62812"}}},
{"geometry": {"type": "Point", "coordinates": [-88.9204779347, 37.9997619891]}, "type": "Feature", "properties": {"collection_times": [{"days": "Mon-Sat", "time": "3:00pm"}, {"days": "Sun", "time": "Closed"}], "id": "6281200037", "name": "USPS COLLECTION BOX - PO LOBBY", "address": {"city": "BENTON", "state": "IL", "street": "301 N DU QUOIN ST", "postcode": "62812"}}},
{"geometry": {"type": "Point", "coordinates": [-88.9204779347, 37.9997619891]}, "type": "Feature", "properties": {"collection_times": [{"days": "Mon-Sat", "time": "3:00pm"}, {"days": "Sun", "time": "Closed"}], "id": "6281200038", "name": "USPS COLLECTION BOX - PO LOBBY", "address": {"city": "BENTON", "state": "IL", "street": "301 N DU QUOIN ST", "postcode": "62812"}}},
{"geometry": {"type": "Point", "coordinates": [-88.9204779347, 37.9997619891]}, "type": "Feature", "properties": {"collection_times": [{"days": "Mon-Sat", "time": "3:00pm"}, {"days": "Sun", "time": "Closed"}], "id": "6281200039", "name": "USPS COLLECTION BOX - BLUE BOX", "address": {"city": "BENTON", "state": "IL", "street": "301 N DU QUOIN ST", "postcode": "62812"}}},
{"geometry": {"type": "Point", "coordinates": [-88.7481401835, 38.3894724691]}, "type": "Feature", "properties": {"collection_times": [{"days": "Mon-Fri", "time": "3:30pm"}, {"days": "Sat", "time": "9:00am"}, {"days": "Sun", "time": "Closed"}], "id": "6281400001", "name": "USPS COLLECTION BOX - BLUE BOX", "address": {"city": "BLUFORD", "state": "IL", "street": "1010 W 2ND ST", "postcode": "62814"}}},
{"geometry": {"type": "Point", "coordinates": [-88.7481401835, 38.3894724691]}, "type": "Feature", "properties": {"collection_times": [{"days": "Mon-Fri", "time": "3:30pm"}, {"days": "Sat", "time": "12:15pm"}, {"days": "Sun", "time": "Closed"}], "id": "6281400002", "name": "USPS COLLECTION BOX - PO LOBBY", "address": {"city": "BLUFORD", "state": "IL", "street": "1010 W 2ND ST", "postcode": "62814"}}},
{"geometry": {"type": "Point", "coordinates": [-88.0000485677, 38.4489948364]}, "type": "Feature", "properties": {"collection_times": [{"days": "Mon-Fri", "time": "11:45am"}, {"days": "Sat", "time": "9:30am"}, {"days": "Sun", "time": "Closed"}], "id": "6281500001", "name": "USPS COLLECTION BOX - BLUE BOX", "address": {"city": "BONE GAP", "state": "IL", "street": "105 N STATE ST", "postcode": "62815"}}},
{"geometry": {"type": "Point", "coordinates": [-88.0000485677, 38.4489948364]}, "type": "Feature", "properties": {"collection_times": [{"days": "Mon-Fri", "time": "11:45am"}, {"days": "Sat", "time": "9:30am"}, {"days": "Sun", "time": "Closed"}], "id": "6281500002", "name": "USPS COLLECTION BOX - PO LOBBY", "address": {"city": "BONE GAP", "state": "IL", "street": "105 N STATE ST", "postcode": "62815"}}},
{"geometry": {"type": "Point", "coordinates": [-88.9623732516, 38.1697253344]}, "type": "Feature", "properties": {"collection_times": [{"days": "Mon-Fri", "time": "3:30pm"}, {"days": "Sat", "time": "9:00am"}, {"days": "Sun", "time": "Closed"}], "id": "6281600001", "name": "USPS COLLECTION BOX - BLUE BOX", "address": {"city": "BONNIE", "state": "IL", "street": "285 S ILLINOIS HIGHWAY 37", "postcode": "62816"}}},
{"geometry": {"type": "Point", "coordinates": [-88.9173495307, 38.1927932035]}, "type": "Feature", "properties": {"collection_times": [{"days": "Mon-Fri", "time": "11:15am"}, {"days": "Sat", "time": "9:30am"}, {"days": "Sun", "time": "Closed"}], "id": "6281600002", "name": "USPS COLLECTION BOX - PO LOBBY", "address": {"city": "BONNIE", "state": "IL", "street": "285 S IL HIGHWAY 37", "postcode": "62816"}}},
{"geometry": {"type": "Point", "coordinates": [-88.4294552636, 37.9732179801]}, "type": "Feature", "properties": {"collection_times": [{"days": "Mon-Fri", "time": "11:45am"}, {"days": "Sat", "time": "9:15am"}, {"days": "Sun", "time": "Closed"}], "id": "6281700001", "name": "USPS COLLECTION BOX - BLUE BOX", "address": {"city": "BROUGHTON", "state": "IL", "street": "211 DAWES", "postcode": "62817"}}},
{"geometry": {"type": "Point", "coordinates": [-88.4294552636, 37.9732179801]}, "type": "Feature", "properties": {"collection_times": [{"days": "Mon-Fri", "time": "11:45am"}, {"days": "Sat", "time": "9:15am"}, {"days": "Sun", "time": "Closed"}], "id": "6281700002", "name": "USPS COLLECTION BOX - PO LOBBY", "address": {"city": "BROUGHTON", "state": "IL", "street": "211 DAWES", "postcode": "62817"}}},
{"geometry": {"type": "Point", "coordinates": [-87.9979088655, 38.3720252292]}, "type": "Feature", "properties": {"collection_times": [{"days": "Mon-Fri", "time": "11:15am"}, {"days": "Sat", "time": "9:00am"}, {"days": "Sun", "time": "Closed"}], "id": "6281800002", "name": "USPS COLLECTION BOX - BLUE BOX", "address": {"city": "BROWNS", "state": "IL", "street": "602 HENDERSON ST", "postcode": "62818"}}},
{"geometry": {"type": "Point", "coordinates": [-87.9979088655, 38.3720252292]}, "type": "Feature", "properties": {"collection_times": [{"days": "Mon-Fri", "time": "11:15am"}, {"days": "Sat", "time": "9:00am"}, {"days": "Sun", "time": "Closed"}], "id": "6281800003", "name": "USPS COLLECTION BOX - PO LOBBY", "address": {"city": "BROWNS", "state": "IL", "street": "602 HENDERSON ST", "postcode": "62818"}}},
{"geometry": {"type": "Point", "coordinates": [-89.0173559419, 37.9814857262]}, "type": "Feature", "properties": {"collection_times": [{"days": "Mon-Fri", "time": "2:40pm"}, {"days": "Sat", "time": "11:45am"}, {"days": "Sun", "time": "Closed"}], "id": "6281900001", "name": "USPS COLLECTION BOX - BLUE BOX", "address": {"city": "BUCKNER", "state": "IL", "street": "100 E MARKET ST", "postcode": "62819"}}},
{"geometry": {"type": "Point", "coordinates": [-89.0173559419, 37.9814857262]}, "type": "Feature", "properties": {"collection_times": [{"days": "Mon-Fri", "time": "2:40pm"}, {"days": "Sat", "time": "11:00am"}, {"days": "Sun", "time": "Closed"}], "id": "6281900002", "name": "USPS COLLECTION BOX - PO LOBBY", "address": {"city": "BUCKNER", "state": "IL", "street": "100 E MARKET ST", "postcode": "62819"}}},
{"geometry": {"type": "Point", "coordinates": [-88.1592247227, 38.0895412869]}, "type": "Feature", "properties": {"collection_times": [{"days": "Mon-Sat", "time": "2:15pm"}, {"days": "Sun", "time": "Closed"}], "id": "6282100001", "name": "USPS COLLECTION BOX - BLUE BOX", "address": {"city": "CARMI", "state": "IL", "street": "208 E ROBINSON ST", "postcode": "62821"}}},
{"geometry": {"type": "Point", "coordinates": [-88.1857495034, 38.0831702693]}, "type": "Feature", "properties": {"collection_times": [{"days": "Mon-Sat", "time": "1:30pm"}, {"days": "Sun", "time": "Closed"}], "id": "6282100004", "name": "USPS COLLECTION BOX - BLUE BOX", "address": {"city": "CARMI", "state": "IL", "street": "1128 OAK ST", "postcode": "62821"}}},
{"geometry": {"type": "Point", "coordinates": [-88.1592247227, 38.0895412869]}, "type": "Feature", "properties": {"collection_times": [{"days": "Mon-Sat", "time": "2:15pm"}, {"days": "Sun", "time": "Closed"}], "id": "6282100013", "name": "USPS COLLECTION BOX - BLUE BOX", "address": {"city": "CARMI", "state": "IL", "street": "208 E ROBINSON ST", "postcode": "62821"}}},
{"geometry": {"type": "Point", "coordinates": [-88.159322797, 38.0895242816]}, "type": "Feature", "properties": {"collection_times": [{"days": "Mon-Sat", "time": "2:15pm"}, {"days": "Sun", "time": "Closed"}], "id": "6282100014", "name": "USPS COLLECTION BOX - PO LOBBY", "address": {"city": "CARMI", "state": "IL", "street": "201 S WALNUT ST", "postcode": "62821"}}},
{"geometry": {"type": "Point", "coordinates": [-88.159322797, 38.0895242816]}, "type": "Feature", "properties": {"collection_times": [{"days": "Mon-Sat", "time": "2:15pm"}, {"days": "Sun", "time": "Closed"}], "id": "6282100015", "name": "USPS COLLECTION BOX - PO LOBBY", "address": {"city": "CARMI", "state": "IL", "street": "201 S WALNUT ST", "postcode": "62821"}}},
{"geometry": {"type": "Point", "coordinates": [-88.159322797, 38.0895242816]}, "type": "Feature", "properties": {"collection_times": [{"days": "Mon-Sat", "time": "2:15pm"}, {"days": "Sun", "time": "Closed"}], "id": "6282100016", "name": "USPS COLLECTION BOX - PO LOBBY", "address": {"city": "CARMI", "state": "IL", "street": "201 S WALNUT ST", "postcode": "62821"}}},
{"geometry": {"type": "Point", "coordinates": [-88.159322797, 38.0895242816]}, "type": "Feature", "properties": {"collection_times": [{"days": "Mon-Sat", "time": "2:15pm"}, {"days": "Sun", "time": "Closed"}], "id": "6282100017", "name": "USPS COLLECTION BOX - PO LOBBY", "address": {"city": "CARMI", "state": "IL", "street": "201 S WALNUT ST", "postcode": "62821"}}},
{"geometry": {"type": "Point", "coordinates": [-89.0545908068, 37.9727531556]}, "type": "Feature", "properties": {"collection_times": [{"days": "Mon-Sat", "time": "2:30pm"}, {"days": "Sun", "time": "Closed"}], "id": "6282200003", "name": "USPS COLLECTION BOX - BLUE BOX", "address": {"city": "CHRISTOPHER", "state": "IL", "street": "110 N EMMA ST", "postcode": "62822"}}},
{"geometry": {"type": "Point", "coordinates": [-89.0545908068, 37.9727531556]}, "type": "Feature", "properties": {"collection_times": [{"days": "Mon-Sat", "time": "2:30pm"}, {"days": "Sun", "time": "Closed"}], "id": "6282200004", "name": "USPS COLLECTION BOX - PO LOBBY", "address": {"city": "CHRISTOPHER", "state": "IL", "street": "110 N EMMA ST", "postcode": "62822"}}},
{"geometry": {"type": "Point", "coordinates": [-88.3636814422, 38.514027008]}, "type": "Feature", "properties": {"collection_times": [{"days": "Mon-Fri", "time": "1:40pm"}, {"days": "Sat", "time": "10:15am"}, {"days": "Sun", "time": "Closed"}], "id": "6282300001", "name": "USPS COLLECTION BOX - BLUE BOX", "address": {"city": "CISNE", "state": "IL", "street": "300 SIMPSON ST", "postcode": "62823"}}},
{"geometry": {"type": "Point", "coordinates": [-88.3636814422, 38.514027008]}, "type": "Feature", "properties": {"collection_times": [{"days": "Mon-Fri", "time": "1:40pm"}, {"days": "Sat", "time": "10:15am"}, {"days": "Sun", "time": "Closed"}], "id": "6282300002", "name": "USPS COLLECTION BOX - PO LOBBY", "address": {"city": "CISNE", "state": "IL", "street": "300 SIMPSON ST", "postcode": "62823"}}},
{"geometry": {"type": "Point", "coordinates": [-88.3541668405, 38.6881109087]}, "type": "Feature", "properties": {"collection_times": [{"days": "Mon-Fri", "time": "2:05pm"}, {"days": "Sat", "time": "9:45am"}, {"days": "Sun", "time": "Closed"}], "id": "6282400001", "name": "USPS COLLECTION BOX - BLUE BOX", "address": {"city": "CLAY CITY", "state": "IL", "street": "332 S MAIN ST", "postcode": "62824"}}},
{"geometry": {"type": "Point", "coordinates": [-88.3541668405, 38.6881109087]}, "type": "Feature", "properties": {"collection_times": [{"days": "Mon-Fri", "time": "2:05pm"}, {"days": "Sat", "time": "9:45am"}, {"days": "Sun", "time": "Closed"}], "id": "6282400002", "name": "USPS COLLECTION BOX - PO LOBBY", "address": {"city": "CLAY CITY", "state": "IL", "street": "332 S MAIN ST", "postcode": "62824"}}},
{"geometry": {"type": "Point", "coordinates": [-89.0697902817, 37.9945510671]}, "type": "Feature", "properties": {"collection_times": [{"days": "Mon-Fri", "time": "2:05pm"}, {"days": "Sat", "time": "9:15am"}, {"days": "Sun", "time": "Closed"}], "id": "6282500001", "name": "USPS COLLECTION BOX - BLUE BOX", "address": {"city": "COELLO", "state": "IL", "street": "9091 MAIN ST", "postcode": "62825"}}},
{"geometry": {"type": "Point", "coordinates": [-89.0697902817, 37.9945510671]}, "type": "Feature", "properties": {"collection_times": [{"days": "Mon-Fri", "time": "2:05pm"}, {"days": "Sat", "time": "9:00am"}, {"days": "Sun", "time": "Closed"}], "id": "6282500002", "name": "USPS COLLECTION BOX - PO LOBBY", "address": {"city": "COELLO", "state": "IL", "street": "9091 MAIN ST", "postcode": "62825"}}},
{"geometry": {"type": "Point", "coordinates": [-88.0647057441, 38.1615768253]}, "type": "Feature", "properties": {"collection_times": [{"days": "Mon-Fri", "time": "1:40pm"}, {"days": "Sat", "time": "9:15am"}, {"days": "Sun", "time": "Closed"}], "id": "6282700001", "name": "USPS COLLECTION BOX - BLUE BOX", "address": {"city": "CROSSVILLE", "state": "IL", "street": "210 W MAIN ST", "postcode": "62827"}}},
{"geometry": {"type": "Point", "coordinates": [-88.0646943545, 38.1615763172]}, "type": "Feature", "properties": {"collection_times": [{"days": "Mon-Fri", "time": "1:40pm"}, {"days": "Sat", "time": "9:15am"}, {"days": "Sun", "time": "Closed"}], "id": "6282700002", "name": "USPS COLLECTION BOX - PO LOBBY", "address": {"city": "CROSSVILLE", "state": "IL", "street": "208 W MAIN ST", "postcode": "62827"}}},
{"geometry": {"type": "Point", "coordinates": [-88.5683995131, 38.2078677288]}, "type": "Feature", "properties": {"collection_times": [{"days": "Mon-Fri", "time": "2:45pm"}, {"days": "Sat", "time": "9:15am"}, {"days": "Sun", "time": "Closed"}], "id": "6282800001", "name": "USPS COLLECTION BOX - BLUE BOX", "address": {"city": "DAHLGREN", "state": "IL", "street": "200 S 1ST ST", "postcode": "62828"}}},
{"geometry": {"type": "Point", "coordinates": [-88.5683995131, 38.2078677288]}, "type": "Feature", "properties": {"collection_times": [{"days": "Mon-Fri", "time": "2:45pm"}, {"days": "Sat", "time": "9:15am"}, {"days": "Sun", "time": "Closed"}], "id": "6282800002", "name": "USPS COLLECTION BOX - PO LOBBY", "address": {"city": "DAHLGREN", "state": "IL", "street": "200 S 1ST ST", "postcode": "62828"}}},
{"geometry": {"type": "Point", "coordinates": [-88.9376810599, 38.441832537]}, "type": "Feature", "properties": {"collection_times": [{"days": "Mon-Fri", "time": "3:25pm"}, {"days": "Sat", "time": "9:30am"}, {"days": "Sun", "time": "Closed"}], "id": "6283000001", "name": "USPS COLLECTION BOX - BLUE BOX", "address": {"city": "DIX", "state": "IL", "street": "302 N MAIN ST", "postcode": "62830"}}},
{"geometry": {"type": "Point", "coordinates": [-88.9376810599, 38.441832537]}, "type": "Feature", "properties": {"collection_times": [{"days": "Mon-Fri", "time": "2:15pm"}, {"days": "Sat", "time": "9:30am"}, {"days": "Sun", "time": "Closed"}], "id": "6283000002", "name": "USPS COLLECTION BOX - PO LOBBY", "address": {"city": "DIX", "state": "IL", "street": "302 N MAIN ST", "postcode": "62830"}}},
{"geometry": {"type": "Point", "coordinates": [-89.2120578042, 38.2238170509]}, "type": "Feature", "properties": {"collection_times": [{"days": "Mon-Fri", "time": "11:15am"}, {"days": "Sat", "time": "9:30am"}, {"days": "Sun", "time": "Closed"}], "id": "6283100001", "name": "USPS COLLECTION BOX - BLUE BOX", "address": {"city": "DUBOIS", "state": "IL", "street": "75 W BROADWAY ST", "postcode": "62831"}}},
{"geometry": {"type": "Point", "coordinates": [-89.2120578042, 38.2238170509]}, "type": "Feature", "properties": {"collection_times": [{"days": "Mon-Fri", "time": "11:15am"}, {"days": "Sat", "time": "9:30am"}, {"days": "Sun", "time": "Closed"}], "id": "6283100002", "name": "USPS COLLECTION BOX - PO LOBBY", "address": {"city": "DUBOIS", "state": "IL", "street": "75 W BROADWAY ST", "postcode": "62831"}}},
{"geometry": {"type": "Point", "coordinates": [-89.2313112294, 38.0116227961]}, "type": "Feature", "properties": {"collection_times": [{"days": "Mon-Fri", "time": "3:25pm"}, {"days": "Sat", "time": "3:00pm"}, {"days": "Sun", "time": "Closed"}], "id": "6283200001", "name": "USPS COLLECTION BOX - BLUE BOX", "address": {"city": "DU QUOIN", "state": "IL", "street": "304 E MAIN ST", "postcode": "62832"}}},
{"geometry": {"type": "Point", "coordinates": [-89.2397483027, 38.0114120602]}, "type": "Feature", "properties": {"collection_times": [{"days": "Mon-Sat", "time": "2:45pm"}, {"days": "Sun", "time": "Closed"}], "id": "6283200005", "name": "USPS COLLECTION BOX - BLUE BOX", "address": {"city": "DU QUOIN", "state": "IL", "street": "124 W MAIN ST", "postcode": "62832"}}},
{"geometry": {"type": "Point", "coordinates": [-89.2353310865, 37.9955781084]}, "type": "Feature", "properties": {"collection_times": [{"days": "Mon-Sat", "time": "2:00pm"}, {"days": "Sun", "time": "Closed"}], "id": "6283200024", "name": "USPS COLLECTION BOX - BLUE BOX", "address": {"city": "DU QUOIN", "state": "IL", "street": "215 E GRANTWAY ST", "postcode": "62832"}}},
{"geometry": {"type": "Point", "coordinates": [-89.2313112294, 38.0116227961]}, "type": "Feature", "properties": {"collection_times": [{"days": "Mon-Fri", "time": "3:25pm"}, {"days": "Sat", "time": "3:00pm"}, {"days": "Sun", "time": "Closed"}], "id": "6283200025", "name": "USPS COLLECTION BOX - BLUE BOX", "address": {"city": "DU QUOIN", "state": "IL", "street": "304 E MAIN ST", "postcode": "62832"}}},
{"geometry": {"type": "Point", "coordinates": [-89.2313112294, 38.0116227961]}, "type": "Feature", "properties": {"collection_times": [{"days": "Mon-Fri", "time": "3:25pm"}, {"days": "Sat", "time": "3:00pm"}, {"days": "Sun", "time": "Closed"}], "id": "6283200029", "name": "USPS COLLECTION BOX - PO LOBBY", "address": {"city": "DU QUOIN", "state": "IL", "street": "304 E MAIN ST", "postcode": "62832"}}},
{"geometry": {"type": "Point", "coordinates": [-88.3376203741, 38.0996498062]}, "type": "Feature", "properties": {"collection_times": [{"days": "Mon-Fri", "time": "2:20pm"}, {"days": "Sat", "time": "9:00am"}, {"days": "Sun", "time": "Closed"}], "id": "6283500001", "name": "USPS COLLECTION BOX - BLUE BOX", "address": {"city": "ENFIELD", "state": "IL", "street": "114 E MAIN ST", "postcode": "62835"}}},
{"geometry": {"type": "Point", "coordinates": [-88.3376503909, 38.0995409]}, "type": "Feature", "properties": {"collection_times": [{"days": "Mon-Fri", "time": "2:20pm"}, {"days": "Sat", "time": "9:00am"}, {"days": "Sun", "time": "Closed"}], "id": "6283500002", "name": "USPS COLLECTION BOX - BLUE BOX", "address": {"city": "ENFIELD", "state": "IL", "street": "113 E MAIN ST", "postcode": "62835"}}},
{"geometry": {"type": "Point", "coordinates": [-88.3376203741, 38.0996498062]}, "type": "Feature", "properties": {"collection_times": [{"days": "Mon-Fri", "time": "2:20pm"}, {"days": "Sat", "time": "9:00am"}, {"days": "Sun", "time": "Closed"}], "id": "6283500003", "name": "USPS COLLECTION BOX - PO LOBBY", "address": {"city": "ENFIELD", "state": "IL", "street": "114 E MAIN ST", "postcode": "62835"}}},
{"geometry": {"type": "Point", "coordinates": [-88.852703385, 38.0888206752]}, "type": "Feature", "properties": {"collection_times": [{"days": "Mon-Fri", "time": "11:45am"}, {"days": "Sat", "time": "9:00am"}, {"days": "Sun", "time": "Closed"}], "id": "6283600001", "name": "USPS COLLECTION BOX - BLUE BOX", "address": {"city": "EWING", "state": "IL", "street": "10 E MAIN ST", "postcode": "62836"}}},
{"geometry": {"type": "Point", "coordinates": [-88.852703385, 38.0888206752]}, "type": "Feature", "properties": {"collection_times": [{"days": "Mon-Fri", "time": "11:45am"}, {"days": "Sat", "time": "9:15am"}, {"days": "Sun", "time": "Closed"}], "id": "6283600002", "name": "USPS COLLECTION BOX - PO LOBBY", "address": {"city": "EWING", "state": "IL", "street": "10 E MAIN ST", "postcode": "62836"}}},
{"geometry": {"type": "Point", "coordinates": [-88.358676768, 38.3787276656]}, "type": "Feature", "properties": {"collection_times": [{"days": "Mon-Sat", "time": "2:40pm"}, {"days": "Sun", "time": "Closed"}], "id": "6283700001", "name": "USPS COLLECTION BOX - BLUE BOX", "address": {"city": "FAIRFIELD", "state": "IL", "street": "220 E DELAWARE ST", "postcode": "62837"}}},
{"geometry": {"type": "Point", "coordinates": [-88.358676768, 38.3787276656]}, "type": "Feature", "properties": {"collection_times": [{"days": "Mon-Sat", "time": "2:40pm"}, {"days": "Sun", "time": "Closed"}], "id": "6283700002", "name": "USPS COLLECTION BOX - BLUE BOX", "address": {"city": "FAIRFIELD", "state": "IL", "street": "220 E DELAWARE ST", "postcode": "62837"}}},
{"geometry": {"type": "Point", "coordinates": [-88.358676768, 38.3787276656]}, "type": "Feature", "properties": {"collection_times": [{"days": "Mon-Sat", "time": "2:40pm"}, {"days": "Sun", "time": "Closed"}], "id": "6283700010", "name": "USPS COLLECTION BOX - BLUE BOX", "address": {"city": "FAIRFIELD", "state": "IL", "street": "220 E DELAWARE ST", "postcode": "62837"}}},
{"geometry": {"type": "Point", "coordinates": [-88.3596813769, 38.3795461916]}, "type": "Feature", "properties": {"collection_times": [{"days": "Mon-Sat", "time": "2:40pm"}, {"days": "Sun", "time": "Closed"}], "id": "6283700011", "name": "USPS COLLECTION BOX - BLUE BOX", "address": {"city": "FAIRFIELD", "state": "IL", "street": "120 E MAIN ST", "postcode": "62837"}}},
{"geometry": {"type": "Point", "coordinates": [-88.358676768, 38.3787276656]}, "type": "Feature", "properties": {"collection_times": [{"days": "Mon-Sat", "time": "2:40pm"}, {"days": "Sun", "time": "Closed"}], "id": "6283700013", "name": "USPS COLLECTION BOX - PO LOBBY", "address": {"city": "FAIRFIELD", "state": "IL", "street": "220 E DELAWARE ST", "postcode": "62837"}}},
{"geometry": {"type": "Point", "coordinates": [-88.358676768, 38.3787276656]}, "type": "Feature", "properties": {"collection_times": [{"days": "Mon-Sat", "time": "2:40pm"}, {"days": "Sun", "time": "Closed"}], "id": "6283700014", "name": "USPS COLLECTION BOX - PO LOBBY", "address": {"city": "FAIRFIELD", "state": "IL", "street": "220 E DELAWARE ST", "postcode": "62837"}}},
{"geometry": {"type": "Point", "coordinates": [-88.7740775988, 38.8327245099]}, "type": "Feature", "properties": {"collection_times": [{"days": "Mon-Fri", "time": "2:25pm"}, {"days": "Sat", "time": "9:15am"}, {"days": "Sun", "time": "Closed"}], "id": "6283800003", "name": "USPS COLLECTION BOX - BLUE BOX", "address": {"city": "FARINA", "state": "IL", "street": "306 W MADISON AVE", "postcode": "62838"}}},
{"geometry": {"type": "Point", "coordinates": [-88.7740775988, 38.8327245099]}, "type": "Feature", "properties": {"collection_times": [{"days": "Mon-Fri", "time": "2:25pm"}, {"days": "Sat", "time": "9:15am"}, {"days": "Sun", "time": "Closed"}], "id": "6283800004", "name": "USPS COLLECTION BOX - PO LOBBY", "address": {"city": "FARINA", "state": "IL", "street": "306 W MADISON AVE", "postcode": "62838"}}},
{"geometry": {"type": "Point", "coordinates": [-88.4829646953, 38.6696113093]}, "type": "Feature", "properties": {"collection_times": [{"days": "Mon-Fri", "time": "3:00pm"}, {"days": "Sat", "time": "2:15pm"}, {"days": "Sun", "time": "Closed"}], "id": "6283900003", "name": "USPS COLLECTION BOX - BLUE BOX", "address": {"city": "FLORA", "state": "IL", "street": "312 E NORTH AVE", "postcode": "62839"}}},
{"geometry": {"type": "Point", "coordinates": [-88.4999520025, 38.6673512071]}, "type": "Feature", "properties": {"collection_times": [{"days": "Mon-Fri", "time": "2:00pm"}, {"days": "Sat", "time": "1:00pm"}, {"days": "Sun", "time": "Closed"}], "id": "6283900006", "name": "USPS COLLECTION BOX - BLUE BOX", "address": {"city": "FLORA", "state": "IL", "street": "1010 W NORTH AVE", "postcode": "62839"}}},
{"geometry": {"type": "Point", "coordinates": [-88.4829646953, 38.6696113093]}, "type": "Feature", "properties": {"collection_times": [{"days": "Mon-Sat", "time": "3:00pm"}, {"days": "Sun", "time": "Closed"}], "id": "6283900010", "name": "USPS COLLECTION BOX - PO LOBBY", "address": {"city": "FLORA", "state": "IL", "street": "312 E NORTH AVE", "postcode": "62839"}}},
{"geometry": {"type": "Point", "coordinates": [-89.0021704426, 37.8583349421]}, "type": "Feature", "properties": {"collection_times": [{"days": "Mon-Fri", "time": "1:20pm"}, {"days": "Sat", "time": "9:45am"}, {"days": "Sun", "time": "Closed"}], "id": "6284100002", "name": "USPS COLLECTION BOX - BLUE BOX", "address": {"city": "FREEMAN SPUR", "state": "IL", "street": "19072 FREEMAN SPUR RD", "postcode": "62841"}}},
{"geometry": {"type": "Point", "coordinates": [-89.0021704426, 37.8583349421]}, "type": "Feature", "properties": {"collection_times": [{"days": "Mon-Fri", "time": "1:20pm"}, {"days": "Sat", "time": "10:00am"}, {"days": "Sun", "time": "Closed"}], "id": "6284100003", "name": "USPS COLLECTION BOX - PO LOBBY", "address": {"city": "FREEMAN SPUR", "state": "IL", "street": "19072 FREEMAN SPUR RD", "postcode": "62841"}}},
{"geometry": {"type": "Point", "coordinates": [-88.4043219046, 38.4426094016]}, "type": "Feature", "properties": {"collection_times": [{"days": "Mon-Fri", "time": "11:45am"}, {"days": "Sat", "time": "9:00am"}, {"days": "Sun", "time": "Closed"}], "id": "6284200001", "name": "USPS COLLECTION BOX - BLUE BOX", "address": {"city": "GEFF", "state": "IL", "street": "124 W MECHANIC ST", "postcode": "62842"}}},
{"geometry": {"type": "Point", "coordinates": [-88.4043219046, 38.4426094016]}, "type": "Feature", "properties": {"collection_times": [{"days": "Mon-Fri", "time": "11:45am"}, {"days": "Sat", "time": "9:00am"}, {"days": "Sun", "time": "Closed"}], "id": "6284200002", "name": "USPS COLLECTION BOX - PO LOBBY", "address": {"city": "GEFF", "state": "IL", "street": "124 W MECHANIC ST", "postcode": "62842"}}},
{"geometry": {"type": "Point", "coordinates": [-87.9921034515, 38.2568163412]}, "type": "Feature", "properties": {"collection_times": [{"days": "Mon-Fri", "time": "1:50pm"}, {"days": "Sat", "time": "11:00am"}, {"days": "Sun", "time": "Closed"}], "id": "6284400007", "name": "USPS COLLECTION BOX - BLUE BOX", "address": {"city": "GRAYVILLE", "state": "IL", "street": "210 E SOUTH ST", "postcode": "62844"}}},
{"geometry": {"type": "Point", "coordinates": [-87.9921034515, 38.2568163412]}, "type": "Feature", "properties": {"collection_times": [{"days": "Mon-Fri", "time": "1:50pm"}, {"days": "Sat", "time": "11:00am"}, {"days": "Sun", "time": "Closed"}], "id": "6284400008", "name": "USPS COLLECTION BOX - PO LOBBY", "address": {"city": "GRAYVILLE", "state": "IL", "street": "210 E SOUTH ST", "postcode": "62844"}}},
{"geometry": {"type": "Point", "coordinates": [-88.8732871897, 38.1463804158]}, "type": "Feature", "properties": {"collection_times": [{"days": "Mon-Fri", "time": "3:20pm"}, {"days": "Sat", "time": "9:45am"}, {"days": "Sun", "time": "Closed"}], "id": "6284600002", "name": "USPS COLLECTION BOX - BLUE BOX", "address": {"city": "INA", "state": "IL", "street": "111.5 W 3RD ST", "postcode": "62846"}}},
{"geometry": {"type": "Point", "coordinates": [-88.8732871897, 38.1463804158]}, "type": "Feature", "properties": {"collection_times": [{"days": "Mon-Fri", "time": "3:20pm"}, {"days": "Sat", "time": "9:45am"}, {"days": "Sun", "time": "Closed"}], "id": "6284600003", "name": "USPS COLLECTION BOX - PO LOBBY", "address": {"city": "INA", "state": "IL", "street": "111.5 W 3RD ST", "postcode": "62846"}}},
{"geometry": {"type": "Point", "coordinates": [-89.1614941575, 38.4390674808]}, "type": "Feature", "properties": {"collection_times": [{"days": "Mon-Fri", "time": "4:05pm"}, {"days": "Sat", "time": "10:30am"}, {"days": "Sun", "time": "Closed"}], "id": "6284800001", "name": "USPS COLLECTION BOX - BLUE BOX", "address": {"city": "IRVINGTON", "state": "IL", "street": "108 N 2ND ST", "postcode": "62848"}}},
{"geometry": {"type": "Point", "coordinates": [-89.1614941575, 38.4390674808]}, "type": "Feature", "properties": {"collection_times": [{"days": "Mon-Fri", "time": "4:05pm"}, {"days": "Sat", "time": "10:45am"}, {"days": "Sun", "time": "Closed"}], "id": "6284800002", "name": "USPS COLLECTION BOX - PO LOBBY", "address": {"city": "IRVINGTON", "state": "IL", "street": "108 N 2ND ST", "postcode": "62848"}}},
{"geometry": {"type": "Point", "coordinates": [-88.7918244922, 38.6162235299]}, "type": "Feature", "properties": {"collection_times": [{"days": "Mon-Fri", "time": "3:25pm"}, {"days": "Sat", "time": "10:30am"}, {"days": "Sun", "time": "Closed"}], "id": "6284900001", "name": "USPS COLLECTION BOX - BLUE BOX", "address": {"city": "IUKA", "state": "IL", "street": "311 N FRONT ST", "postcode": "62849"}}},
{"geometry": {"type": "Point", "coordinates": [-88.7918244922, 38.6162235299]}, "type": "Feature", "properties": {"collection_times": [{"days": "Mon-Fri", "time": "3:25pm"}, {"days": "Sat", "time": "9:15am"}, {"days": "Sun", "time": "Closed"}], "id": "6284900002", "name": "USPS COLLECTION BOX - PO LOBBY", "address": {"city": "IUKA", "state": "IL", "street": "311 N FRONT ST", "postcode": "62849"}}},
{"geometry": {"type": "Point", "coordinates": [-88.642034538, 38.5412648775]}, "type": "Feature", "properties": {"collection_times": [{"days": "Mon-Fri", "time": "1:15pm"}, {"days": "Sat", "time": "10:15am"}, {"days": "Sun", "time": "Closed"}], "id": "6285000001", "name": "USPS COLLECTION BOX - BLUE BOX", "address": {"city": "JOHNSONVILLE", "state": "IL", "street": "301 2ND ST", "postcode": "62850"}}},
{"geometry": {"type": "Point", "coordinates": [-88.642034538, 38.5412648775]}, "type": "Feature", "properties": {"collection_times": [{"days": "Mon-Fri", "time": "1:15pm"}, {"days": "Sat", "time": "12:00pm"}, {"days": "Sun", "time": "Closed"}], "id": "6285000002", "name": "USPS COLLECTION BOX - PO LOBBY", "address": {"city": "JOHNSONVILLE", "state": "IL", "street": "301 2ND ST", "postcode": "62850"}}},
{"geometry": {"type": "Point", "coordinates": [-89.1586488725, 40.1140436692]}, "type": "Feature", "properties": {"collection_times": [{"days": "Mon-Fri", "time": "3:20pm"}, {"days": "Sat", "time": "9:00am"}, {"days": "Sun", "time": "Closed"}], "id": "6285100001", "name": "USPS COLLECTION BOX - PO LOBBY", "address": {"city": "KEENES", "state": "IL", "street": "400 SYCAMORE ST", "postcode": "62851"}}},
{"geometry": {"type": "Point", "coordinates": [-89.1586488725, 40.1140436692]}, "type": "Feature", "properties": {"collection_times": [{"days": "Mon-Fri", "time": "3:20pm"}, {"days": "Sat", "time": "9:15am"}, {"days": "Sun", "time": "Closed"}], "id": "6285100002", "name": "USPS COLLECTION BOX - BLUE BOX", "address": {"city": "KEENES", "state": "IL", "street": "400 SYCAMORE ST", "postcode": "62851"}}},
{"geometry": {"type": "Point", "coordinates": [-87.8708764775, 38.3499220767]}, "type": "Feature", "properties": {"collection_times": [{"days": "Mon-Fri", "time": "1:05pm"}, {"days": "Sat", "time": "9:45am"}, {"days": "Sun", "time": "Closed"}], "id": "6285200001", "name": "USPS COLLECTION BOX - BLUE BOX", "address": {"city": "KEENSBURG", "state": "IL", "street": "9337 W MARKET ST", "postcode": "62852"}}},
{"geometry": {"type": "Point", "coordinates": [-87.8708764775, 38.3499220767]}, "type": "Feature", "properties": {"collection_times": [{"days": "Mon-Fri", "time": "1:05pm"}, {"days": "Sat", "time": "10:30am"}, {"days": "Sun", "time": "Closed"}], "id": "6285200002", "name": "USPS COLLECTION BOX - PO LOBBY", "address": {"city": "KEENSBURG", "state": "IL", "street": "9337 W MARKET ST", "postcode": "62852"}}},
{"geometry": {"type": "Point", "coordinates": [-88.9074678145, 38.4913821291]}, "type": "Feature", "properties": {"collection_times": [{"days": "Mon-Fri", "time": "11:45am"}, {"days": "Sat", "time": "10:00am"}, {"days": "Sun", "time": "Closed"}], "id": "6285300001", "name": "USPS COLLECTION BOX - BLUE BOX", "address": {"city": "KELL", "state": "IL", "street": "303 3RD ST", "postcode": "62853"}}},
{"geometry": {"type": "Point", "coordinates": [-88.9074678145, 38.4913821291]}, "type": "Feature", "properties": {"collection_times": [{"days": "Mon-Fri", "time": "11:45am"}, {"days": "Sat", "time": "10:00am"}, {"days": "Sun", "time": "Closed"}], "id": "6285300002", "name": "USPS COLLECTION BOX - PO LOBBY", "address": {"city": "KELL", "state": "IL", "street": "303 3RD ST", "postcode": "62853"}}},
{"geometry": {"type": "Point", "coordinates": [-88.8481597473, 38.7709978321]}, "type": "Feature", "properties": {"collection_times": [{"days": "Mon-Fri", "time": "2:10pm"}, {"days": "Sat", "time": "9:15am"}, {"days": "Sun", "time": "Closed"}], "id": "6285400001", "name": "USPS COLLECTION BOX - BLUE BOX", "address": {"city": "KINMUNDY", "state": "IL", "street": "109 W 3RD ST", "postcode": "62854"}}},
{"geometry": {"type": "Point", "coordinates": [-88.8481597473, 38.7709978321]}, "type": "Feature", "properties": {"collection_times": [{"days": "Mon-Fri", "time": "2:10pm"}, {"days": "Sat", "time": "9:15am"}, {"days": "Sun", "time": "Closed"}], "id": "6285400002", "name": "USPS COLLECTION BOX - PO LOBBY", "address": {"city": "KINMUNDY", "state": "IL", "street": "109 W 3RD ST", "postcode": "62854"}}},
{"geometry": {"type": "Point", "coordinates": [-88.8481597473, 38.7709978321]}, "type": "Feature", "properties": {"collection_times": [{"days": "Mon-Fri", "time": "2:10pm"}, {"days": "Sat", "time": "9:15am"}, {"days": "Sun", "time": "Closed"}], "id": "6285400004", "name": "USPS COLLECTION BOX - PO LOBBY", "address": {"city": "KINMUNDY", "state": "IL", "street": "109 W 3RD ST", "postcode": "62854"}}},
{"geometry": {"type": "Point", "coordinates": [-88.840255359, 37.9581874954]}, "type": "Feature", "properties": {"collection_times": [{"days": "Mon-Fri", "time": "2:10pm"}, {"days": "Sat", "time": "9:00am"}, {"days": "Sun", "time": "Closed"}], "id": "6285600001", "name": "USPS COLLECTION BOX - BLUE BOX", "address": {"city": "LOGAN", "state": "IL", "street": "6352 MAIN ST", "postcode": "62856"}}},
{"geometry": {"type": "Point", "coordinates": [-88.840255359, 37.9581874954]}, "type": "Feature", "properties": {"collection_times": [{"days": "Mon-Fri", "time": "2:10pm"}, {"days": "Sat", "time": "9:00am"}, {"days": "Sun", "time": "Closed"}], "id": "6285600002", "name": "USPS COLLECTION BOX - PO LOBBY", "address": {"city": "LOGAN", "state": "IL", "street": "6352 MAIN ST", "postcode": "62856"}}},
{"geometry": {"type": "Point", "coordinates": [-88.5011909209, 38.7729798757]}, "type": "Feature", "properties": {"collection_times": [{"days": "Mon-Fri", "time": "2:25pm"}, {"days": "Sat", "time": "10:45am"}, {"days": "Sun", "time": "Closed"}], "id": "6285800001", "name": "USPS COLLECTION BOX - BLUE BOX", "address": {"city": "LOUISVILLE", "state": "IL", "street": "150 E CHESTNUT ST", "postcode": "62858"}}},
{"geometry": {"type": "Point", "coordinates": [-88.5011909209, 38.7729798757]}, "type": "Feature", "properties": {"collection_times": [{"days": "Mon-Fri", "time": "2:25pm"}, {"days": "Sat", "time": "10:45am"}, {"days": "Sun", "time": "Closed"}], "id": "6285800002", "name": "USPS COLLECTION BOX - PO LOBBY", "address": {"city": "LOUISVILLE", "state": "IL", "street": "150 E CHESTNUT ST", "postcode": "62858"}}},
{"geometry": {"type": "Point", "coordinates": [-88.5351092392, 38.0916913542]}, "type": "Feature", "properties": {"collection_times": [{"days": "Mon-Fri", "time": "2:50pm"}, {"days": "Sat", "time": "11:00am"}, {"days": "Sun", "time": "Closed"}], "id": "6285900001", "name": "USPS COLLECTION BOX - BLUE BOX", "address": {"city": "MC LEANSBORO", "state": "IL", "street": "300 S JACKSON ST", "postcode": "62859"}}},
{"geometry": {"type": "Point", "coordinates": [-88.5363179041, 38.0941435902]}, "type": "Feature", "properties": {"collection_times": [{"days": "Mon-Fri", "time": "2:45pm"}, {"days": "Sat", "time": "2:15pm"}, {"days": "Sun", "time": "Closed"}], "id": "6285900005", "name": "USPS COLLECTION BOX - BLUE BOX", "address": {"city": "MC LEANSBORO", "state": "IL", "street": "116 E MARKET ST", "postcode": "62859"}}},
{"geometry": {"type": "Point", "coordinates": [-88.5351092392, 38.0916913542]}, "type": "Feature", "properties": {"collection_times": [{"days": "Mon-Fri", "time": "2:50pm"}, {"days": "Sat", "time": "11:00am"}, {"days": "Sun", "time": "Closed"}], "id": "6285900008", "name": "USPS COLLECTION BOX - BLUE BOX", "address": {"city": "MC LEANSBORO", "state": "IL", "street": "300 S JACKSON ST", "postcode": "62859"}}},
{"geometry": {"type": "Point", "coordinates": [-88.5349962856, 38.0927338426]}, "type": "Feature", "properties": {"collection_times": [{"days": "Mon-Fri", "time": "2:50pm"}, {"days": "Sat", "time": "11:00am"}, {"days": "Sun", "time": "Closed"}], "id": "6285900010", "name": "USPS COLLECTION BOX - PO LOBBY", "address": {"city": "MC LEANSBORO", "state": "IL", "street": "211 S JACKSON ST", "postcode": "62859"}}},
{"geometry": {"type": "Point", "coordinates": [-88.5349962856, 38.0927338426]}, "type": "Feature", "properties": {"collection_times": [{"days": "Mon-Fri", "time": "2:50pm"}, {"days": "Sat", "time": "11:00am"}, {"days": "Sun", "time": "Closed"}], "id": "6285900011", "name": "USPS COLLECTION BOX - PO LOBBY", "address": {"city": "MC LEANSBORO", "state": "IL", "street": "211 S JACKSON ST", "postcode": "62859"}}},
{"geometry": {"type": "Point", "coordinates": [-88.6488586059, 38.0211437612]}, "type": "Feature", "properties": {"collection_times": [{"days": "Mon-Fri", "time": "11:45am"}, {"days": "Sat", "time": "9:15am"}, {"days": "Sun", "time": "Closed"}], "id": "6286000001", "name": "USPS COLLECTION BOX - BLUE BOX", "address": {"city": "MACEDONIA", "state": "IL", "street": "101 E MAIN ST", "postcode": "62860"}}},
{"geometry": {"type": "Point", "coordinates": [-88.6488586059, 38.0211437612]}, "type": "Feature", "properties": {"collection_times": [{"days": "Mon-Fri", "time": "11:45am"}, {"days": "Sat", "time": "9:15am"}, {"days": "Sun", "time": "Closed"}], "id": "6286000002", "name": "USPS COLLECTION BOX - PO LOBBY", "address": {"city": "MACEDONIA", "state": "IL", "street": "101 E MAIN ST", "postcode": "62860"}}},
{"geometry": {"type": "Point", "coordinates": [-88.6488586059, 38.0211437612]}, "type": "Feature", "properties": {"collection_times": [{"days": "Mon-Fri", "time": "11:45am"}, {"days": "Sat", "time": "9:15am"}, {"days": "Sun", "time": "Closed"}], "id": "6286000005", "name": "USPS COLLECTION BOX - PO LOBBY", "address": {"city": "MACEDONIA", "state": "IL", "street": "101 E MAIN ST", "postcode": "62860"}}},
{"geometry": {"type": "Point", "coordinates": [-88.0457457724, 38.0353606192]}, "type": "Feature", "properties": {"collection_times": [{"days": "Mon-Sat", "time": "12:00pm"}, {"days": "Sun", "time": "Closed"}], "id": "6286100001", "name": "USPS COLLECTION BOX - BLUE BOX", "address": {"city": "MAUNIE", "state": "IL", "street": "321 NORTH ST", "postcode": "62861"}}},
{"geometry": {"type": "Point", "coordinates": [-88.0471377684, 38.0366311583]}, "type": "Feature", "properties": {"collection_times": [{"days": "Mon-Sat", "time": "12:00pm"}, {"days": "Sun", "time": "Closed"}], "id": "6286100002", "name": "USPS COLLECTION BOX - PO LOBBY", "address": {"city": "MAUNIE", "state": "IL", "street": "321 NORTH ST", "postcode": "62861"}}},
{"geometry": {"type": "Point", "coordinates": [-88.3459143049, 38.2456307408]}, "type": "Feature", "properties": {"collection_times": [{"days": "Mon-Fri", "time": "11:45am"}, {"days": "Sat", "time": "9:00am"}, {"days": "Sun", "time": "Closed"}], "id": "6286200001", "name": "USPS COLLECTION BOX - BLUE BOX", "address": {"city": "MILL SHOALS", "state": "IL", "street": "483 LOCUST ST", "postcode": "62862"}}},
{"geometry": {"type": "Point", "coordinates": [-88.3459143049, 38.2456307408]}, "type": "Feature", "properties": {"collection_times": [{"days": "Mon-Fri", "time": "11:45am"}, {"days": "Sat", "time": "9:45am"}, {"days": "Sun", "time": "Closed"}], "id": "6286200002", "name": "USPS COLLECTION BOX - PO LOBBY", "address": {"city": "MILL SHOALS", "state": "IL", "street": "483 LOCUST ST", "postcode": "62862"}}},
{"geometry": {"type": "Point", "coordinates": [-87.7616673398, 38.4108554082]}, "type": "Feature", "properties": {"collection_times": [{"days": "Mon-Sat", "time": "1:55pm"}, {"days": "Sun", "time": "Closed"}], "id": "6286300001", "name": "USPS COLLECTION BOX - PO LOBBY", "address": {"city": "MOUNT CARMEL", "state": "IL", "street": "503 N MARKET ST", "postcode": "62863"}}},
{"geometry": {"type": "Point", "coordinates": [-87.7616673398, 38.4108554082]}, "type": "Feature", "properties": {"collection_times": [{"days": "Mon-Sat", "time": "1:55pm"}, {"days": "Sun", "time": "Closed"}], "id": "6286300004", "name": "USPS COLLECTION BOX - BLUE BOX", "address": {"city": "MOUNT CARMEL", "state": "IL", "street": "503 N MARKET ST", "postcode": "62863"}}},
{"geometry": {"type": "Point", "coordinates": [-87.7616673398, 38.4108554082]}, "type": "Feature", "properties": {"collection_times": [{"days": "Mon-Sat", "time": "1:55pm"}, {"days": "Sun", "time": "Closed"}], "id": "6286300028", "name": "USPS COLLECTION BOX - BLUE BOX", "address": {"city": "MOUNT CARMEL", "state": "IL", "street": "503 N MARKET ST", "postcode": "62863"}}},
{"geometry": {"type": "Point", "coordinates": [-87.7616673398, 38.4108554082]}, "type": "Feature", "properties": {"collection_times": [{"days": "Mon-Sat", "time": "1:55pm"}, {"days": "Sun", "time": "Closed"}], "id": "6286300029", "name": "USPS COLLECTION BOX - PO LOBBY", "address": {"city": "MOUNT CARMEL", "state": "IL", "street": "503 N MARKET ST", "postcode": "62863"}}},
{"geometry": {"type": "Point", "coordinates": [-88.9073257748, 38.3174050257]}, "type": "Feature", "properties": {"collection_times": [{"days": "Mon-Fri", "time": "3:40pm"}, {"days": "Sat", "time": "2:45pm"}, {"days": "Sun", "time": "Closed"}], "id": "6286400001", "name": "USPS COLLECTION BOX - BLUE BOX", "address": {"city": "MOUNT VERNON", "state": "IL", "street": "1314 MAIN ST", "postcode": "62864"}}},
{"geometry": {"type": "Point", "coordinates": [-88.9334115062, 38.3118728983]}, "type": "Feature", "properties": {"collection_times": [{"days": "Mon-Sat", "time": "1:00pm"}, {"days": "Sun", "time": "Closed"}], "id": "6286400003", "name": "USPS COLLECTION BOX - BLUE BOX", "address": {"city": "MOUNT VERNON", "state": "IL", "street": "3 DOCTORS PARK RD", "postcode": "62864"}}},
{"geometry": {"type": "Point", "coordinates": [-88.9047752871, 38.3176660322]}, "type": "Feature", "properties": {"collection_times": [{"days": "Mon-Fri", "time": "1:45pm"}, {"days": "Sat", "time": "2:00pm"}, {"days": "Sun", "time": "Closed"}], "id": "6286400009", "name": "USPS COLLECTION BOX - BLUE BOX", "address": {"city": "MOUNT VERNON", "state": "IL", "street": "1100 MAIN ST", "postcode": "62864"}}},
{"geometry": {"type": "Point", "coordinates": [-88.9036109975, 38.3174993551]}, "type": "Feature", "properties": {"collection_times": [{"days": "Mon-Sat", "time": "9:00am"}, {"days": "Sun", "time": "Closed"}], "id": "6286400020", "name": "USPS COLLECTION BOX - BLUE BOX", "address": {"city": "MOUNT VERNON", "state": "IL", "street": "123 S 10TH ST", "postcode": "62864"}}},
{"geometry": {"type": "Point", "coordinates": [-88.9280946457, 38.3149434069]}, "type": "Feature", "properties": {"collection_times": [{"days": "Mon-Sat", "time": "10:15am"}, {"days": "Sun", "time": "Closed"}], "id": "6286400028", "name": "USPS COLLECTION BOX - BLUE BOX", "address": {"city": "MOUNT VERNON", "state": "IL", "street": "3001 BROADWAY ST", "postcode": "62864"}}},
{"geometry": {"type": "Point", "coordinates": [-88.8978117969, 38.3173889497]}, "type": "Feature", "properties": {"collection_times": [{"days": "Mon-Fri", "time": "2:30pm"}, {"days": "Sat", "time": "2:00pm"}, {"days": "Sun", "time": "Closed"}], "id": "6286400036", "name": "USPS COLLECTION BOX - BLUE BOX", "address": {"city": "MOUNT VERNON", "state": "IL", "street": "600 BROADWAY ST", "postcode": "62864"}}},
{"geometry": {"type": "Point", "coordinates": [-88.9037716768, 38.3176557932]}, "type": "Feature", "properties": {"collection_times": [{"days": "Mon-Fri", "time": "2:30pm"}, {"days": "Sat", "time": "2:00pm"}, {"days": "Sun", "time": "Closed"}], "id": "6286400042", "name": "USPS COLLECTION BOX - BLUE BOX", "address": {"city": "MOUNT VERNON", "state": "IL", "street": "100 S 10TH ST", "postcode": "62864"}}},
{"geometry": {"type": "Point", "coordinates": [-88.9195473029, 38.2999118244]}, "type": "Feature", "properties": {"collection_times": [{"days": "Mon-Sat", "time": "1:15pm"}, {"days": "Sun", "time": "Closed"}], "id": "6286400053", "name": "USPS COLLECTION BOX - BLUE BOX", "address": {"city": "MOUNT VERNON", "state": "IL", "street": "2400 VETERANS MEMORIAL DR", "postcode": "62864"}}},
{"geometry": {"type": "Point", "coordinates": [-88.9073257748, 38.3174050257]}, "type": "Feature", "properties": {"collection_times": [{"days": "Mon-Fri", "time": "3:40pm"}, {"days": "Sat", "time": "2:45pm"}, {"days": "Sun", "time": "Closed"}], "id": "6286400061", "name": "USPS COLLECTION BOX - BLUE BOX", "address": {"city": "MOUNT VERNON", "state": "IL", "street": "1314 MAIN ST", "postcode": "62864"}}},
{"geometry": {"type": "Point", "coordinates": [-88.9073257748, 38.3174050257]}, "type": "Feature", "properties": {"collection_times": [{"days": "Mon-Fri", "time": "3:40pm"}, {"days": "Sat", "time": "2:45pm"}, {"days": "Sun", "time": "Closed"}], "id": "6286400062", "name": "USPS COLLECTION BOX - BLUE BOX", "address": {"city": "MOUNT VERNON", "state": "IL", "street": "1314 MAIN ST", "postcode": "62864"}}},
{"geometry": {"type": "Point", "coordinates": [-88.8977902545, 38.3180737283]}, "type": "Feature", "properties": {"collection_times": [{"days": "Mon-Fri", "time": "2:30pm"}, {"days": "Sat", "time": "2:00pm"}, {"days": "Sun", "time": "Closed"}], "id": "6286400065", "name": "USPS COLLECTION BOX - BLUE BOX", "address": {"city": "MOUNT VERNON", "state": "IL", "street": "601 MAIN ST", "postcode": "62864"}}},
{"geometry": {"type": "Point", "coordinates": [-88.9018122904, 38.3199250428]}, "type": "Feature", "properties": {"collection_times": [{"days": "Mon-Sat", "time": "9:00am"}, {"days": "Sun", "time": "Closed"}], "id": "6286400066", "name": "USPS COLLECTION BOX - BLUE BOX", "address": {"city": "MOUNT VERNON", "state": "IL", "street": "101 S 45TH ST", "postcode": "62864"}}},
{"geometry": {"type": "Point", "coordinates": [-88.9391376133, 38.3142346475]}, "type": "Feature", "properties": {"collection_times": [{"days": "Mon-Sat", "time": "10:30am"}, {"days": "Sun", "time": "Closed"}], "id": "6286400069", "name": "USPS COLLECTION BOX - BLUE BOX", "address": {"city": "MOUNT VERNON", "state": "IL", "street": "3917 BROADWAY ST STE 38", "postcode": "62864"}}},
{"geometry": {"type": "Point", "coordinates": [-88.95794883, 38.3127315264]}, "type": "Feature", "properties": {"collection_times": [{"days": "Mon-Sat", "time": "9:00am"}, {"days": "Sun", "time": "Closed"}], "id": "6286400072", "name": "USPS COLLECTION BOX - BLUE BOX", "address": {"city": "MOUNT VERNON", "state": "IL", "street": "110 DAVIDSON RD", "postcode": "62864"}}},
{"geometry": {"type": "Point", "coordinates": [-88.9421180086, 38.3081624456]}, "type": "Feature", "properties": {"collection_times": [{"days": "Mon-Sat", "time": "9:00am"}, {"days": "Sun", "time": "Closed"}], "id": "6286400074", "name": "USPS COLLECTION BOX - BLUE BOX", "address": {"city": "MOUNT VERNON", "state": "IL", "street": "415 S 42ND ST", "postcode": "62864"}}},
{"geometry": {"type": "Point", "coordinates": [-88.8993981259, 38.327743223]}, "type": "Feature", "properties": {"collection_times": [{"days": "Mon-Fri", "time": "3:40pm"}, {"days": "Sat", "time": "11:00am"}, {"days": "Sun", "time": "Closed"}], "id": "6286400076", "name": "USPS COLLECTION BOX - BLUE BOX", "address": {"city": "MOUNT VERNON", "state": "IL", "street": "726 PARK PLZ", "postcode": "62864"}}},
{"geometry": {"type": "Point", "coordinates": [-88.8993981259, 38.327743223]}, "type": "Feature", "properties": {"collection_times": [{"days": "Mon-Fri", "time": "3:40pm"}, {"days": "Sat", "time": "11:00am"}, {"days": "Sun", "time": "Closed"}], "id": "6286400077", "name": "USPS COLLECTION BOX - BLUE BOX", "address": {"city": "MOUNT VERNON", "state": "IL", "street": "726 PARK PLZ", "postcode": "62864"}}},
{"geometry": {"type": "Point", "coordinates": [-88.8993981259, 38.327743223]}, "type": "Feature", "properties": {"collection_times": [{"days": "Mon-Fri", "time": "3:40pm"}, {"days": "Sat", "time": "11:00am"}, {"days": "Sun", "time": "Closed"}], "id": "6286400078", "name": "USPS COLLECTION BOX - PO LOBBY", "address": {"city": "MOUNT VERNON", "state": "IL", "street": "726 PARK PLZ", "postcode": "62864"}}},
{"geometry": {"type": "Point", "coordinates": [-88.9603252173, 38.3294240206]}, "type": "Feature", "properties": {"collection_times": [{"days": "Mon-Sat", "time": "10:00am"}, {"days": "Sun", "time": "Closed"}], "id": "6286400079", "name": "USPS COLLECTION BOX - BLUE BOX", "address": {"city": "MOUNT VERNON", "state": "IL", "street": "5100 LAKE TER NE", "postcode": "62864"}}},
{"geometry": {"type": "Point", "coordinates": [-89.0887293459, 37.9716238593]}, "type": "Feature", "properties": {"collection_times": [{"days": "Mon-Fri", "time": "2:20pm"}, {"days": "Sat", "time": "10:45am"}, {"days": "Sun", "time": "Closed"}], "id": "6286500001", "name": "USPS COLLECTION BOX - BLUE BOX", "address": {"city": "MULKEYTOWN", "state": "IL", "street": "7481 MAIN ST", "postcode": "62865"}}},
{"geometry": {"type": "Point", "coordinates": [-89.0887293459, 37.9716238593]}, "type": "Feature", "properties": {"collection_times": [{"days": "Mon-Fri", "time": "2:20pm"}, {"days": "Sat", "time": "11:00am"}, {"days": "Sun", "time": "Closed"}], "id": "6286500002", "name": "USPS COLLECTION BOX - PO LOBBY", "address": {"city": "MULKEYTOWN", "state": "IL", "street": "7481 MAIN ST", "postcode": "62865"}}},
{"geometry": {"type": "Point", "coordinates": [-88.1253360277, 37.9067819045]}, "type": "Feature", "properties": {"collection_times": [{"days": "Mon-Fri", "time": "12:45pm"}, {"days": "Sat", "time": "10:30am"}, {"days": "Sun", "time": "Closed"}], "id": "6286700001", "name": "USPS COLLECTION BOX - BLUE BOX", "address": {"city": "NEW HAVEN", "state": "IL", "street": "526 VINE ST", "postcode": "62867"}}},
{"geometry": {"type": "Point", "coordinates": [-88.1253360277, 37.9067819045]}, "type": "Feature", "properties": {"collection_times": [{"days": "Mon-Fri", "time": "12:45pm"}, {"days": "Sat", "time": "9:45am"}, {"days": "Sun", "time": "Closed"}], "id": "6286700002", "name": "USPS COLLECTION BOX - PO LOBBY", "address": {"city": "NEW HAVEN", "state": "IL", "street": "526 VINE ST", "postcode": "62867"}}},
{"geometry": {"type": "Point", "coordinates": [-88.2238885232, 38.6976326921]}, "type": "Feature", "properties": {"collection_times": [{"days": "Mon-Fri", "time": "1:45pm"}, {"days": "Sat", "time": "10:45am"}, {"days": "Sun", "time": "Closed"}], "id": "6286800001", "name": "USPS COLLECTION BOX - BLUE BOX", "address": {"city": "NOBLE", "state": "IL", "street": "110 W NORTH AVE", "postcode": "62868"}}},
{"geometry": {"type": "Point", "coordinates": [-88.2238885232, 38.6976326921]}, "type": "Feature", "properties": {"collection_times": [{"days": "Mon-Fri", "time": "1:45pm"}, {"days": "Sat", "time": "10:45am"}, {"days": "Sun", "time": "Closed"}], "id": "6286800002", "name": "USPS COLLECTION BOX - PO LOBBY", "address": {"city": "NOBLE", "state": "IL", "street": "110 W NORTH AVE", "postcode": "62868"}}},
{"geometry": {"type": "Point", "coordinates": [-88.3277392275, 37.9809655375]}, "type": "Feature", "properties": {"collection_times": [{"days": "Mon-Fri", "time": "1:25pm"}, {"days": "Sat", "time": "10:45am"}, {"days": "Sun", "time": "Closed"}], "id": "6286900001", "name": "USPS COLLECTION BOX - BLUE BOX", "address": {"city": "NORRIS CITY", "state": "IL", "street": "210 E MAIN ST", "postcode": "62869"}}},
{"geometry": {"type": "Point", "coordinates": [-88.3277392275, 37.9809655375]}, "type": "Feature", "properties": {"collection_times": [{"days": "Mon-Fri", "time": "1:25pm"}, {"days": "Sat", "time": "10:30am"}, {"days": "Sun", "time": "Closed"}], "id": "6286900002", "name": "USPS COLLECTION BOX - PO LOBBY", "address": {"city": "NORRIS CITY", "state": "IL", "street": "210 E MAIN ST", "postcode": "62869"}}},
{"geometry": {"type": "Point", "coordinates": [-89.0540226523, 38.6171226809]}, "type": "Feature", "properties": {"collection_times": [{"days": "Mon-Fri", "time": "3:15pm"}, {"days": "Sat", "time": "8:45am"}, {"days": "Sun", "time": "Closed"}], "id": "6287000001", "name": "USPS COLLECTION BOX - BLUE BOX", "address": {"city": "ODIN", "state": "IL", "street": "104 E KIRKWOOD ST", "postcode": "62870"}}},
{"geometry": {"type": "Point", "coordinates": [-89.0540226523, 38.6171226809]}, "type": "Feature", "properties": {"collection_times": [{"days": "Mon-Fri", "time": "3:15pm"}, {"days": "Sat", "time": "8:45am"}, {"days": "Sun", "time": "Closed"}], "id": "6287000002", "name": "USPS COLLECTION BOX - PO LOBBY", "address": {"city": "ODIN", "state": "IL", "street": "104 E KIRKWOOD ST", "postcode": "62870"}}},
{"geometry": {"type": "Point", "coordinates": [-88.301528666, 37.8905096627]}, "type": "Feature", "properties": {"collection_times": [{"days": "Mon-Fri", "time": "11:15am"}, {"days": "Sat", "time": "9:45am"}, {"days": "Sun", "time": "Closed"}], "id": "6287100001", "name": "USPS COLLECTION BOX - BLUE BOX", "address": {"city": "OMAHA", "state": "IL", "street": "430 2ND ST", "postcode": "62871"}}},
{"geometry": {"type": "Point", "coordinates": [-88.301528666, 37.8905096627]}, "type": "Feature", "properties": {"collection_times": [{"days": "Mon-Fri", "time": "11:15am"}, {"days": "Sat", "time": "9:45am"}, {"days": "Sun", "time": "Closed"}], "id": "6287100002", "name": "USPS COLLECTION BOX - PO LOBBY", "address": {"city": "OMAHA", "state": "IL", "street": "430 2ND ST", "postcode": "62871"}}},
{"geometry": {"type": "Point", "coordinates": [-88.7906182676, 38.2585176669]}, "type": "Feature", "properties": {"collection_times": [{"days": "Mon-Fri", "time": "3:20pm"}, {"days": "Sat", "time": "9:30am"}, {"days": "Sun", "time": "Closed"}], "id": "6287200001", "name": "USPS COLLECTION BOX - BLUE BOX", "address": {"city": "OPDYKE", "state": "IL", "street": "19206 E 8TH ST", "postcode": "62872"}}},
{"geometry": {"type": "Point", "coordinates": [-88.7906182676, 38.2585176669]}, "type": "Feature", "properties": {"collection_times": [{"days": "Mon-Fri", "time": "3:20pm"}, {"days": "Sat", "time": "12:15pm"}, {"days": "Sun", "time": "Closed"}], "id": "6287200002", "name": "USPS COLLECTION BOX - PO LOBBY", "address": {"city": "OPDYKE", "state": "IL", "street": "19206 E 8TH ST", "postcode": "62872"}}},
{"geometry": {"type": "Point", "coordinates": [-89.0963104511, 38.7538752885]}, "type": "Feature", "properties": {"collection_times": [{"days": "Mon-Fri", "time": "2:45pm"}, {"days": "Sat", "time": "8:45am"}, {"days": "Sun", "time": "Closed"}], "id": "6287500001", "name": "USPS COLLECTION BOX - BLUE BOX", "address": {"city": "PATOKA", "state": "IL", "street": "105 S RAILROAD ST", "postcode": "62875"}}},
{"geometry": {"type": "Point", "coordinates": [-89.0963104511, 38.7538752885]}, "type": "Feature", "properties": {"collection_times": [{"days": "Mon-Fri", "time": "2:45pm"}, {"days": "Sat", "time": "8:45am"}, {"days": "Sun", "time": "Closed"}], "id": "6287500002", "name": "USPS COLLECTION BOX - PO LOBBY", "address": {"city": "PATOKA", "state": "IL", "street": "105 S RAILROAD ST", "postcode": "62875"}}},
{"geometry": {"type": "Point", "coordinates": [-89.1953592611, 38.2818792617]}, "type": "Feature", "properties": {"collection_times": [{"days": "Mon-Fri", "time": "3:45pm"}, {"days": "Sat", "time": "9:45am"}, {"days": "Sun", "time": "Closed"}], "id": "6287600000", "name": "USPS COLLECTION BOX - BLUE BOX", "address": {"city": "RADOM", "state": "IL", "street": "15 S 3RD ST", "postcode": "62876"}}},
{"geometry": {"type": "Point", "coordinates": [-89.1953592611, 38.2818792617]}, "type": "Feature", "properties": {"collection_times": [{"days": "Mon-Fri", "time": "3:45pm"}, {"days": "Sat", "time": "9:45am"}, {"days": "Sun", "time": "Closed"}], "id": "6287600001", "name": "USPS COLLECTION BOX - PO LOBBY", "address": {"city": "RADOM", "state": "IL", "street": "15 S 3RD ST", "postcode": "62876"}}},
{"geometry": {"type": "Point", "coordinates": [-89.1811315324, 38.3775827098]}, "type": "Feature", "properties": {"collection_times": [{"days": "Mon-Fri", "time": "3:30pm"}, {"days": "Sat", "time": "9:30am"}, {"days": "Sun", "time": "Closed"}], "id": "6287700001", "name": "USPS COLLECTION BOX - BLUE BOX", "address": {"city": "RICHVIEW", "state": "IL", "street": "218 S SHANNON AVE", "postcode": "62877"}}},
{"geometry": {"type": "Point", "coordinates": [-88.8535359511, 38.8680698635]}, "type": "Feature", "properties": {"collection_times": [{"days": "Mon-Fri", "time": "11:45am"}, {"days": "Sat", "time": "9:15am"}, {"days": "Sun", "time": "Closed"}], "id": "6288000001", "name": "USPS COLLECTION BOX - BLUE BOX", "address": {"city": "SAINT PETER", "state": "IL", "street": "109 E 3RD ST", "postcode": "62880"}}},
{"geometry": {"type": "Point", "coordinates": [-88.8535359511, 38.8680698635]}, "type": "Feature", "properties": {"collection_times": [{"days": "Mon-Fri", "time": "11:45am"}, {"days": "Sat", "time": "9:15am"}, {"days": "Sun", "time": "Closed"}], "id": "6288000002", "name": "USPS COLLECTION BOX - PO LOBBY", "address": {"city": "SAINT PETER", "state": "IL", "street": "109 E 3RD ST", "postcode": "62880"}}},
{"geometry": {"type": "Point", "coordinates": [-88.9611026669, 38.6250279171]}, "type": "Feature", "properties": {"collection_times": [{"days": "Mon-Sat", "time": "3:50pm"}, {"days": "Sun", "time": "Closed"}], "id": "6288100002", "name": "USPS COLLECTION BOX - BLUE BOX", "address": {"city": "SALEM", "state": "IL", "street": "125 S DELMAR AVE", "postcode": "62881"}}},
{"geometry": {"type": "Point", "coordinates": [-88.9611394514, 38.6250293335]}, "type": "Feature", "properties": {"collection_times": [{"days": "Mon-Sat", "time": "3:50pm"}, {"days": "Sun", "time": "Closed"}], "id": "6288100003", "name": "USPS COLLECTION BOX - BLUE BOX", "address": {"city": "SALEM", "state": "IL", "street": "125 S DELMAR AVE", "postcode": "62881"}}},
{"geometry": {"type": "Point", "coordinates": [-88.9457412656, 38.6271068705]}, "type": "Feature", "properties": {"collection_times": [{"days": "Mon-Fri", "time": "3:00pm"}, {"days": "Sat", "time": "12:00pm"}, {"days": "Sun", "time": "Closed"}], "id": "6288100005", "name": "USPS COLLECTION BOX - BLUE BOX", "address": {"city": "SALEM", "state": "IL", "street": "101 S BROADWAY AVE", "postcode": "62881"}}},
{"geometry": {"type": "Point", "coordinates": [-88.9418639136, 38.6271616169]}, "type": "Feature", "properties": {"collection_times": [{"days": "Mon-Fri", "time": "3:00pm"}, {"days": "Sat", "time": "12:00pm"}, {"days": "Sun", "time": "Closed"}], "id": "6288100009", "name": "USPS COLLECTION BOX - BLUE BOX", "address": {"city": "SALEM", "state": "IL", "street": "406 E MAIN ST", "postcode": "62881"}}},
{"geometry": {"type": "Point", "coordinates": [-88.9456429331, 38.6271377784]}, "type": "Feature", "properties": {"collection_times": [{"days": "Mon-Fri", "time": "3:00pm"}, {"days": "Sat-Sun", "time": "Closed"}], "id": "6288100018", "name": "USPS COLLECTION BOX - BLUE BOX", "address": {"city": "SALEM", "state": "IL", "street": "100 E MAIN ST", "postcode": "62881"}}},
{"geometry": {"type": "Point", "coordinates": [-89.1586488725, 40.1140436692]}, "type": "Feature", "properties": {"collection_times": [{"days": "Mon-Fri", "time": "3:00pm"}, {"days": "Sat", "time": "12:00pm"}, {"days": "Sun", "time": "Closed"}], "id": "6288100021", "name": "USPS COLLECTION BOX - BLUE BOX", "address": {"city": "SALEM", "state": "IL", "street": "125 S PEARL ST", "postcode": "62881"}}},
{"geometry": {"type": "Point", "coordinates": [-88.9439869485, 38.6388770555]}, "type": "Feature", "properties": {"collection_times": [{"days": "Mon-Fri", "time": "11:00am"}, {"days": "Sat-Sun", "time": "Closed"}], "id": "6288100022", "name": "USPS COLLECTION BOX - BLUE BOX", "address": {"city": "SALEM", "state": "IL", "street": "1300 S BROADWAY AVE", "postcode": "62881"}}},
{"geometry": {"type": "Point", "coordinates": [-88.9611394514, 38.6250293335]}, "type": "Feature", "properties": {"collection_times": [{"days": "Mon-Sat", "time": "3:50pm"}, {"days": "Sun", "time": "Closed"}], "id": "6288100023", "name": "USPS COLLECTION BOX - BLUE BOX", "address": {"city": "SALEM", "state": "IL", "street": "125 S DELMAR AVE", "postcode": "62881"}}},
{"geometry": {"type": "Point", "coordinates": [-88.9611026669, 38.6250279171]}, "type": "Feature", "properties": {"collection_times": [{"days": "Mon-Sat", "time": "3:50pm"}, {"days": "Sun", "time": "Closed"}], "id": "6288100024", "name": "USPS COLLECTION BOX - PO LOBBY", "address": {"city": "SALEM", "state": "IL", "street": "125 S DELMAR AVE", "postcode": "62881"}}},
{"geometry": {"type": "Point", "coordinates": [-88.9611026669, 38.6250279171]}, "type": "Feature", "properties": {"collection_times": [{"days": "Mon-Sat", "time": "3:50pm"}, {"days": "Sun", "time": "Closed"}], "id": "6288100025", "name": "USPS COLLECTION BOX - PO LOBBY", "address": {"city": "SALEM", "state": "IL", "street": "125 S DELMAR AVE", "postcode": "62881"}}},
{"geometry": {"type": "Point", "coordinates": [-89.1206628176, 38.6152789953]}, "type": "Feature", "properties": {"collection_times": [{"days": "Mon-Fri", "time": "4:00pm"}, {"days": "Sat", "time": "10:15am"}, {"days": "Sun", "time": "Closed"}], "id": "6288200001", "name": "USPS COLLECTION BOX - BLUE BOX", "address": {"city": "SANDOVAL", "state": "IL", "street": "308 N MAIN ST", "postcode": "62882"}}},
{"geometry": {"type": "Point", "coordinates": [-89.1206628176, 38.6152789953]}, "type": "Feature", "properties": {"collection_times": [{"days": "Mon-Fri", "time": "3:45pm"}, {"days": "Sat", "time": "10:45am"}, {"days": "Sun", "time": "Closed"}], "id": "6288200002", "name": "USPS COLLECTION BOX - PO LOBBY", "address": {"city": "SANDOVAL", "state": "IL", "street": "308 N MAIN ST", "postcode": "62882"}}},
{"geometry": {"type": "Point", "coordinates": [-89.0953071881, 38.1877065636]}, "type": "Feature", "properties": {"collection_times": [{"days": "Mon-Fri", "time": "11:45am"}, {"days": "Sat", "time": "8:30am"}, {"days": "Sun", "time": "Closed"}], "id": "6288300001", "name": "USPS COLLECTION BOX - BLUE BOX", "address": {"city": "SCHELLER", "state": "IL", "street": "4411 N SCHELLER LN", "postcode": "62883"}}},
{"geometry": {"type": "Point", "coordinates": [-89.0953071881, 38.1877065636]}, "type": "Feature", "properties": {"collection_times": [{"days": "Mon-Fri", "time": "11:45am"}, {"days": "Sat", "time": "8:30am"}, {"days": "Sun", "time": "Closed"}], "id": "6288300002", "name": "USPS COLLECTION BOX - PO LOBBY", "address": {"city": "SCHELLER", "state": "IL", "street": "4411 N SCHELLER LN", "postcode": "62883"}}},
{"geometry": {"type": "Point", "coordinates": [-89.0489162973, 38.083420725]}, "type": "Feature", "properties": {"collection_times": [{"days": "Mon-Fri", "time": "2:10pm"}, {"days": "Sat", "time": "11:00am"}, {"days": "Sun", "time": "Closed"}], "id": "6288400001", "name": "USPS COLLECTION BOX - BLUE BOX", "address": {"city": "SESSER", "state": "IL", "street": "207 W FRANKLIN ST", "postcode": "62884"}}},
{"geometry": {"type": "Point", "coordinates": [-89.0489162973, 38.083420725]}, "type": "Feature", "properties": {"collection_times": [{"days": "Mon-Fri", "time": "2:10pm"}, {"days": "Sat", "time": "11:00am"}, {"days": "Sun", "time": "Closed"}], "id": "6288400002", "name": "USPS COLLECTION BOX - PO LOBBY", "address": {"city": "SESSER", "state": "IL", "street": "207 W FRANKLIN ST", "postcode": "62884"}}},
{"geometry": {"type": "Point", "coordinates": [-89.0489162973, 38.083420725]}, "type": "Feature", "properties": {"collection_times": [{"days": "Mon-Fri", "time": "2:10pm"}, {"days": "Sat", "time": "11:00am"}, {"days": "Sun", "time": "Closed"}], "id": "6288400003", "name": "USPS COLLECTION BOX - PO LOBBY", "address": {"city": "SESSER", "state": "IL", "street": "207 W FRANKLIN ST", "postcode": "62884"}}},
{"geometry": {"type": "Point", "coordinates": [-89.0894312137, 38.8463415185]}, "type": "Feature", "properties": {"collection_times": [{"days": "Mon-Fri", "time": "11:45am"}, {"days": "Sat", "time": "9:30am"}, {"days": "Sun", "time": "Closed"}], "id": "6288500001", "name": "USPS COLLECTION BOX - BLUE BOX", "address": {"city": "SHOBONIER", "state": "IL", "street": "9998 BLACKMAN ADDITION", "postcode": "62885"}}},
{"geometry": {"type": "Point", "coordinates": [-89.0894312137, 38.8463415185]}, "type": "Feature", "properties": {"collection_times": [{"days": "Mon-Fri", "time": "11:45am"}, {"days": "Sat", "time": "9:00am"}, {"days": "Sun", "time": "Closed"}], "id": "6288500002", "name": "USPS COLLECTION BOX - PO LOBBY", "address": {"city": "SHOBONIER", "state": "IL", "street": "9998 BLACKMAN ADDITION", "postcode": "62885"}}},
{"geometry": {"type": "Point", "coordinates": [-88.5351671919, 38.3603235805]}, "type": "Feature", "properties": {"collection_times": [{"days": "Mon-Fri", "time": "3:00pm"}, {"days": "Sat", "time": "1:30pm"}, {"days": "Sun", "time": "Closed"}], "id": "6288600001", "name": "USPS COLLECTION BOX - PO LOBBY", "address": {"city": "SIMS", "state": "IL", "street": "601A S RAILROAD ST", "postcode": "62886"}}},
{"geometry": {"type": "Point", "coordinates": [-88.5351671919, 38.3603235805]}, "type": "Feature", "properties": {"collection_times": [{"days": "Mon-Fri", "time": "3:15pm"}, {"days": "Sat", "time": "1:30pm"}, {"days": "Sun", "time": "Closed"}], "id": "6288600002", "name": "USPS COLLECTION BOX - BLUE BOX", "address": {"city": "SIMS", "state": "IL", "street": "601A S RAILROAD ST", "postcode": "62886"}}},
{"geometry": {"type": "Point", "coordinates": [-88.3541635953, 38.1791944309]}, "type": "Feature", "properties": {"collection_times": [{"days": "Mon-Fri", "time": "11:15am"}, {"days": "Sat", "time": "10:30am"}, {"days": "Sun", "time": "Closed"}], "id": "6288700000", "name": "USPS COLLECTION BOX - BLUE BOX", "address": {"city": "SPRINGERTON", "state": "IL", "street": "125 S MAIN ST", "postcode": "62887"}}},
{"geometry": {"type": "Point", "coordinates": [-88.3541635953, 38.1791944309]}, "type": "Feature", "properties": {"collection_times": [{"days": "Mon-Fri", "time": "11:15am"}, {"days": "Sat", "time": "10:30am"}, {"days": "Sun", "time": "Closed"}], "id": "6288700001", "name": "USPS COLLECTION BOX - PO LOBBY", "address": {"city": "SPRINGERTON", "state": "IL", "street": "125 S MAIN ST", "postcode": "62887"}}},
{"geometry": {"type": "Point", "coordinates": [-89.2289531122, 38.137819463]}, "type": "Feature", "properties": {"collection_times": [{"days": "Mon-Fri", "time": "2:45pm"}, {"days": "Sat", "time": "9:15am"}, {"days": "Sun", "time": "Closed"}], "id": "6288800001", "name": "USPS COLLECTION BOX - BLUE BOX", "address": {"city": "TAMAROA", "state": "IL", "street": "11 N CHESTNUT ST", "postcode": "62888"}}},
{"geometry": {"type": "Point", "coordinates": [-89.2289531122, 38.137819463]}, "type": "Feature", "properties": {"collection_times": [{"days": "Mon-Fri", "time": "2:45pm"}, {"days": "Sat", "time": "9:15am"}, {"days": "Sun", "time": "Closed"}], "id": "6288800002", "name": "USPS COLLECTION BOX - PO LOBBY", "address": {"city": "TAMAROA", "state": "IL", "street": "11 N CHESTNUT ST", "postcode": "62888"}}},
{"geometry": {"type": "Point", "coordinates": [-88.8967470975, 38.439489288]}, "type": "Feature", "properties": {"collection_times": [{"days": "Mon-Fri", "time": "3:15pm"}, {"days": "Sat", "time": "9:15am"}, {"days": "Sun", "time": "Closed"}], "id": "6288900001", "name": "USPS COLLECTION BOX - BLUE BOX", "address": {"city": "TEXICO", "state": "IL", "street": "13398 E DIX TEXICO RD", "postcode": "62889"}}},
{"geometry": {"type": "Point", "coordinates": [-88.7494489309, 37.9162583336]}, "type": "Feature", "properties": {"collection_times": [{"days": "Mon-Fri", "time": "1:55pm"}, {"days": "Sat", "time": "10:30am"}, {"days": "Sun", "time": "Closed"}], "id": "6289000001", "name": "USPS COLLECTION BOX - BLUE BOX", "address": {"city": "THOMPSONVILLE", "state": "IL", "street": "21302 SHAWNEETOWN RD", "postcode": "62890"}}},
{"geometry": {"type": "Point", "coordinates": [-88.7494489309, 37.9162583336]}, "type": "Feature", "properties": {"collection_times": [{"days": "Mon-Fri", "time": "1:55pm"}, {"days": "Sat", "time": "10:30am"}, {"days": "Sun", "time": "Closed"}], "id": "6289000002", "name": "USPS COLLECTION BOX - PO LOBBY", "address": {"city": "THOMPSONVILLE", "state": "IL", "street": "21302 SHAWNEETOWN RD", "postcode": "62890"}}},
{"geometry": {"type": "Point", "coordinates": [-89.0467822863, 38.0135791173]}, "type": "Feature", "properties": {"collection_times": [{"days": "Mon-Fri", "time": "1:55pm"}, {"days": "Sat", "time": "9:45am"}, {"days": "Sun", "time": "Closed"}], "id": "6289100001", "name": "USPS COLLECTION BOX - PO LOBBY", "address": {"city": "VALIER", "state": "IL", "street": "101 E MAIN ST", "postcode": "62891"}}},
{"geometry": {"type": "Point", "coordinates": [-89.0466982629, 38.0135370172]}, "type": "Feature", "properties": {"collection_times": [{"days": "Mon-Fri", "time": "1:55pm"}, {"days": "Sat", "time": "10:00am"}, {"days": "Sun", "time": "Closed"}], "id": "6289100002", "name": "USPS COLLECTION BOX - BLUE BOX", "address": {"city": "VALIER", "state": "IL", "street": "101 N LINCOLN ST", "postcode": "62891"}}},
{"geometry": {"type": "Point", "coordinates": [-89.0880889676, 38.8035801574]}, "type": "Feature", "properties": {"collection_times": [{"days": "Mon-Fri", "time": "3:30pm"}, {"days": "Sat", "time": "12:15pm"}, {"days": "Sun", "time": "Closed"}], "id": "6289200001", "name": "USPS COLLECTION BOX - BLUE BOX", "address": {"city": "VERNON", "state": "IL", "street": "200 N RACE ST", "postcode": "62892"}}},
{"geometry": {"type": "Point", "coordinates": [-89.0880889676, 38.8035801574]}, "type": "Feature", "properties": {"collection_times": [{"days": "Mon-Fri", "time": "3:30pm"}, {"days": "Sat", "time": "12:15pm"}, {"days": "Sun", "time": "Closed"}], "id": "6289200002", "name": "USPS COLLECTION BOX - PO LOBBY", "address": {"city": "VERNON", "state": "IL", "street": "200 N RACE ST", "postcode": "62892"}}},
{"geometry": {"type": "Point", "coordinates": [-89.0427602133, 38.4762320319]}, "type": "Feature", "properties": {"collection_times": [{"days": "Mon-Fri", "time": "4:00pm"}, {"days": "Sat", "time": "10:00am"}, {"days": "Sun", "time": "Closed"}], "id": "6289300001", "name": "USPS COLLECTION BOX - BLUE BOX", "address": {"city": "WALNUT HILL", "state": "IL", "street": "61 HARRISON ST", "postcode": "62893"}}},
{"geometry": {"type": "Point", "coordinates": [-89.0427602133, 38.4762320319]}, "type": "Feature", "properties": {"collection_times": [{"days": "Mon-Fri", "time": "4:05pm"}, {"days": "Sat", "time": "11:15am"}, {"days": "Sun", "time": "Closed"}], "id": "6289300002", "name": "USPS COLLECTION BOX - PO LOBBY", "address": {"city": "WALNUT HILL", "state": "IL", "street": "61 HARRISON ST", "postcode": "62893"}}},
{"geometry": {"type": "Point", "coordinates": [-89.0336338852, 38.2092877705]}, "type": "Feature", "properties": {"collection_times": [{"days": "Mon-Fri", "time": "11:45am"}, {"days": "Sat", "time": "9:30am"}, {"days": "Sun", "time": "Closed"}], "id": "6289400002", "name": "USPS COLLECTION BOX - PO LOBBY", "address": {"city": "WALTONVILLE", "state": "IL", "street": "504 E MAIN ST", "postcode": "62894"}}},
{"geometry": {"type": "Point", "coordinates": [-89.0336338852, 38.2092877705]}, "type": "Feature", "properties": {"collection_times": [{"days": "Mon-Fri", "time": "11:45am"}, {"days": "Sat", "time": "8:30am"}, {"days": "Sun", "time": "Closed"}], "id": "6289400003", "name": "USPS COLLECTION BOX - BLUE BOX", "address": {"city": "WALTONVILLE", "state": "IL", "street": "504 E MAIN ST", "postcode": "62894"}}},
{"geometry": {"type": "Point", "coordinates": [-88.5880842464, 38.345497662]}, "type": "Feature", "properties": {"collection_times": [{"days": "Mon-Fri", "time": "3:05pm"}, {"days": "Sat", "time": "10:30am"}, {"days": "Sun", "time": "Closed"}], "id": "6289500001", "name": "USPS COLLECTION BOX - BLUE BOX", "address": {"city": "WAYNE CITY", "state": "IL", "street": "305 S MAIN ST", "postcode": "62895"}}},
{"geometry": {"type": "Point", "coordinates": [-88.5880842464, 38.345497662]}, "type": "Feature", "properties": {"collection_times": [{"days": "Mon-Fri", "time": "3:05pm"}, {"days": "Sat", "time": "10:30am"}, {"days": "Sun", "time": "Closed"}], "id": "6289500002", "name": "USPS COLLECTION BOX - PO LOBBY", "address": {"city": "WAYNE CITY", "state": "IL", "street": "305 S MAIN ST", "postcode": "62895"}}},
{"geometry": {"type": "Point", "coordinates": [-88.5880842464, 38.345497662]}, "type": "Feature", "properties": {"collection_times": [{"days": "Mon-Fri", "time": "3:05pm"}, {"days": "Sat", "time": "10:30am"}, {"days": "Sun", "time": "Closed"}], "id": "6289500003", "name": "USPS COLLECTION BOX - PO LOBBY", "address": {"city": "WAYNE CITY", "state": "IL", "street": "305 S MAIN ST", "postcode": "62895"}}},
{"geometry": {"type": "Point", "coordinates": [-88.9264542016, 37.8980180882]}, "type": "Feature", "properties": {"collection_times": [{"days": "Mon-Fri", "time": "2:35pm"}, {"days": "Sat", "time": "2:00pm"}, {"days": "Sun", "time": "Closed"}], "id": "6289600002", "name": "USPS COLLECTION BOX - BLUE BOX", "address": {"city": "WEST FRANKFORT", "state": "IL", "street": "219 E MAIN ST", "postcode": "62896"}}},
{"geometry": {"type": "Point", "coordinates": [-88.9283415637, 37.897010625]}, "type": "Feature", "properties": {"collection_times": [{"days": "Mon-Sat", "time": "9:15am"}, {"days": "Sun", "time": "Closed"}], "id": "6289600008", "name": "USPS COLLECTION BOX - BLUE BOX", "address": {"city": "WEST FRANKFORT", "state": "IL", "street": "110 E OAK ST", "postcode": "62896"}}},
{"geometry": {"type": "Point", "coordinates": [-88.9264542016, 37.8980180882]}, "type": "Feature", "properties": {"collection_times": [{"days": "Mon-Fri", "time": "2:35pm"}, {"days": "Sat", "time": "2:00pm"}, {"days": "Sun", "time": "Closed"}], "id": "6289600023", "name": "USPS COLLECTION BOX - PO LOBBY", "address": {"city": "WEST FRANKFORT", "state": "IL", "street": "219 E MAIN ST", "postcode": "62896"}}},
{"geometry": {"type": "Point", "coordinates": [-88.9017755358, 38.0871222544]}, "type": "Feature", "properties": {"collection_times": [{"days": "Mon-Fri", "time": "11:45am"}, {"days": "Sat", "time": "9:15am"}, {"days": "Sun", "time": "Closed"}], "id": "6289700001", "name": "USPS COLLECTION BOX - BLUE BOX", "address": {"city": "WHITTINGTON", "state": "IL", "street": "106 W MAIN ST", "postcode": "62897"}}},
{"geometry": {"type": "Point", "coordinates": [-88.9017755358, 38.0871222544]}, "type": "Feature", "properties": {"collection_times": [{"days": "Mon-Fri", "time": "11:45am"}, {"days": "Sat", "time": "9:15am"}, {"days": "Sun", "time": "Closed"}], "id": "6289700002", "name": "USPS COLLECTION BOX - PO LOBBY", "address": {"city": "WHITTINGTON", "state": "IL", "street": "106 W MAIN ST", "postcode": "62897"}}},
{"geometry": {"type": "Point", "coordinates": [-89.0325015161, 38.3299799818]}, "type": "Feature", "properties": {"collection_times": [{"days": "Mon-Fri", "time": "3:15pm"}, {"days": "Sat", "time": "9:15am"}, {"days": "Sun", "time": "Closed"}], "id": "6289800001", "name": "USPS COLLECTION BOX - BLUE BOX", "address": {"city": "WOODLAWN", "state": "IL", "street": "606 N MAIN ST", "postcode": "62898"}}},
{"geometry": {"type": "Point", "coordinates": [-89.0325015161, 38.3299799818]}, "type": "Feature", "properties": {"collection_times": [{"days": "Mon-Fri", "time": "3:15pm"}, {"days": "Sat", "time": "9:30am"}, {"days": "Sun", "time": "Closed"}], "id": "6289800002", "name": "USPS COLLECTION BOX - PO LOBBY", "address": {"city": "WOODLAWN", "state": "IL", "street": "606 N MAIN ST", "postcode": "62898"}}},
{"geometry": {"type": "Point", "coordinates": [-88.6373155372, 38.634899801]}, "type": "Feature", "properties": {"collection_times": [{"days": "Mon-Fri", "time": "3:05pm"}, {"days": "Sat", "time": "9:15am"}, {"days": "Sun", "time": "Closed"}], "id": "6289900001", "name": "USPS COLLECTION BOX - BLUE BOX", "address": {"city": "XENIA", "state": "IL", "street": "102 N MAIN ST", "postcode": "62899"}}},
{"geometry": {"type": "Point", "coordinates": [-88.6373155372, 38.634899801]}, "type": "Feature", "properties": {"collection_times": [{"days": "Mon-Fri", "time": "3:05pm"}, {"days": "Sat", "time": "9:15am"}, {"days": "Sun", "time": "Closed"}], "id": "6289900002", "name": "USPS COLLECTION BOX - PO LOBBY", "address": {"city": "XENIA", "state": "IL", "street": "102 N MAIN ST", "postcode": "62899"}}}
]}
