{"type": "FeatureCollection", "features": [
{"geometry": {"type": "Point", "coordinates": [-89.189467944, 37.7325465306]}, "type": "Feature", "properties": {"collection_times": [{"days": "Mon-Fri", "time": "5:00pm"}, {"days": "Sat", "time": "3:00pm"}, {"days": "Sun", "time": "Closed"}], "id": "6290100001", "name": "USPS COLLECTION BOX - BLUE BOX", "address": {"city": "CARBONDALE", "state": "IL", "street": "1301 E MAIN ST", "postcode": "62901"}}},
{"geometry": {"type": "Point", "coordinates": [-89.2303868986, 37.7264022967]}, "type": "Feature", "properties": {"collection_times": [{"days": "Mon-Sat", "time": "3:00pm"}, {"days": "Sun", "time": "Closed"}], "id": "6290100007", "name": "USPS COLLECTION BOX - BLUE BOX", "address": {"city": "CARBONDALE", "state": "IL", "street": "1100 W MAIN ST", "postcode": "62901"}}},
{"geometry": {"type": "Point", "coordinates": [-89.2151334076, 37.70045895]}, "type": "Feature", "properties": {"collection_times": [{"days": "Mon-Sat", "time": "10:30am"}, {"days": "Sun", "time": "Closed"}], "id": "6290100016", "name": "USPS COLLECTION BOX - BLUE BOX", "address": {"city": "CARBONDALE", "state": "IL", "street": "150 E PLEASANT HILL RD", "postcode": "62901"}}},
{"geometry": {"type": "Point", "coordinates": [-89.239718592, 37.728920813]}, "type": "Feature", "properties": {"collection_times": [{"days": "Mon-Fri", "time": "4:05pm"}, {"days": "Sat", "time": "3:00pm"}, {"days": "Sun", "time": "Closed"}], "id": "6290100019", "name": "USPS COLLECTION BOX - BLUE BOX", "address": {"city": "CARBONDALE", "state": "IL", "street": "1815 W MAIN ST", "postcode": "62901"}}},
{"geometry": {"type": "Point", "coordinates": [-89.2422209163, 37.729773154]}, "type": "Feature", "properties": {"collection_times": [{"days": "Mon-Fri", "time": "4:05pm"}, {"days": "Sat", "time": "3:00pm"}, {"days": "Sun", "time": "Closed"}], "id": "6290100023", "name": "USPS COLLECTION BOX - BLUE BOX", "address": {"city": "CARBONDALE", "state": "IL", "street": "2001 W MAIN ST", "postcode": "62901"}}},
{"geometry": {"type": "Point", "coordinates": [-89.2149781856, 37.7274477446]}, "type": "Feature", "properties": {"collection_times": [{"days": "Mon-Sat", "time": "3:00pm"}, {"days": "Sun", "time": "Closed"}], "id": "6290100025", "name": "USPS COLLECTION BOX - BLUE BOX", "address": {"city": "CARBONDALE", "state": "IL", "street": "216 E MAIN ST", "postcode": "62901"}}},
{"geometry": {"type": "Point", "coordinates": [-89.2173222661, 37.7234376428]}, "type": "Feature", "properties": {"collection_times": [{"days": "Mon-Sat", "time": "3:00pm"}, {"days": "Sun", "time": "Closed"}], "id": "6290100029", "name": "USPS COLLECTION BOX - BLUE BOX", "address": {"city": "CARBONDALE", "state": "IL", "street": "250 W CHERRY ST", "postcode": "62901"}}},
{"geometry": {"type": "Point", "coordinates": [-89.2180984496, 37.7227746768]}, "type": "Feature", "properties": {"collection_times": [{"days": "Mon-Sat", "time": "3:00pm"}, {"days": "Sun", "time": "Closed"}], "id": "6290100039", "name": "USPS COLLECTION BOX - BLUE BOX", "address": {"city": "CARBONDALE", "state": "IL", "street": "509 S UNIVERSITY AVE", "postcode": "62901"}}},
{"geometry": {"type": "Point", "coordinates": [-89.2070836422, 37.7260346921]}, "type": "Feature", "properties": {"collection_times": [{"days": "Mon-Sat", "time": "3:00pm"}, {"days": "Sun", "time": "Closed"}], "id": "6290100043", "name": "USPS COLLECTION BOX - BLUE BOX", "address": {"city": "CARBONDALE", "state": "IL", "street": "640 E WALNUT ST", "postcode": "62901"}}},
{"geometry": {"type": "Point", "coordinates": [-89.2089518246, 37.7131727468]}, "type": "Feature", "properties": {"collection_times": [{"days": "Mon-Sat", "time": "10:00am"}, {"days": "Sun", "time": "Closed"}], "id": "6290100045", "name": "USPS COLLECTION BOX - BLUE BOX", "address": {"city": "CARBONDALE", "state": "IL", "street": "601 E CAMPUS DR", "postcode": "62901"}}},
{"geometry": {"type": "Point", "coordinates": [-89.2086501154, 37.7222823369]}, "type": "Feature", "properties": {"collection_times": [{"days": "Mon-Sat", "time": "3:00pm"}, {"days": "Sun", "time": "Closed"}], "id": "6290100046", "name": "USPS COLLECTION BOX - BLUE BOX", "address": {"city": "CARBONDALE", "state": "IL", "street": "602 E COLLEGE ST", "postcode": "62901"}}},
{"geometry": {"type": "Point", "coordinates": [-89.2038206424, 37.7283247]}, "type": "Feature", "properties": {"collection_times": [{"days": "Mon-Sat", "time": "11:00am"}, {"days": "Sun", "time": "Closed"}], "id": "6290100052", "name": "USPS COLLECTION BOX - BLUE BOX", "address": {"city": "CARBONDALE", "state": "IL", "street": "816 E MAIN ST", "postcode": "62901"}}},
{"geometry": {"type": "Point", "coordinates": [-89.2171679452, 37.7285815059]}, "type": "Feature", "properties": {"collection_times": [{"days": "Mon-Sat", "time": "11:00am"}, {"days": "Sun", "time": "Closed"}], "id": "6290100075", "name": "USPS COLLECTION BOX - BLUE BOX", "address": {"city": "CARBONDALE", "state": "IL", "street": "1 OAK VALLEY DR", "postcode": "62901"}}},
{"geometry": {"type": "Point", "coordinates": [-89.189467944, 37.7325465306]}, "type": "Feature", "properties": {"collection_times": [{"days": "Mon-Fri", "time": "5:00pm"}, {"days": "Sat", "time": "3:00pm"}, {"days": "Sun", "time": "Closed"}], "id": "6290100078", "name": "USPS COLLECTION BOX - BLUE BOX", "address": {"city": "CARBONDALE", "state": "IL", "street": "1301 E MAIN ST", "postcode": "62901"}}},
{"geometry": {"type": "Point", "coordinates": [-89.189467944, 37.7325465306]}, "type": "Feature", "properties": {"collection_times": [{"days": "Mon-Fri", "time": "5:00pm"}, {"days": "Sat", "time": "3:00pm"}, {"days": "Sun", "time": "Closed"}], "id": "6290100079", "name": "USPS COLLECTION BOX - BLUE BOX", "address": {"city": "CARBONDALE", "state": "IL", "street": "1301 E MAIN ST", "postcode": "62901"}}},
{"geometry": {"type": "Point", "coordinates": [-89.2422209163, 37.729773154]}, "type": "Feature", "properties": {"collection_times": [{"days": "Mon-Fri", "time": "4:05pm"}, {"days": "Sat", "time": "3:00pm"}, {"days": "Sun", "time": "Closed"}], "id": "6290100081", "name": "USPS COLLECTION BOX - BLUE BOX", "address": {"city": "CARBONDALE", "state": "IL", "street": "2001 W MAIN ST", "postcode": "62901"}}},
{"geometry": {"type": "Point", "coordinates": [-89.2422209163, 37.729773154]}, "type": "Feature", "properties": {"collection_times": [{"days": "Mon-Fri", "time": "4:05pm"}, {"days": "Sat", "time": "3:00pm"}, {"days": "Sun", "time": "Closed"}], "id": "6290100082", "name": "USPS COLLECTION BOX - BLUE BOX", "address": {"city": "CARBONDALE", "state": "IL", "street": "2001 W MAIN ST", "postcode": "62901"}}},
{"geometry": {"type": "Point", "coordinates": [-89.2185480856, 37.7271344808]}, "type": "Feature", "properties": {"collection_times": [{"days": "Mon-Sat", "time": "3:00pm"}, {"days": "Sun", "time": "Closed"}], "id": "6290100083", "name": "USPS COLLECTION BOX - BLUE BOX", "address": {"city": "CARBONDALE", "state": "IL", "street": "100 UNIV MALL", "postcode": "62901"}}},
{"geometry": {"type": "Point", "coordinates": [-89.189467944, 37.7325465306]}, "type": "Feature", "properties": {"collection_times": [{"days": "Mon-Fri", "time": "5:00pm"}, {"days": "Sat", "time": "3:00pm"}, {"days": "Sun", "time": "Closed"}], "id": "6290100091", "name": "USPS COLLECTION BOX - PO LOBBY", "address": {"city": "CARBONDALE", "state": "IL", "street": "1301 E MAIN ST", "postcode": "62901"}}},
{"geometry": {"type": "Point", "coordinates": [-89.2422209163, 37.729773154]}, "type": "Feature", "properties": {"collection_times": [{"days": "Mon-Fri", "time": "4:05pm"}, {"days": "Sat", "time": "3:00pm"}, {"days": "Sun", "time": "Closed"}], "id": "6290100094", "name": "USPS COLLECTION BOX - PO LOBBY", "address": {"city": "CARBONDALE", "state": "IL", "street": "2001 W MAIN ST", "postcode": "62901"}}},
{"geometry": {"type": "Point", "coordinates": [-89.2422209163, 37.729773154]}, "type": "Feature", "properties": {"collection_times": [{"days": "Mon-Fri", "time": "4:05pm"}, {"days": "Sat", "time": "3:00pm"}, {"days": "Sun", "time": "Closed"}], "id": "6290100095", "name": "USPS COLLECTION BOX - PO LOBBY", "address": {"city": "CARBONDALE", "state": "IL", "street": "2001 W MAIN ST", "postcode": "62901"}}},
{"geometry": {"type": "Point", "coordinates": [-89.2186618624, 37.7260474913]}, "type": "Feature", "properties": {"collection_times": [{"days": "Mon-Sat", "time": "3:00pm"}, {"days": "Sun", "time": "Closed"}], "id": "6290100096", "name": "USPS COLLECTION BOX - BLUE BOX", "address": {"city": "CARBONDALE", "state": "IL", "street": "209 W MONROE ST", "postcode": "62901"}}},
{"geometry": {"type": "Point", "coordinates": [-89.2205476713, 37.7579693477]}, "type": "Feature", "properties": {"collection_times": [{"days": "Mon-Sat", "time": "11:30am"}, {"days": "Sun", "time": "Closed"}], "id": "6290100097", "name": "USPS COLLECTION BOX - BLUE BOX", "address": {"city": "CARBONDALE", "state": "IL", "street": "1901 S ILLINOIS AVE", "postcode": "62901"}}},
{"geometry": {"type": "Point", "coordinates": [-89.189467944, 37.7325465306]}, "type": "Feature", "properties": {"collection_times": [{"days": "Mon-Fri", "time": "5:00pm"}, {"days": "Sat", "time": "3:00pm"}, {"days": "Sun", "time": "Closed"}], "id": "6290100099", "name": "USPS COLLECTION BOX - APC", "address": {"city": "CARBONDALE", "state": "IL", "street": "1301 E MAIN ST", "postcode": "62901"}}},
{"geometry": {"type": "Point", "coordinates": [-89.2102192515, 37.7380638527]}, "type": "Feature", "properties": {"collection_times": [{"days": "Mon-Sat", "time": "11:30am"}, {"days": "Sun", "time": "Closed"}], "id": "6290100100", "name": "USPS COLLECTION BOX - BLUE BOX", "address": {"city": "CARBONDALE", "state": "IL", "street": "216 PHYSICAL PLANT DR", "postcode": "62901"}}},
{"geometry": {"type": "Point", "coordinates": [-89.3179198607, 37.5649294169]}, "type": "Feature", "properties": {"collection_times": [{"days": "Mon-Fri", "time": "2:30pm"}, {"days": "Sat", "time": "9:00am"}, {"days": "Sun", "time": "Closed"}], "id": "6290500001", "name": "USPS COLLECTION BOX - BLUE BOX", "address": {"city": "ALTO PASS", "state": "IL", "street": "85 N ELM ST", "postcode": "62905"}}},
{"geometry": {"type": "Point", "coordinates": [-89.3179198607, 37.5649294169]}, "type": "Feature", "properties": {"collection_times": [{"days": "Mon-Fri", "time": "2:30pm"}, {"days": "Sat", "time": "9:00am"}, {"days": "Sun", "time": "Closed"}], "id": "6290500002", "name": "USPS COLLECTION BOX - PO LOBBY", "address": {"city": "ALTO PASS", "state": "IL", "street": "85 N ELM ST", "postcode": "62905"}}},
{"geometry": {"type": "Point", "coordinates": [-89.2456783795, 37.4619878449]}, "type": "Feature", "properties": {"collection_times": [{"days": "Mon-Sat", "time": "2:30pm"}, {"days": "Sun", "time": "Closed"}], "id": "6290600003", "name": "USPS COLLECTION BOX - BLUE BOX", "address": {"city": "ANNA", "state": "IL", "street": "201 N MAIN ST", "postcode": "62906"}}},
{"geometry": {"type": "Point", "coordinates": [-89.2456783795, 37.4619878449]}, "type": "Feature", "properties": {"collection_times": [{"days": "Mon-Sat", "time": "2:30pm"}, {"days": "Sun", "time": "Closed"}], "id": "6290600007", "name": "USPS COLLECTION BOX - BLUE BOX", "address": {"city": "ANNA", "state": "IL", "street": "201 N MAIN ST", "postcode": "62906"}}},
{"geometry": {"type": "Point", "coordinates": [-89.2334047396, 37.4608362275]}, "type": "Feature", "properties": {"collection_times": [{"days": "Mon-Sat", "time": "2:30pm"}, {"days": "Sun", "time": "Closed"}], "id": "6290600011", "name": "USPS COLLECTION BOX - BLUE BOX", "address": {"city": "ANNA", "state": "IL", "street": "512 E VIENNA ST", "postcode": "62906"}}},
{"geometry": {"type": "Point", "coordinates": [-89.2456783795, 37.4619878449]}, "type": "Feature", "properties": {"collection_times": [{"days": "Mon-Sat", "time": "2:30pm"}, {"days": "Sun", "time": "Closed"}], "id": "6290600012", "name": "USPS COLLECTION BOX - PO LOBBY", "address": {"city": "ANNA", "state": "IL", "street": "201 N MAIN ST", "postcode": "62906"}}},
{"geometry": {"type": "Point", "coordinates": [-89.4963054236, 37.8883944507]}, "type": "Feature", "properties": {"collection_times": [{"days": "Mon-Fri", "time": "1:50pm"}, {"days": "Sat", "time": "9:45am"}, {"days": "Sun", "time": "Closed"}], "id": "6290700001", "name": "USPS COLLECTION BOX - BLUE BOX", "address": {"city": "AVA", "state": "IL", "street": "222 W MAIN ST", "postcode": "62907"}}},
{"geometry": {"type": "Point", "coordinates": [-89.4963054236, 37.8883944507]}, "type": "Feature", "properties": {"collection_times": [{"days": "Mon-Fri", "time": "1:50pm"}, {"days": "Sat", "time": "10:00am"}, {"days": "Sun", "time": "Closed"}], "id": "6290700002", "name": "USPS COLLECTION BOX - PO LOBBY", "address": {"city": "AVA", "state": "IL", "street": "222 W MAIN ST", "postcode": "62907"}}},
{"geometry": {"type": "Point", "coordinates": [-88.9399263955, 37.3237376761]}, "type": "Feature", "properties": {"collection_times": [{"days": "Mon-Sat", "time": "2:15pm"}, {"days": "Sun", "time": "Closed"}], "id": "6290800001", "name": "USPS COLLECTION BOX - BLUE BOX", "address": {"city": "BELKNAP", "state": "IL", "street": "58 W MAIN ST", "postcode": "62908"}}},
{"geometry": {"type": "Point", "coordinates": [-88.9399263955, 37.3237376761]}, "type": "Feature", "properties": {"collection_times": [{"days": "Mon-Sat", "time": "2:15pm"}, {"days": "Sun", "time": "Closed"}], "id": "6290800002", "name": "USPS COLLECTION BOX - PO LOBBY", "address": {"city": "BELKNAP", "state": "IL", "street": "58 W MAIN ST", "postcode": "62908"}}},
{"geometry": {"type": "Point", "coordinates": [-88.6018673714, 37.1374217826]}, "type": "Feature", "properties": {"collection_times": [{"days": "Mon-Fri", "time": "1:00pm"}, {"days": "Sat", "time": "10:45am"}, {"days": "Sun", "time": "Closed"}], "id": "6291000001", "name": "USPS COLLECTION BOX - BLUE BOX", "address": {"city": "BROOKPORT", "state": "IL", "street": "200 OHIO ST", "postcode": "62910"}}},
{"geometry": {"type": "Point", "coordinates": [-88.6018673714, 37.1374217826]}, "type": "Feature", "properties": {"collection_times": [{"days": "Mon-Fri", "time": "1:00pm"}, {"days": "Sat", "time": "11:00am"}, {"days": "Sun", "time": "Closed"}], "id": "6291000002", "name": "USPS COLLECTION BOX - PO LOBBY", "address": {"city": "BROOKPORT", "state": "IL", "street": "200 OHIO ST", "postcode": "62910"}}},
{"geometry": {"type": "Point", "coordinates": [-88.9753845963, 37.4715650251]}, "type": "Feature", "properties": {"collection_times": [{"days": "Mon-Fri", "time": "11:15am"}, {"days": "Sat", "time": "9:15am"}, {"days": "Sun", "time": "Closed"}], "id": "6291200001", "name": "USPS COLLECTION BOX - BLUE BOX", "address": {"city": "BUNCOMBE", "state": "IL", "street": "55 MAIN ST", "postcode": "62912"}}},
{"geometry": {"type": "Point", "coordinates": [-88.9753845963, 37.4715650251]}, "type": "Feature", "properties": {"collection_times": [{"days": "Mon-Fri", "time": "11:15am"}, {"days": "Sat", "time": "9:15am"}, {"days": "Sun", "time": "Closed"}], "id": "6291200002", "name": "USPS COLLECTION BOX - PO LOBBY", "address": {"city": "BUNCOMBE", "state": "IL", "street": "55 MAIN ST", "postcode": "62912"}}},
{"geometry": {"type": "Point", "coordinates": [-89.1786668515, 37.0083533942]}, "type": "Feature", "properties": {"collection_times": [{"days": "Mon-Fri", "time": "1:40pm"}, {"days": "Sat", "time": "10:45am"}, {"days": "Sun", "time": "Closed"}], "id": "6291400005", "name": "USPS COLLECTION BOX - BLUE BOX", "address": {"city": "CAIRO", "state": "IL", "street": "2000 WASHINGTON AVE", "postcode": "62914"}}},
{"geometry": {"type": "Point", "coordinates": [-89.1786668515, 37.0083533942]}, "type": "Feature", "properties": {"collection_times": [{"days": "Mon-Fri", "time": "1:40pm"}, {"days": "Sat", "time": "10:45am"}, {"days": "Sun", "time": "Closed"}], "id": "6291400007", "name": "USPS COLLECTION BOX - BLUE BOX", "address": {"city": "CAIRO", "state": "IL", "street": "3101 SYCAMORE ST", "postcode": "62914"}}},
{"geometry": {"type": "Point", "coordinates": [-89.1786668515, 37.0083533942]}, "type": "Feature", "properties": {"collection_times": [{"days": "Mon-Fri", "time": "1:40pm"}, {"days": "Sat", "time": "11:00am"}, {"days": "Sun", "time": "Closed"}], "id": "6291400010", "name": "USPS COLLECTION BOX - BLUE BOX", "address": {"city": "CAIRO", "state": "IL", "street": "906 POPLAR ST", "postcode": "62914"}}},
{"geometry": {"type": "Point", "coordinates": [-89.1786668515, 37.0083533942]}, "type": "Feature", "properties": {"collection_times": [{"days": "Mon-Fri", "time": "3:45pm"}, {"days": "Sat", "time": "10:45am"}, {"days": "Sun", "time": "Closed"}], "id": "6291400011", "name": "USPS COLLECTION BOX - BLUE BOX", "address": {"city": "CAIRO", "state": "IL", "street": "300 16TH ST", "postcode": "62914"}}},
{"geometry": {"type": "Point", "coordinates": [-89.1786668515, 37.0083533942]}, "type": "Feature", "properties": {"collection_times": [{"days": "Mon-Fri", "time": "3:45pm"}, {"days": "Sat", "time": "10:45am"}, {"days": "Sun", "time": "Closed"}], "id": "6291400012", "name": "USPS COLLECTION BOX - BLUE BOX", "address": {"city": "CAIRO", "state": "IL", "street": "300 16TH ST", "postcode": "62914"}}},
{"geometry": {"type": "Point", "coordinates": [-89.1786668515, 37.0083533942]}, "type": "Feature", "properties": {"collection_times": [{"days": "Mon-Fri", "time": "3:45pm"}, {"days": "Sat", "time": "10:45am"}, {"days": "Sun", "time": "Closed"}], "id": "6291400013", "name": "USPS COLLECTION BOX - PO LOBBY", "address": {"city": "CAIRO", "state": "IL", "street": "1500 WASHINGTON AVE", "postcode": "62914"}}},
{"geometry": {"type": "Point", "coordinates": [-89.1786668515, 37.0083533942]}, "type": "Feature", "properties": {"collection_times": [{"days": "Mon-Fri", "time": "3:45pm"}, {"days": "Sat", "time": "10:45am"}, {"days": "Sun", "time": "Closed"}], "id": "6291400015", "name": "USPS COLLECTION BOX - PO LOBBY", "address": {"city": "CAIRO", "state": "IL", "street": "1500 WASHINGTON AVE", "postcode": "62914"}}},
{"geometry": {"type": "Point", "coordinates": [-89.5499592163, 37.9287856273]}, "type": "Feature", "properties": {"collection_times": [{"days": "Mon-Fri", "time": "11:15am"}, {"days": "Sat", "time": "9:30am"}, {"days": "Sun", "time": "Closed"}], "id": "6291600001", "name": "USPS COLLECTION BOX - BLUE BOX", "address": {"city": "CAMPBELL HILL", "state": "IL", "street": "106 W FRONT ST", "postcode": "62916"}}},
{"geometry": {"type": "Point", "coordinates": [-89.5499592163, 37.9287856273]}, "type": "Feature", "properties": {"collection_times": [{"days": "Mon-Fri", "time": "11:15am"}, {"days": "Sat", "time": "9:15am"}, {"days": "Sun", "time": "Closed"}], "id": "6291600002", "name": "USPS COLLECTION BOX - PO LOBBY", "address": {"city": "CAMPBELL HILL", "state": "IL", "street": "106 W FRONT ST", "postcode": "62916"}}},
{"geometry": {"type": "Point", "coordinates": [-89.5499592163, 37.9287856273]}, "type": "Feature", "properties": {"collection_times": [{"days": "Mon-Fri", "time": "11:15am"}, {"days": "Sat", "time": "9:15am"}, {"days": "Sun", "time": "Closed"}], "id": "6291600003", "name": "USPS COLLECTION BOX - PO LOBBY", "address": {"city": "CAMPBELL HILL", "state": "IL", "street": "106 W FRONT ST", "postcode": "62916"}}},
{"geometry": {"type": "Point", "coordinates": [-88.6345682251, 37.6843231558]}, "type": "Feature", "properties": {"collection_times": [{"days": "Mon-Fri", "time": "1:05pm"}, {"days": "Sat", "time": "11:00am"}, {"days": "Sun", "time": "Closed"}], "id": "6291700001", "name": "USPS COLLECTION BOX - BLUE BOX", "address": {"city": "CARRIER MILLS", "state": "IL", "street": "107 W OAK ST", "postcode": "62917"}}},
{"geometry": {"type": "Point", "coordinates": [-88.6345682251, 37.6843231558]}, "type": "Feature", "properties": {"collection_times": [{"days": "Mon-Fri", "time": "1:05pm"}, {"days": "Sat", "time": "11:00am"}, {"days": "Sun", "time": "Closed"}], "id": "6291700002", "name": "USPS COLLECTION BOX - PO LOBBY", "address": {"city": "CARRIER MILLS", "state": "IL", "street": "107 W OAK ST", "postcode": "62917"}}},
{"geometry": {"type": "Point", "coordinates": [-89.0771681155, 37.7601064904]}, "type": "Feature", "properties": {"collection_times": [{"days": "Mon-Sat", "time": "2:50pm"}, {"days": "Sun", "time": "Closed"}], "id": "6291800001", "name": "USPS COLLECTION BOX - BLUE BOX", "address": {"city": "CARTERVILLE", "state": "IL", "street": "101 E GRAND AVE", "postcode": "62918"}}},
{"geometry": {"type": "Point", "coordinates": [-89.0771681155, 37.7601064904]}, "type": "Feature", "properties": {"collection_times": [{"days": "Mon-Sat", "time": "2:50pm"}, {"days": "Sun", "time": "Closed"}], "id": "6291800012", "name": "USPS COLLECTION BOX - BLUE BOX", "address": {"city": "CARTERVILLE", "state": "IL", "street": "101 E GRAND AVE", "postcode": "62918"}}},
{"geometry": {"type": "Point", "coordinates": [-89.0771681155, 37.7601064904]}, "type": "Feature", "properties": {"collection_times": [{"days": "Mon-Sat", "time": "2:50pm"}, {"days": "Sun", "time": "Closed"}], "id": "6291800014", "name": "USPS COLLECTION BOX - PO LOBBY", "address": {"city": "CARTERVILLE", "state": "IL", "street": "101 E GRAND AVE", "postcode": "62918"}}},
{"geometry": {"type": "Point", "coordinates": [-88.1437666549, 37.5222963367]}, "type": "Feature", "properties": {"collection_times": [{"days": "Mon-Fri", "time": "12:35pm"}, {"days": "Sat", "time": "10:00am"}, {"days": "Sun", "time": "Closed"}], "id": "6291900001", "name": "USPS COLLECTION BOX - BLUE BOX", "address": {"city": "CAVE IN ROCK", "state": "IL", "street": "153 E MAIN ST", "postcode": "62919"}}},
{"geometry": {"type": "Point", "coordinates": [-88.1437666549, 37.5222963367]}, "type": "Feature", "properties": {"collection_times": [{"days": "Mon-Fri", "time": "12:15pm"}, {"days": "Sat", "time": "10:00am"}, {"days": "Sun", "time": "Closed"}], "id": "6291900002", "name": "USPS COLLECTION BOX - PO LOBBY", "address": {"city": "CAVE IN ROCK", "state": "IL", "street": "153 E MAIN ST", "postcode": "62919"}}},
{"geometry": {"type": "Point", "coordinates": [-89.2545247936, 37.5314514411]}, "type": "Feature", "properties": {"collection_times": [{"days": "Mon-Fri", "time": "2:20pm"}, {"days": "Sat", "time": "9:45am"}, {"days": "Sun", "time": "Closed"}], "id": "6292000002", "name": "USPS COLLECTION BOX - BLUE BOX", "address": {"city": "COBDEN", "state": "IL", "street": "113 S APPLEKNOCKER ST", "postcode": "62920"}}},
{"geometry": {"type": "Point", "coordinates": [-89.2545247936, 37.5314514411]}, "type": "Feature", "properties": {"collection_times": [{"days": "Mon-Fri", "time": "2:20pm"}, {"days": "Sat", "time": "9:45am"}, {"days": "Sun", "time": "Closed"}], "id": "6292000004", "name": "USPS COLLECTION BOX - PO LOBBY", "address": {"city": "COBDEN", "state": "IL", "street": "113 S APPLEKNOCKER ST", "postcode": "62920"}}},
{"geometry": {"type": "Point", "coordinates": [-89.0776566968, 37.8037045229]}, "type": "Feature", "properties": {"collection_times": [{"days": "Mon-Fri", "time": "11:15am"}, {"days": "Sat", "time": "9:00am"}, {"days": "Sun", "time": "Closed"}], "id": "6292100001", "name": "USPS COLLECTION BOX - BLUE BOX", "address": {"city": "COLP", "state": "IL", "street": "105 N MAYOR CALIPER DR", "postcode": "62921"}}},
{"geometry": {"type": "Point", "coordinates": [-89.0776566968, 37.8037045229]}, "type": "Feature", "properties": {"collection_times": [{"days": "Mon-Fri", "time": "11:15am"}, {"days": "Sat", "time": "9:00am"}, {"days": "Sun", "time": "Closed"}], "id": "6292100002", "name": "USPS COLLECTION BOX - PO LOBBY", "address": {"city": "COLP", "state": "IL", "street": "105 N MAYOR CALIPER DR", "postcode": "62921"}}},
{"geometry": {"type": "Point", "coordinates": [-88.8377111873, 37.6195179356]}, "type": "Feature", "properties": {"collection_times": [{"days": "Mon-Fri", "time": "2:00pm"}, {"days": "Sat", "time": "9:30am"}, {"days": "Sun", "time": "Closed"}], "id": "6292200001", "name": "USPS COLLECTION BOX - BLUE BOX", "address": {"city": "CREAL SPRINGS", "state": "IL", "street": "112 W BLUE AVE", "postcode": "62922"}}},
{"geometry": {"type": "Point", "coordinates": [-88.8377111873, 37.6195179356]}, "type": "Feature", "properties": {"collection_times": [{"days": "Mon-Fri", "time": "1:45pm"}, {"days": "Sat", "time": "9:15am"}, {"days": "Sun", "time": "Closed"}], "id": "6292200003", "name": "USPS COLLECTION BOX - PO LOBBY", "address": {"city": "CREAL SPRINGS", "state": "IL", "street": "112 W BLUE AVE", "postcode": "62922"}}},
{"geometry": {"type": "Point", "coordinates": [-89.0141325532, 37.3695786673]}, "type": "Feature", "properties": {"collection_times": [{"days": "Mon-Fri", "time": "11:15am"}, {"days": "Sat", "time": "9:15am"}, {"days": "Sun", "time": "Closed"}], "id": "6292300001", "name": "USPS COLLECTION BOX - BLUE BOX", "address": {"city": "CYPRESS", "state": "IL", "street": "7824 MAIN ST", "postcode": "62923"}}},
{"geometry": {"type": "Point", "coordinates": [-89.0141325532, 37.3695786673]}, "type": "Feature", "properties": {"collection_times": [{"days": "Mon-Fri", "time": "11:15am"}, {"days": "Sat", "time": "9:15am"}, {"days": "Sun", "time": "Closed"}], "id": "6292300002", "name": "USPS COLLECTION BOX - PO LOBBY", "address": {"city": "CYPRESS", "state": "IL", "street": "7824 MAIN ST", "postcode": "62923"}}},
{"geometry": {"type": "Point", "coordinates": [-89.2277732501, 37.816426357]}, "type": "Feature", "properties": {"collection_times": [{"days": "Mon-Fri", "time": "2:50pm"}, {"days": "Sat", "time": "9:15am"}, {"days": "Sun", "time": "Closed"}], "id": "6292400001", "name": "USPS COLLECTION BOX - BLUE BOX", "address": {"city": "DESOTO", "state": "IL", "street": "104 N CHESTNUT ST", "postcode": "62924"}}},
{"geometry": {"type": "Point", "coordinates": [-89.2277732501, 37.816426357]}, "type": "Feature", "properties": {"collection_times": [{"days": "Mon-Fri", "time": "2:45pm"}, {"days": "Sat", "time": "9:15am"}, {"days": "Sun", "time": "Closed"}], "id": "6292400002", "name": "USPS COLLECTION BOX - PO LOBBY", "address": {"city": "DESOTO", "state": "IL", "street": "104 N CHESTNUT ST", "postcode": "62924"}}},
{"geometry": {"type": "Point", "coordinates": [-89.2277732501, 37.816426357]}, "type": "Feature", "properties": {"collection_times": [{"days": "Mon-Fri", "time": "2:45pm"}, {"days": "Sat", "time": "9:15am"}, {"days": "Sun", "time": "Closed"}], "id": "6292400003", "name": "USPS COLLECTION BOX - PO LOBBY", "address": {"city": "DESOTO", "state": "IL", "street": "104 N CHESTNUT ST", "postcode": "62924"}}},
{"geometry": {"type": "Point", "coordinates": [-89.1451885841, 37.3722302248]}, "type": "Feature", "properties": {"collection_times": [{"days": "Mon-Fri", "time": "1:40pm"}, {"days": "Sat", "time": "8:45am"}, {"days": "Sun", "time": "Closed"}], "id": "6292600001", "name": "USPS COLLECTION BOX - BLUE BOX", "address": {"city": "DONGOLA", "state": "IL", "street": "106 E CROSS ST", "postcode": "62926"}}},
{"geometry": {"type": "Point", "coordinates": [-89.1652813647, 37.3612273995]}, "type": "Feature", "properties": {"collection_times": [{"days": "Mon-Fri", "time": "1:40pm"}, {"days": "Sat", "time": "8:45am"}, {"days": "Sun", "time": "Closed"}], "id": "6292600002", "name": "USPS COLLECTION BOX - PO LOBBY", "address": {"city": "DONGOLA", "state": "IL", "street": "106 E CROSS ST", "postcode": "62926"}}},
{"geometry": {"type": "Point", "coordinates": [-89.2401474664, 37.9400357843]}, "type": "Feature", "properties": {"collection_times": [{"days": "Mon-Fri", "time": "2:30pm"}, {"days": "Sat", "time": "9:45am"}, {"days": "Sun", "time": "Closed"}], "id": "6292700001", "name": "USPS COLLECTION BOX - BLUE BOX", "address": {"city": "DOWELL", "state": "IL", "street": "501 UNION AVE", "postcode": "62927"}}},
{"geometry": {"type": "Point", "coordinates": [-89.2401474664, 37.9400357843]}, "type": "Feature", "properties": {"collection_times": [{"days": "Mon-Fri", "time": "2:30pm"}, {"days": "Sat", "time": "9:30am"}, {"days": "Sun", "time": "Closed"}], "id": "6292700002", "name": "USPS COLLECTION BOX - PO LOBBY", "address": {"city": "DOWELL", "state": "IL", "street": "501 UNION AVE", "postcode": "62927"}}},
{"geometry": {"type": "Point", "coordinates": [-88.595562081, 37.5361191541]}, "type": "Feature", "properties": {"collection_times": [{"days": "Mon-Fri", "time": "12:15pm"}, {"days": "Sat", "time": "11:00am"}, {"days": "Sun", "time": "Closed"}], "id": "6292800001", "name": "USPS COLLECTION BOX - BLUE BOX", "address": {"city": "EDDYVILLE", "state": "IL", "street": "110 MAIN ST", "postcode": "62928"}}},
{"geometry": {"type": "Point", "coordinates": [-88.595562081, 37.5361191541]}, "type": "Feature", "properties": {"collection_times": [{"days": "Mon-Fri", "time": "12:15pm"}, {"days": "Sat", "time": "11:00am"}, {"days": "Sun", "time": "Closed"}], "id": "6292800002", "name": "USPS COLLECTION BOX - PO LOBBY", "address": {"city": "EDDYVILLE", "state": "IL", "street": "110 MAIN ST", "postcode": "62928"}}},
{"geometry": {"type": "Point", "coordinates": [-88.4368951497, 37.8119189388]}, "type": "Feature", "properties": {"collection_times": [{"days": "Mon-Sat", "time": "1:25pm"}, {"days": "Sun", "time": "Closed"}], "id": "6293000001", "name": "USPS COLLECTION BOX - BLUE BOX", "address": {"city": "ELDORADO", "state": "IL", "street": "900 4TH ST", "postcode": "62930"}}},
{"geometry": {"type": "Point", "coordinates": [-88.4368951497, 37.8119189388]}, "type": "Feature", "properties": {"collection_times": [{"days": "Mon-Sat", "time": "1:25pm"}, {"days": "Sun", "time": "Closed"}], "id": "6293000002", "name": "USPS COLLECTION BOX - BLUE BOX", "address": {"city": "ELDORADO", "state": "IL", "street": "900 4TH ST", "postcode": "62930"}}},
{"geometry": {"type": "Point", "coordinates": [-88.4368951497, 37.8119189388]}, "type": "Feature", "properties": {"collection_times": [{"days": "Mon-Sat", "time": "1:25pm"}, {"days": "Sun", "time": "Closed"}], "id": "6293000003", "name": "USPS COLLECTION BOX - BLUE BOX", "address": {"city": "ELDORADO", "state": "IL", "street": "900 4TH ST", "postcode": "62930"}}},
{"geometry": {"type": "Point", "coordinates": [-88.4368951497, 37.8119189388]}, "type": "Feature", "properties": {"collection_times": [{"days": "Mon-Sat", "time": "1:25pm"}, {"days": "Sun", "time": "Closed"}], "id": "6293000013", "name": "USPS COLLECTION BOX - PO LOBBY", "address": {"city": "ELDORADO", "state": "IL", "street": "900 4TH ST", "postcode": "62930"}}},
{"geometry": {"type": "Point", "coordinates": [-88.4368951497, 37.8119189388]}, "type": "Feature", "properties": {"collection_times": [{"days": "Mon-Sat", "time": "1:25pm"}, {"days": "Sun", "time": "Closed"}], "id": "6293000015", "name": "USPS COLLECTION BOX - PO LOBBY", "address": {"city": "ELDORADO", "state": "IL", "street": "900 4TH ST", "postcode": "62930"}}},
{"geometry": {"type": "Point", "coordinates": [-88.2701710558, 37.4847222563]}, "type": "Feature", "properties": {"collection_times": [{"days": "Mon-Fri", "time": "12:55pm"}, {"days": "Sat", "time": "9:45am"}, {"days": "Sun", "time": "Closed"}], "id": "6293100001", "name": "USPS COLLECTION BOX - BLUE BOX", "address": {"city": "ELIZABETHTOWN", "state": "IL", "street": "202 MAIN ST", "postcode": "62931"}}},
{"geometry": {"type": "Point", "coordinates": [-88.2701710558, 37.4847222563]}, "type": "Feature", "properties": {"collection_times": [{"days": "Mon-Fri", "time": "12:55pm"}, {"days": "Sat", "time": "9:45am"}, {"days": "Sun", "time": "Closed"}], "id": "6293100002", "name": "USPS COLLECTION BOX - PO LOBBY", "address": {"city": "ELIZABETHTOWN", "state": "IL", "street": "202 MAIN ST", "postcode": "62931"}}},
{"geometry": {"type": "Point", "coordinates": [-89.235776887, 37.9099910614]}, "type": "Feature", "properties": {"collection_times": [{"days": "Mon-Fri", "time": "2:40pm"}, {"days": "Sat", "time": "7:15am"}, {"days": "Sun", "time": "Closed"}], "id": "6293200001", "name": "USPS COLLECTION BOX - BLUE BOX", "address": {"city": "ELKVILLE", "state": "IL", "street": "108 S 4TH ST", "postcode": "62932"}}},
{"geometry": {"type": "Point", "coordinates": [-89.235776887, 37.9099910614]}, "type": "Feature", "properties": {"collection_times": [{"days": "Mon-Fri", "time": "2:15pm"}, {"days": "Sat", "time": "10:45am"}, {"days": "Sun", "time": "Closed"}], "id": "6293200002", "name": "USPS COLLECTION BOX - PO LOBBY", "address": {"city": "ELKVILLE", "state": "IL", "street": "108 S 4TH ST", "postcode": "62932"}}},
{"geometry": {"type": "Point", "coordinates": [-89.0264404781, 37.7749836368]}, "type": "Feature", "properties": {"collection_times": [{"days": "Mon-Fri", "time": "2:50pm"}, {"days": "Sat", "time": "9:45am"}, {"days": "Sun", "time": "Closed"}], "id": "6293300001", "name": "USPS COLLECTION BOX - BLUE BOX", "address": {"city": "ENERGY", "state": "IL", "street": "208 N PERSHING ST", "postcode": "62933"}}},
{"geometry": {"type": "Point", "coordinates": [-89.0264404781, 37.7749836368]}, "type": "Feature", "properties": {"collection_times": [{"days": "Mon-Fri", "time": "2:50pm"}, {"days": "Sat", "time": "9:45am"}, {"days": "Sun", "time": "Closed"}], "id": "6293300002", "name": "USPS COLLECTION BOX - PO LOBBY", "address": {"city": "ENERGY", "state": "IL", "street": "208 N PERSHING ST", "postcode": "62933"}}},
{"geometry": {"type": "Point", "coordinates": [-88.3436128541, 37.7341183719]}, "type": "Feature", "properties": {"collection_times": [{"days": "Mon-Fri", "time": "1:40pm"}, {"days": "Sat", "time": "9:45am"}, {"days": "Sun", "time": "Closed"}], "id": "6293400001", "name": "USPS COLLECTION BOX - BLUE BOX", "address": {"city": "EQUALITY", "state": "IL", "street": "205 W LANE ST", "postcode": "62934"}}},
{"geometry": {"type": "Point", "coordinates": [-88.3436128541, 37.7341183719]}, "type": "Feature", "properties": {"collection_times": [{"days": "Mon-Fri", "time": "1:40pm"}, {"days": "Sat", "time": "9:45am"}, {"days": "Sun", "time": "Closed"}], "id": "6293400002", "name": "USPS COLLECTION BOX - PO LOBBY", "address": {"city": "EQUALITY", "state": "IL", "street": "205 W LANE ST", "postcode": "62934"}}},
{"geometry": {"type": "Point", "coordinates": [-88.6121106639, 37.8407626283]}, "type": "Feature", "properties": {"collection_times": [{"days": "Mon-Fri", "time": "12:55pm"}, {"days": "Sat", "time": "10:30am"}, {"days": "Sun", "time": "Closed"}], "id": "6293500001", "name": "USPS COLLECTION BOX - BLUE BOX", "address": {"city": "GALATIA", "state": "IL", "street": "106 W MAIN ST", "postcode": "62935"}}},
{"geometry": {"type": "Point", "coordinates": [-88.6121106639, 37.8407626283]}, "type": "Feature", "properties": {"collection_times": [{"days": "Mon-Fri", "time": "12:55pm"}, {"days": "Sat", "time": "10:30am"}, {"days": "Sun", "time": "Closed"}], "id": "6293500002", "name": "USPS COLLECTION BOX - PO LOBBY", "address": {"city": "GALATIA", "state": "IL", "street": "106 W MAIN ST", "postcode": "62935"}}},
{"geometry": {"type": "Point", "coordinates": [-88.4884192778, 37.3560624593]}, "type": "Feature", "properties": {"collection_times": [{"days": "Mon-Fri", "time": "1:05pm"}, {"days": "Sat", "time": "10:45am"}, {"days": "Sun", "time": "Closed"}], "id": "6293800001", "name": "USPS COLLECTION BOX - BLUE BOX", "address": {"city": "GOLCONDA", "state": "IL", "street": "202 W MAIN ST", "postcode": "62938"}}},
{"geometry": {"type": "Point", "coordinates": [-88.4884192778, 37.3560624593]}, "type": "Feature", "properties": {"collection_times": [{"days": "Mon-Fri", "time": "1:05pm"}, {"days": "Sat", "time": "10:45am"}, {"days": "Sun", "time": "Closed"}], "id": "6293800002", "name": "USPS COLLECTION BOX - PO LOBBY", "address": {"city": "GOLCONDA", "state": "IL", "street": "202 W MAIN ST", "postcode": "62938"}}},
{"geometry": {"type": "Point", "coordinates": [-88.4884192778, 37.3560624593]}, "type": "Feature", "properties": {"collection_times": [{"days": "Mon-Fri", "time": "1:05pm"}, {"days": "Sat", "time": "10:45am"}, {"days": "Sun", "time": "Closed"}], "id": "6293800003", "name": "USPS COLLECTION BOX - PO LOBBY", "address": {"city": "GOLCONDA", "state": "IL", "street": "202 W MAIN ST", "postcode": "62938"}}},
{"geometry": {"type": "Point", "coordinates": [-88.9721526294, 37.5554597147]}, "type": "Feature", "properties": {"collection_times": [{"days": "Mon-Fri", "time": "2:30pm"}, {"days": "Sat", "time": "10:00am"}, {"days": "Sun", "time": "Closed"}], "id": "6293900001", "name": "USPS COLLECTION BOX - BLUE BOX", "address": {"city": "GOREVILLE", "state": "IL", "street": "117 S BROADWAY", "postcode": "62939"}}},
{"geometry": {"type": "Point", "coordinates": [-88.9721526294, 37.5554597147]}, "type": "Feature", "properties": {"collection_times": [{"days": "Mon-Fri", "time": "2:30pm"}, {"days": "Sat", "time": "10:00am"}, {"days": "Sun", "time": "Closed"}], "id": "6293900002", "name": "USPS COLLECTION BOX - PO LOBBY", "address": {"city": "GOREVILLE", "state": "IL", "street": "117 S BROADWAY", "postcode": "62939"}}},
{"geometry": {"type": "Point", "coordinates": [-89.4883881462, 37.7159078876]}, "type": "Feature", "properties": {"collection_times": [{"days": "Mon-Fri", "time": "11:30am"}, {"days": "Sat", "time": "10:15am"}, {"days": "Sun", "time": "Closed"}], "id": "6294000001", "name": "USPS COLLECTION BOX - BLUE BOX", "address": {"city": "GORHAM", "state": "IL", "street": "407 MAIN ST", "postcode": "62940"}}},
{"geometry": {"type": "Point", "coordinates": [-89.4883881462, 37.7159078876]}, "type": "Feature", "properties": {"collection_times": [{"days": "Mon-Fri", "time": "11:30am"}, {"days": "Sat", "time": "10:15am"}, {"days": "Sun", "time": "Closed"}], "id": "6294000002", "name": "USPS COLLECTION BOX - PO LOBBY", "address": {"city": "GORHAM", "state": "IL", "street": "407 MAIN ST", "postcode": "62940"}}},
{"geometry": {"type": "Point", "coordinates": [-89.0224646695, 37.2524762658]}, "type": "Feature", "properties": {"collection_times": [{"days": "Mon-Fri", "time": "12:45pm"}, {"days": "Sat", "time": "10:00am"}, {"days": "Sun", "time": "Closed"}], "id": "6294100001", "name": "USPS COLLECTION BOX - BLUE BOX", "address": {"city": "GRAND CHAIN", "state": "IL", "street": "200 S MAIN ST", "postcode": "62941"}}},
{"geometry": {"type": "Point", "coordinates": [-89.0224646695, 37.2524762658]}, "type": "Feature", "properties": {"collection_times": [{"days": "Mon-Fri", "time": "12:45pm"}, {"days": "Sat", "time": "9:45am"}, {"days": "Sun", "time": "Closed"}], "id": "6294100002", "name": "USPS COLLECTION BOX - PO LOBBY", "address": {"city": "GRAND CHAIN", "state": "IL", "street": "200 S MAIN ST", "postcode": "62941"}}},
{"geometry": {"type": "Point", "coordinates": [-89.5033401711, 37.6283807382]}, "type": "Feature", "properties": {"collection_times": [{"days": "Mon-Fri", "time": "12:45pm"}, {"days": "Sat", "time": "9:30am"}, {"days": "Sun", "time": "Closed"}], "id": "6294200001", "name": "USPS COLLECTION BOX - BLUE BOX", "address": {"city": "GRAND TOWER", "state": "IL", "street": "522 FRONT ST", "postcode": "62942"}}},
{"geometry": {"type": "Point", "coordinates": [-89.5033401711, 37.6283807382]}, "type": "Feature", "properties": {"collection_times": [{"days": "Mon-Fri", "time": "12:45pm"}, {"days": "Sat", "time": "9:15am"}, {"days": "Sun", "time": "Closed"}], "id": "6294200002", "name": "USPS COLLECTION BOX - PO LOBBY", "address": {"city": "GRAND TOWER", "state": "IL", "street": "522 FRONT ST", "postcode": "62942"}}},
{"geometry": {"type": "Point", "coordinates": [-88.7705876573, 37.3927300986]}, "type": "Feature", "properties": {"collection_times": [{"days": "Mon-Fri", "time": "12:15pm"}, {"days": "Sat", "time": "9:00am"}, {"days": "Sun", "time": "Closed"}], "id": "6294300001", "name": "USPS COLLECTION BOX - BLUE BOX", "address": {"city": "GRANTSBURG", "state": "IL", "street": "8655 STATE ROUTE 146 E", "postcode": "62943"}}},
{"geometry": {"type": "Point", "coordinates": [-88.7705876573, 37.3927300986]}, "type": "Feature", "properties": {"collection_times": [{"days": "Mon-Fri", "time": "12:15pm"}, {"days": "Sat", "time": "9:00am"}, {"days": "Sun", "time": "Closed"}], "id": "6294300002", "name": "USPS COLLECTION BOX - PO LOBBY", "address": {"city": "GRANTSBURG", "state": "IL", "street": "8655 STATE ROUTE 146 E", "postcode": "62943"}}},
{"geometry": {"type": "Point", "coordinates": [-88.5254287355, 37.7441626438]}, "type": "Feature", "properties": {"collection_times": [{"days": "Mon-Sat", "time": "9:00am"}, {"days": "Sun", "time": "Closed"}], "id": "6294600013", "name": "USPS COLLECTION BOX - BLUE BOX", "address": {"city": "HARRISBURG", "state": "IL", "street": "701 N COMMERCIAL ST", "postcode": "62946"}}},
{"geometry": {"type": "Point", "coordinates": [-88.5333446654, 37.7350355128]}, "type": "Feature", "properties": {"collection_times": [{"days": "Mon-Sat", "time": "9:45am"}, {"days": "Sun", "time": "Closed"}], "id": "6294600017", "name": "USPS COLLECTION BOX - BLUE BOX", "address": {"city": "HARRISBURG", "state": "IL", "street": "303 S COMMERCIAL ST", "postcode": "62946"}}},
{"geometry": {"type": "Point", "coordinates": [-88.5285908642, 37.7449505076]}, "type": "Feature", "properties": {"collection_times": [{"days": "Mon-Sat", "time": "9:15am"}, {"days": "Sun", "time": "Closed"}], "id": "6294600021", "name": "USPS COLLECTION BOX - BLUE BOX", "address": {"city": "HARRISBURG", "state": "IL", "street": "801 SAHARA ST", "postcode": "62946"}}},
{"geometry": {"type": "Point", "coordinates": [-88.5266386913, 37.7433469815]}, "type": "Feature", "properties": {"collection_times": [{"days": "Mon-Sat", "time": "9:00am"}, {"days": "Sun", "time": "Closed"}], "id": "6294600022", "name": "USPS COLLECTION BOX - BLUE BOX", "address": {"city": "HARRISBURG", "state": "IL", "street": "601 N COMMERCIAL ST", "postcode": "62946"}}},
{"geometry": {"type": "Point", "coordinates": [-88.5419135235, 37.7371959176]}, "type": "Feature", "properties": {"collection_times": [{"days": "Mon-Sat", "time": "2:10pm"}, {"days": "Sun", "time": "Closed"}], "id": "6294600029", "name": "USPS COLLECTION BOX - BLUE BOX", "address": {"city": "HARRISBURG", "state": "IL", "street": "90 S JACKSON ST", "postcode": "62946"}}},
{"geometry": {"type": "Point", "coordinates": [-88.5420356004, 37.7369991254]}, "type": "Feature", "properties": {"collection_times": [{"days": "Mon-Sat", "time": "2:10pm"}, {"days": "Sun", "time": "Closed"}], "id": "6294600031", "name": "USPS COLLECTION BOX - PO LOBBY", "address": {"city": "HARRISBURG", "state": "IL", "street": "101 W CHURCH ST", "postcode": "62946"}}},
{"geometry": {"type": "Point", "coordinates": [-88.4576095394, 37.5208783933]}, "type": "Feature", "properties": {"collection_times": [{"days": "Mon-Fri", "time": "11:45am"}, {"days": "Sat", "time": "9:45am"}, {"days": "Sun", "time": "Closed"}], "id": "6294700001", "name": "USPS COLLECTION BOX - BLUE BOX", "address": {"city": "HEROD", "state": "IL", "street": "100 HIGHWAY 34 S", "postcode": "62947"}}},
{"geometry": {"type": "Point", "coordinates": [-88.4576095394, 37.5208783933]}, "type": "Feature", "properties": {"collection_times": [{"days": "Mon-Fri", "time": "11:45am"}, {"days": "Sat", "time": "9:45am"}, {"days": "Sun", "time": "Closed"}], "id": "6294700002", "name": "USPS COLLECTION BOX - PO LOBBY", "address": {"city": "HEROD", "state": "IL", "street": "100 HIGHWAY 34 S", "postcode": "62947"}}},
{"geometry": {"type": "Point", "coordinates": [-89.0277048014, 37.8023455933]}, "type": "Feature", "properties": {"collection_times": [{"days": "Mon-Sat", "time": "2:40pm"}, {"days": "Sun", "time": "Closed"}], "id": "6294800002", "name": "USPS COLLECTION BOX - BLUE BOX", "address": {"city": "HERRIN", "state": "IL", "street": "200 S PARK AVE", "postcode": "62948"}}},
{"geometry": {"type": "Point", "coordinates": [-89.0277048014, 37.8023455933]}, "type": "Feature", "properties": {"collection_times": [{"days": "Mon-Sat", "time": "2:40pm"}, {"days": "Sun", "time": "Closed"}], "id": "6294800020", "name": "USPS COLLECTION BOX - BLUE BOX", "address": {"city": "HERRIN", "state": "IL", "street": "200 S PARK AVE", "postcode": "62948"}}},
{"geometry": {"type": "Point", "coordinates": [-89.0277048014, 37.8023455933]}, "type": "Feature", "properties": {"collection_times": [{"days": "Mon-Sat", "time": "2:40pm"}, {"days": "Sun", "time": "Closed"}], "id": "6294800022", "name": "USPS COLLECTION BOX - PO LOBBY", "address": {"city": "HERRIN", "state": "IL", "street": "200 S PARK AVE", "postcode": "62948"}}},
{"geometry": {"type": "Point", "coordinates": [-89.0277048014, 37.8023455933]}, "type": "Feature", "properties": {"collection_times": [{"days": "Mon-Sat", "time": "2:40pm"}, {"days": "Sun", "time": "Closed"}], "id": "6294800026", "name": "USPS COLLECTION BOX - BLUE BOX", "address": {"city": "HERRIN", "state": "IL", "street": "200 S PARK AVE", "postcode": "62948"}}},
{"geometry": {"type": "Point", "coordinates": [-89.1439610039, 37.8302022029]}, "type": "Feature", "properties": {"collection_times": [{"days": "Mon-Fri", "time": "1:40pm"}, {"days": "Sat", "time": "10:15am"}, {"days": "Sun", "time": "Closed"}], "id": "6294900001", "name": "USPS COLLECTION BOX - BLUE BOX", "address": {"city": "HURST", "state": "IL", "street": "212 N BUSH AVE", "postcode": "62949"}}},
{"geometry": {"type": "Point", "coordinates": [-89.1439610039, 37.8302022029]}, "type": "Feature", "properties": {"collection_times": [{"days": "Mon-Fri", "time": "1:40pm"}, {"days": "Sat", "time": "10:00am"}, {"days": "Sun", "time": "Closed"}], "id": "6294900002", "name": "USPS COLLECTION BOX - PO LOBBY", "address": {"city": "HURST", "state": "IL", "street": "212 N BUSH AVE", "postcode": "62949"}}},
{"geometry": {"type": "Point", "coordinates": [-89.5350607696, 37.74500225]}, "type": "Feature", "properties": {"collection_times": [{"days": "Mon-Sat", "time": "9:45am"}, {"days": "Sun", "time": "Closed"}], "id": "6295000001", "name": "USPS COLLECTION BOX - BLUE BOX", "address": {"city": "JACOB", "state": "IL", "street": "3093 E JACOB RD", "postcode": "62950"}}},
{"geometry": {"type": "Point", "coordinates": [-89.5350607696, 37.74500225]}, "type": "Feature", "properties": {"collection_times": [{"days": "Mon-Sat", "time": "9:45am"}, {"days": "Sun", "time": "Closed"}], "id": "6295000002", "name": "USPS COLLECTION BOX - PO LOBBY", "address": {"city": "JACOB", "state": "IL", "street": "3093 E JACOB RD", "postcode": "62950"}}},
{"geometry": {"type": "Point", "coordinates": [-88.9293208263, 37.8166534029]}, "type": "Feature", "properties": {"collection_times": [{"days": "Mon-Sat", "time": "2:25pm"}, {"days": "Sun", "time": "Closed"}], "id": "6295100001", "name": "USPS COLLECTION BOX - BLUE BOX", "address": {"city": "JOHNSTON CITY", "state": "IL", "street": "205 W BROADWAY BLVD", "postcode": "62951"}}},
{"geometry": {"type": "Point", "coordinates": [-88.9290962162, 37.8167364365]}, "type": "Feature", "properties": {"collection_times": [{"days": "Mon-Sat", "time": "2:25pm"}, {"days": "Sun", "time": "Closed"}], "id": "6295100003", "name": "USPS COLLECTION BOX - BLUE BOX", "address": {"city": "JOHNSTON CITY", "state": "IL", "street": "210 W BROADWAY BLVD", "postcode": "62951"}}},
{"geometry": {"type": "Point", "coordinates": [-88.9328144023, 37.8185704055]}, "type": "Feature", "properties": {"collection_times": [{"days": "Mon-Sat", "time": "10:00am"}, {"days": "Sun", "time": "Closed"}], "id": "6295100008", "name": "USPS COLLECTION BOX - BLUE BOX", "address": {"city": "JOHNSTON CITY", "state": "IL", "street": "808 GRAND AVE", "postcode": "62951"}}},
{"geometry": {"type": "Point", "coordinates": [-88.929032129, 37.8166272288]}, "type": "Feature", "properties": {"collection_times": [{"days": "Mon-Sat", "time": "2:25pm"}, {"days": "Sun", "time": "Closed"}], "id": "6295100013", "name": "USPS COLLECTION BOX - PO LOBBY", "address": {"city": "JOHNSTON CITY", "state": "IL", "street": "205 W BROADWAY BLVD", "postcode": "62951"}}},
{"geometry": {"type": "Point", "coordinates": [-89.2686052114, 37.4513700955]}, "type": "Feature", "properties": {"collection_times": [{"days": "Mon-Fri", "time": "2:05pm"}, {"days": "Sat", "time": "10:15am"}, {"days": "Sun", "time": "Closed"}], "id": "6295200001", "name": "USPS COLLECTION BOX - BLUE BOX", "address": {"city": "JONESBORO", "state": "IL", "street": "103 W BROAD ST", "postcode": "62952"}}},
{"geometry": {"type": "Point", "coordinates": [-89.2686052114, 37.4513700955]}, "type": "Feature", "properties": {"collection_times": [{"days": "Mon-Fri", "time": "2:05pm"}, {"days": "Sat", "time": "10:30am"}, {"days": "Sun", "time": "Closed"}], "id": "6295200002", "name": "USPS COLLECTION BOX - PO LOBBY", "address": {"city": "JONESBORO", "state": "IL", "street": "103 W BROAD ST", "postcode": "62952"}}},
{"geometry": {"type": "Point", "coordinates": [-88.7938198424, 37.3110639666]}, "type": "Feature", "properties": {"collection_times": [{"days": "Mon-Fri", "time": "12:25pm"}, {"days": "Sat", "time": "10:00am"}, {"days": "Sun", "time": "Closed"}], "id": "6295300001", "name": "USPS COLLECTION BOX - BLUE BOX", "address": {"city": "JOPPA", "state": "IL", "street": "205 JOPPA RD", "postcode": "62953"}}},
{"geometry": {"type": "Point", "coordinates": [-88.7938198424, 37.3110639666]}, "type": "Feature", "properties": {"collection_times": [{"days": "Mon-Fri", "time": "12:25pm"}, {"days": "Sat", "time": "12:15pm"}, {"days": "Sun", "time": "Closed"}], "id": "6295300002", "name": "USPS COLLECTION BOX - PO LOBBY", "address": {"city": "JOPPA", "state": "IL", "street": "205 JOPPA RD", "postcode": "62953"}}},
{"geometry": {"type": "Point", "coordinates": [-88.2575387205, 37.6948425382]}, "type": "Feature", "properties": {"collection_times": [{"days": "Mon-Fri", "time": "1:30pm"}, {"days": "Sat", "time": "9:30am"}, {"days": "Sun", "time": "Closed"}], "id": "6295400001", "name": "USPS COLLECTION BOX - BLUE BOX", "address": {"city": "JUNCTION", "state": "IL", "street": "348 FRONT ST", "postcode": "62954"}}},
{"geometry": {"type": "Point", "coordinates": [-88.2575387205, 37.6948425382]}, "type": "Feature", "properties": {"collection_times": [{"days": "Mon-Fri", "time": "11:15am"}, {"days": "Sat", "time": "9:30am"}, {"days": "Sun", "time": "Closed"}], "id": "6295400002", "name": "USPS COLLECTION BOX - PO LOBBY", "address": {"city": "JUNCTION", "state": "IL", "street": "348 FRONT ST", "postcode": "62954"}}},
{"geometry": {"type": "Point", "coordinates": [-88.9324628855, 37.2818071616]}, "type": "Feature", "properties": {"collection_times": [{"days": "Mon-Fri", "time": "11:45am"}, {"days": "Sat", "time": "9:30am"}, {"days": "Sun", "time": "Closed"}], "id": "6295600001", "name": "USPS COLLECTION BOX - BLUE BOX", "address": {"city": "KARNAK", "state": "IL", "street": "210 N 1ST ST", "postcode": "62956"}}},
{"geometry": {"type": "Point", "coordinates": [-88.9324628855, 37.2818071616]}, "type": "Feature", "properties": {"collection_times": [{"days": "Mon-Fri", "time": "11:45am"}, {"days": "Sat", "time": "9:30am"}, {"days": "Sun", "time": "Closed"}], "id": "6295600002", "name": "USPS COLLECTION BOX - PO LOBBY", "address": {"city": "KARNAK", "state": "IL", "street": "210 N 1ST ST", "postcode": "62956"}}},
{"geometry": {"type": "Point", "coordinates": [-89.4317373518, 37.3206332845]}, "type": "Feature", "properties": {"collection_times": [{"days": "Mon-Fri", "time": "11:45am"}, {"days": "Sat", "time": "10:00am"}, {"days": "Sun", "time": "Closed"}], "id": "6295700001", "name": "USPS COLLECTION BOX - BLUE BOX", "address": {"city": "MCCLURE", "state": "IL", "street": "37914 GRAPEVINE TRL", "postcode": "62957"}}},
{"geometry": {"type": "Point", "coordinates": [-89.4317373518, 37.3206332845]}, "type": "Feature", "properties": {"collection_times": [{"days": "Mon-Fri", "time": "11:45am"}, {"days": "Sat", "time": "10:00am"}, {"days": "Sun", "time": "Closed"}], "id": "6295700002", "name": "USPS COLLECTION BOX - PO LOBBY", "address": {"city": "MCCLURE", "state": "IL", "street": "37914 GRAPEVINE TRL", "postcode": "62957"}}},
{"geometry": {"type": "Point", "coordinates": [-89.4317373518, 37.3206332845]}, "type": "Feature", "properties": {"collection_times": [{"days": "Mon-Fri", "time": "11:45am"}, {"days": "Sat", "time": "10:00am"}, {"days": "Sun", "time": "Closed"}], "id": "6295700003", "name": "USPS COLLECTION BOX - PO LOBBY", "address": {"city": "MCCLURE", "state": "IL", "street": "37914 GRAPEVINE TRL", "postcode": "62957"}}},
{"geometry": {"type": "Point", "coordinates": [-89.2106406749, 37.617650245]}, "type": "Feature", "properties": {"collection_times": [{"days": "Mon-Fri", "time": "2:35pm"}, {"days": "Sat", "time": "9:30am"}, {"days": "Sun", "time": "Closed"}], "id": "6295800001", "name": "USPS COLLECTION BOX - BLUE BOX", "address": {"city": "MAKANDA", "state": "IL", "street": "709 MAKANDA RD", "postcode": "62958"}}},
{"geometry": {"type": "Point", "coordinates": [-89.2106406749, 37.617650245]}, "type": "Feature", "properties": {"collection_times": [{"days": "Mon-Fri", "time": "2:35pm"}, {"days": "Sat", "time": "9:30am"}, {"days": "Sun", "time": "Closed"}], "id": "6295800002", "name": "USPS COLLECTION BOX - PO LOBBY", "address": {"city": "MAKANDA", "state": "IL", "street": "709 MAKANDA RD", "postcode": "62958"}}},
{"geometry": {"type": "Point", "coordinates": [-88.9259908443, 37.7307642365]}, "type": "Feature", "properties": {"collection_times": [{"days": "Mon-Sat", "time": "2:40pm"}, {"days": "Sun", "time": "Closed"}], "id": "6295900002", "name": "USPS COLLECTION BOX - PO LOBBY", "address": {"city": "MARION", "state": "IL", "street": "205 E MAIN ST", "postcode": "62959"}}},
{"geometry": {"type": "Point", "coordinates": [-88.9259908443, 37.7307642365]}, "type": "Feature", "properties": {"collection_times": [{"days": "Mon-Sat", "time": "2:40pm"}, {"days": "Sun", "time": "Closed"}], "id": "6295900004", "name": "USPS COLLECTION BOX - PO LOBBY", "address": {"city": "MARION", "state": "IL", "street": "205 E MAIN ST", "postcode": "62959"}}},
{"geometry": {"type": "Point", "coordinates": [-88.939993131, 37.740481188]}, "type": "Feature", "properties": {"collection_times": [{"days": "Mon-Sat", "time": "2:40pm"}, {"days": "Sun", "time": "Closed"}], "id": "6295900011", "name": "USPS COLLECTION BOX - BLUE BOX", "address": {"city": "MARION", "state": "IL", "street": "1301 ENTERPRISE WAY STE 32", "postcode": "62959"}}},
{"geometry": {"type": "Point", "coordinates": [-88.9283394366, 37.7323280366]}, "type": "Feature", "properties": {"collection_times": [{"days": "Mon-Sat", "time": "2:40pm"}, {"days": "Sun", "time": "Closed"}], "id": "6295900015", "name": "USPS COLLECTION BOX - BLUE BOX", "address": {"city": "MARION", "state": "IL", "street": "200 W JEFFERSON ST", "postcode": "62959"}}},
{"geometry": {"type": "Point", "coordinates": [-88.9273935026, 37.7310267674]}, "type": "Feature", "properties": {"collection_times": [{"days": "Mon-Sat", "time": "2:40pm"}, {"days": "Sun", "time": "Closed"}], "id": "6295900016", "name": "USPS COLLECTION BOX - BLUE BOX", "address": {"city": "MARION", "state": "IL", "street": "300 TOWER SQUARE PLZ", "postcode": "62959"}}},
{"geometry": {"type": "Point", "coordinates": [-88.9225318054, 37.7406397011]}, "type": "Feature", "properties": {"collection_times": [{"days": "Mon-Fri", "time": "2:00pm"}, {"days": "Sat", "time": "11:00am"}, {"days": "Sun", "time": "Closed"}], "id": "6295900018", "name": "USPS COLLECTION BOX - BLUE BOX", "address": {"city": "MARION", "state": "IL", "street": "400 E DEYOUNG ST", "postcode": "62959"}}},
{"geometry": {"type": "Point", "coordinates": [-88.9272214938, 37.733392548]}, "type": "Feature", "properties": {"collection_times": [{"days": "Mon-Sat", "time": "2:40pm"}, {"days": "Sun", "time": "Closed"}], "id": "6295900020", "name": "USPS COLLECTION BOX - BLUE BOX", "address": {"city": "MARION", "state": "IL", "street": "501 N MARKET ST", "postcode": "62959"}}},
{"geometry": {"type": "Point", "coordinates": [-88.9474258047, 37.7359198305]}, "type": "Feature", "properties": {"collection_times": [{"days": "Mon-Sat", "time": "2:40pm"}, {"days": "Sun", "time": "Closed"}], "id": "6295900027", "name": "USPS COLLECTION BOX - BLUE BOX", "address": {"city": "MARION", "state": "IL", "street": "901 N CARBON ST", "postcode": "62959"}}},
{"geometry": {"type": "Point", "coordinates": [-88.9234672983, 37.7262830441]}, "type": "Feature", "properties": {"collection_times": [{"days": "Mon-Sat", "time": "2:40pm"}, {"days": "Sun", "time": "Closed"}], "id": "6295900032", "name": "USPS COLLECTION BOX - BLUE BOX", "address": {"city": "MARION", "state": "IL", "street": "100 S MADISON ST", "postcode": "62959"}}},
{"geometry": {"type": "Point", "coordinates": [-88.9234672983, 37.7262830441]}, "type": "Feature", "properties": {"collection_times": [{"days": "Mon-Sat", "time": "2:40pm"}, {"days": "Sun", "time": "Closed"}], "id": "6295900033", "name": "USPS COLLECTION BOX - BLUE BOX", "address": {"city": "MARION", "state": "IL", "street": "100 S MADISON ST", "postcode": "62959"}}},
{"geometry": {"type": "Point", "coordinates": [-89.1586488725, 40.1140436692]}, "type": "Feature", "properties": {"collection_times": [{"days": "Mon-Sat", "time": "2:40pm"}, {"days": "Sun", "time": "Closed"}], "id": "6295900035", "name": "USPS COLLECTION BOX - BLUE BOX", "address": {"city": "MARION", "state": "IL", "street": "100 S MECHANIC", "postcode": "62959"}}},
{"geometry": {"type": "Point", "coordinates": [-88.9474258047, 37.7359198305]}, "type": "Feature", "properties": {"collection_times": [{"days": "Mon-Sat", "time": "2:40pm"}, {"days": "Sun", "time": "Closed"}], "id": "6295900036", "name": "USPS COLLECTION BOX - BLUE BOX", "address": {"city": "MARION", "state": "IL", "street": "901 N CARBON ST", "postcode": "62959"}}},
{"geometry": {"type": "Point", "coordinates": [-88.9474258047, 37.7359198305]}, "type": "Feature", "properties": {"collection_times": [{"days": "Mon-Sat", "time": "2:40pm"}, {"days": "Sun", "time": "Closed"}], "id": "6295900037", "name": "USPS COLLECTION BOX - BLUE BOX", "address": {"city": "MARION", "state": "IL", "street": "901 N CARBON ST", "postcode": "62959"}}},
{"geometry": {"type": "Point", "coordinates": [-89.1586488725, 40.1140436692]}, "type": "Feature", "properties": {"collection_times": [{"days": "Mon-Sat", "time": "2:40pm"}, {"days": "Sun", "time": "Closed"}], "id": "6295900040", "name": "USPS COLLECTION BOX - BLUE BOX", "address": {"city": "MARION", "state": "IL", "street": "100 S MECHANIC", "postcode": "62959"}}},
{"geometry": {"type": "Point", "coordinates": [-89.1586488725, 40.1140436692]}, "type": "Feature", "properties": {"collection_times": [{"days": "Mon-Sat", "time": "2:40pm"}, {"days": "Sun", "time": "Closed"}], "id": "6295900041", "name": "USPS COLLECTION BOX - BLUE BOX", "address": {"city": "MARION", "state": "IL", "street": "100 S MECHANIC", "postcode": "62959"}}},
{"geometry": {"type": "Point", "coordinates": [-88.9420449192, 37.7308424936]}, "type": "Feature", "properties": {"collection_times": [{"days": "Mon-Fri", "time": "2:00pm"}, {"days": "Sat", "time": "12:00pm"}, {"days": "Sun", "time": "Closed"}], "id": "6295900043", "name": "USPS COLLECTION BOX - BLUE BOX", "address": {"city": "MARION", "state": "IL", "street": "1508 W MAIN ST", "postcode": "62959"}}},
{"geometry": {"type": "Point", "coordinates": [-88.9769135577, 37.7449611698]}, "type": "Feature", "properties": {"collection_times": [{"days": "Mon-Sat", "time": "2:40pm"}, {"days": "Sun", "time": "Closed"}], "id": "6295900044", "name": "USPS COLLECTION BOX - BLUE BOX", "address": {"city": "MARION", "state": "IL", "street": "3000 W DEYOUNG ST STE 800B", "postcode": "62959"}}},
{"geometry": {"type": "Point", "coordinates": [-88.939993131, 37.740481188]}, "type": "Feature", "properties": {"collection_times": [{"days": "Mon-Fri", "time": "2:40pm"}, {"days": "Sat-Sun", "time": "Closed"}], "id": "6295900046", "name": "USPS COLLECTION BOX - PO LOBBY", "address": {"city": "MARION", "state": "IL", "street": "1301 ENTERPRISE WAY STE 32", "postcode": "62959"}}},
{"geometry": {"type": "Point", "coordinates": [-88.7319312413, 37.1510725143]}, "type": "Feature", "properties": {"collection_times": [{"days": "Mon-Sat", "time": "1:25pm"}, {"days": "Sun", "time": "Closed"}], "id": "6296000002", "name": "USPS COLLECTION BOX - BLUE BOX", "address": {"city": "METROPOLIS", "state": "IL", "street": "101 W 5TH ST", "postcode": "62960"}}},
{"geometry": {"type": "Point", "coordinates": [-88.7319312413, 37.1510725143]}, "type": "Feature", "properties": {"collection_times": [{"days": "Mon-Sat", "time": "1:25pm"}, {"days": "Sun", "time": "Closed"}], "id": "6296000004", "name": "USPS COLLECTION BOX - BLUE BOX", "address": {"city": "METROPOLIS", "state": "IL", "street": "101 W 5TH ST", "postcode": "62960"}}},
{"geometry": {"type": "Point", "coordinates": [-88.7169536423, 37.1451216967]}, "type": "Feature", "properties": {"collection_times": [{"days": "Mon-Sat", "time": "11:00am"}, {"days": "Sun", "time": "Closed"}], "id": "6296000008", "name": "USPS COLLECTION BOX - BLUE BOX", "address": {"city": "METROPOLIS", "state": "IL", "street": "1200 E 5TH ST", "postcode": "62960"}}},
{"geometry": {"type": "Point", "coordinates": [-88.733732006, 37.1587909497]}, "type": "Feature", "properties": {"collection_times": [{"days": "Mon-Sat", "time": "1:25pm"}, {"days": "Sun", "time": "Closed"}], "id": "6296000023", "name": "USPS COLLECTION BOX - BLUE BOX", "address": {"city": "METROPOLIS", "state": "IL", "street": "900 W 10TH ST", "postcode": "62960"}}},
{"geometry": {"type": "Point", "coordinates": [-88.7319312413, 37.1510725143]}, "type": "Feature", "properties": {"collection_times": [{"days": "Mon-Sat", "time": "1:25pm"}, {"days": "Sun", "time": "Closed"}], "id": "6296000028", "name": "USPS COLLECTION BOX - PO LOBBY", "address": {"city": "METROPOLIS", "state": "IL", "street": "101 W 5TH ST", "postcode": "62960"}}},
{"geometry": {"type": "Point", "coordinates": [-89.2556545354, 37.338625775]}, "type": "Feature", "properties": {"collection_times": [{"days": "Mon-Fri", "time": "10:45am"}, {"days": "Sat", "time": "9:45am"}, {"days": "Sun", "time": "Closed"}], "id": "6296100001", "name": "USPS COLLECTION BOX - BLUE BOX", "address": {"city": "MILLCREEK", "state": "IL", "street": "60 WALNUT ST", "postcode": "62961"}}},
{"geometry": {"type": "Point", "coordinates": [-89.2556545354, 37.338625775]}, "type": "Feature", "properties": {"collection_times": [{"days": "Mon-Sat", "time": "10:45am"}, {"days": "Sun", "time": "Closed"}], "id": "6296100002", "name": "USPS COLLECTION BOX - PO LOBBY", "address": {"city": "MILLCREEK", "state": "IL", "street": "60 WALNUT ST", "postcode": "62961"}}},
{"geometry": {"type": "Point", "coordinates": [-89.1619472703, 37.0867242584]}, "type": "Feature", "properties": {"collection_times": [{"days": "Mon-Fri", "time": "1:15pm"}, {"days": "Sat", "time": "10:00am"}, {"days": "Sun", "time": "Closed"}], "id": "6296300001", "name": "USPS COLLECTION BOX - BLUE BOX", "address": {"city": "MOUND CITY", "state": "IL", "street": "225 MAIN ST", "postcode": "62963"}}},
{"geometry": {"type": "Point", "coordinates": [-89.1619472703, 37.0867242584]}, "type": "Feature", "properties": {"collection_times": [{"days": "Mon-Fri", "time": "1:15pm"}, {"days": "Sat", "time": "9:45am"}, {"days": "Sun", "time": "Closed"}], "id": "6296300002", "name": "USPS COLLECTION BOX - PO LOBBY", "address": {"city": "MOUND CITY", "state": "IL", "street": "225 MAIN ST", "postcode": "62963"}}},
{"geometry": {"type": "Point", "coordinates": [-89.2018680988, 37.1145557943]}, "type": "Feature", "properties": {"collection_times": [{"days": "Mon-Fri", "time": "1:05pm"}, {"days": "Sat", "time": "11:00am"}, {"days": "Sun", "time": "Closed"}], "id": "6296400001", "name": "USPS COLLECTION BOX - BLUE BOX", "address": {"city": "MOUNDS", "state": "IL", "street": "110 N FRONT ST", "postcode": "62964"}}},
{"geometry": {"type": "Point", "coordinates": [-89.2018680988, 37.1145557943]}, "type": "Feature", "properties": {"collection_times": [{"days": "Mon-Fri", "time": "1:10pm"}, {"days": "Sat", "time": "11:00am"}, {"days": "Sun", "time": "Closed"}], "id": "6296400005", "name": "USPS COLLECTION BOX - PO LOBBY", "address": {"city": "MOUNDS", "state": "IL", "street": "110 N FRONT ST", "postcode": "62964"}}},
{"geometry": {"type": "Point", "coordinates": [-88.5421803465, 37.7370693032]}, "type": "Feature", "properties": {"collection_times": [{"days": "Mon-Fri", "time": "1:45pm"}, {"days": "Sat", "time": "8:45am"}, {"days": "Sun", "time": "Closed"}], "id": "6296500001", "name": "USPS COLLECTION BOX - BLUE BOX", "address": {"city": "MUDDY", "state": "IL", "street": "305 PUBLIC RD", "postcode": "62965"}}},
{"geometry": {"type": "Point", "coordinates": [-88.5421803465, 37.7370693032]}, "type": "Feature", "properties": {"collection_times": [{"days": "Mon-Fri", "time": "1:45pm"}, {"days": "Sat", "time": "12:45pm"}, {"days": "Sun", "time": "Closed"}], "id": "6296500002", "name": "USPS COLLECTION BOX - PO LOBBY", "address": {"city": "MUDDY", "state": "IL", "street": "305 PUBLIC RD", "postcode": "62965"}}},
{"geometry": {"type": "Point", "coordinates": [-89.3352413307, 37.7657378495]}, "type": "Feature", "properties": {"collection_times": [{"days": "Mon-Sat", "time": "2:50pm"}, {"days": "Sun", "time": "Closed"}], "id": "6296600001", "name": "USPS COLLECTION BOX - BLUE BOX", "address": {"city": "MURPHYSBORO", "state": "IL", "street": "203 N 11TH ST", "postcode": "62966"}}},
{"geometry": {"type": "Point", "coordinates": [-89.3345206142, 37.7630941966]}, "type": "Feature", "properties": {"collection_times": [{"days": "Mon-Sat", "time": "2:30pm"}, {"days": "Sun", "time": "Closed"}], "id": "6296600002", "name": "USPS COLLECTION BOX - BLUE BOX", "address": {"city": "MURPHYSBORO", "state": "IL", "street": "1001 MULBERRY ST", "postcode": "62966"}}},
{"geometry": {"type": "Point", "coordinates": [-89.3345202574, 37.7642402272]}, "type": "Feature", "properties": {"collection_times": [{"days": "Mon-Sat", "time": "2:30pm"}, {"days": "Sun", "time": "Closed"}], "id": "6296600003", "name": "USPS COLLECTION BOX - BLUE BOX", "address": {"city": "MURPHYSBORO", "state": "IL", "street": "1001 WALNUT ST", "postcode": "62966"}}},
{"geometry": {"type": "Point", "coordinates": [-89.3157605153, 37.7891289768]}, "type": "Feature", "properties": {"collection_times": [{"days": "Mon-Sat", "time": "10:00am"}, {"days": "Sun", "time": "Closed"}], "id": "6296600013", "name": "USPS COLLECTION BOX - BLUE BOX", "address": {"city": "MURPHYSBORO", "state": "IL", "street": "550 E INDUSTRIAL PARK RD", "postcode": "62966"}}},
{"geometry": {"type": "Point", "coordinates": [-89.3352413307, 37.7657378495]}, "type": "Feature", "properties": {"collection_times": [{"days": "Mon-Sat", "time": "2:50pm"}, {"days": "Sun", "time": "Closed"}], "id": "6296600039", "name": "USPS COLLECTION BOX - BLUE BOX", "address": {"city": "MURPHYSBORO", "state": "IL", "street": "203 N 11TH ST", "postcode": "62966"}}},
{"geometry": {"type": "Point", "coordinates": [-89.3345202574, 37.7642402272]}, "type": "Feature", "properties": {"collection_times": [{"days": "Mon-Sat", "time": "2:30pm"}, {"days": "Sun", "time": "Closed"}], "id": "6296600042", "name": "USPS COLLECTION BOX - BLUE BOX", "address": {"city": "MURPHYSBORO", "state": "IL", "street": "1001 WALNUT ST", "postcode": "62966"}}},
{"geometry": {"type": "Point", "coordinates": [-89.3352413307, 37.7657378495]}, "type": "Feature", "properties": {"collection_times": [{"days": "Mon-Sat", "time": "2:50pm"}, {"days": "Sun", "time": "Closed"}], "id": "6296600043", "name": "USPS COLLECTION BOX - BLUE BOX", "address": {"city": "MURPHYSBORO", "state": "IL", "street": "203 N 11TH ST", "postcode": "62966"}}},
{"geometry": {"type": "Point", "coordinates": [-89.3352413307, 37.7657378495]}, "type": "Feature", "properties": {"collection_times": [{"days": "Mon-Sat", "time": "2:50pm"}, {"days": "Sun", "time": "Closed"}], "id": "6296600045", "name": "USPS COLLECTION BOX - PO LOBBY", "address": {"city": "MURPHYSBORO", "state": "IL", "street": "203 N 11TH ST", "postcode": "62966"}}},
{"geometry": {"type": "Point", "coordinates": [-89.3352413307, 37.7657378495]}, "type": "Feature", "properties": {"collection_times": [{"days": "Mon-Sat", "time": "2:50pm"}, {"days": "Sun", "time": "Closed"}], "id": "6296600046", "name": "USPS COLLECTION BOX - PO LOBBY", "address": {"city": "MURPHYSBORO", "state": "IL", "street": "203 N 11TH ST", "postcode": "62966"}}},
{"geometry": {"type": "Point", "coordinates": [-88.7710142646, 37.5814541201]}, "type": "Feature", "properties": {"collection_times": [{"days": "Mon-Fri", "time": "12:45pm"}, {"days": "Sat", "time": "9:15am"}, {"days": "Sun", "time": "Closed"}], "id": "6296700001", "name": "USPS COLLECTION BOX - BLUE BOX", "address": {"city": "NEW BURNSIDE", "state": "IL", "street": "20 W 2ND ST", "postcode": "62967"}}},
{"geometry": {"type": "Point", "coordinates": [-88.7710142646, 37.5814541201]}, "type": "Feature", "properties": {"collection_times": [{"days": "Mon-Fri", "time": "12:45pm"}, {"days": "Sat", "time": "9:15am"}, {"days": "Sun", "time": "Closed"}], "id": "6296700002", "name": "USPS COLLECTION BOX - PO LOBBY", "address": {"city": "NEW BURNSIDE", "state": "IL", "street": "20 W 2ND ST", "postcode": "62967"}}},
{"geometry": {"type": "Point", "coordinates": [-89.3442593561, 37.1679715162]}, "type": "Feature", "properties": {"collection_times": [{"days": "Mon-Fri", "time": "12:45pm"}, {"days": "Sat", "time": "10:15am"}, {"days": "Sun", "time": "Closed"}], "id": "6296900001", "name": "USPS COLLECTION BOX - BLUE BOX", "address": {"city": "OLIVE BRANCH", "state": "IL", "street": "22475 RAILROAD ST", "postcode": "62969"}}},
{"geometry": {"type": "Point", "coordinates": [-89.3442593561, 37.1679715162]}, "type": "Feature", "properties": {"collection_times": [{"days": "Mon-Fri", "time": "12:30pm"}, {"days": "Sat", "time": "10:45am"}, {"days": "Sun", "time": "Closed"}], "id": "6296900002", "name": "USPS COLLECTION BOX - PO LOBBY", "address": {"city": "OLIVE BRANCH", "state": "IL", "street": "22475 RAILROAD ST", "postcode": "62969"}}},
{"geometry": {"type": "Point", "coordinates": [-89.0894111896, 37.1793387808]}, "type": "Feature", "properties": {"collection_times": [{"days": "Mon-Fri", "time": "11:45am"}, {"days": "Sat", "time": "8:30am"}, {"days": "Sun", "time": "Closed"}], "id": "6297000001", "name": "USPS COLLECTION BOX - BLUE BOX", "address": {"city": "OLMSTED", "state": "IL", "street": "100 N FRONT ST", "postcode": "62970"}}},
{"geometry": {"type": "Point", "coordinates": [-89.0894111896, 37.1793387808]}, "type": "Feature", "properties": {"collection_times": [{"days": "Mon-Fri", "time": "11:45am"}, {"days": "Sat", "time": "10:15am"}, {"days": "Sun", "time": "Closed"}], "id": "6297000002", "name": "USPS COLLECTION BOX - PO LOBBY", "address": {"city": "OLMSTED", "state": "IL", "street": "100 N FRONT ST", "postcode": "62970"}}},
{"geometry": {"type": "Point", "coordinates": [-88.7678495856, 37.5417519158]}, "type": "Feature", "properties": {"collection_times": [{"days": "Mon-Fri", "time": "11:45am"}, {"days": "Sat", "time": "10:00am"}, {"days": "Sun", "time": "Closed"}], "id": "6297200001", "name": "USPS COLLECTION BOX - BLUE BOX", "address": {"city": "OZARK", "state": "IL", "street": "495 OZARK RD", "postcode": "62972"}}},
{"geometry": {"type": "Point", "coordinates": [-88.7678495856, 37.5417519158]}, "type": "Feature", "properties": {"collection_times": [{"days": "Mon-Fri", "time": "11:45am"}, {"days": "Sat", "time": "10:00am"}, {"days": "Sun", "time": "Closed"}], "id": "6297200003", "name": "USPS COLLECTION BOX - PO LOBBY", "address": {"city": "OZARK", "state": "IL", "street": "495 OZARK RD", "postcode": "62972"}}},
{"geometry": {"type": "Point", "coordinates": [-88.7678495856, 37.5417519158]}, "type": "Feature", "properties": {"collection_times": [{"days": "Mon-Fri", "time": "11:45am"}, {"days": "Sat", "time": "10:00am"}, {"days": "Sun", "time": "Closed"}], "id": "6297200004", "name": "USPS COLLECTION BOX - PO LOBBY", "address": {"city": "OZARK", "state": "IL", "street": "495 OZARK RD", "postcode": "62972"}}},
{"geometry": {"type": "Point", "coordinates": [-88.8545826697, 37.7716539203]}, "type": "Feature", "properties": {"collection_times": [{"days": "Mon-Fri", "time": "2:20pm"}, {"days": "Sat", "time": "9:15am"}, {"days": "Sun", "time": "Closed"}], "id": "6297400001", "name": "USPS COLLECTION BOX - PO LOBBY", "address": {"city": "PITTSBURG", "state": "IL", "street": "16181 PITTSBURG RD", "postcode": "62974"}}},
{"geometry": {"type": "Point", "coordinates": [-88.8545826697, 37.7716539203]}, "type": "Feature", "properties": {"collection_times": [{"days": "Mon-Fri", "time": "2:20pm"}, {"days": "Sat", "time": "9:30am"}, {"days": "Sun", "time": "Closed"}], "id": "6297400002", "name": "USPS COLLECTION BOX - BLUE BOX", "address": {"city": "PITTSBURG", "state": "IL", "street": "16181 PITTSBURG RD", "postcode": "62974"}}},
{"geometry": {"type": "Point", "coordinates": [-89.3671662251, 37.6254832154]}, "type": "Feature", "properties": {"collection_times": [{"days": "Mon-Sat", "time": "11:00am"}, {"days": "Sun", "time": "Closed"}], "id": "6297500001", "name": "USPS COLLECTION BOX - BLUE BOX", "address": {"city": "POMONA", "state": "IL", "street": "731 POMONA RD", "postcode": "62975"}}},
{"geometry": {"type": "Point", "coordinates": [-89.2086833829, 37.2199376575]}, "type": "Feature", "properties": {"collection_times": [{"days": "Mon-Fri", "time": "11:45am"}, {"days": "Sat", "time": "9:15am"}, {"days": "Sun", "time": "Closed"}], "id": "6297600001", "name": "USPS COLLECTION BOX - BLUE BOX", "address": {"city": "PULASKI", "state": "IL", "street": "225 E COMMERCIAL AVE", "postcode": "62976"}}},
{"geometry": {"type": "Point", "coordinates": [-89.2086833829, 37.2199376575]}, "type": "Feature", "properties": {"collection_times": [{"days": "Mon-Fri", "time": "11:45am"}, {"days": "Sat", "time": "9:15am"}, {"days": "Sun", "time": "Closed"}], "id": "6297600003", "name": "USPS COLLECTION BOX - PO LOBBY", "address": {"city": "PULASKI", "state": "IL", "street": "225 E COMMERCIAL AVE", "postcode": "62976"}}},
{"geometry": {"type": "Point", "coordinates": [-88.5330649324, 37.8273168916]}, "type": "Feature", "properties": {"collection_times": [{"days": "Mon-Fri", "time": "11:15am"}, {"days": "Sat", "time": "10:00am"}, {"days": "Sun", "time": "Closed"}], "id": "6297700001", "name": "USPS COLLECTION BOX - BLUE BOX", "address": {"city": "RALEIGH", "state": "IL", "street": "16 E CHURCH ST", "postcode": "62977"}}},
{"geometry": {"type": "Point", "coordinates": [-88.5330649324, 37.8273168916]}, "type": "Feature", "properties": {"collection_times": [{"days": "Mon-Fri", "time": "11:15am"}, {"days": "Sat", "time": "10:00am"}, {"days": "Sun", "time": "Closed"}], "id": "6297700002", "name": "USPS COLLECTION BOX - PO LOBBY", "address": {"city": "RALEIGH", "state": "IL", "street": "16 E CHURCH ST", "postcode": "62977"}}},
{"geometry": {"type": "Point", "coordinates": [-88.2601979357, 37.7990504902]}, "type": "Feature", "properties": {"collection_times": [{"days": "Mon-Fri", "time": "1:00pm"}, {"days": "Sat", "time": "8:00am"}, {"days": "Sun", "time": "Closed"}], "id": "6297900001", "name": "USPS COLLECTION BOX - BLUE BOX", "address": {"city": "RIDGWAY", "state": "IL", "street": "116 S MURPHY ST", "postcode": "62979"}}},
{"geometry": {"type": "Point", "coordinates": [-88.2601979357, 37.7990504902]}, "type": "Feature", "properties": {"collection_times": [{"days": "Mon-Fri", "time": "1:00pm"}, {"days": "Sat", "time": "10:30am"}, {"days": "Sun", "time": "Closed"}], "id": "6297900002", "name": "USPS COLLECTION BOX - PO LOBBY", "address": {"city": "RIDGWAY", "state": "IL", "street": "116 S MURPHY ST", "postcode": "62979"}}},
{"geometry": {"type": "Point", "coordinates": [-88.3624453593, 37.4248901579]}, "type": "Feature", "properties": {"collection_times": [{"days": "Mon-Fri", "time": "1:05pm"}, {"days": "Sat", "time": "10:45am"}, {"days": "Sun", "time": "Closed"}], "id": "6298200001", "name": "USPS COLLECTION BOX - BLUE BOX", "address": {"city": "ROSICLARE", "state": "IL", "street": "1 POSTAL WAY", "postcode": "62982"}}},
{"geometry": {"type": "Point", "coordinates": [-88.3624453593, 37.4248901579]}, "type": "Feature", "properties": {"collection_times": [{"days": "Mon-Fri", "time": "1:05pm"}, {"days": "Sat", "time": "10:30am"}, {"days": "Sun", "time": "Closed"}], "id": "6298200002", "name": "USPS COLLECTION BOX - PO LOBBY", "address": {"city": "ROSICLARE", "state": "IL", "street": "1 POSTAL WAY", "postcode": "62982"}}},
{"geometry": {"type": "Point", "coordinates": [-89.1143603971, 37.8778367741]}, "type": "Feature", "properties": {"collection_times": [{"days": "Mon-Fri", "time": "1:50pm"}, {"days": "Sat", "time": "9:15am"}, {"days": "Sun", "time": "Closed"}], "id": "6298300001", "name": "USPS COLLECTION BOX - BLUE BOX", "address": {"city": "ROYALTON", "state": "IL", "street": "309 S MAIN ST", "postcode": "62983"}}},
{"geometry": {"type": "Point", "coordinates": [-89.1143603971, 37.8778367741]}, "type": "Feature", "properties": {"collection_times": [{"days": "Mon-Fri", "time": "1:50pm"}, {"days": "Sat", "time": "9:15am"}, {"days": "Sun", "time": "Closed"}], "id": "6298300002", "name": "USPS COLLECTION BOX - PO LOBBY", "address": {"city": "ROYALTON", "state": "IL", "street": "309 S MAIN ST", "postcode": "62983"}}},
{"geometry": {"type": "Point", "coordinates": [-88.187004434, 37.7143714341]}, "type": "Feature", "properties": {"collection_times": [{"days": "Mon-Fri", "time": "1:15pm"}, {"days": "Sat", "time": "10:30am"}, {"days": "Sun", "time": "Closed"}], "id": "6298400001", "name": "USPS COLLECTION BOX - BLUE BOX", "address": {"city": "SHAWNEETOWN", "state": "IL", "street": "200 N LINCOLN BLVD E", "postcode": "62984"}}},
{"geometry": {"type": "Point", "coordinates": [-88.187004434, 37.7143714341]}, "type": "Feature", "properties": {"collection_times": [{"days": "Mon-Fri", "time": "1:15pm"}, {"days": "Sat", "time": "10:30am"}, {"days": "Sun", "time": "Closed"}], "id": "6298400002", "name": "USPS COLLECTION BOX - PO LOBBY", "address": {"city": "SHAWNEETOWN", "state": "IL", "street": "200 N LINCOLN BLVD E", "postcode": "62984"}}},
{"geometry": {"type": "Point", "coordinates": [-88.7611577728, 37.4673423708]}, "type": "Feature", "properties": {"collection_times": [{"days": "Mon-Fri", "time": "11:45am"}, {"days": "Sat", "time": "9:30am"}, {"days": "Sun", "time": "Closed"}], "id": "6298500001", "name": "USPS COLLECTION BOX - BLUE BOX", "address": {"city": "SIMPSON", "state": "IL", "street": "329 MAIN ST", "postcode": "62985"}}},
{"geometry": {"type": "Point", "coordinates": [-88.7611577728, 37.4673423708]}, "type": "Feature", "properties": {"collection_times": [{"days": "Mon-Fri", "time": "11:45am"}, {"days": "Sat", "time": "9:30am"}, {"days": "Sun", "time": "Closed"}], "id": "6298500002", "name": "USPS COLLECTION BOX - PO LOBBY", "address": {"city": "SIMPSON", "state": "IL", "street": "329 MAIN ST", "postcode": "62985"}}},
{"geometry": {"type": "Point", "coordinates": [-88.7139877063, 37.6108936366]}, "type": "Feature", "properties": {"collection_times": [{"days": "Mon-Fri", "time": "11:45am"}, {"days": "Sat", "time": "9:00am"}, {"days": "Sun", "time": "Closed"}], "id": "6298700001", "name": "USPS COLLECTION BOX - BLUE BOX", "address": {"city": "STONEFORT", "state": "IL", "street": "1055 WILSON ST", "postcode": "62987"}}},
{"geometry": {"type": "Point", "coordinates": [-88.7139877063, 37.6108936366]}, "type": "Feature", "properties": {"collection_times": [{"days": "Mon-Fri", "time": "11:45am"}, {"days": "Sat", "time": "9:00am"}, {"days": "Sun", "time": "Closed"}], "id": "6298700002", "name": "USPS COLLECTION BOX - PO LOBBY", "address": {"city": "STONEFORT", "state": "IL", "street": "1055 WILSON ST", "postcode": "62987"}}},
{"geometry": {"type": "Point", "coordinates": [-89.2938537613, 37.2537367121]}, "type": "Feature", "properties": {"collection_times": [{"days": "Mon-Fri", "time": "1:35pm"}, {"days": "Sat", "time": "9:00am"}, {"days": "Sun", "time": "Closed"}], "id": "6298800001", "name": "USPS COLLECTION BOX - BLUE BOX", "address": {"city": "TAMMS", "state": "IL", "street": "250 FRONT ST", "postcode": "62988"}}},
{"geometry": {"type": "Point", "coordinates": [-89.2938537613, 37.2537367121]}, "type": "Feature", "properties": {"collection_times": [{"days": "Mon-Fri", "time": "1:35pm"}, {"days": "Sat", "time": "9:00am"}, {"days": "Sun", "time": "Closed"}], "id": "6298800003", "name": "USPS COLLECTION BOX - PO LOBBY", "address": {"city": "TAMMS", "state": "IL", "street": "250 FRONT ST", "postcode": "62988"}}},
{"geometry": {"type": "Point", "coordinates": [-89.3930288175, 37.1895911104]}, "type": "Feature", "properties": {"collection_times": [{"days": "Mon-Fri", "time": "12:55pm"}, {"days": "Sat", "time": "10:15am"}, {"days": "Sun", "time": "Closed"}], "id": "6299000001", "name": "USPS COLLECTION BOX - BLUE BOX", "address": {"city": "THEBES", "state": "IL", "street": "815 POPLAR ST", "postcode": "62990"}}},
{"geometry": {"type": "Point", "coordinates": [-89.3930288175, 37.1895911104]}, "type": "Feature", "properties": {"collection_times": [{"days": "Mon-Fri", "time": "12:55pm"}, {"days": "Sat", "time": "10:30am"}, {"days": "Sun", "time": "Closed"}], "id": "6299000002", "name": "USPS COLLECTION BOX - PO LOBBY", "address": {"city": "THEBES", "state": "IL", "street": "815 POPLAR ST", "postcode": "62990"}}},
{"geometry": {"type": "Point", "coordinates": [-89.3930288175, 37.1895911104]}, "type": "Feature", "properties": {"collection_times": [{"days": "Mon-Fri", "time": "12:55pm"}, {"days": "Sat", "time": "10:30am"}, {"days": "Sun", "time": "Closed"}], "id": "6299000003", "name": "USPS COLLECTION BOX - PO LOBBY", "address": {"city": "THEBES", "state": "IL", "street": "815 POPLAR ST", "postcode": "62990"}}},
{"geometry": {"type": "Point", "coordinates": [-89.184520459, 37.2774387241]}, "type": "Feature", "properties": {"collection_times": [{"days": "Mon-Fri", "time": "1:25pm"}, {"days": "Sat", "time": "10:15am"}, {"days": "Sun", "time": "Closed"}], "id": "6299200001", "name": "USPS COLLECTION BOX - BLUE BOX", "address": {"city": "ULLIN", "state": "IL", "street": "121 S CENTRAL ST", "postcode": "62992"}}},
{"geometry": {"type": "Point", "coordinates": [-89.184520459, 37.2774387241]}, "type": "Feature", "properties": {"collection_times": [{"days": "Mon-Fri", "time": "1:25pm"}, {"days": "Sat", "time": "10:15am"}, {"days": "Sun", "time": "Closed"}], "id": "6299200002", "name": "USPS COLLECTION BOX - PO LOBBY", "address": {"city": "ULLIN", "state": "IL", "street": "121 S CENTRAL ST", "postcode": "62992"}}},
{"geometry": {"type": "Point", "coordinates": [-89.3419859058, 37.9017444554]}, "type": "Feature", "properties": {"collection_times": [{"days": "Mon-Fri", "time": "11:45am"}, {"days": "Sat", "time": "9:30am"}, {"days": "Sun", "time": "Closed"}], "id": "6299400001", "name": "USPS COLLECTION BOX - BLUE BOX", "address": {"city": "VERGENNES", "state": "IL", "street": "725 HACK AVE", "postcode": "62994"}}},
{"geometry": {"type": "Point", "coordinates": [-89.3419859058, 37.9017444554]}, "type": "Feature", "properties": {"collection_times": [{"days": "Mon-Fri", "time": "11:45am"}, {"days": "Sat", "time": "9:30am"}, {"days": "Sun", "time": "Closed"}], "id": "6299400002", "name": "USPS COLLECTION BOX - PO LOBBY", "address": {"city": "VERGENNES", "state": "IL", "street": "725 HACK AVE", "postcode": "62994"}}},
{"geometry": {"type": "Point", "coordinates": [-88.8941159149, 37.4152694866]}, "type": "Feature", "properties": {"collection_times": [{"days": "Mon-Sat", "time": "2:05pm"}, {"days": "Sun", "time": "Closed"}], "id": "6299500001", "name": "USPS COLLECTION BOX - BLUE BOX", "address": {"city": "VIENNA", "state": "IL", "street": "207 W VINE ST", "postcode": "62995"}}},
{"geometry": {"type": "Point", "coordinates": [-88.8941159149, 37.4152694866]}, "type": "Feature", "properties": {"collection_times": [{"days": "Mon-Sat", "time": "2:05pm"}, {"days": "Sun", "time": "Closed"}], "id": "6299500002", "name": "USPS COLLECTION BOX - PO LOBBY", "address": {"city": "VIENNA", "state": "IL", "street": "207 W VINE ST", "postcode": "62995"}}},
{"geometry": {"type": "Point", "coordinates": [-89.162732354, 37.163403201]}, "type": "Feature", "properties": {"collection_times": [{"days": "Mon-Fri", "time": "12:15pm"}, {"days": "Sat", "time": "9:45am"}, {"days": "Sun", "time": "Closed"}], "id": "6299600001", "name": "USPS COLLECTION BOX - BLUE BOX", "address": {"city": "VILLA RIDGE", "state": "IL", "street": "2926 OLD VILLA RIDGE RD", "postcode": "62996"}}},
{"geometry": {"type": "Point", "coordinates": [-89.162732354, 37.163403201]}, "type": "Feature", "properties": {"collection_times": [{"days": "Mon-Fri", "time": "12:15pm"}, {"days": "Sat", "time": "9:45am"}, {"days": "Sun", "time": "Closed"}], "id": "6299600002", "name": "USPS COLLECTION BOX - PO LOBBY", "address": {"city": "VILLA RIDGE", "state": "IL", "street": "2926 OLD VILLA RIDGE RD", "postcode": "62996"}}},
{"geometry": {"type": "Point", "coordinates": [-89.5898115354, 37.9838419094]}, "type": "Feature", "properties": {"collection_times": [{"days": "Mon-Fri", "time": "1:30pm"}, {"days": "Sat", "time": "9:30am"}, {"days": "Sun", "time": "Closed"}], "id": "6299700001", "name": "USPS COLLECTION BOX - BLUE BOX", "address": {"city": "WILLISVILLE", "state": "IL", "street": "808 BROADWAY ST", "postcode": "62997"}}},
{"geometry": {"type": "Point", "coordinates": [-89.5898115354, 37.9838419094]}, "type": "Feature", "properties": {"collection_times": [{"days": "Mon-Fri", "time": "1:30pm"}, {"days": "Sat", "time": "9:30am"}, {"days": "Sun", "time": "Closed"}], "id": "6299700002", "name": "USPS COLLECTION BOX - PO LOBBY", "address": {"city": "WILLISVILLE", "state": "IL", "street": "808 BROADWAY ST", "postcode": "62997"}}},
{"geometry": {"type": "Point", "coordinates": [-89.5898115354, 37.9838419094]}, "type": "Feature", "properties": {"collection_times": [{"days": "Mon-Fri", "time": "1:30pm"}, {"days": "Sat", "time": "9:30am"}, {"days": "Sun", "time": "Closed"}], "id": "6299700003", "name": "USPS COLLECTION BOX - PO LOBBY", "address": {"city": "WILLISVILLE", "state": "IL", "street": "808 BROADWAY ST", "postcode": "62997"}}},
{"geometry": {"type": "Point", "coordinates": [-89.437079326, 37.5038744635]}, "type": "Feature", "properties": {"collection_times": [{"days": "Mon-Fri", "time": "11:45am"}, {"days": "Sat", "time": "9:30am"}, {"days": "Sun", "time": "Closed"}], "id": "6299800001", "name": "USPS COLLECTION BOX - PO LOBBY", "address": {"city": "WOLF LAKE", "state": "IL", "street": "4675 N STATE ROUTE 3", "postcode": "62998"}}},
{"geometry": {"type": "Point", "coordinates": [-89.437079326, 37.5038744635]}, "type": "Feature", "properties": {"collection_times": [{"days": "Mon-Fri", "time": "11:45am"}, {"days": "Sat", "time": "8:00am"}, {"days": "Sun", "time": "Closed"}], "id": "6299800002", "name": "USPS COLLECTION BOX - BLUE BOX", "address": {"city": "WOLF LAKE", "state": "IL", "street": "4675 N STATE ROUTE 3", "postcode": "62998"}}},
{"geometry": {"type": "Point", "coordinates": [-89.0526258767, 37.8989777041]}, "type": "Feature", "properties": {"collection_times": [{"days": "Mon-Fri", "time": "2:00pm"}, {"days": "Sat", "time": "9:30am"}, {"days": "Sun", "time": "Closed"}], "id": "6299900001", "name": "USPS COLLECTION BOX - BLUE BOX", "address": {"city": "ZEIGLER", "state": "IL", "street": "2 CIRCLE ST", "postcode": "62999"}}},
{"geometry": {"type": "Point", "coordinates": [-89.0526258767, 37.8989777041]}, "type": "Feature", "properties": {"collection_times": [{"days": "Mon-Fri", "time": "2:00pm"}, {"days": "Sat", "time": "9:15am"}, {"days": "Sun", "time": "Closed"}], "id": "6299900009", "name": "USPS COLLECTION BOX - PO LOBBY", "address": {"city": "ZEIGLER", "state": "IL", "street": "2 CIRCLE ST", "postcode": "62999"}}},
{"geometry": {"type": "Point", "coordinates": [-89.0526258767, 37.8989777041]}, "type": "Feature", "properties": {"collection_times": [{"days": "Mon-Fri", "time": "2:00pm"}, {"days": "Sat", "time": "9:15am"}, {"days": "Sun", "time": "Closed"}], "id": "6299900011", "name": "USPS COLLECTION BOX - PO LOBBY", "address": {"city": "ZEIGLER", "state": "IL", "street": "2 CIRCLE ST", "postcode": "62999"}}}
]}
