{"type": "FeatureCollection", "features": [
{"geometry": {"type": "Point", "coordinates": [-81.7123332376, 30.0979913578]}, "type": "Feature", "properties": {"collection_times": [{"days": "Mon-Fri", "time": "5:00pm"}, {"days": "Sat", "time": "1:30pm"}, {"days": "Sun", "time": "Closed"}], "id": "3200300002", "name": "USPS COLLECTION BOX - PO LOBBY", "address": {"city": "ORANGE PARK", "state": "FL", "street": "1880 EASTWEST PKWY", "postcode": "32003"}}},
{"geometry": {"type": "Point", "coordinates": [-81.7123332376, 30.0979913578]}, "type": "Feature", "properties": {"collection_times": [{"days": "Mon-Fri", "time": "5:00pm"}, {"days": "Sat", "time": "1:30pm"}, {"days": "Sun", "time": "Closed"}], "id": "3200300003", "name": "USPS COLLECTION BOX - PO LOBBY", "address": {"city": "ORANGE PARK", "state": "FL", "street": "1880 EASTWEST PKWY", "postcode": "32003"}}},
{"geometry": {"type": "Point", "coordinates": [-81.7123332376, 30.0979913578]}, "type": "Feature", "properties": {"collection_times": [{"days": "Mon-Fri", "time": "5:00pm"}, {"days": "Sat", "time": "1:30pm"}, {"days": "Sun", "time": "Closed"}], "id": "3200300004", "name": "USPS COLLECTION BOX - APC", "address": {"city": "ORANGE PARK", "state": "FL", "street": "1880 EASTWEST PKWY", "postcode": "32003"}}},
{"geometry": {"type": "Point", "coordinates": [-81.7123332376, 30.0979913578]}, "type": "Feature", "properties": {"collection_times": [{"days": "Mon-Fri", "time": "5:00pm"}, {"days": "Sat", "time": "1:30pm"}, {"days": "Sun", "time": "Closed"}], "id": "3200300005", "name": "USPS COLLECTION BOX - BLUE BOX", "address": {"city": "ORANGE PARK", "state": "FL", "street": "1880 EASTWEST PKWY", "postcode": "32003"}}},
{"geometry": {"type": "Point", "coordinates": [-81.6386413814, 29.773180013]}, "type": "Feature", "properties": {"collection_times": [{"days": "Mon-Fri", "time": "4:15pm"}, {"days": "Sat", "time": "11:00am"}, {"days": "Sun", "time": "Closed"}], "id": "3200700000", "name": "USPS COLLECTION BOX - BLUE BOX", "address": {"city": "BOSTWICK", "state": "FL", "street": "1132 N HIGHWAY 17", "postcode": "32007"}}},
{"geometry": {"type": "Point", "coordinates": [-81.6386413814, 29.773180013]}, "type": "Feature", "properties": {"collection_times": [{"days": "Mon-Fri", "time": "4:15pm"}, {"days": "Sat", "time": "11:00am"}, {"days": "Sun", "time": "Closed"}], "id": "3200700002", "name": "USPS COLLECTION BOX - PO LOBBY", "address": {"city": "BOSTWICK", "state": "FL", "street": "1132 N HIGHWAY 17", "postcode": "32007"}}},
{"geometry": {"type": "Point", "coordinates": [-82.9293071415, 29.9590878944]}, "type": "Feature", "properties": {"collection_times": [{"days": "Mon-Fri", "time": "4:00pm"}, {"days": "Sat", "time": "12:00pm"}, {"days": "Sun", "time": "Closed"}], "id": "3200800001", "name": "USPS COLLECTION BOX - BLUE BOX", "address": {"city": "BRANFORD", "state": "FL", "street": "104 SUWANNEE AVE NW", "postcode": "32008"}}},
{"geometry": {"type": "Point", "coordinates": [-82.9293071415, 29.9590878944]}, "type": "Feature", "properties": {"collection_times": [{"days": "Mon-Fri", "time": "4:00pm"}, {"days": "Sat", "time": "12:00pm"}, {"days": "Sun", "time": "Closed"}], "id": "3200800002", "name": "USPS COLLECTION BOX - PO LOBBY", "address": {"city": "BRANFORD", "state": "FL", "street": "104 SUWANNEE AVE NW", "postcode": "32008"}}},
{"geometry": {"type": "Point", "coordinates": [-81.9460495662, 30.3652003953]}, "type": "Feature", "properties": {"collection_times": [{"days": "Mon-Fri", "time": "4:30pm"}, {"days": "Sat", "time": "12:00pm"}, {"days": "Sun", "time": "Closed"}], "id": "3200900001", "name": "USPS COLLECTION BOX - BLUE BOX", "address": {"city": "BRYCEVILLE", "state": "FL", "street": "7875 US HIGHWAY 301", "postcode": "32009"}}},
{"geometry": {"type": "Point", "coordinates": [-81.9460495662, 30.3652003953]}, "type": "Feature", "properties": {"collection_times": [{"days": "Mon-Fri", "time": "4:00pm"}, {"days": "Sat", "time": "12:00pm"}, {"days": "Sun", "time": "Closed"}], "id": "3200900002", "name": "USPS COLLECTION BOX - PO LOBBY", "address": {"city": "BRYCEVILLE", "state": "FL", "street": "7875 US HIGHWAY 301", "postcode": "32009"}}},
{"geometry": {"type": "Point", "coordinates": [-81.8216794579, 30.5730489535]}, "type": "Feature", "properties": {"collection_times": [{"days": "Mon-Fri", "time": "4:30pm"}, {"days": "Sat", "time": "12:00pm"}, {"days": "Sun", "time": "Closed"}], "id": "3201100001", "name": "USPS COLLECTION BOX - PO LOBBY", "address": {"city": "CALLAHAN", "state": "FL", "street": "450054 STATE ROAD 200", "postcode": "32011"}}},
{"geometry": {"type": "Point", "coordinates": [-81.8216794579, 30.5730489535]}, "type": "Feature", "properties": {"collection_times": [{"days": "Mon-Fri", "time": "4:30pm"}, {"days": "Sat", "time": "12:00pm"}, {"days": "Sun", "time": "Closed"}], "id": "3201100002", "name": "USPS COLLECTION BOX - BLUE BOX", "address": {"city": "CALLAHAN", "state": "FL", "street": "450054 STATE ROAD 200", "postcode": "32011"}}},
{"geometry": {"type": "Point", "coordinates": [-81.8216794579, 30.5730489535]}, "type": "Feature", "properties": {"collection_times": [{"days": "Mon-Fri", "time": "4:30pm"}, {"days": "Sat", "time": "12:00pm"}, {"days": "Sun", "time": "Closed"}], "id": "3201100004", "name": "USPS COLLECTION BOX - PO LOBBY", "address": {"city": "CALLAHAN", "state": "FL", "street": "450054 STATE ROAD 200", "postcode": "32011"}}},
{"geometry": {"type": "Point", "coordinates": [-83.332846524, 30.194992613]}, "type": "Feature", "properties": {"collection_times": [{"days": "Mon-Fri", "time": "10:00am"}, {"days": "Sat", "time": "9:45am"}, {"days": "Sun", "time": "Closed"}], "id": "3201300001", "name": "USPS COLLECTION BOX - BLUE BOX", "address": {"city": "DAY", "state": "FL", "street": "4573 N CR 53", "postcode": "32013"}}},
{"geometry": {"type": "Point", "coordinates": [-83.332846524, 30.194992613]}, "type": "Feature", "properties": {"collection_times": [{"days": "Mon-Sat", "time": "9:45am"}, {"days": "Sun", "time": "Closed"}], "id": "3201300002", "name": "USPS COLLECTION BOX - PO LOBBY", "address": {"city": "DAY", "state": "FL", "street": "4573 N CR 53", "postcode": "32013"}}},
{"geometry": {"type": "Point", "coordinates": [-82.7186610541, 30.1059662241]}, "type": "Feature", "properties": {"collection_times": [{"days": "Mon-Sat", "time": "11:30am"}, {"days": "Sun", "time": "Closed"}], "id": "3202400001", "name": "USPS COLLECTION BOX - BLUE BOX", "address": {"city": "LAKE CITY", "state": "FL", "street": "4475 SW STATE ROAD 47", "postcode": "32024"}}},
{"geometry": {"type": "Point", "coordinates": [-82.6236019912, 30.1833093268]}, "type": "Feature", "properties": {"collection_times": [{"days": "Mon-Sat", "time": "11:45am"}, {"days": "Sun", "time": "Closed"}], "id": "3202500001", "name": "USPS COLLECTION BOX - BLUE BOX", "address": {"city": "LAKE CITY", "state": "FL", "street": "1740 SE BAYA DR", "postcode": "32025"}}},
{"geometry": {"type": "Point", "coordinates": [-82.6371183661, 30.1840731401]}, "type": "Feature", "properties": {"collection_times": [{"days": "Mon-Fri", "time": "4:00pm"}, {"days": "Sat", "time": "10:00am"}, {"days": "Sun", "time": "Closed"}], "id": "3202500002", "name": "USPS COLLECTION BOX - BLUE BOX", "address": {"city": "LAKE CITY", "state": "FL", "street": "580 S MARION AVE", "postcode": "32025"}}},
{"geometry": {"type": "Point", "coordinates": [-82.6391608779, 30.1829521068]}, "type": "Feature", "properties": {"collection_times": [{"days": "Mon-Fri", "time": "4:00pm"}, {"days": "Sat", "time": "10:30am"}, {"days": "Sun", "time": "Closed"}], "id": "3202500003", "name": "USPS COLLECTION BOX - BLUE BOX", "address": {"city": "LAKE CITY", "state": "FL", "street": "875 SW MAIN BLVD", "postcode": "32025"}}},
{"geometry": {"type": "Point", "coordinates": [-82.63939909, 30.1816916725]}, "type": "Feature", "properties": {"collection_times": [{"days": "Mon-Fri", "time": "4:00pm"}, {"days": "Sat", "time": "10:00am"}, {"days": "Sun", "time": "Closed"}], "id": "3202500004", "name": "USPS COLLECTION BOX - BLUE BOX", "address": {"city": "LAKE CITY", "state": "FL", "street": "1086 SW MAIN BLVD", "postcode": "32025"}}},
{"geometry": {"type": "Point", "coordinates": [-82.6391096464, 30.1792206099]}, "type": "Feature", "properties": {"collection_times": [{"days": "Mon-Sat", "time": "10:15am"}, {"days": "Sun", "time": "Closed"}], "id": "3202500005", "name": "USPS COLLECTION BOX - BLUE BOX", "address": {"city": "LAKE CITY", "state": "FL", "street": "1445 SW MAIN BLVD", "postcode": "32025"}}},
{"geometry": {"type": "Point", "coordinates": [-81.4259766667, 29.7852734872]}, "type": "Feature", "properties": {"collection_times": [{"days": "Mon-Fri", "time": "3:45pm"}, {"days": "Sat", "time": "10:45am"}, {"days": "Sun", "time": "Closed"}], "id": "3203300001", "name": "USPS COLLECTION BOX - BLUE BOX", "address": {"city": "ELKTON", "state": "FL", "street": "5785 COUNTY ROAD 305", "postcode": "32033"}}},
{"geometry": {"type": "Point", "coordinates": [-81.4259766667, 29.7852734872]}, "type": "Feature", "properties": {"collection_times": [{"days": "Mon-Fri", "time": "3:45pm"}, {"days": "Sat", "time": "10:45am"}, {"days": "Sun", "time": "Closed"}], "id": "3203300002", "name": "USPS COLLECTION BOX - PO LOBBY", "address": {"city": "ELKTON", "state": "FL", "street": "5785 COUNTY ROAD 305", "postcode": "32033"}}},
{"geometry": {"type": "Point", "coordinates": [-81.4259766667, 29.7852734872]}, "type": "Feature", "properties": {"collection_times": [{"days": "Mon-Fri", "time": "3:45pm"}, {"days": "Sat", "time": "10:45am"}, {"days": "Sun", "time": "Closed"}], "id": "3203300003", "name": "USPS COLLECTION BOX - PO LOBBY", "address": {"city": "ELKTON", "state": "FL", "street": "5785 COUNTY ROAD 305", "postcode": "32033"}}},
{"geometry": {"type": "Point", "coordinates": [-81.4496376896, 30.6522686317]}, "type": "Feature", "properties": {"collection_times": [{"days": "Mon-Fri", "time": "11:00am"}, {"days": "Sat", "time": "10:00am"}, {"days": "Sun", "time": "Closed"}], "id": "3203400001", "name": "USPS COLLECTION BOX - BLUE BOX", "address": {"city": "FERNANDINA", "state": "FL", "street": "1367 S 18TH ST", "postcode": "32034"}}},
{"geometry": {"type": "Point", "coordinates": [-81.4541887065, 30.652251078]}, "type": "Feature", "properties": {"collection_times": [{"days": "Mon-Sat", "time": "11:00am"}, {"days": "Sun", "time": "Closed"}], "id": "3203400002", "name": "USPS COLLECTION BOX - BLUE BOX", "address": {"city": "FERNANDINA", "state": "FL", "street": "1401 S 14TH ST", "postcode": "32034"}}},
{"geometry": {"type": "Point", "coordinates": [-81.4620769578, 30.6711668536]}, "type": "Feature", "properties": {"collection_times": [{"days": "Mon-Fri", "time": "2:00pm"}, {"days": "Sat", "time": "10:00am"}, {"days": "Sun", "time": "Closed"}], "id": "3203400008", "name": "USPS COLLECTION BOX - BLUE BOX", "address": {"city": "FERNANDINA", "state": "FL", "street": "401 CENTRE ST", "postcode": "32034"}}},
{"geometry": {"type": "Point", "coordinates": [-81.4620769578, 30.6711668536]}, "type": "Feature", "properties": {"collection_times": [{"days": "Mon-Fri", "time": "2:00pm"}, {"days": "Sat", "time": "10:00am"}, {"days": "Sun", "time": "Closed"}], "id": "3203400009", "name": "USPS COLLECTION BOX - BLUE BOX", "address": {"city": "FERNANDINA", "state": "FL", "street": "401 CENTRE ST", "postcode": "32034"}}},
{"geometry": {"type": "Point", "coordinates": [-81.453766573, 30.6396302547]}, "type": "Feature", "properties": {"collection_times": [{"days": "Mon-Fri", "time": "2:30pm"}, {"days": "Sat", "time": "12:00pm"}, {"days": "Sun", "time": "Closed"}], "id": "3203400012", "name": "USPS COLLECTION BOX - BLUE BOX", "address": {"city": "FERNANDINA", "state": "FL", "street": "1421 SADLER RD", "postcode": "32034"}}},
{"geometry": {"type": "Point", "coordinates": [-81.454406844, 30.6508891162]}, "type": "Feature", "properties": {"collection_times": [{"days": "Mon-Fri", "time": "3:00pm"}, {"days": "Sat", "time": "10:00am"}, {"days": "Sun", "time": "Closed"}], "id": "3203400020", "name": "USPS COLLECTION BOX - BLUE BOX", "address": {"city": "FERNANDINA", "state": "FL", "street": "1699 S 14TH ST", "postcode": "32034"}}},
{"geometry": {"type": "Point", "coordinates": [-81.4593135801, 30.646177696]}, "type": "Feature", "properties": {"collection_times": [{"days": "Mon-Sat", "time": "10:00am"}, {"days": "Sun", "time": "Closed"}], "id": "3203400023", "name": "USPS COLLECTION BOX - BLUE BOX", "address": {"city": "FERNANDINA", "state": "FL", "street": "1722 S 8TH ST", "postcode": "32034"}}},
{"geometry": {"type": "Point", "coordinates": [-81.4533343356, 30.6569342959]}, "type": "Feature", "properties": {"collection_times": [{"days": "Mon-Sat", "time": "12:00pm"}, {"days": "Sun", "time": "Closed"}], "id": "3203400030", "name": "USPS COLLECTION BOX - BLUE BOX", "address": {"city": "FERNANDINA", "state": "FL", "street": "1026 S 14TH ST", "postcode": "32034"}}},
{"geometry": {"type": "Point", "coordinates": [-81.4497913404, 30.6398966242]}, "type": "Feature", "properties": {"collection_times": [{"days": "Mon-Fri", "time": "5:00pm"}, {"days": "Sat", "time": "3:30pm"}, {"days": "Sun", "time": "Closed"}], "id": "3203400035", "name": "USPS COLLECTION BOX - BLUE BOX", "address": {"city": "FERNANDINA", "state": "FL", "street": "1997 SADLER RD", "postcode": "32034"}}},
{"geometry": {"type": "Point", "coordinates": [-81.4497913404, 30.6398966242]}, "type": "Feature", "properties": {"collection_times": [{"days": "Mon-Fri", "time": "5:00pm"}, {"days": "Sat", "time": "3:30pm"}, {"days": "Sun", "time": "Closed"}], "id": "3203400036", "name": "USPS COLLECTION BOX - BLUE BOX", "address": {"city": "FERNANDINA", "state": "FL", "street": "1997 SADLER RD", "postcode": "32034"}}},
{"geometry": {"type": "Point", "coordinates": [-81.4497913404, 30.6398966242]}, "type": "Feature", "properties": {"collection_times": [{"days": "Mon-Fri", "time": "5:00pm"}, {"days": "Sat", "time": "3:30pm"}, {"days": "Sun", "time": "Closed"}], "id": "3203400038", "name": "USPS COLLECTION BOX - PO LOBBY", "address": {"city": "FERNANDINA", "state": "FL", "street": "1997 SADLER RD", "postcode": "32034"}}},
{"geometry": {"type": "Point", "coordinates": [-81.4497913404, 30.6398966242]}, "type": "Feature", "properties": {"collection_times": [{"days": "Mon-Fri", "time": "5:00pm"}, {"days": "Sat", "time": "3:30pm"}, {"days": "Sun", "time": "Closed"}], "id": "3203400039", "name": "USPS COLLECTION BOX - PO LOBBY", "address": {"city": "FERNANDINA", "state": "FL", "street": "1997 SADLER RD", "postcode": "32034"}}},
{"geometry": {"type": "Point", "coordinates": [-81.4497913404, 30.6398966242]}, "type": "Feature", "properties": {"collection_times": [{"days": "Mon-Fri", "time": "5:00pm"}, {"days": "Sat", "time": "3:30pm"}, {"days": "Sun", "time": "Closed"}], "id": "3203400040", "name": "USPS COLLECTION BOX - PO LOBBY", "address": {"city": "FERNANDINA", "state": "FL", "street": "1997 SADLER RD", "postcode": "32034"}}},
{"geometry": {"type": "Point", "coordinates": [-81.4545614604, 30.6112249992]}, "type": "Feature", "properties": {"collection_times": [{"days": "Mon-Sat", "time": "12:00pm"}, {"days": "Sun", "time": "Closed"}], "id": "3203400044", "name": "USPS COLLECTION BOX - BLUE BOX", "address": {"city": "FERNANDINA", "state": "FL", "street": "2416 LYNNDALE RD", "postcode": "32034"}}},
{"geometry": {"type": "Point", "coordinates": [-81.4955711722, 30.6227170994]}, "type": "Feature", "properties": {"collection_times": [{"days": "Mon-Sat", "time": "12:00pm"}, {"days": "Sun", "time": "Closed"}], "id": "3203400046", "name": "USPS COLLECTION BOX - BLUE BOX", "address": {"city": "FERNANDINA", "state": "FL", "street": "4800 FIRST COAST HWY", "postcode": "32034"}}},
{"geometry": {"type": "Point", "coordinates": [-81.4620769578, 30.6711668536]}, "type": "Feature", "properties": {"collection_times": [{"days": "Mon-Fri", "time": "5:00pm"}, {"days": "Sat-Sun", "time": "Closed"}], "id": "3203400047", "name": "USPS COLLECTION BOX - PO LOBBY", "address": {"city": "FERNANDINA", "state": "FL", "street": "401 CENTRE ST", "postcode": "32034"}}},
{"geometry": {"type": "Point", "coordinates": [-81.4620769578, 30.6711668536]}, "type": "Feature", "properties": {"collection_times": [{"days": "Mon-Fri", "time": "5:00pm"}, {"days": "Sat-Sun", "time": "Closed"}], "id": "3203400048", "name": "USPS COLLECTION BOX - PO LOBBY", "address": {"city": "FERNANDINA", "state": "FL", "street": "401 CENTRE ST", "postcode": "32034"}}},
{"geometry": {"type": "Point", "coordinates": [-81.4648269702, 30.6218144677]}, "type": "Feature", "properties": {"collection_times": [{"days": "Mon-Sat", "time": "12:00pm"}, {"days": "Sun", "time": "Closed"}], "id": "3203400050", "name": "USPS COLLECTION BOX - BLUE BOX", "address": {"city": "FERNANDINA", "state": "FL", "street": "3000 AMELIA ISLAND PKWY", "postcode": "32034"}}},
{"geometry": {"type": "Point", "coordinates": [-82.6563738392, 29.882024932]}, "type": "Feature", "properties": {"collection_times": [{"days": "Mon-Fri", "time": "4:00pm"}, {"days": "Sat", "time": "11:30am"}, {"days": "Sun", "time": "Closed"}], "id": "3203800001", "name": "USPS COLLECTION BOX - BLUE BOX", "address": {"city": "FORT WHITE", "state": "FL", "street": "318 SW HOLSTEIN AVE", "postcode": "32038"}}},
{"geometry": {"type": "Point", "coordinates": [-82.6563738392, 29.882024932]}, "type": "Feature", "properties": {"collection_times": [{"days": "Mon-Fri", "time": "4:00pm"}, {"days": "Sat", "time": "11:30am"}, {"days": "Sun", "time": "Closed"}], "id": "3203800002", "name": "USPS COLLECTION BOX - PO LOBBY", "address": {"city": "FORT WHITE", "state": "FL", "street": "318 SW HOLSTEIN AVE", "postcode": "32038"}}},
{"geometry": {"type": "Point", "coordinates": [-82.1624939652, 30.2763165125]}, "type": "Feature", "properties": {"collection_times": [{"days": "Mon-Fri", "time": "4:00pm"}, {"days": "Sat", "time": "12:00pm"}, {"days": "Sun", "time": "Closed"}], "id": "3204000001", "name": "USPS COLLECTION BOX - BLUE BOX", "address": {"city": "GLEN ST MARY", "state": "FL", "street": "7345 W MOUNT VERNON ST", "postcode": "32040"}}},
{"geometry": {"type": "Point", "coordinates": [-82.1624939652, 30.2763165125]}, "type": "Feature", "properties": {"collection_times": [{"days": "Mon-Fri", "time": "4:00pm"}, {"days": "Sat", "time": "12:00pm"}, {"days": "Sun", "time": "Closed"}], "id": "3204000002", "name": "USPS COLLECTION BOX - PO LOBBY", "address": {"city": "GLEN ST MARY", "state": "FL", "street": "7345 W MOUNT VERNON ST", "postcode": "32040"}}},
{"geometry": {"type": "Point", "coordinates": [-82.1624939652, 30.2763165125]}, "type": "Feature", "properties": {"collection_times": [{"days": "Mon-Fri", "time": "4:00pm"}, {"days": "Sat", "time": "12:00pm"}, {"days": "Sun", "time": "Closed"}], "id": "3204000003", "name": "USPS COLLECTION BOX - PO LOBBY", "address": {"city": "GLEN ST MARY", "state": "FL", "street": "7345 W MOUNT VERNON ST", "postcode": "32040"}}},
{"geometry": {"type": "Point", "coordinates": [-82.221629254, 29.860355119]}, "type": "Feature", "properties": {"collection_times": [{"days": "Mon-Fri", "time": "4:00pm"}, {"days": "Sat", "time": "9:30am"}, {"days": "Sun", "time": "Closed"}], "id": "3204200000", "name": "USPS COLLECTION BOX - BLUE BOX", "address": {"city": "GRAHAM", "state": "FL", "street": "9847 SW 104TH AVE", "postcode": "32042"}}},
{"geometry": {"type": "Point", "coordinates": [-82.221629254, 29.860355119]}, "type": "Feature", "properties": {"collection_times": [{"days": "Mon-Fri", "time": "4:00pm"}, {"days": "Sat", "time": "9:30am"}, {"days": "Sun", "time": "Closed"}], "id": "3204200001", "name": "USPS COLLECTION BOX - PO LOBBY", "address": {"city": "GRAHAM", "state": "FL", "street": "9847 SW 104TH AVE", "postcode": "32042"}}},
{"geometry": {"type": "Point", "coordinates": [-81.6881047857, 29.9371394929]}, "type": "Feature", "properties": {"collection_times": [{"days": "Mon-Fri", "time": "5:00pm"}, {"days": "Sat-Sun", "time": "Closed"}], "id": "3204300004", "name": "USPS COLLECTION BOX - BLUE BOX", "address": {"city": "GREEN CV SPGS", "state": "FL", "street": "500 PALMER ST", "postcode": "32043"}}},
{"geometry": {"type": "Point", "coordinates": [-81.6855526718, 30.0016352641]}, "type": "Feature", "properties": {"collection_times": [{"days": "Mon-Fri", "time": "3:00pm"}, {"days": "Sat-Sun", "time": "Closed"}], "id": "3204300008", "name": "USPS COLLECTION BOX - BLUE BOX", "address": {"city": "GREEN CV SPGS", "state": "FL", "street": "825 N ORANGE AVE", "postcode": "32043"}}},
{"geometry": {"type": "Point", "coordinates": [-81.6968475905, 29.9798818231]}, "type": "Feature", "properties": {"collection_times": [{"days": "Mon-Sat", "time": "8:30am"}, {"days": "Sun", "time": "Closed"}], "id": "3204300012", "name": "USPS COLLECTION BOX - BLUE BOX", "address": {"city": "GREEN CV SPGS", "state": "FL", "street": "1000 PINEWOOD CT", "postcode": "32043"}}},
{"geometry": {"type": "Point", "coordinates": [-81.680756252, 29.9939129946]}, "type": "Feature", "properties": {"collection_times": [{"days": "Mon-Fri", "time": "5:00pm"}, {"days": "Sat", "time": "12:00pm"}, {"days": "Sun", "time": "Closed"}], "id": "3204300018", "name": "USPS COLLECTION BOX - PO LOBBY", "address": {"city": "GREEN CV SPGS", "state": "FL", "street": "500 PALMER ST", "postcode": "32043"}}},
{"geometry": {"type": "Point", "coordinates": [-81.680756252, 29.9939129946]}, "type": "Feature", "properties": {"collection_times": [{"days": "Mon-Fri", "time": "5:00pm"}, {"days": "Sat", "time": "12:00pm"}, {"days": "Sun", "time": "Closed"}], "id": "3204300019", "name": "USPS COLLECTION BOX - PO LOBBY", "address": {"city": "GREEN CV SPGS", "state": "FL", "street": "500 PALMER ST", "postcode": "32043"}}},
{"geometry": {"type": "Point", "coordinates": [-81.685129949, 30.0020506907]}, "type": "Feature", "properties": {"collection_times": [{"days": "Mon-Fri", "time": "3:00pm"}, {"days": "Sat-Sun", "time": "Closed"}], "id": "3204300020", "name": "USPS COLLECTION BOX - BLUE BOX", "address": {"city": "GREEN CV SPGS", "state": "FL", "street": "477 HOUSTON ST", "postcode": "32043"}}},
{"geometry": {"type": "Point", "coordinates": [-82.1327150902, 29.8644755276]}, "type": "Feature", "properties": {"collection_times": [{"days": "Mon-Fri", "time": "4:00pm"}, {"days": "Sat", "time": "10:00am"}, {"days": "Sun", "time": "Closed"}], "id": "3204400001", "name": "USPS COLLECTION BOX - BLUE BOX", "address": {"city": "HAMPTON", "state": "FL", "street": "5627 NAVARRE AVE", "postcode": "32044"}}},
{"geometry": {"type": "Point", "coordinates": [-82.1327150902, 29.8644755276]}, "type": "Feature", "properties": {"collection_times": [{"days": "Mon-Fri", "time": "4:00pm"}, {"days": "Sat", "time": "10:00am"}, {"days": "Sun", "time": "Closed"}], "id": "3204400002", "name": "USPS COLLECTION BOX - PO LOBBY", "address": {"city": "HAMPTON", "state": "FL", "street": "5627 NAVARRE AVE", "postcode": "32044"}}},
{"geometry": {"type": "Point", "coordinates": [-81.9193653417, 30.69305925]}, "type": "Feature", "properties": {"collection_times": [{"days": "Mon-Fri", "time": "4:30pm"}, {"days": "Sat", "time": "12:00pm"}, {"days": "Sun", "time": "Closed"}], "id": "3204600000", "name": "USPS COLLECTION BOX - PO LOBBY", "address": {"city": "HILLIARD", "state": "FL", "street": "551835 US HIGHWAY 1", "postcode": "32046"}}},
{"geometry": {"type": "Point", "coordinates": [-81.9193653417, 30.69305925]}, "type": "Feature", "properties": {"collection_times": [{"days": "Mon-Fri", "time": "4:30pm"}, {"days": "Sat", "time": "12:00pm"}, {"days": "Sun", "time": "Closed"}], "id": "3204600001", "name": "USPS COLLECTION BOX - PO LOBBY", "address": {"city": "HILLIARD", "state": "FL", "street": "551835 US HIGHWAY 1", "postcode": "32046"}}},
{"geometry": {"type": "Point", "coordinates": [-81.9193653417, 30.69305925]}, "type": "Feature", "properties": {"collection_times": [{"days": "Mon-Fri", "time": "4:30pm"}, {"days": "Sat", "time": "12:00pm"}, {"days": "Sun", "time": "Closed"}], "id": "3204600003", "name": "USPS COLLECTION BOX - BLUE BOX", "address": {"city": "HILLIARD", "state": "FL", "street": "551835 US HIGHWAY 1", "postcode": "32046"}}},
{"geometry": {"type": "Point", "coordinates": [-81.8802004076, 30.7293484354]}, "type": "Feature", "properties": {"collection_times": [{"days": "Mon-Sat", "time": "12:00pm"}, {"days": "Sun", "time": "Closed"}], "id": "3204600005", "name": "USPS COLLECTION BOX - BLUE BOX", "address": {"city": "HILLIARD", "state": "FL", "street": "541494 US HIGHWAY 1", "postcode": "32046"}}},
{"geometry": {"type": "Point", "coordinates": [-82.9466247037, 30.5180088604]}, "type": "Feature", "properties": {"collection_times": [{"days": "Mon-Fri", "time": "4:15pm"}, {"days": "Sat", "time": "12:00pm"}, {"days": "Sun", "time": "Closed"}], "id": "3205200000", "name": "USPS COLLECTION BOX - BLUE BOX", "address": {"city": "JASPER", "state": "FL", "street": "100 1ST AVE SE", "postcode": "32052"}}},
{"geometry": {"type": "Point", "coordinates": [-82.9466247037, 30.5180088604]}, "type": "Feature", "properties": {"collection_times": [{"days": "Mon-Fri", "time": "4:15pm"}, {"days": "Sat", "time": "12:00pm"}, {"days": "Sun", "time": "Closed"}], "id": "3205200001", "name": "USPS COLLECTION BOX - BLUE BOX", "address": {"city": "JASPER", "state": "FL", "street": "100 1ST AVE SE", "postcode": "32052"}}},
{"geometry": {"type": "Point", "coordinates": [-82.9466247037, 30.5180088604]}, "type": "Feature", "properties": {"collection_times": [{"days": "Mon-Fri", "time": "4:15pm"}, {"days": "Sat", "time": "12:00pm"}, {"days": "Sun", "time": "Closed"}], "id": "3205200004", "name": "USPS COLLECTION BOX - PO LOBBY", "address": {"city": "JASPER", "state": "FL", "street": "100 1ST AVE SE", "postcode": "32052"}}},
{"geometry": {"type": "Point", "coordinates": [-83.1007366324, 30.603668824]}, "type": "Feature", "properties": {"collection_times": [{"days": "Mon-Fri", "time": "4:30pm"}, {"days": "Sat", "time": "12:00pm"}, {"days": "Sun", "time": "Closed"}], "id": "3205300001", "name": "USPS COLLECTION BOX - PO LOBBY", "address": {"city": "JENNINGS", "state": "FL", "street": "1269 PLUM ST", "postcode": "32053"}}},
{"geometry": {"type": "Point", "coordinates": [-83.1007366324, 30.603668824]}, "type": "Feature", "properties": {"collection_times": [{"days": "Mon-Fri", "time": "4:30pm"}, {"days": "Sat", "time": "12:00pm"}, {"days": "Sun", "time": "Closed"}], "id": "3205300002", "name": "USPS COLLECTION BOX - BLUE BOX", "address": {"city": "JENNINGS", "state": "FL", "street": "1269 PLUM ST", "postcode": "32053"}}},
{"geometry": {"type": "Point", "coordinates": [-83.1007366324, 30.603668824]}, "type": "Feature", "properties": {"collection_times": [{"days": "Mon-Fri", "time": "4:30pm"}, {"days": "Sat", "time": "12:00pm"}, {"days": "Sun", "time": "Closed"}], "id": "3205300003", "name": "USPS COLLECTION BOX - PO LOBBY", "address": {"city": "JENNINGS", "state": "FL", "street": "1269 PLUM ST", "postcode": "32053"}}},
{"geometry": {"type": "Point", "coordinates": [-82.3392117859, 30.0237662794]}, "type": "Feature", "properties": {"collection_times": [{"days": "Mon-Fri", "time": "5:00pm"}, {"days": "Sat", "time": "12:00pm"}, {"days": "Sun", "time": "Closed"}], "id": "3205400000", "name": "USPS COLLECTION BOX - BLUE BOX", "address": {"city": "LAKE BUTLER", "state": "FL", "street": "215 NW 1ST ST", "postcode": "32054"}}},
{"geometry": {"type": "Point", "coordinates": [-82.3392117859, 30.0237662794]}, "type": "Feature", "properties": {"collection_times": [{"days": "Mon-Fri", "time": "5:00pm"}, {"days": "Sat", "time": "3:00pm"}, {"days": "Sun", "time": "Closed"}], "id": "3205400005", "name": "USPS COLLECTION BOX - PO LOBBY", "address": {"city": "LAKE BUTLER", "state": "FL", "street": "215 NW 1ST ST", "postcode": "32054"}}},
{"geometry": {"type": "Point", "coordinates": [-82.3392117859, 30.0237662794]}, "type": "Feature", "properties": {"collection_times": [{"days": "Mon-Fri", "time": "5:00pm"}, {"days": "Sat", "time": "3:00pm"}, {"days": "Sun", "time": "Closed"}], "id": "3205400006", "name": "USPS COLLECTION BOX - PO LOBBY", "address": {"city": "LAKE BUTLER", "state": "FL", "street": "215 NW 1ST ST", "postcode": "32054"}}},
{"geometry": {"type": "Point", "coordinates": [-82.3392117859, 30.0237662794]}, "type": "Feature", "properties": {"collection_times": [{"days": "Mon-Fri", "time": "5:00pm"}, {"days": "Sat", "time": "3:00pm"}, {"days": "Sun", "time": "Closed"}], "id": "3205400007", "name": "USPS COLLECTION BOX - PO LOBBY", "address": {"city": "LAKE BUTLER", "state": "FL", "street": "215 NW 1ST ST", "postcode": "32054"}}},
{"geometry": {"type": "Point", "coordinates": [-82.6333286347, 30.1934169536]}, "type": "Feature", "properties": {"collection_times": [{"days": "Mon-Fri", "time": "4:45pm"}, {"days": "Sat", "time": "12:00pm"}, {"days": "Sun", "time": "Closed"}], "id": "3205500015", "name": "USPS COLLECTION BOX - BLUE BOX", "address": {"city": "LAKE CITY", "state": "FL", "street": "368 NE FRANKLIN ST", "postcode": "32055"}}},
{"geometry": {"type": "Point", "coordinates": [-82.5939985355, 30.3773617356]}, "type": "Feature", "properties": {"collection_times": [{"days": "Mon-Fri", "time": "4:00pm"}, {"days": "Sat", "time": "2:15pm"}, {"days": "Sun", "time": "Closed"}], "id": "3205500016", "name": "USPS COLLECTION BOX - BLUE BOX", "address": {"city": "LAKE CITY", "state": "FL", "street": "255 NW COMMONS LOOP", "postcode": "32055"}}},
{"geometry": {"type": "Point", "coordinates": [-82.6291887286, 30.1892588619]}, "type": "Feature", "properties": {"collection_times": [{"days": "Mon-Sat", "time": "10:30am"}, {"days": "Sun", "time": "Closed"}], "id": "3205500018", "name": "USPS COLLECTION BOX - BLUE BOX", "address": {"city": "LAKE CITY", "state": "FL", "street": "1036 E DUVAL ST", "postcode": "32055"}}},
{"geometry": {"type": "Point", "coordinates": [-82.6548559127, 30.1843962775]}, "type": "Feature", "properties": {"collection_times": [{"days": "Mon-Fri", "time": "4:00pm"}, {"days": "Sat", "time": "10:45am"}, {"days": "Sun", "time": "Closed"}], "id": "3205500022", "name": "USPS COLLECTION BOX - BLUE BOX", "address": {"city": "LAKE CITY", "state": "FL", "street": "1350 W US HIGHWAY 90", "postcode": "32055"}}},
{"geometry": {"type": "Point", "coordinates": [-82.6395985875, 30.1910253213]}, "type": "Feature", "properties": {"collection_times": [{"days": "Mon-Fri", "time": "5:15pm"}, {"days": "Sat", "time": "5:00pm"}, {"days": "Sun", "time": "Closed"}], "id": "3205500026", "name": "USPS COLLECTION BOX - BLUE BOX", "address": {"city": "LAKE CITY", "state": "FL", "street": "250 NW MAIN BLVD", "postcode": "32055"}}},
{"geometry": {"type": "Point", "coordinates": [-82.6395985875, 30.1910253213]}, "type": "Feature", "properties": {"collection_times": [{"days": "Mon-Fri", "time": "5:15pm"}, {"days": "Sat", "time": "5:00pm"}, {"days": "Sun", "time": "Closed"}], "id": "3205500027", "name": "USPS COLLECTION BOX - BLUE BOX", "address": {"city": "LAKE CITY", "state": "FL", "street": "250 NW MAIN BLVD", "postcode": "32055"}}},
{"geometry": {"type": "Point", "coordinates": [-82.6554039768, 30.1842187176]}, "type": "Feature", "properties": {"collection_times": [{"days": "Mon-Fri", "time": "4:00pm"}, {"days": "Sat", "time": "9:45am"}, {"days": "Sun", "time": "Closed"}], "id": "3205500035", "name": "USPS COLLECTION BOX - BLUE BOX", "address": {"city": "LAKE CITY", "state": "FL", "street": "1389 W US HIGHWAY 90", "postcode": "32055"}}},
{"geometry": {"type": "Point", "coordinates": [-82.6603765005, 30.2247830774]}, "type": "Feature", "properties": {"collection_times": [{"days": "Mon-Fri", "time": "5:15pm"}, {"days": "Sat", "time": "5:00pm"}, {"days": "Sun", "time": "Closed"}], "id": "3205500043", "name": "USPS COLLECTION BOX - BLUE BOX", "address": {"city": "LAKE CITY", "state": "FL", "street": "250 NW MAIN BLVD", "postcode": "32055"}}},
{"geometry": {"type": "Point", "coordinates": [-82.6588088219, 30.1817852038]}, "type": "Feature", "properties": {"collection_times": [{"days": "Mon-Fri", "time": "4:15pm"}, {"days": "Sat", "time": "12:30pm"}, {"days": "Sun", "time": "Closed"}], "id": "3205500046", "name": "USPS COLLECTION BOX - BLUE BOX", "address": {"city": "LAKE CITY", "state": "FL", "street": "2767 W US HIGHWAY 90", "postcode": "32055"}}},
{"geometry": {"type": "Point", "coordinates": [-82.6395985875, 30.1910253213]}, "type": "Feature", "properties": {"collection_times": [{"days": "Mon-Sat", "time": "5:00pm"}, {"days": "Sun", "time": "Closed"}], "id": "3205500054", "name": "USPS COLLECTION BOX - PO LOBBY", "address": {"city": "LAKE CITY", "state": "FL", "street": "250 NW MAIN BLVD", "postcode": "32055"}}},
{"geometry": {"type": "Point", "coordinates": [-82.6804858383, 30.1801546449]}, "type": "Feature", "properties": {"collection_times": [{"days": "Mon-Fri", "time": "4:30pm"}, {"days": "Sat", "time": "10:00am"}, {"days": "Sun", "time": "Closed"}], "id": "3205500058", "name": "USPS COLLECTION BOX - BLUE BOX", "address": {"city": "LAKE CITY", "state": "FL", "street": "3221 W US HIGHWAY 90", "postcode": "32055"}}},
{"geometry": {"type": "Point", "coordinates": [-82.6697979367, 30.1791595216]}, "type": "Feature", "properties": {"collection_times": [{"days": "Mon-Fri", "time": "4:45pm"}, {"days": "Sat", "time": "2:15pm"}, {"days": "Sun", "time": "Closed"}], "id": "3205500064", "name": "USPS COLLECTION BOX - BLUE BOX", "address": {"city": "LAKE CITY", "state": "FL", "street": "2533 W US HIGHWAY 90", "postcode": "32055"}}},
{"geometry": {"type": "Point", "coordinates": [-82.7008706053, 30.1810956977]}, "type": "Feature", "properties": {"collection_times": [{"days": "Mon-Sat", "time": "11:30am"}, {"days": "Sun", "time": "Closed"}], "id": "3205500066", "name": "USPS COLLECTION BOX - BLUE BOX", "address": {"city": "LAKE CITY", "state": "FL", "street": "4243 W US HIGHWAY 90", "postcode": "32055"}}},
{"geometry": {"type": "Point", "coordinates": [-82.6371027655, 30.1911659223]}, "type": "Feature", "properties": {"collection_times": [{"days": "Mon-Fri", "time": "4:45pm"}, {"days": "Sat", "time": "12:00pm"}, {"days": "Sun", "time": "Closed"}], "id": "3205500068", "name": "USPS COLLECTION BOX - BLUE BOX", "address": {"city": "LAKE CITY", "state": "FL", "street": "205 N MARION AVE", "postcode": "32055"}}},
{"geometry": {"type": "Point", "coordinates": [-82.6395985875, 30.1910253213]}, "type": "Feature", "properties": {"collection_times": [{"days": "Mon-Sat", "time": "5:00pm"}, {"days": "Sun", "time": "Closed"}], "id": "3205500069", "name": "USPS COLLECTION BOX - APC", "address": {"city": "LAKE CITY", "state": "FL", "street": "250 NW MAIN BLVD", "postcode": "32055"}}},
{"geometry": {"type": "Point", "coordinates": [-82.6395985875, 30.1910253213]}, "type": "Feature", "properties": {"collection_times": [{"days": "Mon-Sat", "time": "5:00pm"}, {"days": "Sun", "time": "Closed"}], "id": "3205500070", "name": "USPS COLLECTION BOX - PO LOBBY", "address": {"city": "LAKE CITY", "state": "FL", "street": "250 NW MAIN BLVD", "postcode": "32055"}}},
{"geometry": {"type": "Point", "coordinates": [-82.0722775117, 30.043417614]}, "type": "Feature", "properties": {"collection_times": [{"days": "Mon-Fri", "time": "4:30pm"}, {"days": "Sat", "time": "12:00pm"}, {"days": "Sun", "time": "Closed"}], "id": "3205800001", "name": "USPS COLLECTION BOX - BLUE BOX", "address": {"city": "LAWTEY", "state": "FL", "street": "22706 US HIGHWAY 301 N", "postcode": "32058"}}},
{"geometry": {"type": "Point", "coordinates": [-82.0722775117, 30.043417614]}, "type": "Feature", "properties": {"collection_times": [{"days": "Mon-Fri", "time": "4:30pm"}, {"days": "Sat", "time": "12:00pm"}, {"days": "Sun", "time": "Closed"}], "id": "3205800002", "name": "USPS COLLECTION BOX - PO LOBBY", "address": {"city": "LAWTEY", "state": "FL", "street": "22706 US HIGHWAY 301 N", "postcode": "32058"}}},
{"geometry": {"type": "Point", "coordinates": [-83.26808146, 30.3716444967]}, "type": "Feature", "properties": {"collection_times": [{"days": "Mon-Fri", "time": "4:15pm"}, {"days": "Sat", "time": "12:00pm"}, {"days": "Sun", "time": "Closed"}], "id": "3205900001", "name": "USPS COLLECTION BOX - PO LOBBY", "address": {"city": "LEE", "state": "FL", "street": "7760 E US HIGHWAY 90", "postcode": "32059"}}},
{"geometry": {"type": "Point", "coordinates": [-83.26808146, 30.3716444967]}, "type": "Feature", "properties": {"collection_times": [{"days": "Mon-Fri", "time": "4:30pm"}, {"days": "Sat", "time": "12:00pm"}, {"days": "Sun", "time": "Closed"}], "id": "3205900002", "name": "USPS COLLECTION BOX - BLUE BOX", "address": {"city": "LEE", "state": "FL", "street": "7760 E US HIGHWAY 90", "postcode": "32059"}}},
{"geometry": {"type": "Point", "coordinates": [-83.26808146, 30.3716444967]}, "type": "Feature", "properties": {"collection_times": [{"days": "Mon-Fri", "time": "4:15pm"}, {"days": "Sat", "time": "12:00pm"}, {"days": "Sun", "time": "Closed"}], "id": "3205900003", "name": "USPS COLLECTION BOX - PO LOBBY", "address": {"city": "LEE", "state": "FL", "street": "7760 E US HIGHWAY 90", "postcode": "32059"}}},
{"geometry": {"type": "Point", "coordinates": [-82.9663056784, 30.324983241]}, "type": "Feature", "properties": {"collection_times": [{"days": "Mon-Fri", "time": "1:00pm"}, {"days": "Sat", "time": "12:00pm"}, {"days": "Sun", "time": "Closed"}], "id": "3206000041", "name": "USPS COLLECTION BOX - BLUE BOX", "address": {"city": "LIVE OAK", "state": "FL", "street": "6858 US HIGHWAY 129", "postcode": "32060"}}},
{"geometry": {"type": "Point", "coordinates": [-82.9758977649, 30.1447828361]}, "type": "Feature", "properties": {"collection_times": [{"days": "Mon-Fri", "time": "5:00pm"}, {"days": "Sat", "time": "11:30am"}, {"days": "Sun", "time": "Closed"}], "id": "3206200000", "name": "USPS COLLECTION BOX - BLUE BOX", "address": {"city": "MCALPIN", "state": "FL", "street": "17054 US HIGHWAY 129", "postcode": "32062"}}},
{"geometry": {"type": "Point", "coordinates": [-82.9758977649, 30.1447828361]}, "type": "Feature", "properties": {"collection_times": [{"days": "Mon-Fri", "time": "4:15pm"}, {"days": "Sat", "time": "11:30am"}, {"days": "Sun", "time": "Closed"}], "id": "3206200001", "name": "USPS COLLECTION BOX - PO LOBBY", "address": {"city": "MCALPIN", "state": "FL", "street": "17054 US HIGHWAY 129", "postcode": "32062"}}},
{"geometry": {"type": "Point", "coordinates": [-82.1240027256, 30.2820323892]}, "type": "Feature", "properties": {"collection_times": [{"days": "Mon-Sat", "time": "10:00am"}, {"days": "Sun", "time": "Closed"}], "id": "3206300000", "name": "USPS COLLECTION BOX - BLUE BOX", "address": {"city": "MACCLENNY", "state": "FL", "street": "121 W MACCLENNY AVE", "postcode": "32063"}}},
{"geometry": {"type": "Point", "coordinates": [-82.1204432475, 30.2727397625]}, "type": "Feature", "properties": {"collection_times": [{"days": "Mon-Fri", "time": "5:00pm"}, {"days": "Sat", "time": "12:00pm"}, {"days": "Sun", "time": "Closed"}], "id": "3206300004", "name": "USPS COLLECTION BOX - BLUE BOX", "address": {"city": "MACCLENNY", "state": "FL", "street": "39 W LOWDER ST", "postcode": "32063"}}},
{"geometry": {"type": "Point", "coordinates": [-82.1204432475, 30.2727397625]}, "type": "Feature", "properties": {"collection_times": [{"days": "Mon-Fri", "time": "5:00pm"}, {"days": "Sat", "time": "12:00pm"}, {"days": "Sun", "time": "Closed"}], "id": "3206300005", "name": "USPS COLLECTION BOX - PO LOBBY", "address": {"city": "MACCLENNY", "state": "FL", "street": "39 W LOWDER ST", "postcode": "32063"}}},
{"geometry": {"type": "Point", "coordinates": [-82.1204432475, 30.2727397625]}, "type": "Feature", "properties": {"collection_times": [{"days": "Mon-Fri", "time": "5:00pm"}, {"days": "Sat", "time": "12:00pm"}, {"days": "Sun", "time": "Closed"}], "id": "3206300006", "name": "USPS COLLECTION BOX - PO LOBBY", "address": {"city": "MACCLENNY", "state": "FL", "street": "39 W LOWDER ST", "postcode": "32063"}}},
{"geometry": {"type": "Point", "coordinates": [-82.1205426743, 30.2727191788]}, "type": "Feature", "properties": {"collection_times": [{"days": "Mon-Fri", "time": "5:00pm"}, {"days": "Sat-Sun", "time": "Closed"}], "id": "3206300008", "name": "USPS COLLECTION BOX - BLUE BOX", "address": {"city": "MACCLENNY", "state": "FL", "street": "39 W LOWDER ST", "postcode": "32063"}}},
{"geometry": {"type": "Point", "coordinates": [-82.985660144, 30.2940435483]}, "type": "Feature", "properties": {"collection_times": [{"days": "Mon-Fri", "time": "5:00pm"}, {"days": "Sat", "time": "12:00pm"}, {"days": "Sun", "time": "Closed"}], "id": "3206400001", "name": "USPS COLLECTION BOX - BLUE BOX", "address": {"city": "LIVE OAK", "state": "FL", "street": "400 OHIO AVE S", "postcode": "32064"}}},
{"geometry": {"type": "Point", "coordinates": [-82.985660144, 30.2940435483]}, "type": "Feature", "properties": {"collection_times": [{"days": "Mon-Fri", "time": "5:00pm"}, {"days": "Sat", "time": "12:00pm"}, {"days": "Sun", "time": "Closed"}], "id": "3206400002", "name": "USPS COLLECTION BOX - BLUE BOX", "address": {"city": "LIVE OAK", "state": "FL", "street": "400 OHIO AVE S", "postcode": "32064"}}},
{"geometry": {"type": "Point", "coordinates": [-82.985660144, 30.2940435483]}, "type": "Feature", "properties": {"collection_times": [{"days": "Mon-Fri", "time": "5:00pm"}, {"days": "Sat", "time": "12:00pm"}, {"days": "Sun", "time": "Closed"}], "id": "3206400003", "name": "USPS COLLECTION BOX - BLUE BOX", "address": {"city": "LIVE OAK", "state": "FL", "street": "400 OHIO AVE S", "postcode": "32064"}}},
{"geometry": {"type": "Point", "coordinates": [-82.985660144, 30.2940435483]}, "type": "Feature", "properties": {"collection_times": [{"days": "Mon-Fri", "time": "5:00pm"}, {"days": "Sat", "time": "12:00pm"}, {"days": "Sun", "time": "Closed"}], "id": "3206400004", "name": "USPS COLLECTION BOX - PO LOBBY", "address": {"city": "LIVE OAK", "state": "FL", "street": "400 OHIO AVE S", "postcode": "32064"}}},
{"geometry": {"type": "Point", "coordinates": [-82.985660144, 30.2940435483]}, "type": "Feature", "properties": {"collection_times": [{"days": "Mon-Fri", "time": "5:00pm"}, {"days": "Sat", "time": "12:00pm"}, {"days": "Sun", "time": "Closed"}], "id": "3206400005", "name": "USPS COLLECTION BOX - PO LOBBY", "address": {"city": "LIVE OAK", "state": "FL", "street": "400 OHIO AVE S", "postcode": "32064"}}},
{"geometry": {"type": "Point", "coordinates": [-82.985660144, 30.2940435483]}, "type": "Feature", "properties": {"collection_times": [{"days": "Mon-Fri", "time": "5:00pm"}, {"days": "Sat", "time": "12:00pm"}, {"days": "Sun", "time": "Closed"}], "id": "3206400006", "name": "USPS COLLECTION BOX - PO LOBBY", "address": {"city": "LIVE OAK", "state": "FL", "street": "400 OHIO AVE S", "postcode": "32064"}}},
{"geometry": {"type": "Point", "coordinates": [-82.9841226365, 30.2961179696]}, "type": "Feature", "properties": {"collection_times": [{"days": "Mon-Fri", "time": "4:00pm"}, {"days": "Sat", "time": "12:00pm"}, {"days": "Sun", "time": "Closed"}], "id": "3206400007", "name": "USPS COLLECTION BOX - BLUE BOX", "address": {"city": "LIVE OAK", "state": "FL", "street": "111 HOWARD ST E", "postcode": "32064"}}},
{"geometry": {"type": "Point", "coordinates": [-82.9877714551, 30.2827720865]}, "type": "Feature", "properties": {"collection_times": [{"days": "Mon-Fri", "time": "1:00pm"}, {"days": "Sat", "time": "12:00pm"}, {"days": "Sun", "time": "Closed"}], "id": "3206400008", "name": "USPS COLLECTION BOX - BLUE BOX", "address": {"city": "LIVE OAK", "state": "FL", "street": "1522 OHIO AVE S", "postcode": "32064"}}},
{"geometry": {"type": "Point", "coordinates": [-82.9930520086, 30.2901207997]}, "type": "Feature", "properties": {"collection_times": [{"days": "Mon-Fri", "time": "1:00pm"}, {"days": "Sat", "time": "12:00pm"}, {"days": "Sun", "time": "Closed"}], "id": "3206400009", "name": "USPS COLLECTION BOX - BLUE BOX", "address": {"city": "LIVE OAK", "state": "FL", "street": "500 11TH ST SW", "postcode": "32064"}}},
{"geometry": {"type": "Point", "coordinates": [-82.9775006851, 30.3080246859]}, "type": "Feature", "properties": {"collection_times": [{"days": "Mon-Fri", "time": "1:00pm"}, {"days": "Sat", "time": "12:00pm"}, {"days": "Sun", "time": "Closed"}], "id": "3206400010", "name": "USPS COLLECTION BOX - BLUE BOX", "address": {"city": "LIVE OAK", "state": "FL", "street": "1429 OHIO AVE N", "postcode": "32064"}}},
{"geometry": {"type": "Point", "coordinates": [-83.0094700292, 30.3073699574]}, "type": "Feature", "properties": {"collection_times": [{"days": "Mon-Fri", "time": "1:00pm"}, {"days": "Sat", "time": "12:00pm"}, {"days": "Sun", "time": "Closed"}], "id": "3206400011", "name": "USPS COLLECTION BOX - BLUE BOX", "address": {"city": "LIVE OAK", "state": "FL", "street": "1713 HOWARD ST W", "postcode": "32064"}}},
{"geometry": {"type": "Point", "coordinates": [-82.9846187336, 30.2958716572]}, "type": "Feature", "properties": {"collection_times": [{"days": "Mon-Fri", "time": "4:00pm"}, {"days": "Sat", "time": "12:00pm"}, {"days": "Sun", "time": "Closed"}], "id": "3206400012", "name": "USPS COLLECTION BOX - BLUE BOX", "address": {"city": "LIVE OAK", "state": "FL", "street": "200 OHIO AVE S", "postcode": "32064"}}},
{"geometry": {"type": "Point", "coordinates": [-81.7758730893, 30.1232434341]}, "type": "Feature", "properties": {"collection_times": [{"days": "Mon-Fri", "time": "5:00pm"}, {"days": "Sat", "time": "4:30pm"}, {"days": "Sun", "time": "Closed"}], "id": "3206500001", "name": "USPS COLLECTION BOX - PO LOBBY", "address": {"city": "ORANGE PARK", "state": "FL", "street": "225 COLLEGE DR", "postcode": "32065"}}},
{"geometry": {"type": "Point", "coordinates": [-81.7758730893, 30.1232434341]}, "type": "Feature", "properties": {"collection_times": [{"days": "Mon-Fri", "time": "5:00pm"}, {"days": "Sat", "time": "4:30pm"}, {"days": "Sun", "time": "Closed"}], "id": "3206500002", "name": "USPS COLLECTION BOX - PO LOBBY", "address": {"city": "ORANGE PARK", "state": "FL", "street": "225 COLLEGE DR", "postcode": "32065"}}},
{"geometry": {"type": "Point", "coordinates": [-81.7758730893, 30.1232434341]}, "type": "Feature", "properties": {"collection_times": [{"days": "Mon-Fri", "time": "5:00pm"}, {"days": "Sat", "time": "4:30pm"}, {"days": "Sun", "time": "Closed"}], "id": "3206500003", "name": "USPS COLLECTION BOX - BLUE BOX", "address": {"city": "ORANGE PARK", "state": "FL", "street": "225 COLLEGE DR", "postcode": "32065"}}},
{"geometry": {"type": "Point", "coordinates": [-81.7758730893, 30.1232434341]}, "type": "Feature", "properties": {"collection_times": [{"days": "Mon-Fri", "time": "5:00pm"}, {"days": "Sat", "time": "4:30pm"}, {"days": "Sun", "time": "Closed"}], "id": "3206500004", "name": "USPS COLLECTION BOX - BLUE BOX", "address": {"city": "ORANGE PARK", "state": "FL", "street": "225 COLLEGE DR", "postcode": "32065"}}},
{"geometry": {"type": "Point", "coordinates": [-81.7758730893, 30.1232434341]}, "type": "Feature", "properties": {"collection_times": [{"days": "Mon-Fri", "time": "5:00pm"}, {"days": "Sat", "time": "4:30pm"}, {"days": "Sun", "time": "Closed"}], "id": "3206500005", "name": "USPS COLLECTION BOX - PO LOBBY", "address": {"city": "ORANGE PARK", "state": "FL", "street": "225 COLLEGE DR", "postcode": "32065"}}},
{"geometry": {"type": "Point", "coordinates": [-81.782634132, 30.1327506955]}, "type": "Feature", "properties": {"collection_times": [{"days": "Mon-Sat", "time": "12:00pm"}, {"days": "Sun", "time": "Closed"}], "id": "3206500007", "name": "USPS COLLECTION BOX - BLUE BOX", "address": {"city": "ORANGE PARK", "state": "FL", "street": "950 BLANDING BLVD", "postcode": "32065"}}},
{"geometry": {"type": "Point", "coordinates": [-81.761100459, 30.1456960935]}, "type": "Feature", "properties": {"collection_times": [{"days": "Mon-Fri", "time": "4:00pm"}, {"days": "Sat", "time": "12:00pm"}, {"days": "Sun", "time": "Closed"}], "id": "3206500008", "name": "USPS COLLECTION BOX - BLUE BOX", "address": {"city": "ORANGE PARK", "state": "FL", "street": "752 BLANDING BLVD", "postcode": "32065"}}},
{"geometry": {"type": "Point", "coordinates": [-83.1743902578, 30.0530786658]}, "type": "Feature", "properties": {"collection_times": [{"days": "Mon-Fri", "time": "4:30pm"}, {"days": "Sat", "time": "12:00pm"}, {"days": "Sun", "time": "Closed"}], "id": "3206600000", "name": "USPS COLLECTION BOX - BLUE BOX", "address": {"city": "MAYO", "state": "FL", "street": "157 E MAIN ST", "postcode": "32066"}}},
{"geometry": {"type": "Point", "coordinates": [-83.1743902578, 30.0530786658]}, "type": "Feature", "properties": {"collection_times": [{"days": "Mon-Fri", "time": "4:30pm"}, {"days": "Sat", "time": "12:00pm"}, {"days": "Sun", "time": "Closed"}], "id": "3206600002", "name": "USPS COLLECTION BOX - PO LOBBY", "address": {"city": "MAYO", "state": "FL", "street": "157 E MAIN ST", "postcode": "32066"}}},
{"geometry": {"type": "Point", "coordinates": [-83.1743902578, 30.0530786658]}, "type": "Feature", "properties": {"collection_times": [{"days": "Mon-Fri", "time": "4:30pm"}, {"days": "Sat", "time": "12:00pm"}, {"days": "Sun", "time": "Closed"}], "id": "3206600003", "name": "USPS COLLECTION BOX - PO LOBBY", "address": {"city": "MAYO", "state": "FL", "street": "157 E MAIN ST", "postcode": "32066"}}},
{"geometry": {"type": "Point", "coordinates": [-81.863065607, 30.0726767684]}, "type": "Feature", "properties": {"collection_times": [{"days": "Mon-Fri", "time": "4:30pm"}, {"days": "Sat", "time": "2:00pm"}, {"days": "Sun", "time": "Closed"}], "id": "3206800000", "name": "USPS COLLECTION BOX - BLUE BOX", "address": {"city": "MIDDLEBURG", "state": "FL", "street": "2073 PALMETTO ST", "postcode": "32068"}}},
{"geometry": {"type": "Point", "coordinates": [-81.863065607, 30.0726767684]}, "type": "Feature", "properties": {"collection_times": [{"days": "Mon-Fri", "time": "4:30pm"}, {"days": "Sat", "time": "2:00pm"}, {"days": "Sun", "time": "Closed"}], "id": "3206800001", "name": "USPS COLLECTION BOX - BLUE BOX", "address": {"city": "MIDDLEBURG", "state": "FL", "street": "2073 PALMETTO ST", "postcode": "32068"}}},
{"geometry": {"type": "Point", "coordinates": [-81.863065607, 30.0726767684]}, "type": "Feature", "properties": {"collection_times": [{"days": "Mon-Fri", "time": "5:00pm"}, {"days": "Sat", "time": "2:00pm"}, {"days": "Sun", "time": "Closed"}], "id": "3206800003", "name": "USPS COLLECTION BOX - PO LOBBY", "address": {"city": "MIDDLEBURG", "state": "FL", "street": "2073 PALMETTO ST", "postcode": "32068"}}},
{"geometry": {"type": "Point", "coordinates": [-81.888228245, 30.0501678029]}, "type": "Feature", "properties": {"collection_times": [{"days": "Mon-Fri", "time": "1:30pm"}, {"days": "Sat", "time": "1:00pm"}, {"days": "Sun", "time": "Closed"}], "id": "3206800005", "name": "USPS COLLECTION BOX - BLUE BOX", "address": {"city": "MIDDLEBURG", "state": "FL", "street": "2720 BLANDING BLVD", "postcode": "32068"}}},
{"geometry": {"type": "Point", "coordinates": [-81.863065607, 30.0726767684]}, "type": "Feature", "properties": {"collection_times": [{"days": "Mon-Fri", "time": "5:00pm"}, {"days": "Sat", "time": "2:00pm"}, {"days": "Sun", "time": "Closed"}], "id": "3206800006", "name": "USPS COLLECTION BOX - PO LOBBY", "address": {"city": "MIDDLEBURG", "state": "FL", "street": "2073 PALMETTO ST", "postcode": "32068"}}},
{"geometry": {"type": "Point", "coordinates": [-82.9445094452, 30.0445131442]}, "type": "Feature", "properties": {"collection_times": [{"days": "Mon-Fri", "time": "4:00pm"}, {"days": "Sat", "time": "12:00pm"}, {"days": "Sun", "time": "Closed"}], "id": "3207100000", "name": "USPS COLLECTION BOX - BLUE BOX", "address": {"city": "OBRIEN", "state": "FL", "street": "22654 US HIGHWAY 129", "postcode": "32071"}}},
{"geometry": {"type": "Point", "coordinates": [-82.9445094452, 30.0445131442]}, "type": "Feature", "properties": {"collection_times": [{"days": "Mon-Fri", "time": "4:00pm"}, {"days": "Sat", "time": "12:00pm"}, {"days": "Sun", "time": "Closed"}], "id": "3207100001", "name": "USPS COLLECTION BOX - PO LOBBY", "address": {"city": "OBRIEN", "state": "FL", "street": "22654 US HIGHWAY 129", "postcode": "32071"}}},
{"geometry": {"type": "Point", "coordinates": [-82.9445094452, 30.0445131442]}, "type": "Feature", "properties": {"collection_times": [{"days": "Mon-Fri", "time": "4:00pm"}, {"days": "Sat", "time": "12:00pm"}, {"days": "Sun", "time": "Closed"}], "id": "3207100002", "name": "USPS COLLECTION BOX - PO LOBBY", "address": {"city": "OBRIEN", "state": "FL", "street": "22654 US HIGHWAY 129", "postcode": "32071"}}},
{"geometry": {"type": "Point", "coordinates": [-81.7265461651, 30.1863231292]}, "type": "Feature", "properties": {"collection_times": [{"days": "Mon-Fri", "time": "4:00pm"}, {"days": "Sat-Sun", "time": "Closed"}], "id": "3207300024", "name": "USPS COLLECTION BOX - BLUE BOX", "address": {"city": "ORANGE PARK", "state": "FL", "street": "1700 WELLS RD", "postcode": "32073"}}},
{"geometry": {"type": "Point", "coordinates": [-81.6958656923, 30.1677022645]}, "type": "Feature", "properties": {"collection_times": [{"days": "Mon-Fri", "time": "4:00pm"}, {"days": "Sat", "time": "1:00pm"}, {"days": "Sun", "time": "Closed"}], "id": "3207300032", "name": "USPS COLLECTION BOX - BLUE BOX", "address": {"city": "ORANGE PARK", "state": "FL", "street": "1700 RIVER RD", "postcode": "32073"}}},
{"geometry": {"type": "Point", "coordinates": [-81.700793211, 30.1605753513]}, "type": "Feature", "properties": {"collection_times": [{"days": "Mon-Fri", "time": "4:00pm"}, {"days": "Sat", "time": "12:30pm"}, {"days": "Sun", "time": "Closed"}], "id": "3207300033", "name": "USPS COLLECTION BOX - BLUE BOX", "address": {"city": "ORANGE PARK", "state": "FL", "street": "2301 PARK AVE", "postcode": "32073"}}},
{"geometry": {"type": "Point", "coordinates": [-81.7011322216, 30.1633834125]}, "type": "Feature", "properties": {"collection_times": [{"days": "Mon-Fri", "time": "3:30pm"}, {"days": "Sat", "time": "12:30pm"}, {"days": "Sun", "time": "Closed"}], "id": "3207300034", "name": "USPS COLLECTION BOX - BLUE BOX", "address": {"city": "ORANGE PARK", "state": "FL", "street": "2140 PARK AVE", "postcode": "32073"}}},
{"geometry": {"type": "Point", "coordinates": [-81.7008582737, 30.1621676141]}, "type": "Feature", "properties": {"collection_times": [{"days": "Mon-Fri", "time": "4:00pm"}, {"days": "Sat", "time": "12:30pm"}, {"days": "Sun", "time": "Closed"}], "id": "3207300036", "name": "USPS COLLECTION BOX - BLUE BOX", "address": {"city": "ORANGE PARK", "state": "FL", "street": "2233 PARK AVE", "postcode": "32073"}}},
{"geometry": {"type": "Point", "coordinates": [-81.7014965522, 30.1724168949]}, "type": "Feature", "properties": {"collection_times": [{"days": "Mon-Fri", "time": "3:00pm"}, {"days": "Sat", "time": "12:30pm"}, {"days": "Sun", "time": "Closed"}], "id": "3207300037", "name": "USPS COLLECTION BOX - BLUE BOX", "address": {"city": "ORANGE PARK", "state": "FL", "street": "1476 PARK AVE", "postcode": "32073"}}},
{"geometry": {"type": "Point", "coordinates": [-81.7547161308, 30.1653038379]}, "type": "Feature", "properties": {"collection_times": [{"days": "Mon-Fri", "time": "3:00pm"}, {"days": "Sat", "time": "12:30pm"}, {"days": "Sun", "time": "Closed"}], "id": "3207300041", "name": "USPS COLLECTION BOX - BLUE BOX", "address": {"city": "ORANGE PARK", "state": "FL", "street": "2156 LOCH RANE BLVD", "postcode": "32073"}}},
{"geometry": {"type": "Point", "coordinates": [-81.7357112566, 30.164726994]}, "type": "Feature", "properties": {"collection_times": [{"days": "Mon-Fri", "time": "3:00pm"}, {"days": "Sat", "time": "12:30pm"}, {"days": "Sun", "time": "Closed"}], "id": "3207300044", "name": "USPS COLLECTION BOX - BLUE BOX", "address": {"city": "ORANGE PARK", "state": "FL", "street": "1895 KINGSLEY AVE", "postcode": "32073"}}},
{"geometry": {"type": "Point", "coordinates": [-81.7381284264, 30.1646568691]}, "type": "Feature", "properties": {"collection_times": [{"days": "Mon-Fri", "time": "3:00pm"}, {"days": "Sat-Sun", "time": "Closed"}], "id": "3207300047", "name": "USPS COLLECTION BOX - BLUE BOX", "address": {"city": "ORANGE PARK", "state": "FL", "street": "2001 KINGSLEY AVE", "postcode": "32073"}}},
{"geometry": {"type": "Point", "coordinates": [-81.7446504135, 30.1692423054]}, "type": "Feature", "properties": {"collection_times": [{"days": "Mon-Fri", "time": "4:00pm"}, {"days": "Sat", "time": "12:30pm"}, {"days": "Sun", "time": "Closed"}], "id": "3207300050", "name": "USPS COLLECTION BOX - BLUE BOX", "address": {"city": "ORANGE PARK", "state": "FL", "street": "1008 INDUSTRIAL LOOP", "postcode": "32073"}}},
{"geometry": {"type": "Point", "coordinates": [-81.7661755489, 30.1700235306]}, "type": "Feature", "properties": {"collection_times": [{"days": "Mon-Fri", "time": "3:00pm"}, {"days": "Sat", "time": "12:30pm"}, {"days": "Sun", "time": "Closed"}], "id": "3207300056", "name": "USPS COLLECTION BOX - BLUE BOX", "address": {"city": "ORANGE PARK", "state": "FL", "street": "2525 COUNTRY CLUB BLVD", "postcode": "32073"}}},
{"geometry": {"type": "Point", "coordinates": [-81.7464513462, 30.1718885136]}, "type": "Feature", "properties": {"collection_times": [{"days": "Mon-Fri", "time": "3:00pm"}, {"days": "Sat", "time": "12:30pm"}, {"days": "Sun", "time": "Closed"}], "id": "3207300066", "name": "USPS COLLECTION BOX - BLUE BOX", "address": {"city": "ORANGE PARK", "state": "FL", "street": "301 BLANDING BLVD", "postcode": "32073"}}},
{"geometry": {"type": "Point", "coordinates": [-81.7314051019, 30.1867133452]}, "type": "Feature", "properties": {"collection_times": [{"days": "Mon-Fri", "time": "4:00pm"}, {"days": "Sat-Sun", "time": "Closed"}], "id": "3207300075", "name": "USPS COLLECTION BOX - BLUE BOX", "address": {"city": "ORANGE PARK", "state": "FL", "street": "1857 WELLS RD", "postcode": "32073"}}},
{"geometry": {"type": "Point", "coordinates": [-81.7217518612, 30.1651547784]}, "type": "Feature", "properties": {"collection_times": [{"days": "Mon-Fri", "time": "5:00pm"}, {"days": "Sat", "time": "4:30pm"}, {"days": "Sun", "time": "Closed"}], "id": "3207300080", "name": "USPS COLLECTION BOX - BLUE BOX", "address": {"city": "ORANGE PARK", "state": "FL", "street": "1335 KINGSLEY AVE", "postcode": "32073"}}},
{"geometry": {"type": "Point", "coordinates": [-81.7217518612, 30.1651547784]}, "type": "Feature", "properties": {"collection_times": [{"days": "Mon-Fri", "time": "5:00pm"}, {"days": "Sat", "time": "4:30pm"}, {"days": "Sun", "time": "Closed"}], "id": "3207300081", "name": "USPS COLLECTION BOX - BLUE BOX", "address": {"city": "ORANGE PARK", "state": "FL", "street": "1335 KINGSLEY AVE", "postcode": "32073"}}},
{"geometry": {"type": "Point", "coordinates": [-81.7050207062, 30.1658918249]}, "type": "Feature", "properties": {"collection_times": [{"days": "Mon-Fri", "time": "3:30pm"}, {"days": "Sat-Sun", "time": "Closed"}], "id": "3207300087", "name": "USPS COLLECTION BOX - BLUE BOX", "address": {"city": "ORANGE PARK", "state": "FL", "street": "514 KINGSLEY AVE", "postcode": "32073"}}},
{"geometry": {"type": "Point", "coordinates": [-81.7217518612, 30.1651547784]}, "type": "Feature", "properties": {"collection_times": [{"days": "Mon-Fri", "time": "5:00pm"}, {"days": "Sat", "time": "4:30pm"}, {"days": "Sun", "time": "Closed"}], "id": "3207300089", "name": "USPS COLLECTION BOX - PO LOBBY", "address": {"city": "ORANGE PARK", "state": "FL", "street": "1335 KINGSLEY AVE", "postcode": "32073"}}},
{"geometry": {"type": "Point", "coordinates": [-81.7217518612, 30.1651547784]}, "type": "Feature", "properties": {"collection_times": [{"days": "Mon-Fri", "time": "5:00pm"}, {"days": "Sat", "time": "4:30pm"}, {"days": "Sun", "time": "Closed"}], "id": "3207300100", "name": "USPS COLLECTION BOX - APC", "address": {"city": "ORANGE PARK", "state": "FL", "street": "1335 KINGSLEY AVE", "postcode": "32073"}}},
{"geometry": {"type": "Point", "coordinates": [-81.7217518612, 30.1651547784]}, "type": "Feature", "properties": {"collection_times": [{"days": "Mon-Fri", "time": "5:00pm"}, {"days": "Sat", "time": "4:30pm"}, {"days": "Sun", "time": "Closed"}], "id": "3207300103", "name": "USPS COLLECTION BOX - PO LOBBY", "address": {"city": "ORANGE PARK", "state": "FL", "street": "1335 KINGSLEY AVE", "postcode": "32073"}}},
{"geometry": {"type": "Point", "coordinates": [-81.7217518612, 30.1651547784]}, "type": "Feature", "properties": {"collection_times": [{"days": "Mon-Fri", "time": "5:00pm"}, {"days": "Sat", "time": "4:30pm"}, {"days": "Sun", "time": "Closed"}], "id": "3207300109", "name": "USPS COLLECTION BOX - PO LOBBY", "address": {"city": "ORANGE PARK", "state": "FL", "street": "1335 KINGSLEY AVE", "postcode": "32073"}}},
{"geometry": {"type": "Point", "coordinates": [-81.8105802729, 29.9788174805]}, "type": "Feature", "properties": {"collection_times": [{"days": "Mon-Fri", "time": "4:00pm"}, {"days": "Sat", "time": "11:30am"}, {"days": "Sun", "time": "Closed"}], "id": "3207900001", "name": "USPS COLLECTION BOX - BLUE BOX", "address": {"city": "PENNEY FARMS", "state": "FL", "street": "4380 LEWIS AVE", "postcode": "32079"}}},
{"geometry": {"type": "Point", "coordinates": [-81.8105802729, 29.9788174805]}, "type": "Feature", "properties": {"collection_times": [{"days": "Mon-Fri", "time": "4:00pm"}, {"days": "Sat", "time": "11:30am"}, {"days": "Sun", "time": "Closed"}], "id": "3207900002", "name": "USPS COLLECTION BOX - PO LOBBY", "address": {"city": "PENNEY FARMS", "state": "FL", "street": "4380 LEWIS AVE", "postcode": "32079"}}},
{"geometry": {"type": "Point", "coordinates": [-81.2694236755, 29.8326745047]}, "type": "Feature", "properties": {"collection_times": [{"days": "Mon-Fri", "time": "5:00pm"}, {"days": "Sat", "time": "10:00am"}, {"days": "Sun", "time": "Closed"}], "id": "3208000001", "name": "USPS COLLECTION BOX - BLUE BOX", "address": {"city": "ST AUGUSTINE", "state": "FL", "street": "1033 A1A BEACH BLVD", "postcode": "32080"}}},
{"geometry": {"type": "Point", "coordinates": [-81.2816184469, 29.8597832305]}, "type": "Feature", "properties": {"collection_times": [{"days": "Mon-Sat", "time": "11:00am"}, {"days": "Sun", "time": "Closed"}], "id": "3208000002", "name": "USPS COLLECTION BOX - BLUE BOX", "address": {"city": "ST AUGUSTINE", "state": "FL", "street": "1963 A1A S", "postcode": "32080"}}},
{"geometry": {"type": "Point", "coordinates": [-81.2800528244, 29.8554469331]}, "type": "Feature", "properties": {"collection_times": [{"days": "Mon-Fri", "time": "5:00pm"}, {"days": "Sat", "time": "10:00am"}, {"days": "Sun", "time": "Closed"}], "id": "3208000003", "name": "USPS COLLECTION BOX - BLUE BOX", "address": {"city": "ST AUGUSTINE", "state": "FL", "street": "2200 A1A S", "postcode": "32080"}}},
{"geometry": {"type": "Point", "coordinates": [-81.2717493545, 29.8253302073]}, "type": "Feature", "properties": {"collection_times": [{"days": "Mon-Sat", "time": "11:00am"}, {"days": "Sun", "time": "Closed"}], "id": "3208000005", "name": "USPS COLLECTION BOX - BLUE BOX", "address": {"city": "ST AUGUSTINE", "state": "FL", "street": "3905 A1A S", "postcode": "32080"}}},
{"geometry": {"type": "Point", "coordinates": [-81.2532753119, 29.7680939048]}, "type": "Feature", "properties": {"collection_times": [{"days": "Mon-Sat", "time": "10:00am"}, {"days": "Sun", "time": "Closed"}], "id": "3208000006", "name": "USPS COLLECTION BOX - BLUE BOX", "address": {"city": "ST AUGUSTINE", "state": "FL", "street": "6929 A1A S", "postcode": "32080"}}},
{"geometry": {"type": "Point", "coordinates": [-81.2957823672, 29.8633024952]}, "type": "Feature", "properties": {"collection_times": [{"days": "Mon-Sat", "time": "11:00am"}, {"days": "Sun", "time": "Closed"}], "id": "3208000007", "name": "USPS COLLECTION BOX - BLUE BOX", "address": {"city": "ST AUGUSTINE", "state": "FL", "street": "1301 PLANTATION ISLAND DR S", "postcode": "32080"}}},
{"geometry": {"type": "Point", "coordinates": [-81.2784200784, 29.8592697881]}, "type": "Feature", "properties": {"collection_times": [{"days": "Mon-Sat", "time": "10:00am"}, {"days": "Sun", "time": "Closed"}], "id": "3208000008", "name": "USPS COLLECTION BOX - BLUE BOX", "address": {"city": "ST AUGUSTINE", "state": "FL", "street": "901 POPE RD", "postcode": "32080"}}},
{"geometry": {"type": "Point", "coordinates": [-81.2781273549, 29.8450300645]}, "type": "Feature", "properties": {"collection_times": [{"days": "Mon-Fri", "time": "5:00pm"}, {"days": "Sat", "time": "1:00pm"}, {"days": "Sun", "time": "Closed"}], "id": "3208000009", "name": "USPS COLLECTION BOX - BLUE BOX", "address": {"city": "ST AUGUSTINE", "state": "FL", "street": "138 SEA GROVE MAIN ST", "postcode": "32080"}}},
{"geometry": {"type": "Point", "coordinates": [-81.378005113, 30.1882707866]}, "type": "Feature", "properties": {"collection_times": [{"days": "Mon-Fri", "time": "3:45pm"}, {"days": "Sat", "time": "2:00pm"}, {"days": "Sun", "time": "Closed"}], "id": "3208200002", "name": "USPS COLLECTION BOX - BLUE BOX", "address": {"city": "PONTE VEDRA", "state": "FL", "street": "10033 SAWGRASS DR W", "postcode": "32082"}}},
{"geometry": {"type": "Point", "coordinates": [-81.3800593817, 30.1899064031]}, "type": "Feature", "properties": {"collection_times": [{"days": "Mon-Fri", "time": "4:45pm"}, {"days": "Sat", "time": "3:00pm"}, {"days": "Sun", "time": "Closed"}], "id": "3208200003", "name": "USPS COLLECTION BOX - BLUE BOX", "address": {"city": "PONTE VEDRA", "state": "FL", "street": "880 US HIGHWAY A1A N", "postcode": "32082"}}},
{"geometry": {"type": "Point", "coordinates": [-81.3800593817, 30.1899064031]}, "type": "Feature", "properties": {"collection_times": [{"days": "Mon-Fri", "time": "4:45pm"}, {"days": "Sat", "time": "3:00pm"}, {"days": "Sun", "time": "Closed"}], "id": "3208200004", "name": "USPS COLLECTION BOX - BLUE BOX", "address": {"city": "PONTE VEDRA", "state": "FL", "street": "880 US HIGHWAY A1A N", "postcode": "32082"}}},
{"geometry": {"type": "Point", "coordinates": [-81.3818414489, 30.1948362089]}, "type": "Feature", "properties": {"collection_times": [{"days": "Mon-Fri", "time": "5:00pm"}, {"days": "Sat", "time": "3:00pm"}, {"days": "Sun", "time": "Closed"}], "id": "3208200005", "name": "USPS COLLECTION BOX - PO LOBBY", "address": {"city": "PONTE VEDRA", "state": "FL", "street": "130 CORRIDOR RD", "postcode": "32082"}}},
{"geometry": {"type": "Point", "coordinates": [-81.3818414489, 30.1948362089]}, "type": "Feature", "properties": {"collection_times": [{"days": "Mon-Fri", "time": "5:00pm"}, {"days": "Sat", "time": "3:00pm"}, {"days": "Sun", "time": "Closed"}], "id": "3208200006", "name": "USPS COLLECTION BOX - PO LOBBY", "address": {"city": "PONTE VEDRA", "state": "FL", "street": "130 CORRIDOR RD", "postcode": "32082"}}},
{"geometry": {"type": "Point", "coordinates": [-81.3873319473, 30.2244286526]}, "type": "Feature", "properties": {"collection_times": [{"days": "Mon-Fri", "time": "4:25pm"}, {"days": "Sat", "time": "2:45pm"}, {"days": "Sun", "time": "Closed"}], "id": "3208200010", "name": "USPS COLLECTION BOX - BLUE BOX", "address": {"city": "PONTE VEDRA", "state": "FL", "street": "200 LA PASADA CIR E", "postcode": "32082"}}},
{"geometry": {"type": "Point", "coordinates": [-81.3888009037, 30.2272686648]}, "type": "Feature", "properties": {"collection_times": [{"days": "Mon-Fri", "time": "4:20pm"}, {"days": "Sat", "time": "2:45pm"}, {"days": "Sun", "time": "Closed"}], "id": "3208200011", "name": "USPS COLLECTION BOX - BLUE BOX", "address": {"city": "PONTE VEDRA", "state": "FL", "street": "254 SOLANA RD", "postcode": "32082"}}},
{"geometry": {"type": "Point", "coordinates": [-81.3850934031, 30.2072206063]}, "type": "Feature", "properties": {"collection_times": [{"days": "Mon-Fri", "time": "4:30pm"}, {"days": "Sat", "time": "2:45pm"}, {"days": "Sun", "time": "Closed"}], "id": "3208200014", "name": "USPS COLLECTION BOX - BLUE BOX", "address": {"city": "PONTE VEDRA", "state": "FL", "street": "13000 SAWGRASS VILLAGE CIR", "postcode": "32082"}}},
{"geometry": {"type": "Point", "coordinates": [-81.3876249353, 30.2242422028]}, "type": "Feature", "properties": {"collection_times": [{"days": "Mon-Fri", "time": "4:25pm"}, {"days": "Sat", "time": "2:45pm"}, {"days": "Sun", "time": "Closed"}], "id": "3208200015", "name": "USPS COLLECTION BOX - BLUE BOX", "address": {"city": "PONTE VEDRA", "state": "FL", "street": "200 LA PASADA CIR E", "postcode": "32082"}}},
{"geometry": {"type": "Point", "coordinates": [-81.3891204857, 30.2506926505]}, "type": "Feature", "properties": {"collection_times": [{"days": "Mon-Fri", "time": "4:05pm"}, {"days": "Sat", "time": "2:25pm"}, {"days": "Sun", "time": "Closed"}], "id": "3208200018", "name": "USPS COLLECTION BOX - BLUE BOX", "address": {"city": "PONTE VEDRA", "state": "FL", "street": "115 PROFESSIONAL DR", "postcode": "32082"}}},
{"geometry": {"type": "Point", "coordinates": [-81.3818414489, 30.1948362089]}, "type": "Feature", "properties": {"collection_times": [{"days": "Mon-Fri", "time": "5:00pm"}, {"days": "Sat", "time": "3:00pm"}, {"days": "Sun", "time": "Closed"}], "id": "3208200022", "name": "USPS COLLECTION BOX - PO LOBBY", "address": {"city": "PONTE VEDRA", "state": "FL", "street": "130 CORRIDOR RD", "postcode": "32082"}}},
{"geometry": {"type": "Point", "coordinates": [-81.3818414489, 30.1948362089]}, "type": "Feature", "properties": {"collection_times": [{"days": "Mon-Fri", "time": "5:00pm"}, {"days": "Sat", "time": "3:00pm"}, {"days": "Sun", "time": "Closed"}], "id": "3208200023", "name": "USPS COLLECTION BOX - BLUE BOX", "address": {"city": "PONTE VEDRA", "state": "FL", "street": "130 CORRIDOR RD", "postcode": "32082"}}},
{"geometry": {"type": "Point", "coordinates": [-81.3789597609, 30.2137245147]}, "type": "Feature", "properties": {"collection_times": [{"days": "Mon-Fri", "time": "3:45pm"}, {"days": "Sat", "time": "2:15pm"}, {"days": "Sun", "time": "Closed"}], "id": "3208200027", "name": "USPS COLLECTION BOX - BLUE BOX", "address": {"city": "PONTE VEDRA", "state": "FL", "street": "100 EXECUTIVE WAY", "postcode": "32082"}}},
{"geometry": {"type": "Point", "coordinates": [-81.38182, 30.195541]}, "type": "Feature", "properties": {"collection_times": [{"days": "Mon-Fri", "time": "4:30pm"}, {"days": "Sat", "time": "2:45pm"}, {"days": "Sun", "time": "Closed"}], "id": "3208200029", "name": "USPS COLLECTION BOX - BLUE BOX", "address": {"city": "PONTE VEDRA", "state": "FL", "street": "152 FRONT ST", "postcode": "32082"}}},
{"geometry": {"type": "Point", "coordinates": [-81.3818414489, 30.1948362089]}, "type": "Feature", "properties": {"collection_times": [{"days": "Mon-Fri", "time": "5:00pm"}, {"days": "Sat", "time": "3:00pm"}, {"days": "Sun", "time": "Closed"}], "id": "3208200030", "name": "USPS COLLECTION BOX - APC", "address": {"city": "PONTE VEDRA", "state": "FL", "street": "130 CORRIDOR RD", "postcode": "32082"}}},
{"geometry": {"type": "Point", "coordinates": [-81.3878121421, 30.2468684166]}, "type": "Feature", "properties": {"collection_times": [{"days": "Mon-Fri", "time": "4:00pm"}, {"days": "Sat", "time": "2:30pm"}, {"days": "Sun", "time": "Closed"}], "id": "3208200032", "name": "USPS COLLECTION BOX - BLUE BOX", "address": {"city": "PONTE VEDRA", "state": "FL", "street": "110 US HIGHWAY A1A N", "postcode": "32082"}}},
{"geometry": {"type": "Point", "coordinates": [-82.1936085319, 30.0981945301]}, "type": "Feature", "properties": {"collection_times": [{"days": "Mon-Fri", "time": "1:00pm"}, {"days": "Sat", "time": "12:00pm"}, {"days": "Sun", "time": "Closed"}], "id": "3208300001", "name": "USPS COLLECTION BOX - BLUE BOX", "address": {"city": "RAIFORD", "state": "FL", "street": "13132 NE STATE ROAD 121", "postcode": "32083"}}},
{"geometry": {"type": "Point", "coordinates": [-82.1936085319, 30.0981945301]}, "type": "Feature", "properties": {"collection_times": [{"days": "Mon-Fri", "time": "1:00pm"}, {"days": "Sat", "time": "12:00pm"}, {"days": "Sun", "time": "Closed"}], "id": "3208300002", "name": "USPS COLLECTION BOX - PO LOBBY", "address": {"city": "RAIFORD", "state": "FL", "street": "13132 NE STATE ROAD 121", "postcode": "32083"}}},
{"geometry": {"type": "Point", "coordinates": [-81.3232726165, 29.8690994876]}, "type": "Feature", "properties": {"collection_times": [{"days": "Mon-Fri", "time": "5:00pm"}, {"days": "Sat", "time": "11:00am"}, {"days": "Sun", "time": "Closed"}], "id": "3208400009", "name": "USPS COLLECTION BOX - BLUE BOX", "address": {"city": "SAINT AUGUSTINE", "state": "FL", "street": "1777 US HIGHWAY 1 S", "postcode": "32084"}}},
{"geometry": {"type": "Point", "coordinates": [-81.3250393083, 29.87997157]}, "type": "Feature", "properties": {"collection_times": [{"days": "Mon-Fri", "time": "5:00pm"}, {"days": "Sat", "time": "10:00am"}, {"days": "Sun", "time": "Closed"}], "id": "3208400012", "name": "USPS COLLECTION BOX - BLUE BOX", "address": {"city": "SAINT AUGUSTINE", "state": "FL", "street": "1010 S PONCE DE LEON BLVD", "postcode": "32084"}}},
{"geometry": {"type": "Point", "coordinates": [-81.3164545751, 29.9026406127]}, "type": "Feature", "properties": {"collection_times": [{"days": "Mon-Sat", "time": "3:00pm"}, {"days": "Sun", "time": "Closed"}], "id": "3208400023", "name": "USPS COLLECTION BOX - BLUE BOX", "address": {"city": "SAINT AUGUSTINE", "state": "FL", "street": "88 SAN MARCO AVE", "postcode": "32084"}}},
{"geometry": {"type": "Point", "coordinates": [-81.322977647, 29.891130731]}, "type": "Feature", "properties": {"collection_times": [{"days": "Mon-Fri", "time": "6:00pm"}, {"days": "Sat", "time": "4:30pm"}, {"days": "Sun", "time": "Closed"}], "id": "3208400030", "name": "USPS COLLECTION BOX - BLUE BOX", "address": {"city": "SAINT AUGUSTINE", "state": "FL", "street": "99 KING ST", "postcode": "32084"}}},
{"geometry": {"type": "Point", "coordinates": [-81.3208279744, 29.9042281436]}, "type": "Feature", "properties": {"collection_times": [{"days": "Mon-Fri", "time": "5:00pm"}, {"days": "Sat", "time": "10:00am"}, {"days": "Sun", "time": "Closed"}], "id": "3208400039", "name": "USPS COLLECTION BOX - BLUE BOX", "address": {"city": "SAINT AUGUSTINE", "state": "FL", "street": "1300 N PONCE DE LEON BLVD", "postcode": "32084"}}},
{"geometry": {"type": "Point", "coordinates": [-81.3148067132, 29.8959770048]}, "type": "Feature", "properties": {"collection_times": [{"days": "Mon-Sat", "time": "4:00pm"}, {"days": "Sun", "time": "Closed"}], "id": "3208400051", "name": "USPS COLLECTION BOX - BLUE BOX", "address": {"city": "SAINT AUGUSTINE", "state": "FL", "street": "28 CORDOVA ST", "postcode": "32084"}}},
{"geometry": {"type": "Point", "coordinates": [-81.3209983205, 29.8934265453]}, "type": "Feature", "properties": {"collection_times": [{"days": "Mon-Fri", "time": "5:00pm"}, {"days": "Sat", "time": "10:00am"}, {"days": "Sun", "time": "Closed"}], "id": "3208400056", "name": "USPS COLLECTION BOX - BLUE BOX", "address": {"city": "SAINT AUGUSTINE", "state": "FL", "street": "170 MALAGA ST", "postcode": "32084"}}},
{"geometry": {"type": "Point", "coordinates": [-81.3161481887, 29.8917680368]}, "type": "Feature", "properties": {"collection_times": [{"days": "Mon-Fri", "time": "6:00pm"}, {"days": "Sat", "time": "4:30pm"}, {"days": "Sun", "time": "Closed"}], "id": "3208400098", "name": "USPS COLLECTION BOX - PO LOBBY", "address": {"city": "SAINT AUGUSTINE", "state": "FL", "street": "99 KING ST", "postcode": "32084"}}},
{"geometry": {"type": "Point", "coordinates": [-81.3161481887, 29.8917680368]}, "type": "Feature", "properties": {"collection_times": [{"days": "Mon-Fri", "time": "6:00pm"}, {"days": "Sat", "time": "4:30pm"}, {"days": "Sun", "time": "Closed"}], "id": "3208400099", "name": "USPS COLLECTION BOX - PO LOBBY", "address": {"city": "SAINT AUGUSTINE", "state": "FL", "street": "99 KING ST", "postcode": "32084"}}},
{"geometry": {"type": "Point", "coordinates": [-81.3161481887, 29.8917680368]}, "type": "Feature", "properties": {"collection_times": [{"days": "Mon-Fri", "time": "6:00pm"}, {"days": "Sat", "time": "4:30pm"}, {"days": "Sun", "time": "Closed"}], "id": "3208400118", "name": "USPS COLLECTION BOX - PO LOBBY", "address": {"city": "SAINT AUGUSTINE", "state": "FL", "street": "99 KING ST", "postcode": "32084"}}},
{"geometry": {"type": "Point", "coordinates": [-81.3381027241, 29.9398115493]}, "type": "Feature", "properties": {"collection_times": [{"days": "Mon-Fri", "time": "5:00pm"}, {"days": "Sat-Sun", "time": "Closed"}], "id": "3208400120", "name": "USPS COLLECTION BOX - BLUE BOX", "address": {"city": "SAINT AUGUSTINE", "state": "FL", "street": "4030 LEWIS SPEEDWAY", "postcode": "32084"}}},
{"geometry": {"type": "Point", "coordinates": [-81.3624421957, 29.899320148]}, "type": "Feature", "properties": {"collection_times": [{"days": "Mon-Sat", "time": "11:00am"}, {"days": "Sun", "time": "Closed"}], "id": "3208400131", "name": "USPS COLLECTION BOX - BLUE BOX", "address": {"city": "SAINT AUGUSTINE", "state": "FL", "street": "500 BELTZ OUTLET BLVD", "postcode": "32084"}}},
{"geometry": {"type": "Point", "coordinates": [-81.3367588827, 29.9399842613]}, "type": "Feature", "properties": {"collection_times": [{"days": "Mon-Fri", "time": "5:00pm"}, {"days": "Sat-Sun", "time": "Closed"}], "id": "3208400143", "name": "USPS COLLECTION BOX - BLUE BOX", "address": {"city": "SAINT AUGUSTINE", "state": "FL", "street": "4010 LEWIS SPEEDWAY", "postcode": "32084"}}},
{"geometry": {"type": "Point", "coordinates": [-81.3161481887, 29.8917680368]}, "type": "Feature", "properties": {"collection_times": [{"days": "Mon-Fri", "time": "6:00pm"}, {"days": "Sat", "time": "4:30pm"}, {"days": "Sun", "time": "Closed"}], "id": "3208400150", "name": "USPS COLLECTION BOX - APC", "address": {"city": "SAINT AUGUSTINE", "state": "FL", "street": "99 KING ST", "postcode": "32084"}}},
{"geometry": {"type": "Point", "coordinates": [-81.3127807467, 29.8948186478]}, "type": "Feature", "properties": {"collection_times": [{"days": "Mon-Sat", "time": "11:00am"}, {"days": "Sun", "time": "Closed"}], "id": "3208400163", "name": "USPS COLLECTION BOX - BLUE BOX", "address": {"city": "SAINT AUGUSTINE", "state": "FL", "street": "35 HYPOLITA ST", "postcode": "32084"}}},
{"geometry": {"type": "Point", "coordinates": [-81.3338578455, 29.9308929612]}, "type": "Feature", "properties": {"collection_times": [{"days": "Mon-Fri", "time": "5:00pm"}, {"days": "Sat-Sun", "time": "Closed"}], "id": "3208400164", "name": "USPS COLLECTION BOX - BLUE BOX", "address": {"city": "SAINT AUGUSTINE", "state": "FL", "street": "500 SAN SEBASTIAN VW", "postcode": "32084"}}},
{"geometry": {"type": "Point", "coordinates": [-81.3258744773, 29.9251842617]}, "type": "Feature", "properties": {"collection_times": [{"days": "Mon-Fri", "time": "5:00pm"}, {"days": "Sat-Sun", "time": "Closed"}], "id": "3208400165", "name": "USPS COLLECTION BOX - BLUE BOX", "address": {"city": "SAINT AUGUSTINE", "state": "FL", "street": "3501 N PONCE DE LEON BLVD", "postcode": "32084"}}},
{"geometry": {"type": "Point", "coordinates": [-81.3078913586, 29.7958542707]}, "type": "Feature", "properties": {"collection_times": [{"days": "Mon-Sat", "time": "10:00am"}, {"days": "Sun", "time": "Closed"}], "id": "3208600001", "name": "USPS COLLECTION BOX - BLUE BOX", "address": {"city": "ST AUGUSTINE", "state": "FL", "street": "600 DOMENICO CIR", "postcode": "32086"}}},
{"geometry": {"type": "Point", "coordinates": [-81.3196607313, 29.8624547356]}, "type": "Feature", "properties": {"collection_times": [{"days": "Mon-Fri", "time": "5:00pm"}, {"days": "Sat-Sun", "time": "Closed"}], "id": "3208600002", "name": "USPS COLLECTION BOX - BLUE BOX", "address": {"city": "ST AUGUSTINE", "state": "FL", "street": "301 HEALTH PARK BLVD", "postcode": "32086"}}},
{"geometry": {"type": "Point", "coordinates": [-81.3273287248, 29.8655158826]}, "type": "Feature", "properties": {"collection_times": [{"days": "Mon-Fri", "time": "5:00pm"}, {"days": "Sat", "time": "10:00am"}, {"days": "Sun", "time": "Closed"}], "id": "3208600003", "name": "USPS COLLECTION BOX - BLUE BOX", "address": {"city": "ST AUGUSTINE", "state": "FL", "street": "125 JENKINS ST", "postcode": "32086"}}},
{"geometry": {"type": "Point", "coordinates": [-81.3236812714, 29.8625241082]}, "type": "Feature", "properties": {"collection_times": [{"days": "Mon-Fri", "time": "5:00pm"}, {"days": "Sat-Sun", "time": "Closed"}], "id": "3208600004", "name": "USPS COLLECTION BOX - BLUE BOX", "address": {"city": "ST AUGUSTINE", "state": "FL", "street": "100 SOUTHPARK BLVD", "postcode": "32086"}}},
{"geometry": {"type": "Point", "coordinates": [-81.3229088372, 29.8650880121]}, "type": "Feature", "properties": {"collection_times": [{"days": "Mon-Fri", "time": "5:00pm"}, {"days": "Sat", "time": "2:00pm"}, {"days": "Sun", "time": "Closed"}], "id": "3208600010", "name": "USPS COLLECTION BOX - BLUE BOX", "address": {"city": "ST AUGUSTINE", "state": "FL", "street": "1960 US 1 S", "postcode": "32086"}}},
{"geometry": {"type": "Point", "coordinates": [-81.3229123481, 29.855121151]}, "type": "Feature", "properties": {"collection_times": [{"days": "Mon-Sat", "time": "10:30am"}, {"days": "Sun", "time": "Closed"}], "id": "3208600011", "name": "USPS COLLECTION BOX - BLUE BOX", "address": {"city": "ST AUGUSTINE", "state": "FL", "street": "2355 US 1 S", "postcode": "32086"}}},
{"geometry": {"type": "Point", "coordinates": [-81.3228425535, 29.8527079148]}, "type": "Feature", "properties": {"collection_times": [{"days": "Mon-Sat", "time": "10:30am"}, {"days": "Sun", "time": "Closed"}], "id": "3208600012", "name": "USPS COLLECTION BOX - BLUE BOX", "address": {"city": "ST AUGUSTINE", "state": "FL", "street": "2469 US 1 S", "postcode": "32086"}}},
{"geometry": {"type": "Point", "coordinates": [-81.3224470106, 29.8466549712]}, "type": "Feature", "properties": {"collection_times": [{"days": "Mon-Sat", "time": "12:00pm"}, {"days": "Sun", "time": "Closed"}], "id": "3208600014", "name": "USPS COLLECTION BOX - BLUE BOX", "address": {"city": "ST AUGUSTINE", "state": "FL", "street": "2730 US 1 S", "postcode": "32086"}}},
{"geometry": {"type": "Point", "coordinates": [-81.3219492597, 29.8253557664]}, "type": "Feature", "properties": {"collection_times": [{"days": "Mon-Sat", "time": "11:30am"}, {"days": "Sun", "time": "Closed"}], "id": "3208600015", "name": "USPS COLLECTION BOX - BLUE BOX", "address": {"city": "ST AUGUSTINE", "state": "FL", "street": "3670 US 1 S", "postcode": "32086"}}},
{"geometry": {"type": "Point", "coordinates": [-81.3226308038, 29.8134419578]}, "type": "Feature", "properties": {"collection_times": [{"days": "Mon-Fri", "time": "5:00pm"}, {"days": "Sat", "time": "1:00pm"}, {"days": "Sun", "time": "Closed"}], "id": "3208600016", "name": "USPS COLLECTION BOX - BLUE BOX", "address": {"city": "ST AUGUSTINE", "state": "FL", "street": "4255 US 1 S", "postcode": "32086"}}},
{"geometry": {"type": "Point", "coordinates": [-81.3216808878, 29.8079151735]}, "type": "Feature", "properties": {"collection_times": [{"days": "Mon-Sat", "time": "9:00am"}, {"days": "Sun", "time": "Closed"}], "id": "3208600018", "name": "USPS COLLECTION BOX - BLUE BOX", "address": {"city": "ST AUGUSTINE", "state": "FL", "street": "4475 US 1 S", "postcode": "32086"}}},
{"geometry": {"type": "Point", "coordinates": [-81.3094320006, 29.7428397427]}, "type": "Feature", "properties": {"collection_times": [{"days": "Mon-Sat", "time": "11:00am"}, {"days": "Sun", "time": "Closed"}], "id": "3208600019", "name": "USPS COLLECTION BOX - BLUE BOX", "address": {"city": "ST AUGUSTINE", "state": "FL", "street": "6670 US 1 S", "postcode": "32086"}}},
{"geometry": {"type": "Point", "coordinates": [-81.3230152655, 29.8591337479]}, "type": "Feature", "properties": {"collection_times": [{"days": "Mon-Fri", "time": "5:00pm"}, {"days": "Sat", "time": "2:00pm"}, {"days": "Sun", "time": "Closed"}], "id": "3208600020", "name": "USPS COLLECTION BOX - BLUE BOX", "address": {"city": "ST AUGUSTINE", "state": "FL", "street": "2121 US 1 S", "postcode": "32086"}}},
{"geometry": {"type": "Point", "coordinates": [-81.3185834841, 29.8660446443]}, "type": "Feature", "properties": {"collection_times": [{"days": "Mon-Sat", "time": "12:00pm"}, {"days": "Sun", "time": "Closed"}], "id": "3208600021", "name": "USPS COLLECTION BOX - BLUE BOX", "address": {"city": "ST AUGUSTINE", "state": "FL", "street": "100 WHETSTONE PL", "postcode": "32086"}}},
{"geometry": {"type": "Point", "coordinates": [-81.3252983763, 29.8630931115]}, "type": "Feature", "properties": {"collection_times": [{"days": "Mon-Fri", "time": "10:00am"}, {"days": "Sat-Sun", "time": "Closed"}], "id": "3208600022", "name": "USPS COLLECTION BOX - BLUE BOX", "address": {"city": "ST AUGUSTINE", "state": "FL", "street": "252 SOUTHPARK CIR E", "postcode": "32086"}}},
{"geometry": {"type": "Point", "coordinates": [-81.320236089, 29.8670056128]}, "type": "Feature", "properties": {"collection_times": [{"days": "Mon-Sat", "time": "10:00am"}, {"days": "Sun", "time": "Closed"}], "id": "3208600023", "name": "USPS COLLECTION BOX - BLUE BOX", "address": {"city": "ST AUGUSTINE", "state": "FL", "street": "236 STATE ROAD 312", "postcode": "32086"}}},
{"geometry": {"type": "Point", "coordinates": [-81.3209251077, 29.8511776326]}, "type": "Feature", "properties": {"collection_times": [{"days": "Mon-Sat", "time": "11:00am"}, {"days": "Sun", "time": "Closed"}], "id": "3208600024", "name": "USPS COLLECTION BOX - BLUE BOX", "address": {"city": "ST AUGUSTINE", "state": "FL", "street": "200 SAINT AUGUSTINE SOUTH DR", "postcode": "32086"}}},
{"geometry": {"type": "Point", "coordinates": [-82.3524466132, 30.383280726]}, "type": "Feature", "properties": {"collection_times": [{"days": "Mon-Fri", "time": "4:15pm"}, {"days": "Sat", "time": "12:00pm"}, {"days": "Sun", "time": "Closed"}], "id": "3208700001", "name": "USPS COLLECTION BOX - BLUE BOX", "address": {"city": "SANDERSON", "state": "FL", "street": "14470 US HIGHWAY 90", "postcode": "32087"}}},
{"geometry": {"type": "Point", "coordinates": [-82.4290880498, 30.2043327502]}, "type": "Feature", "properties": {"collection_times": [{"days": "Mon-Sat", "time": "9:30am"}, {"days": "Sun", "time": "Closed"}], "id": "3208700002", "name": "USPS COLLECTION BOX - BLUE BOX", "address": {"city": "SANDERSON", "state": "FL", "street": "24116 US HIGHWAY 90", "postcode": "32087"}}},
{"geometry": {"type": "Point", "coordinates": [-82.3524466132, 30.383280726]}, "type": "Feature", "properties": {"collection_times": [{"days": "Mon-Fri", "time": "4:15pm"}, {"days": "Sat", "time": "12:00pm"}, {"days": "Sun", "time": "Closed"}], "id": "3208700005", "name": "USPS COLLECTION BOX - PO LOBBY", "address": {"city": "SANDERSON", "state": "FL", "street": "14470 US HIGHWAY 90", "postcode": "32087"}}},
{"geometry": {"type": "Point", "coordinates": [-82.1134973663, 29.944290015]}, "type": "Feature", "properties": {"collection_times": [{"days": "Mon-Fri", "time": "4:00pm"}, {"days": "Sat", "time": "9:00am"}, {"days": "Sun", "time": "Closed"}], "id": "3209100000", "name": "USPS COLLECTION BOX - BLUE BOX", "address": {"city": "STARKE", "state": "FL", "street": "470 W MADISON ST", "postcode": "32091"}}},
{"geometry": {"type": "Point", "coordinates": [-82.1150631781, 29.944676217]}, "type": "Feature", "properties": {"collection_times": [{"days": "Mon-Fri", "time": "4:00pm"}, {"days": "Sat", "time": "9:00am"}, {"days": "Sun", "time": "Closed"}], "id": "3209100001", "name": "USPS COLLECTION BOX - BLUE BOX", "address": {"city": "STARKE", "state": "FL", "street": "606 W MADISON ST", "postcode": "32091"}}},
{"geometry": {"type": "Point", "coordinates": [-82.1185770199, 29.9313799201]}, "type": "Feature", "properties": {"collection_times": [{"days": "Mon-Sat", "time": "11:00am"}, {"days": "Sun", "time": "Closed"}], "id": "3209100005", "name": "USPS COLLECTION BOX - BLUE BOX", "address": {"city": "STARKE", "state": "FL", "street": "1371 S WALNUT ST", "postcode": "32091"}}},
{"geometry": {"type": "Point", "coordinates": [-82.1087786184, 29.9441651736]}, "type": "Feature", "properties": {"collection_times": [{"days": "Mon-Fri", "time": "4:00pm"}, {"days": "Sat", "time": "12:00pm"}, {"days": "Sun", "time": "Closed"}], "id": "3209100008", "name": "USPS COLLECTION BOX - BLUE BOX", "address": {"city": "STARKE", "state": "FL", "street": "140 N THOMPSON ST", "postcode": "32091"}}},
{"geometry": {"type": "Point", "coordinates": [-82.1079376745, 29.9543947665]}, "type": "Feature", "properties": {"collection_times": [{"days": "Mon-Fri", "time": "4:00pm"}, {"days": "Sat", "time": "12:00pm"}, {"days": "Sun", "time": "Closed"}], "id": "3209100010", "name": "USPS COLLECTION BOX - BLUE BOX", "address": {"city": "STARKE", "state": "FL", "street": "945 N TEMPLE AVE", "postcode": "32091"}}},
{"geometry": {"type": "Point", "coordinates": [-82.1079376745, 29.9543947665]}, "type": "Feature", "properties": {"collection_times": [{"days": "Mon-Fri", "time": "4:00pm"}, {"days": "Sat", "time": "12:00pm"}, {"days": "Sun", "time": "Closed"}], "id": "3209100011", "name": "USPS COLLECTION BOX - BLUE BOX", "address": {"city": "STARKE", "state": "FL", "street": "945 N TEMPLE AVE", "postcode": "32091"}}},
{"geometry": {"type": "Point", "coordinates": [-81.9737682936, 29.9814574806]}, "type": "Feature", "properties": {"collection_times": [{"days": "Mon-Sat", "time": "9:00am"}, {"days": "Sun", "time": "Closed"}], "id": "3209100012", "name": "USPS COLLECTION BOX - BLUE BOX", "address": {"city": "STARKE", "state": "FL", "street": "5629 STATE ROAD 16 W", "postcode": "32091"}}},
{"geometry": {"type": "Point", "coordinates": [-82.1010806753, 29.9437297669]}, "type": "Feature", "properties": {"collection_times": [{"days": "Mon-Sat", "time": "9:00am"}, {"days": "Sun", "time": "Closed"}], "id": "3209100014", "name": "USPS COLLECTION BOX - BLUE BOX", "address": {"city": "STARKE", "state": "FL", "street": "607 BRADFORD CT", "postcode": "32091"}}},
{"geometry": {"type": "Point", "coordinates": [-82.1096505272, 29.9442678803]}, "type": "Feature", "properties": {"collection_times": [{"days": "Mon-Fri", "time": "4:45pm"}, {"days": "Sat", "time": "3:00pm"}, {"days": "Sun", "time": "Closed"}], "id": "3209100016", "name": "USPS COLLECTION BOX - BLUE BOX", "address": {"city": "STARKE", "state": "FL", "street": "122 N WALNUT ST", "postcode": "32091"}}},
{"geometry": {"type": "Point", "coordinates": [-82.1096505272, 29.9442678803]}, "type": "Feature", "properties": {"collection_times": [{"days": "Mon-Fri", "time": "4:45pm"}, {"days": "Sat", "time": "3:00pm"}, {"days": "Sun", "time": "Closed"}], "id": "3209100017", "name": "USPS COLLECTION BOX - BLUE BOX", "address": {"city": "STARKE", "state": "FL", "street": "122 N WALNUT ST", "postcode": "32091"}}},
{"geometry": {"type": "Point", "coordinates": [-82.1119446385, 29.9384086132]}, "type": "Feature", "properties": {"collection_times": [{"days": "Mon-Fri", "time": "4:00pm"}, {"days": "Sat", "time": "9:00am"}, {"days": "Sun", "time": "Closed"}], "id": "3209100018", "name": "USPS COLLECTION BOX - BLUE BOX", "address": {"city": "STARKE", "state": "FL", "street": "801 S WALNUT ST", "postcode": "32091"}}},
{"geometry": {"type": "Point", "coordinates": [-81.4163341664, 29.92073397]}, "type": "Feature", "properties": {"collection_times": [{"days": "Mon-Sat", "time": "10:00am"}, {"days": "Sun", "time": "Closed"}], "id": "3209200001", "name": "USPS COLLECTION BOX - BLUE BOX", "address": {"city": "ST AUGUSTINE", "state": "FL", "street": "2700 STATE ROAD 16", "postcode": "32092"}}},
{"geometry": {"type": "Point", "coordinates": [-81.4709960927, 29.9839781259]}, "type": "Feature", "properties": {"collection_times": [{"days": "Mon-Sat", "time": "10:30am"}, {"days": "Sun", "time": "Closed"}], "id": "3209200002", "name": "USPS COLLECTION BOX - BLUE BOX", "address": {"city": "ST AUGUSTINE", "state": "FL", "street": "455 W TOWN PL", "postcode": "32092"}}},
{"geometry": {"type": "Point", "coordinates": [-82.8205787197, 30.229590872]}, "type": "Feature", "properties": {"collection_times": [{"days": "Mon-Fri", "time": "4:30pm"}, {"days": "Sat", "time": "11:30am"}, {"days": "Sun", "time": "Closed"}], "id": "3209400001", "name": "USPS COLLECTION BOX - BLUE BOX", "address": {"city": "WELLBORN", "state": "FL", "street": "12096 COUNTY ROAD 137", "postcode": "32094"}}},
{"geometry": {"type": "Point", "coordinates": [-82.8205787197, 30.229590872]}, "type": "Feature", "properties": {"collection_times": [{"days": "Mon-Fri", "time": "4:30pm"}, {"days": "Sat", "time": "11:30am"}, {"days": "Sun", "time": "Closed"}], "id": "3209400002", "name": "USPS COLLECTION BOX - PO LOBBY", "address": {"city": "WELLBORN", "state": "FL", "street": "12096 COUNTY ROAD 137", "postcode": "32094"}}},
{"geometry": {"type": "Point", "coordinates": [-81.3366766834, 29.9418949514]}, "type": "Feature", "properties": {"collection_times": [{"days": "Mon-Fri", "time": "5:00pm"}, {"days": "Sat-Sun", "time": "Closed"}], "id": "3209500001", "name": "USPS COLLECTION BOX - BLUE BOX", "address": {"city": "ST AUGUSTINE", "state": "FL", "street": "4455 AVENUE A STE 101", "postcode": "32095"}}},
{"geometry": {"type": "Point", "coordinates": [-81.3857404928, 30.0262282122]}, "type": "Feature", "properties": {"collection_times": [{"days": "Mon-Sat", "time": "10:00am"}, {"days": "Sun", "time": "Closed"}], "id": "3209500002", "name": "USPS COLLECTION BOX - BLUE BOX", "address": {"city": "ST AUGUSTINE", "state": "FL", "street": "625 PALENCIA CLUB DR", "postcode": "32095"}}},
{"geometry": {"type": "Point", "coordinates": [-82.7579252327, 30.3297579753]}, "type": "Feature", "properties": {"collection_times": [{"days": "Mon-Fri", "time": "4:30pm"}, {"days": "Sat", "time": "9:00am"}, {"days": "Sun", "time": "Closed"}], "id": "3209600000", "name": "USPS COLLECTION BOX - BLUE BOX", "address": {"city": "WHITE SPRINGS", "state": "FL", "street": "16555 SPRINGS ST", "postcode": "32096"}}},
{"geometry": {"type": "Point", "coordinates": [-82.7579252327, 30.3297579753]}, "type": "Feature", "properties": {"collection_times": [{"days": "Mon-Fri", "time": "4:30pm"}, {"days": "Sat", "time": "9:00am"}, {"days": "Sun", "time": "Closed"}], "id": "3209600001", "name": "USPS COLLECTION BOX - PO LOBBY", "address": {"city": "WHITE SPRINGS", "state": "FL", "street": "16555 SPRINGS ST", "postcode": "32096"}}},
{"geometry": {"type": "Point", "coordinates": [-81.608177804, 30.630650035]}, "type": "Feature", "properties": {"collection_times": [{"days": "Mon-Fri", "time": "5:00pm"}, {"days": "Sat", "time": "12:00pm"}, {"days": "Sun", "time": "Closed"}], "id": "3209700000", "name": "USPS COLLECTION BOX - BLUE BOX", "address": {"city": "YULEE", "state": "FL", "street": "463063 STATE ROAD 200", "postcode": "32097"}}},
{"geometry": {"type": "Point", "coordinates": [-81.6413493976, 30.6551976656]}, "type": "Feature", "properties": {"collection_times": [{"days": "Mon-Fri", "time": "10:00am"}, {"days": "Sat-Sun", "time": "Closed"}], "id": "3209700002", "name": "USPS COLLECTION BOX - BLUE BOX", "address": {"city": "YULEE", "state": "FL", "street": "96076 LOFTON SQUARE CT", "postcode": "32097"}}},
{"geometry": {"type": "Point", "coordinates": [-81.608177804, 30.630650035]}, "type": "Feature", "properties": {"collection_times": [{"days": "Mon-Fri", "time": "5:00pm"}, {"days": "Sat", "time": "12:00pm"}, {"days": "Sun", "time": "Closed"}], "id": "3209700003", "name": "USPS COLLECTION BOX - PO LOBBY", "address": {"city": "YULEE", "state": "FL", "street": "463063 STATE ROAD 200", "postcode": "32097"}}},
{"geometry": {"type": "Point", "coordinates": [-81.608177804, 30.630650035]}, "type": "Feature", "properties": {"collection_times": [{"days": "Mon-Fri", "time": "5:00pm"}, {"days": "Sat", "time": "12:00pm"}, {"days": "Sun", "time": "Closed"}], "id": "3209700005", "name": "USPS COLLECTION BOX - PO LOBBY", "address": {"city": "YULEE", "state": "FL", "street": "463063 STATE ROAD 200", "postcode": "32097"}}},
{"geometry": {"type": "Point", "coordinates": [-81.608177804, 30.630650035]}, "type": "Feature", "properties": {"collection_times": [{"days": "Mon-Fri", "time": "5:00pm"}, {"days": "Sat", "time": "12:00pm"}, {"days": "Sun", "time": "Closed"}], "id": "3209700006", "name": "USPS COLLECTION BOX - PO LOBBY", "address": {"city": "YULEE", "state": "FL", "street": "463063 STATE ROAD 200", "postcode": "32097"}}}
]}
