{"type": "FeatureCollection", "features": [
{"geometry": {"type": "Point", "coordinates": [-81.5395258467, 29.1644540052]}, "type": "Feature", "properties": {"collection_times": [{"days": "Mon-Fri", "time": "4:30pm"}, {"days": "Sat", "time": "12:00pm"}, {"days": "Sun", "time": "Closed"}], "id": "3210200004", "name": "USPS COLLECTION BOX - BLUE BOX", "address": {"city": "ASTOR", "state": "FL", "street": "24433 STATE ROAD 40", "postcode": "32102"}}},
{"geometry": {"type": "Point", "coordinates": [-81.4211163544, 29.1874670747]}, "type": "Feature", "properties": {"collection_times": [{"days": "Mon-Fri", "time": "4:15pm"}, {"days": "Sat", "time": "9:45am"}, {"days": "Sun", "time": "Closed"}], "id": "3210500000", "name": "USPS COLLECTION BOX - PO LOBBY", "address": {"city": "BARBERVILLE", "state": "FL", "street": "1680 RAILROAD AVE", "postcode": "32105"}}},
{"geometry": {"type": "Point", "coordinates": [-81.4211163544, 29.1874670747]}, "type": "Feature", "properties": {"collection_times": [{"days": "Mon-Fri", "time": "4:15pm"}, {"days": "Sat", "time": "9:45am"}, {"days": "Sun", "time": "Closed"}], "id": "3210500001", "name": "USPS COLLECTION BOX - BLUE BOX", "address": {"city": "BARBERVILLE", "state": "FL", "street": "1680 RAILROAD AVE", "postcode": "32105"}}},
{"geometry": {"type": "Point", "coordinates": [-81.4211163544, 29.1874670747]}, "type": "Feature", "properties": {"collection_times": [{"days": "Mon-Fri", "time": "4:15pm"}, {"days": "Sat", "time": "9:45am"}, {"days": "Sun", "time": "Closed"}], "id": "3210500002", "name": "USPS COLLECTION BOX - PO LOBBY", "address": {"city": "BARBERVILLE", "state": "FL", "street": "1680 RAILROAD AVE", "postcode": "32105"}}},
{"geometry": {"type": "Point", "coordinates": [-81.1587223756, 29.4070955534]}, "type": "Feature", "properties": {"collection_times": [{"days": "Mon-Sat", "time": "10:00am"}, {"days": "Sun", "time": "Closed"}], "id": "3211000003", "name": "USPS COLLECTION BOX - BLUE BOX", "address": {"city": "BUNNELL", "state": "FL", "street": "2261 S OLD DIXIE HWY", "postcode": "32110"}}},
{"geometry": {"type": "Point", "coordinates": [-81.2545491655, 29.4690478893]}, "type": "Feature", "properties": {"collection_times": [{"days": "Mon-Fri", "time": "4:30pm"}, {"days": "Sat", "time": "12:00pm"}, {"days": "Sun", "time": "Closed"}], "id": "3211000004", "name": "USPS COLLECTION BOX - PO LOBBY", "address": {"city": "BUNNELL", "state": "FL", "street": "704 E MOODY BLVD", "postcode": "32110"}}},
{"geometry": {"type": "Point", "coordinates": [-81.2545491655, 29.4690478893]}, "type": "Feature", "properties": {"collection_times": [{"days": "Mon-Fri", "time": "4:30pm"}, {"days": "Sat", "time": "12:00pm"}, {"days": "Sun", "time": "Closed"}], "id": "3211000005", "name": "USPS COLLECTION BOX - PO LOBBY", "address": {"city": "BUNNELL", "state": "FL", "street": "704 E MOODY BLVD", "postcode": "32110"}}},
{"geometry": {"type": "Point", "coordinates": [-81.2545491655, 29.4690478893]}, "type": "Feature", "properties": {"collection_times": [{"days": "Mon-Fri", "time": "4:30pm"}, {"days": "Sat", "time": "12:00pm"}, {"days": "Sun", "time": "Closed"}], "id": "3211000006", "name": "USPS COLLECTION BOX - PO LOBBY", "address": {"city": "BUNNELL", "state": "FL", "street": "704 E MOODY BLVD", "postcode": "32110"}}},
{"geometry": {"type": "Point", "coordinates": [-81.2545491655, 29.4690478893]}, "type": "Feature", "properties": {"collection_times": [{"days": "Mon-Fri", "time": "4:30pm"}, {"days": "Sat", "time": "12:00pm"}, {"days": "Sun", "time": "Closed"}], "id": "3211000007", "name": "USPS COLLECTION BOX - BLUE BOX", "address": {"city": "BUNNELL", "state": "FL", "street": "704 E MOODY BLVD", "postcode": "32110"}}},
{"geometry": {"type": "Point", "coordinates": [-81.9703321672, 29.0713562611]}, "type": "Feature", "properties": {"collection_times": [{"days": "Mon-Fri", "time": "4:30pm"}, {"days": "Sat", "time": "12:00pm"}, {"days": "Sun", "time": "Closed"}], "id": "3211100001", "name": "USPS COLLECTION BOX - BLUE BOX", "address": {"city": "CANDLER", "state": "FL", "street": "10801 SE 110TH STREET RD", "postcode": "32111"}}},
{"geometry": {"type": "Point", "coordinates": [-81.9703321672, 29.0713562611]}, "type": "Feature", "properties": {"collection_times": [{"days": "Mon-Fri", "time": "4:30pm"}, {"days": "Sat", "time": "12:00pm"}, {"days": "Sun", "time": "Closed"}], "id": "3211100003", "name": "USPS COLLECTION BOX - PO LOBBY", "address": {"city": "CANDLER", "state": "FL", "street": "10801 SE 110TH STREET RD", "postcode": "32111"}}},
{"geometry": {"type": "Point", "coordinates": [-81.9703321672, 29.0713562611]}, "type": "Feature", "properties": {"collection_times": [{"days": "Mon-Fri", "time": "4:30pm"}, {"days": "Sat", "time": "12:00pm"}, {"days": "Sun", "time": "Closed"}], "id": "3211100004", "name": "USPS COLLECTION BOX - PO LOBBY", "address": {"city": "CANDLER", "state": "FL", "street": "10801 SE 110TH STREET RD", "postcode": "32111"}}},
{"geometry": {"type": "Point", "coordinates": [-81.5101984114, 29.4235233045]}, "type": "Feature", "properties": {"collection_times": [{"days": "Mon-Fri", "time": "5:00pm"}, {"days": "Sat", "time": "12:30pm"}, {"days": "Sun", "time": "Closed"}], "id": "3211200004", "name": "USPS COLLECTION BOX - BLUE BOX", "address": {"city": "CRESCENT CITY", "state": "FL", "street": "403 N SUMMIT ST", "postcode": "32112"}}},
{"geometry": {"type": "Point", "coordinates": [-81.5101984114, 29.4235233045]}, "type": "Feature", "properties": {"collection_times": [{"days": "Mon-Fri", "time": "5:00pm"}, {"days": "Sat", "time": "12:30pm"}, {"days": "Sun", "time": "Closed"}], "id": "3211200005", "name": "USPS COLLECTION BOX - PO LOBBY", "address": {"city": "CRESCENT CITY", "state": "FL", "street": "403 N SUMMIT ST", "postcode": "32112"}}},
{"geometry": {"type": "Point", "coordinates": [-81.5101984114, 29.4235233045]}, "type": "Feature", "properties": {"collection_times": [{"days": "Mon-Fri", "time": "5:00pm"}, {"days": "Sat", "time": "12:30pm"}, {"days": "Sun", "time": "Closed"}], "id": "3211200006", "name": "USPS COLLECTION BOX - PO LOBBY", "address": {"city": "CRESCENT CITY", "state": "FL", "street": "403 N SUMMIT ST", "postcode": "32112"}}},
{"geometry": {"type": "Point", "coordinates": [-82.1092109766, 29.4166124582]}, "type": "Feature", "properties": {"collection_times": [{"days": "Mon-Fri", "time": "4:00pm"}, {"days": "Sat", "time": "12:00pm"}, {"days": "Sun", "time": "Closed"}], "id": "3211300000", "name": "USPS COLLECTION BOX - BLUE BOX", "address": {"city": "CITRA", "state": "FL", "street": "2250 E HIGHWAY 318", "postcode": "32113"}}},
{"geometry": {"type": "Point", "coordinates": [-82.1092109766, 29.4166124582]}, "type": "Feature", "properties": {"collection_times": [{"days": "Mon-Fri", "time": "4:00pm"}, {"days": "Sat", "time": "12:00pm"}, {"days": "Sun", "time": "Closed"}], "id": "3211300001", "name": "USPS COLLECTION BOX - PO LOBBY", "address": {"city": "CITRA", "state": "FL", "street": "2250 E HIGHWAY 318", "postcode": "32113"}}},
{"geometry": {"type": "Point", "coordinates": [-82.1092109766, 29.4166124582]}, "type": "Feature", "properties": {"collection_times": [{"days": "Mon-Fri", "time": "4:00pm"}, {"days": "Sat", "time": "12:00pm"}, {"days": "Sun", "time": "Closed"}], "id": "3211300003", "name": "USPS COLLECTION BOX - PO LOBBY", "address": {"city": "CITRA", "state": "FL", "street": "2250 E HIGHWAY 318", "postcode": "32113"}}},
{"geometry": {"type": "Point", "coordinates": [-81.0188717837, 29.2111182905]}, "type": "Feature", "properties": {"collection_times": [{"days": "Mon-Fri", "time": "4:30pm"}, {"days": "Sat", "time": "10:00am"}, {"days": "Sun", "time": "Closed"}], "id": "3211400002", "name": "USPS COLLECTION BOX - BLUE BOX", "address": {"city": "DAYTONA BEACH", "state": "FL", "street": "140 S BEACH ST", "postcode": "32114"}}},
{"geometry": {"type": "Point", "coordinates": [-81.0406642538, 29.1702979255]}, "type": "Feature", "properties": {"collection_times": [{"days": "Mon-Fri", "time": "4:30pm"}, {"days": "Sat", "time": "10:00am"}, {"days": "Sun", "time": "Closed"}], "id": "3211400010", "name": "USPS COLLECTION BOX - BLUE BOX", "address": {"city": "DAYTONA BEACH", "state": "FL", "street": "1500 BEVILLE RD", "postcode": "32114"}}},
{"geometry": {"type": "Point", "coordinates": [-81.0559776576, 29.2017740976]}, "type": "Feature", "properties": {"collection_times": [{"days": "Mon-Fri", "time": "4:30pm"}, {"days": "Sat-Sun", "time": "Closed"}], "id": "3211400012", "name": "USPS COLLECTION BOX - BLUE BOX", "address": {"city": "DAYTONA BEACH", "state": "FL", "street": "311 N CLYDE MORRIS BLVD", "postcode": "32114"}}},
{"geometry": {"type": "Point", "coordinates": [-81.0775252552, 29.1883356838]}, "type": "Feature", "properties": {"collection_times": [{"days": "Mon-Fri", "time": "4:30pm"}, {"days": "Sat", "time": "12:00pm"}, {"days": "Sun", "time": "Closed"}], "id": "3211400018", "name": "USPS COLLECTION BOX - BLUE BOX", "address": {"city": "DAYTONA BEACH", "state": "FL", "street": "200 FENTRESS BLVD", "postcode": "32114"}}},
{"geometry": {"type": "Point", "coordinates": [-81.0533262629, 29.193525302]}, "type": "Feature", "properties": {"collection_times": [{"days": "Mon-Sat", "time": "12:00pm"}, {"days": "Sun", "time": "Closed"}], "id": "3211400022", "name": "USPS COLLECTION BOX - BLUE BOX", "address": {"city": "DAYTONA BEACH", "state": "FL", "street": "1200 INT'L SPEEDWAY BLVD", "postcode": "32114"}}},
{"geometry": {"type": "Point", "coordinates": [-81.0533262629, 29.193525302]}, "type": "Feature", "properties": {"collection_times": [{"days": "Mon-Sat", "time": "10:00am"}, {"days": "Sun", "time": "Closed"}], "id": "3211400025", "name": "USPS COLLECTION BOX - BLUE BOX", "address": {"city": "DAYTONA BEACH", "state": "FL", "street": "2455 INT'L SPEEDWAY BLVD", "postcode": "32114"}}},
{"geometry": {"type": "Point", "coordinates": [-81.0132207888, 29.2101908507]}, "type": "Feature", "properties": {"collection_times": [{"days": "Mon-Fri", "time": "4:00pm"}, {"days": "Sat", "time": "10:00am"}, {"days": "Sun", "time": "Closed"}], "id": "3211400030", "name": "USPS COLLECTION BOX - BLUE BOX", "address": {"city": "DAYTONA BEACH", "state": "FL", "street": "125 E ORANGE AVE", "postcode": "32114"}}},
{"geometry": {"type": "Point", "coordinates": [-81.0221734222, 29.2097673514]}, "type": "Feature", "properties": {"collection_times": [{"days": "Mon-Fri", "time": "4:00pm"}, {"days": "Sat", "time": "10:00am"}, {"days": "Sun", "time": "Closed"}], "id": "3211400034", "name": "USPS COLLECTION BOX - BLUE BOX", "address": {"city": "DAYTONA BEACH", "state": "FL", "street": "149 S RIDGEWOOD AVE", "postcode": "32114"}}},
{"geometry": {"type": "Point", "coordinates": [-81.0211383331, 29.2078048224]}, "type": "Feature", "properties": {"collection_times": [{"days": "Mon-Sat", "time": "10:00am"}, {"days": "Sun", "time": "Closed"}], "id": "3211400037", "name": "USPS COLLECTION BOX - BLUE BOX", "address": {"city": "DAYTONA BEACH", "state": "FL", "street": "229 S RIDGEWOOD AVE", "postcode": "32114"}}},
{"geometry": {"type": "Point", "coordinates": [-81.0607142253, 29.1850849126]}, "type": "Feature", "properties": {"collection_times": [{"days": "Mon-Sat", "time": "10:00am"}, {"days": "Sun", "time": "Closed"}], "id": "3211400046", "name": "USPS COLLECTION BOX - BLUE BOX", "address": {"city": "DAYTONA BEACH", "state": "FL", "street": "700 CATALINA DR", "postcode": "32114"}}},
{"geometry": {"type": "Point", "coordinates": [-81.0775252552, 29.1883356838]}, "type": "Feature", "properties": {"collection_times": [{"days": "Mon-Fri", "time": "4:30pm"}, {"days": "Sat", "time": "12:00pm"}, {"days": "Sun", "time": "Closed"}], "id": "3211400058", "name": "USPS COLLECTION BOX - BLUE BOX", "address": {"city": "DAYTONA BEACH", "state": "FL", "street": "200 FENTRESS BLVD", "postcode": "32114"}}},
{"geometry": {"type": "Point", "coordinates": [-81.0221734222, 29.2097673514]}, "type": "Feature", "properties": {"collection_times": [{"days": "Mon-Fri", "time": "4:00pm"}, {"days": "Sat", "time": "10:00am"}, {"days": "Sun", "time": "Closed"}], "id": "3211400064", "name": "USPS COLLECTION BOX - BLUE BOX", "address": {"city": "DAYTONA BEACH", "state": "FL", "street": "149 S RIDGEWOOD AVE", "postcode": "32114"}}},
{"geometry": {"type": "Point", "coordinates": [-81.0132207888, 29.2101908507]}, "type": "Feature", "properties": {"collection_times": [{"days": "Mon-Fri", "time": "4:00pm"}, {"days": "Sat", "time": "10:00am"}, {"days": "Sun", "time": "Closed"}], "id": "3211400068", "name": "USPS COLLECTION BOX - BLUE BOX", "address": {"city": "DAYTONA BEACH", "state": "FL", "street": "125 E ORANGE AVE", "postcode": "32114"}}},
{"geometry": {"type": "Point", "coordinates": [-81.017164774, 29.2076403911]}, "type": "Feature", "properties": {"collection_times": [{"days": "Mon-Fri", "time": "4:00pm"}, {"days": "Sat", "time": "10:00am"}, {"days": "Sun", "time": "Closed"}], "id": "3211400076", "name": "USPS COLLECTION BOX - BLUE BOX", "address": {"city": "DAYTONA BEACH", "state": "FL", "street": "300 S BEACH ST", "postcode": "32114"}}},
{"geometry": {"type": "Point", "coordinates": [-81.0317144544, 29.2118234641]}, "type": "Feature", "properties": {"collection_times": [{"days": "Mon-Fri", "time": "4:30pm"}, {"days": "Sat-Sun", "time": "Closed"}], "id": "3211400080", "name": "USPS COLLECTION BOX - BLUE BOX", "address": {"city": "DAYTONA BEACH", "state": "FL", "street": "640 MARY MCLEOD BETHUNE", "postcode": "32114"}}},
{"geometry": {"type": "Point", "coordinates": [-81.0533262629, 29.193525302]}, "type": "Feature", "properties": {"collection_times": [{"days": "Mon-Sat", "time": "10:00am"}, {"days": "Sun", "time": "Closed"}], "id": "3211400085", "name": "USPS COLLECTION BOX - BLUE BOX", "address": {"city": "DAYTONA BEACH", "state": "FL", "street": "2570 INT'L SPEEDWAY BLVD", "postcode": "32114"}}},
{"geometry": {"type": "Point", "coordinates": [-81.0533262629, 29.193525302]}, "type": "Feature", "properties": {"collection_times": [{"days": "Mon-Fri", "time": "1:00pm"}, {"days": "Sat", "time": "10:00am"}, {"days": "Sun", "time": "Closed"}], "id": "3211400087", "name": "USPS COLLECTION BOX - BLUE BOX", "address": {"city": "DAYTONA BEACH", "state": "FL", "street": "1300 W INT'L SPEEDWAY BLVD", "postcode": "32114"}}},
{"geometry": {"type": "Point", "coordinates": [-81.0317144544, 29.2118234641]}, "type": "Feature", "properties": {"collection_times": [{"days": "Mon-Fri", "time": "4:30pm"}, {"days": "Sat-Sun", "time": "Closed"}], "id": "3211400089", "name": "USPS COLLECTION BOX - BLUE BOX", "address": {"city": "DAYTONA BEACH", "state": "FL", "street": "640 MARY MCLEOD BETHUNE", "postcode": "32114"}}},
{"geometry": {"type": "Point", "coordinates": [-80.9939495149, 29.1977257531]}, "type": "Feature", "properties": {"collection_times": [{"days": "Mon-Fri", "time": "12:30pm"}, {"days": "Sat-Sun", "time": "Closed"}], "id": "3211600002", "name": "USPS COLLECTION BOX - PO LOBBY", "address": {"city": "DAYTONA BEACH", "state": "FL", "street": "2136 S ATLANTIC", "postcode": "32116"}}},
{"geometry": {"type": "Point", "coordinates": [-80.9939495149, 29.1977257531]}, "type": "Feature", "properties": {"collection_times": [{"days": "Mon-Fri", "time": "12:30pm"}, {"days": "Sat-Sun", "time": "Closed"}], "id": "3211600003", "name": "USPS COLLECTION BOX - PO LOBBY", "address": {"city": "DAYTONA BEACH", "state": "FL", "street": "2136 S ATLANTIC", "postcode": "32116"}}},
{"geometry": {"type": "Point", "coordinates": [-80.9939495149, 29.1977257531]}, "type": "Feature", "properties": {"collection_times": [{"days": "Mon-Fri", "time": "4:30pm"}, {"days": "Sat", "time": "1:00pm"}, {"days": "Sun", "time": "Closed"}], "id": "3211600005", "name": "USPS COLLECTION BOX - BLUE BOX", "address": {"city": "DAYTONA BEACH", "state": "FL", "street": "2136 S ATLANTIC", "postcode": "32116"}}},
{"geometry": {"type": "Point", "coordinates": [-81.0594117875, 29.2231371536]}, "type": "Feature", "properties": {"collection_times": [{"days": "Mon-Fri", "time": "1:00pm"}, {"days": "Sat", "time": "10:00am"}, {"days": "Sun", "time": "Closed"}], "id": "3211700003", "name": "USPS COLLECTION BOX - BLUE BOX", "address": {"city": "DAYTONA BEACH", "state": "FL", "street": "875 DERBYSHIRE RD", "postcode": "32117"}}},
{"geometry": {"type": "Point", "coordinates": [-81.0480577473, 29.2210894516]}, "type": "Feature", "properties": {"collection_times": [{"days": "Mon-Fri", "time": "3:00pm"}, {"days": "Sat", "time": "10:00am"}, {"days": "Sun", "time": "Closed"}], "id": "3211700010", "name": "USPS COLLECTION BOX - BLUE BOX", "address": {"city": "DAYTONA BEACH", "state": "FL", "street": "894 N NOVA RD", "postcode": "32117"}}},
{"geometry": {"type": "Point", "coordinates": [-81.0563195327, 29.2388220065]}, "type": "Feature", "properties": {"collection_times": [{"days": "Mon-Fri", "time": "1:00pm"}, {"days": "Sat", "time": "10:00am"}, {"days": "Sun", "time": "Closed"}], "id": "3211700012", "name": "USPS COLLECTION BOX - BLUE BOX", "address": {"city": "DAYTONA BEACH", "state": "FL", "street": "1541 N NOVA RD", "postcode": "32117"}}},
{"geometry": {"type": "Point", "coordinates": [-81.0440001981, 29.2499465526]}, "type": "Feature", "properties": {"collection_times": [{"days": "Mon-Fri", "time": "3:00pm"}, {"days": "Sat", "time": "10:00am"}, {"days": "Sun", "time": "Closed"}], "id": "3211700014", "name": "USPS COLLECTION BOX - BLUE BOX", "address": {"city": "DAYTONA BEACH", "state": "FL", "street": "1340 RIDGEWOOD AVE", "postcode": "32117"}}},
{"geometry": {"type": "Point", "coordinates": [-81.0551330249, 29.2401753116]}, "type": "Feature", "properties": {"collection_times": [{"days": "Mon-Fri", "time": "1:00pm"}, {"days": "Sat", "time": "10:00am"}, {"days": "Sun", "time": "Closed"}], "id": "3211700023", "name": "USPS COLLECTION BOX - BLUE BOX", "address": {"city": "DAYTONA BEACH", "state": "FL", "street": "900 LPGA BLVD", "postcode": "32117"}}},
{"geometry": {"type": "Point", "coordinates": [-81.0937660988, 29.2203536511]}, "type": "Feature", "properties": {"collection_times": [{"days": "Mon-Fri", "time": "1:00pm"}, {"days": "Sat", "time": "10:00am"}, {"days": "Sun", "time": "Closed"}], "id": "3211700026", "name": "USPS COLLECTION BOX - BLUE BOX", "address": {"city": "DAYTONA BEACH", "state": "FL", "street": "1530 CORNERSTONE BLVD", "postcode": "32117"}}},
{"geometry": {"type": "Point", "coordinates": [-81.0882688885, 29.2313031193]}, "type": "Feature", "properties": {"collection_times": [{"days": "Mon-Fri", "time": "3:00pm"}, {"days": "Sat", "time": "10:00am"}, {"days": "Sun", "time": "Closed"}], "id": "3211700027", "name": "USPS COLLECTION BOX - BLUE BOX", "address": {"city": "DAYTONA BEACH", "state": "FL", "street": "1671 N CLYDE MORRIS BLVD", "postcode": "32117"}}},
{"geometry": {"type": "Point", "coordinates": [-81.0610140005, 29.2424840879]}, "type": "Feature", "properties": {"collection_times": [{"days": "Mon-Sat", "time": "1:00pm"}, {"days": "Sun", "time": "Closed"}], "id": "3211700028", "name": "USPS COLLECTION BOX - BLUE BOX", "address": {"city": "DAYTONA BEACH", "state": "FL", "street": "1705 N NOVA RD", "postcode": "32117"}}},
{"geometry": {"type": "Point", "coordinates": [-80.9780088322, 29.1675854006]}, "type": "Feature", "properties": {"collection_times": [{"days": "Mon-Sat", "time": "1:00pm"}, {"days": "Sun", "time": "Closed"}], "id": "3211800009", "name": "USPS COLLECTION BOX - BLUE BOX", "address": {"city": "DAYTONA BEACH", "state": "FL", "street": "3044 S ATLANTIC AVE", "postcode": "32118"}}},
{"geometry": {"type": "Point", "coordinates": [-81.0169979767, 29.2311457858]}, "type": "Feature", "properties": {"collection_times": [{"days": "Mon-Sat", "time": "1:00pm"}, {"days": "Sun", "time": "Closed"}], "id": "3211800014", "name": "USPS COLLECTION BOX - BLUE BOX", "address": {"city": "DAYTONA BEACH", "state": "FL", "street": "428 N HALIFAX AVE", "postcode": "32118"}}},
{"geometry": {"type": "Point", "coordinates": [-81.0148710165, 29.2347041263]}, "type": "Feature", "properties": {"collection_times": [{"days": "Mon-Fri", "time": "4:00pm"}, {"days": "Sat", "time": "1:00pm"}, {"days": "Sun", "time": "Closed"}], "id": "3211800020", "name": "USPS COLLECTION BOX - BLUE BOX", "address": {"city": "DAYTONA BEACH", "state": "FL", "street": "444 SEABREEZE BLVD", "postcode": "32118"}}},
{"geometry": {"type": "Point", "coordinates": [-81.0206119164, 29.2147097539]}, "type": "Feature", "properties": {"collection_times": [{"days": "Mon-Fri", "time": "5:00pm"}, {"days": "Sat", "time": "4:00pm"}, {"days": "Sun", "time": "Closed"}], "id": "3211800026", "name": "USPS COLLECTION BOX - BLUE BOX", "address": {"city": "DAYTONA BEACH", "state": "FL", "street": "220 N BEACH ST", "postcode": "32118"}}},
{"geometry": {"type": "Point", "coordinates": [-81.0206119164, 29.2147097539]}, "type": "Feature", "properties": {"collection_times": [{"days": "Mon-Fri", "time": "5:00pm"}, {"days": "Sat", "time": "4:00pm"}, {"days": "Sun", "time": "Closed"}], "id": "3211800027", "name": "USPS COLLECTION BOX - BLUE BOX", "address": {"city": "DAYTONA BEACH", "state": "FL", "street": "220 N BEACH ST", "postcode": "32118"}}},
{"geometry": {"type": "Point", "coordinates": [-81.0148710165, 29.2347041263]}, "type": "Feature", "properties": {"collection_times": [{"days": "Mon-Fri", "time": "4:00pm"}, {"days": "Sat", "time": "1:00pm"}, {"days": "Sun", "time": "Closed"}], "id": "3211800031", "name": "USPS COLLECTION BOX - BLUE BOX", "address": {"city": "DAYTONA BEACH", "state": "FL", "street": "444 SEABREEZE BLVD", "postcode": "32118"}}},
{"geometry": {"type": "Point", "coordinates": [-81.0148710165, 29.2347041263]}, "type": "Feature", "properties": {"collection_times": [{"days": "Mon-Fri", "time": "4:00pm"}, {"days": "Sat", "time": "1:00pm"}, {"days": "Sun", "time": "Closed"}], "id": "3211800032", "name": "USPS COLLECTION BOX - BLUE BOX", "address": {"city": "DAYTONA BEACH", "state": "FL", "street": "444 SEABREEZE BLVD", "postcode": "32118"}}},
{"geometry": {"type": "Point", "coordinates": [-81.0148710165, 29.2347041263]}, "type": "Feature", "properties": {"collection_times": [{"days": "Mon-Fri", "time": "4:00pm"}, {"days": "Sat", "time": "1:00pm"}, {"days": "Sun", "time": "Closed"}], "id": "3211800033", "name": "USPS COLLECTION BOX - BLUE BOX", "address": {"city": "DAYTONA BEACH", "state": "FL", "street": "444 SEABREEZE BLVD", "postcode": "32118"}}},
{"geometry": {"type": "Point", "coordinates": [-81.0148710165, 29.2347041263]}, "type": "Feature", "properties": {"collection_times": [{"days": "Mon-Fri", "time": "4:00pm"}, {"days": "Sat", "time": "1:00pm"}, {"days": "Sun", "time": "Closed"}], "id": "3211800034", "name": "USPS COLLECTION BOX - BLUE BOX", "address": {"city": "DAYTONA BEACH", "state": "FL", "street": "444 SEABREEZE BLVD", "postcode": "32118"}}},
{"geometry": {"type": "Point", "coordinates": [-81.0206119164, 29.2147097539]}, "type": "Feature", "properties": {"collection_times": [{"days": "Mon-Fri", "time": "5:00pm"}, {"days": "Sat", "time": "4:00pm"}, {"days": "Sun", "time": "Closed"}], "id": "3211800035", "name": "USPS COLLECTION BOX - PO LOBBY", "address": {"city": "DAYTONA BEACH", "state": "FL", "street": "220 N BEACH ST", "postcode": "32118"}}},
{"geometry": {"type": "Point", "coordinates": [-81.0206119164, 29.2147097539]}, "type": "Feature", "properties": {"collection_times": [{"days": "Mon-Fri", "time": "5:00pm"}, {"days": "Sat", "time": "4:00pm"}, {"days": "Sun", "time": "Closed"}], "id": "3211800036", "name": "USPS COLLECTION BOX - PO LOBBY", "address": {"city": "DAYTONA BEACH", "state": "FL", "street": "220 N BEACH ST", "postcode": "32118"}}},
{"geometry": {"type": "Point", "coordinates": [-81.0206119164, 29.2147097539]}, "type": "Feature", "properties": {"collection_times": [{"days": "Mon-Fri", "time": "5:00pm"}, {"days": "Sat", "time": "4:00pm"}, {"days": "Sun", "time": "Closed"}], "id": "3211800041", "name": "USPS COLLECTION BOX - BLUE BOX", "address": {"city": "DAYTONA BEACH", "state": "FL", "street": "220 N BEACH ST", "postcode": "32118"}}},
{"geometry": {"type": "Point", "coordinates": [-81.0266047865, 29.263945689]}, "type": "Feature", "properties": {"collection_times": [{"days": "Mon-Sat", "time": "1:00pm"}, {"days": "Sun", "time": "Closed"}], "id": "3211800043", "name": "USPS COLLECTION BOX - BLUE BOX", "address": {"city": "DAYTONA BEACH", "state": "FL", "street": "2665 N ATLANTIC AVE", "postcode": "32118"}}},
{"geometry": {"type": "Point", "coordinates": [-80.9741322757, 29.1599754256]}, "type": "Feature", "properties": {"collection_times": [{"days": "Mon-Sat", "time": "1:00pm"}, {"days": "Sun", "time": "Closed"}], "id": "3211800045", "name": "USPS COLLECTION BOX - BLUE BOX", "address": {"city": "DAYTONA BEACH", "state": "FL", "street": "3200 S ATLANTIC AVE", "postcode": "32118"}}},
{"geometry": {"type": "Point", "coordinates": [-81.0148710165, 29.2347041263]}, "type": "Feature", "properties": {"collection_times": [{"days": "Mon-Fri", "time": "4:00pm"}, {"days": "Sat", "time": "1:00pm"}, {"days": "Sun", "time": "Closed"}], "id": "3211800047", "name": "USPS COLLECTION BOX - BLUE BOX", "address": {"city": "DAYTONA BEACH", "state": "FL", "street": "444 SEABREEZE BLVD", "postcode": "32118"}}},
{"geometry": {"type": "Point", "coordinates": [-81.0211876838, 29.2400274224]}, "type": "Feature", "properties": {"collection_times": [{"days": "Mon-Sat", "time": "1:00pm"}, {"days": "Sun", "time": "Closed"}], "id": "3211800048", "name": "USPS COLLECTION BOX - BLUE BOX", "address": {"city": "DAYTONA BEACH", "state": "FL", "street": "945 N HALIFAX AVE", "postcode": "32118"}}},
{"geometry": {"type": "Point", "coordinates": [-81.0631044458, 29.1595236098]}, "type": "Feature", "properties": {"collection_times": [{"days": "Mon-Sat", "time": "12:00pm"}, {"days": "Sun", "time": "Closed"}], "id": "3211900014", "name": "USPS COLLECTION BOX - BLUE BOX", "address": {"city": "SOUTH DAYTONA", "state": "FL", "street": "1122 PELICAN BAY DR", "postcode": "32119"}}},
{"geometry": {"type": "Point", "coordinates": [-81.0189155532, 29.1548733235]}, "type": "Feature", "properties": {"collection_times": [{"days": "Mon-Sat", "time": "10:00am"}, {"days": "Sun", "time": "Closed"}], "id": "3211900015", "name": "USPS COLLECTION BOX - BLUE BOX", "address": {"city": "SOUTH DAYTONA", "state": "FL", "street": "918 REED CANAL RD", "postcode": "32119"}}},
{"geometry": {"type": "Point", "coordinates": [-81.0384568524, 29.1568524139]}, "type": "Feature", "properties": {"collection_times": [{"days": "Mon-Fri", "time": "4:30pm"}, {"days": "Sat", "time": "10:00am"}, {"days": "Sun", "time": "Closed"}], "id": "3211900035", "name": "USPS COLLECTION BOX - BLUE BOX", "address": {"city": "SOUTH DAYTONA", "state": "FL", "street": "1899 S CLYDE MORRIS BLVD", "postcode": "32119"}}},
{"geometry": {"type": "Point", "coordinates": [-81.0127144823, 29.181756066]}, "type": "Feature", "properties": {"collection_times": [{"days": "Mon-Fri", "time": "4:30pm"}, {"days": "Sat", "time": "10:00am"}, {"days": "Sun", "time": "Closed"}], "id": "3211900037", "name": "USPS COLLECTION BOX - BLUE BOX", "address": {"city": "SOUTH DAYTONA", "state": "FL", "street": "577 BEVILLE RD", "postcode": "32119"}}},
{"geometry": {"type": "Point", "coordinates": [-81.0500623431, 29.1620874423]}, "type": "Feature", "properties": {"collection_times": [{"days": "Mon-Sat", "time": "12:00pm"}, {"days": "Sun", "time": "Closed"}], "id": "3211900038", "name": "USPS COLLECTION BOX - BLUE BOX", "address": {"city": "SOUTH DAYTONA", "state": "FL", "street": "400 PELICAN BAY DR", "postcode": "32119"}}},
{"geometry": {"type": "Point", "coordinates": [-81.0280025993, 29.1694014361]}, "type": "Feature", "properties": {"collection_times": [{"days": "Mon-Sat", "time": "10:00am"}, {"days": "Sun", "time": "Closed"}], "id": "3211900039", "name": "USPS COLLECTION BOX - BLUE BOX", "address": {"city": "SOUTH DAYTONA", "state": "FL", "street": "1 CONCORD CT", "postcode": "32119"}}},
{"geometry": {"type": "Point", "coordinates": [-81.0307049223, 29.1743519259]}, "type": "Feature", "properties": {"collection_times": [{"days": "Mon-Sat", "time": "10:00am"}, {"days": "Sun", "time": "Closed"}], "id": "3211900040", "name": "USPS COLLECTION BOX - BLUE BOX", "address": {"city": "SOUTH DAYTONA", "state": "FL", "street": "1101 BEVILLE RD", "postcode": "32119"}}},
{"geometry": {"type": "Point", "coordinates": [-81.0190270502, 29.1548897754]}, "type": "Feature", "properties": {"collection_times": [{"days": "Mon-Sat", "time": "1:00pm"}, {"days": "Sun", "time": "Closed"}], "id": "3211900042", "name": "USPS COLLECTION BOX - BLUE BOX", "address": {"city": "SOUTH DAYTONA", "state": "FL", "street": "950 REED CANAL RD", "postcode": "32119"}}},
{"geometry": {"type": "Point", "coordinates": [-81.0720895587, 29.2028979087]}, "type": "Feature", "properties": {"collection_times": [{"days": "Mon-Sat", "time": "5:00pm"}, {"days": "Sun", "time": "Closed"}], "id": "3212000004", "name": "USPS COLLECTION BOX - BLUE BOX", "address": {"city": "DAYTONA BEACH", "state": "FL", "street": "500 BILL FRANCE BLVD", "postcode": "32120"}}},
{"geometry": {"type": "Point", "coordinates": [-81.0720895587, 29.2028979087]}, "type": "Feature", "properties": {"collection_times": [{"days": "Mon-Sat", "time": "5:00pm"}, {"days": "Sun", "time": "Closed"}], "id": "3212000007", "name": "USPS COLLECTION BOX - PO LOBBY", "address": {"city": "DAYTONA BEACH", "state": "FL", "street": "500 BILL FRANCE BLVD", "postcode": "32120"}}},
{"geometry": {"type": "Point", "coordinates": [-81.0720895587, 29.2028979087]}, "type": "Feature", "properties": {"collection_times": [{"days": "Mon-Sat", "time": "5:00pm"}, {"days": "Sun", "time": "Closed"}], "id": "3212000008", "name": "USPS COLLECTION BOX - PO LOBBY", "address": {"city": "DAYTONA BEACH", "state": "FL", "street": "500 BILL FRANCE BLVD", "postcode": "32120"}}},
{"geometry": {"type": "Point", "coordinates": [-81.0720895587, 29.2028979087]}, "type": "Feature", "properties": {"collection_times": [{"days": "Mon-Sat", "time": "5:00pm"}, {"days": "Sun", "time": "Closed"}], "id": "3212000010", "name": "USPS COLLECTION BOX - APC", "address": {"city": "DAYTONA BEACH", "state": "FL", "street": "500 BILL FRANCE BLVD", "postcode": "32120"}}},
{"geometry": {"type": "Point", "coordinates": [-80.9993482209, 29.166646163]}, "type": "Feature", "properties": {"collection_times": [{"days": "Mon-Fri", "time": "4:30pm"}, {"days": "Sat", "time": "12:00pm"}, {"days": "Sun", "time": "Closed"}], "id": "3212100002", "name": "USPS COLLECTION BOX - BLUE BOX", "address": {"city": "DAYTONA BEACH", "state": "FL", "street": "2400 S RIDGEWOOD STE 28 AVE", "postcode": "32121"}}},
{"geometry": {"type": "Point", "coordinates": [-80.9993482209, 29.166646163]}, "type": "Feature", "properties": {"collection_times": [{"days": "Mon-Fri", "time": "4:30pm"}, {"days": "Sat-Sun", "time": "Closed"}], "id": "3212100003", "name": "USPS COLLECTION BOX - PO LOBBY", "address": {"city": "DAYTONA BEACH", "state": "FL", "street": "2400 S RIDGEWOOD STE 28 AVE", "postcode": "32121"}}},
{"geometry": {"type": "Point", "coordinates": [-80.9993482209, 29.166646163]}, "type": "Feature", "properties": {"collection_times": [{"days": "Mon-Fri", "time": "4:30pm"}, {"days": "Sat-Sun", "time": "Closed"}], "id": "3212100004", "name": "USPS COLLECTION BOX - PO LOBBY", "address": {"city": "DAYTONA BEACH", "state": "FL", "street": "2400 S RIDGEWOOD STE 28 AVE", "postcode": "32121"}}},
{"geometry": {"type": "Point", "coordinates": [-81.0359526641, 29.2380835249]}, "type": "Feature", "properties": {"collection_times": [{"days": "Mon-Fri", "time": "4:30pm"}, {"days": "Sat", "time": "10:00am"}, {"days": "Sun", "time": "Closed"}], "id": "3212500000", "name": "USPS COLLECTION BOX - BLUE BOX", "address": {"city": "DAYTONA BEACH", "state": "FL", "street": "231 7TH ST", "postcode": "32125"}}},
{"geometry": {"type": "Point", "coordinates": [-81.0359526641, 29.2380835249]}, "type": "Feature", "properties": {"collection_times": [{"days": "Mon-Fri", "time": "4:30pm"}, {"days": "Sat", "time": "10:00am"}, {"days": "Sun", "time": "Closed"}], "id": "3212500001", "name": "USPS COLLECTION BOX - BLUE BOX", "address": {"city": "DAYTONA BEACH", "state": "FL", "street": "231 7TH ST", "postcode": "32125"}}},
{"geometry": {"type": "Point", "coordinates": [-81.0359526641, 29.2380835249]}, "type": "Feature", "properties": {"collection_times": [{"days": "Mon-Fri", "time": "4:30pm"}, {"days": "Sat-Sun", "time": "Closed"}], "id": "3212500002", "name": "USPS COLLECTION BOX - PO LOBBY", "address": {"city": "DAYTONA BEACH", "state": "FL", "street": "231 7TH ST", "postcode": "32125"}}},
{"geometry": {"type": "Point", "coordinates": [-81.0359526641, 29.2380835249]}, "type": "Feature", "properties": {"collection_times": [{"days": "Mon-Fri", "time": "4:30pm"}, {"days": "Sat-Sun", "time": "Closed"}], "id": "3212500003", "name": "USPS COLLECTION BOX - PO LOBBY", "address": {"city": "DAYTONA BEACH", "state": "FL", "street": "231 7TH ST", "postcode": "32125"}}},
{"geometry": {"type": "Point", "coordinates": [-81.0085492838, 29.2274182821]}, "type": "Feature", "properties": {"collection_times": [{"days": "Mon-Fri", "time": "4:15pm"}, {"days": "Sat-Sun", "time": "Closed"}], "id": "3212600004", "name": "USPS COLLECTION BOX - PO LOBBY", "address": {"city": "DAYTONA BEACH", "state": "FL", "street": "19 N ATLANTIC AVE", "postcode": "32126"}}},
{"geometry": {"type": "Point", "coordinates": [-81.0085492838, 29.2274182821]}, "type": "Feature", "properties": {"collection_times": [{"days": "Mon-Fri", "time": "4:15pm"}, {"days": "Sat-Sun", "time": "Closed"}], "id": "3212600005", "name": "USPS COLLECTION BOX - PO LOBBY", "address": {"city": "DAYTONA BEACH", "state": "FL", "street": "19 N ATLANTIC AVE", "postcode": "32126"}}},
{"geometry": {"type": "Point", "coordinates": [-80.9977772595, 29.1379487296]}, "type": "Feature", "properties": {"collection_times": [{"days": "Mon-Fri", "time": "5:30pm"}, {"days": "Sat", "time": "4:30pm"}, {"days": "Sun", "time": "Closed"}], "id": "3212700000", "name": "USPS COLLECTION BOX - PO LOBBY", "address": {"city": "PORT ORANGE", "state": "FL", "street": "725 DUNLAWTON AVE", "postcode": "32127"}}},
{"geometry": {"type": "Point", "coordinates": [-80.9977772595, 29.1379487296]}, "type": "Feature", "properties": {"collection_times": [{"days": "Mon-Fri", "time": "5:00pm"}, {"days": "Sat", "time": "4:30pm"}, {"days": "Sun", "time": "Closed"}], "id": "3212700001", "name": "USPS COLLECTION BOX - PO LOBBY", "address": {"city": "PORT ORANGE", "state": "FL", "street": "725 DUNLAWTON AVE", "postcode": "32127"}}},
{"geometry": {"type": "Point", "coordinates": [-81.0222881692, 29.1173439504]}, "type": "Feature", "properties": {"collection_times": [{"days": "Mon-Sat", "time": "11:30am"}, {"days": "Sun", "time": "Closed"}], "id": "3212700003", "name": "USPS COLLECTION BOX - BLUE BOX", "address": {"city": "PORT ORANGE", "state": "FL", "street": "1590 DUNLAWTON AVE", "postcode": "32127"}}},
{"geometry": {"type": "Point", "coordinates": [-80.9727659581, 29.1191160229]}, "type": "Feature", "properties": {"collection_times": [{"days": "Mon-Sat", "time": "11:30am"}, {"days": "Sun", "time": "Closed"}], "id": "3212700004", "name": "USPS COLLECTION BOX - BLUE BOX", "address": {"city": "PORT ORANGE", "state": "FL", "street": "1152 HARBOUR POINT DR", "postcode": "32127"}}},
{"geometry": {"type": "Point", "coordinates": [-81.0042603075, 29.1263169493]}, "type": "Feature", "properties": {"collection_times": [{"days": "Mon-Sat", "time": "11:30am"}, {"days": "Sun", "time": "Closed"}], "id": "3212700009", "name": "USPS COLLECTION BOX - BLUE BOX", "address": {"city": "PORT ORANGE", "state": "FL", "street": "3829 S NOVA RD", "postcode": "32127"}}},
{"geometry": {"type": "Point", "coordinates": [-81.0039734456, 29.1253017201]}, "type": "Feature", "properties": {"collection_times": [{"days": "Mon-Sat", "time": "11:30am"}, {"days": "Sun", "time": "Closed"}], "id": "3212700010", "name": "USPS COLLECTION BOX - BLUE BOX", "address": {"city": "PORT ORANGE", "state": "FL", "street": "3850 S NOVA RD", "postcode": "32127"}}},
{"geometry": {"type": "Point", "coordinates": [-80.9960312121, 29.1176574345]}, "type": "Feature", "properties": {"collection_times": [{"days": "Mon-Sat", "time": "1:30pm"}, {"days": "Sun", "time": "Closed"}], "id": "3212700011", "name": "USPS COLLECTION BOX - BLUE BOX", "address": {"city": "PORT ORANGE", "state": "FL", "street": "4000 S NOVA RD", "postcode": "32127"}}},
{"geometry": {"type": "Point", "coordinates": [-80.9947332167, 29.1175342258]}, "type": "Feature", "properties": {"collection_times": [{"days": "Mon-Sat", "time": "1:30pm"}, {"days": "Sun", "time": "Closed"}], "id": "3212700012", "name": "USPS COLLECTION BOX - BLUE BOX", "address": {"city": "PORT ORANGE", "state": "FL", "street": "4015 S NOVA RD", "postcode": "32127"}}},
{"geometry": {"type": "Point", "coordinates": [-80.984646415, 29.1268655871]}, "type": "Feature", "properties": {"collection_times": [{"days": "Mon-Sat", "time": "1:30pm"}, {"days": "Sun", "time": "Closed"}], "id": "3212700013", "name": "USPS COLLECTION BOX - BLUE BOX", "address": {"city": "PORT ORANGE", "state": "FL", "street": "5100 ORANGE AVE", "postcode": "32127"}}},
{"geometry": {"type": "Point", "coordinates": [-80.9977772595, 29.1379487296]}, "type": "Feature", "properties": {"collection_times": [{"days": "Mon-Fri", "time": "5:00pm"}, {"days": "Sat", "time": "4:30pm"}, {"days": "Sun", "time": "Closed"}], "id": "3212700019", "name": "USPS COLLECTION BOX - BLUE BOX", "address": {"city": "PORT ORANGE", "state": "FL", "street": "725 DUNLAWTON AVE", "postcode": "32127"}}},
{"geometry": {"type": "Point", "coordinates": [-80.9977772595, 29.1379487296]}, "type": "Feature", "properties": {"collection_times": [{"days": "Mon-Fri", "time": "5:00pm"}, {"days": "Sat", "time": "4:30pm"}, {"days": "Sun", "time": "Closed"}], "id": "3212700023", "name": "USPS COLLECTION BOX - APC", "address": {"city": "PORT ORANGE", "state": "FL", "street": "725 DUNLAWTON AVE", "postcode": "32127"}}},
{"geometry": {"type": "Point", "coordinates": [-80.952068908, 29.1214417202]}, "type": "Feature", "properties": {"collection_times": [{"days": "Mon-Sat", "time": "1:30pm"}, {"days": "Sun", "time": "Closed"}], "id": "3212700026", "name": "USPS COLLECTION BOX - BLUE BOX", "address": {"city": "PORT ORANGE", "state": "FL", "street": "4300 S ATLANTIC AVE", "postcode": "32127"}}},
{"geometry": {"type": "Point", "coordinates": [-80.9788712093, 29.124906607]}, "type": "Feature", "properties": {"collection_times": [{"days": "Mon-Fri", "time": "5:00pm"}, {"days": "Sat", "time": "1:30pm"}, {"days": "Sun", "time": "Closed"}], "id": "3212700028", "name": "USPS COLLECTION BOX - BLUE BOX", "address": {"city": "PORT ORANGE", "state": "FL", "street": "201 COMMONWEALTH BLVD", "postcode": "32127"}}},
{"geometry": {"type": "Point", "coordinates": [-80.9788712093, 29.124906607]}, "type": "Feature", "properties": {"collection_times": [{"days": "Mon-Fri", "time": "2:00pm"}, {"days": "Sat-Sun", "time": "Closed"}], "id": "3212700029", "name": "USPS COLLECTION BOX - PO LOBBY", "address": {"city": "PORT ORANGE", "state": "FL", "street": "201 COMMONWEALTH BLVD", "postcode": "32127"}}},
{"geometry": {"type": "Point", "coordinates": [-81.0328531758, 29.1061578904]}, "type": "Feature", "properties": {"collection_times": [{"days": "Mon-Sat", "time": "11:30am"}, {"days": "Sun", "time": "Closed"}], "id": "3212800002", "name": "USPS COLLECTION BOX - BLUE BOX", "address": {"city": "PORT ORANGE", "state": "FL", "street": "1660 TAYLOR RD", "postcode": "32128"}}},
{"geometry": {"type": "Point", "coordinates": [-81.0265336953, 29.0774800026]}, "type": "Feature", "properties": {"collection_times": [{"days": "Mon-Sat", "time": "11:30am"}, {"days": "Sun", "time": "Closed"}], "id": "3212800003", "name": "USPS COLLECTION BOX - BLUE BOX", "address": {"city": "PORT ORANGE", "state": "FL", "street": "6223 S WILLIAMSON BLVD", "postcode": "32128"}}},
{"geometry": {"type": "Point", "coordinates": [-81.0440759075, 29.0775846996]}, "type": "Feature", "properties": {"collection_times": [{"days": "Mon-Sat", "time": "11:30am"}, {"days": "Sun", "time": "Closed"}], "id": "3212800004", "name": "USPS COLLECTION BOX - BLUE BOX", "address": {"city": "PORT ORANGE", "state": "FL", "street": "209 CESSNA BLVD", "postcode": "32128"}}},
{"geometry": {"type": "Point", "coordinates": [-81.0248233088, 29.1434837656]}, "type": "Feature", "properties": {"collection_times": [{"days": "Mon-Sat", "time": "11:30am"}, {"days": "Sun", "time": "Closed"}], "id": "3212900001", "name": "USPS COLLECTION BOX - BLUE BOX", "address": {"city": "PORT ORANGE", "state": "FL", "street": "201 AUTUMN TRL", "postcode": "32129"}}},
{"geometry": {"type": "Point", "coordinates": [-81.0207148338, 29.1261345185]}, "type": "Feature", "properties": {"collection_times": [{"days": "Mon-Sat", "time": "11:30am"}, {"days": "Sun", "time": "Closed"}], "id": "3212900002", "name": "USPS COLLECTION BOX - BLUE BOX", "address": {"city": "PORT ORANGE", "state": "FL", "street": "1000 CITY CENTER BLVD", "postcode": "32129"}}},
{"geometry": {"type": "Point", "coordinates": [-81.031692693, 29.1357898295]}, "type": "Feature", "properties": {"collection_times": [{"days": "Mon-Sat", "time": "1:30pm"}, {"days": "Sun", "time": "Closed"}], "id": "3212900003", "name": "USPS COLLECTION BOX - BLUE BOX", "address": {"city": "PORT ORANGE", "state": "FL", "street": "4500 S CLYDE MORRIS BLVD", "postcode": "32129"}}},
{"geometry": {"type": "Point", "coordinates": [-81.0352794246, 29.1418181884]}, "type": "Feature", "properties": {"collection_times": [{"days": "Mon-Sat", "time": "11:30am"}, {"days": "Sun", "time": "Closed"}], "id": "3212900004", "name": "USPS COLLECTION BOX - BLUE BOX", "address": {"city": "PORT ORANGE", "state": "FL", "street": "3826 S CLYDE MORRIS BLVD", "postcode": "32129"}}},
{"geometry": {"type": "Point", "coordinates": [-81.0175504186, 29.1502574177]}, "type": "Feature", "properties": {"collection_times": [{"days": "Mon-Sat", "time": "11:30am"}, {"days": "Sun", "time": "Closed"}], "id": "3212900005", "name": "USPS COLLECTION BOX - BLUE BOX", "address": {"city": "PORT ORANGE", "state": "FL", "street": "3202 S NOVA RD", "postcode": "32129"}}},
{"geometry": {"type": "Point", "coordinates": [-81.0148994171, 29.1452819334]}, "type": "Feature", "properties": {"collection_times": [{"days": "Mon-Sat", "time": "11:30am"}, {"days": "Sun", "time": "Closed"}], "id": "3212900006", "name": "USPS COLLECTION BOX - BLUE BOX", "address": {"city": "PORT ORANGE", "state": "FL", "street": "3450 S NOVA RD", "postcode": "32129"}}},
{"geometry": {"type": "Point", "coordinates": [-81.0146379736, 29.1448785033]}, "type": "Feature", "properties": {"collection_times": [{"days": "Mon-Sat", "time": "11:30am"}, {"days": "Sun", "time": "Closed"}], "id": "3212900007", "name": "USPS COLLECTION BOX - BLUE BOX", "address": {"city": "PORT ORANGE", "state": "FL", "street": "3480 S NOVA RD", "postcode": "32129"}}},
{"geometry": {"type": "Point", "coordinates": [-81.0054286381, 29.1282886867]}, "type": "Feature", "properties": {"collection_times": [{"days": "Mon-Sat", "time": "11:30am"}, {"days": "Sun", "time": "Closed"}], "id": "3212900008", "name": "USPS COLLECTION BOX - BLUE BOX", "address": {"city": "PORT ORANGE", "state": "FL", "street": "3809 S NOVA RD", "postcode": "32129"}}},
{"geometry": {"type": "Point", "coordinates": [-81.3527667854, 29.1234897107]}, "type": "Feature", "properties": {"collection_times": [{"days": "Mon-Fri", "time": "4:30pm"}, {"days": "Sat", "time": "12:00pm"}, {"days": "Sun", "time": "Closed"}], "id": "3213000000", "name": "USPS COLLECTION BOX - BLUE BOX", "address": {"city": "DELEON SPRINGS", "state": "FL", "street": "155 PONCE DELEON BLVD", "postcode": "32130"}}},
{"geometry": {"type": "Point", "coordinates": [-81.3527667854, 29.1234897107]}, "type": "Feature", "properties": {"collection_times": [{"days": "Mon-Fri", "time": "4:30pm"}, {"days": "Sat", "time": "12:00pm"}, {"days": "Sun", "time": "Closed"}], "id": "3213000001", "name": "USPS COLLECTION BOX - PO LOBBY", "address": {"city": "DELEON SPRINGS", "state": "FL", "street": "155 PONCE DELEON BLVD", "postcode": "32130"}}},
{"geometry": {"type": "Point", "coordinates": [-81.3527667854, 29.1234897107]}, "type": "Feature", "properties": {"collection_times": [{"days": "Mon-Fri", "time": "4:30pm"}, {"days": "Sat", "time": "12:00pm"}, {"days": "Sun", "time": "Closed"}], "id": "3213000002", "name": "USPS COLLECTION BOX - PO LOBBY", "address": {"city": "DELEON SPRINGS", "state": "FL", "street": "155 PONCE DELEON BLVD", "postcode": "32130"}}},
{"geometry": {"type": "Point", "coordinates": [-81.5876183454, 29.6511367701]}, "type": "Feature", "properties": {"collection_times": [{"days": "Mon-Fri", "time": "4:30pm"}, {"days": "Sat", "time": "12:00pm"}, {"days": "Sun", "time": "Closed"}], "id": "3213100003", "name": "USPS COLLECTION BOX - BLUE BOX", "address": {"city": "EAST PALATKA", "state": "FL", "street": "134 W MCCORMICK RD", "postcode": "32131"}}},
{"geometry": {"type": "Point", "coordinates": [-81.5876183454, 29.6511367701]}, "type": "Feature", "properties": {"collection_times": [{"days": "Mon-Fri", "time": "4:30pm"}, {"days": "Sat", "time": "12:00pm"}, {"days": "Sun", "time": "Closed"}], "id": "3213100006", "name": "USPS COLLECTION BOX - PO LOBBY", "address": {"city": "EAST PALATKA", "state": "FL", "street": "134 W MCCORMICK RD", "postcode": "32131"}}},
{"geometry": {"type": "Point", "coordinates": [-81.5876183454, 29.6511367701]}, "type": "Feature", "properties": {"collection_times": [{"days": "Mon-Fri", "time": "4:30pm"}, {"days": "Sat", "time": "12:00pm"}, {"days": "Sun", "time": "Closed"}], "id": "3213100007", "name": "USPS COLLECTION BOX - PO LOBBY", "address": {"city": "EAST PALATKA", "state": "FL", "street": "134 W MCCORMICK RD", "postcode": "32131"}}},
{"geometry": {"type": "Point", "coordinates": [-80.9060021081, 28.9883786633]}, "type": "Feature", "properties": {"collection_times": [{"days": "Mon-Fri", "time": "5:00pm"}, {"days": "Sat", "time": "4:00pm"}, {"days": "Sun", "time": "Closed"}], "id": "3213200000", "name": "USPS COLLECTION BOX - BLUE BOX", "address": {"city": "EDGEWATER", "state": "FL", "street": "400 S RIDGEWOOD AVE", "postcode": "32132"}}},
{"geometry": {"type": "Point", "coordinates": [-80.9060021081, 28.9883786633]}, "type": "Feature", "properties": {"collection_times": [{"days": "Mon-Fri", "time": "5:00pm"}, {"days": "Sat", "time": "4:00pm"}, {"days": "Sun", "time": "Closed"}], "id": "3213200010", "name": "USPS COLLECTION BOX - PO LOBBY", "address": {"city": "EDGEWATER", "state": "FL", "street": "400 S RIDGEWOOD AVE", "postcode": "32132"}}},
{"geometry": {"type": "Point", "coordinates": [-80.9060021081, 28.9883786633]}, "type": "Feature", "properties": {"collection_times": [{"days": "Mon-Fri", "time": "5:00pm"}, {"days": "Sat", "time": "4:00pm"}, {"days": "Sun", "time": "Closed"}], "id": "3213200011", "name": "USPS COLLECTION BOX - PO LOBBY", "address": {"city": "EDGEWATER", "state": "FL", "street": "400 S RIDGEWOOD AVE", "postcode": "32132"}}},
{"geometry": {"type": "Point", "coordinates": [-81.9084456137, 29.0232982081]}, "type": "Feature", "properties": {"collection_times": [{"days": "Mon-Fri", "time": "4:15pm"}, {"days": "Sat", "time": "9:00am"}, {"days": "Sun", "time": "Closed"}], "id": "3213300000", "name": "USPS COLLECTION BOX - BLUE BOX", "address": {"city": "EASTLAKE WEIR", "state": "FL", "street": "13803 S HIGHWAY 25", "postcode": "32133"}}},
{"geometry": {"type": "Point", "coordinates": [-81.9084456137, 29.0232982081]}, "type": "Feature", "properties": {"collection_times": [{"days": "Mon-Fri", "time": "4:15pm"}, {"days": "Sat", "time": "9:00am"}, {"days": "Sun", "time": "Closed"}], "id": "3213300001", "name": "USPS COLLECTION BOX - PO LOBBY", "address": {"city": "EASTLAKE WEIR", "state": "FL", "street": "13803 S HIGHWAY 25", "postcode": "32133"}}},
{"geometry": {"type": "Point", "coordinates": [-81.967422698, 29.3669329135]}, "type": "Feature", "properties": {"collection_times": [{"days": "Mon-Fri", "time": "3:30pm"}, {"days": "Sat", "time": "12:00pm"}, {"days": "Sun", "time": "Closed"}], "id": "3213400000", "name": "USPS COLLECTION BOX - BLUE BOX", "address": {"city": "FT MC COY", "state": "FL", "street": "14945 NE HWY 315", "postcode": "32134"}}},
{"geometry": {"type": "Point", "coordinates": [-81.967408514, 29.366930882]}, "type": "Feature", "properties": {"collection_times": [{"days": "Mon-Fri", "time": "3:30pm"}, {"days": "Sat", "time": "12:00pm"}, {"days": "Sun", "time": "Closed"}], "id": "3213400001", "name": "USPS COLLECTION BOX - PO LOBBY", "address": {"city": "FT MC COY", "state": "FL", "street": "14945 NE HIGHWAY 315", "postcode": "32134"}}},
{"geometry": {"type": "Point", "coordinates": [-81.73522543, 29.356393272]}, "type": "Feature", "properties": {"collection_times": [{"days": "Mon-Fri", "time": "3:00pm"}, {"days": "Sat", "time": "12:00pm"}, {"days": "Sun", "time": "Closed"}], "id": "3213400002", "name": "USPS COLLECTION BOX - BLUE BOX", "address": {"city": "FT MC COY", "state": "FL", "street": "14100 N HIGHWAY 19", "postcode": "32134"}}},
{"geometry": {"type": "Point", "coordinates": [-81.1286113381, 29.4786823151]}, "type": "Feature", "properties": {"collection_times": [{"days": "Mon-Fri", "time": "4:45pm"}, {"days": "Sat", "time": "12:00pm"}, {"days": "Sun", "time": "Closed"}], "id": "3213600000", "name": "USPS COLLECTION BOX - BLUE BOX", "address": {"city": "FLAGLER BEACH", "state": "FL", "street": "300 S DAYTONA AVE", "postcode": "32136"}}},
{"geometry": {"type": "Point", "coordinates": [-81.1286113381, 29.4786823151]}, "type": "Feature", "properties": {"collection_times": [{"days": "Mon-Fri", "time": "4:45pm"}, {"days": "Sat", "time": "12:00pm"}, {"days": "Sun", "time": "Closed"}], "id": "3213600003", "name": "USPS COLLECTION BOX - PO LOBBY", "address": {"city": "FLAGLER BEACH", "state": "FL", "street": "300 S DAYTONA AVE", "postcode": "32136"}}},
{"geometry": {"type": "Point", "coordinates": [-81.155754233, 29.4338030783]}, "type": "Feature", "properties": {"collection_times": [{"days": "Mon-Sat", "time": "10:30am"}, {"days": "Sun", "time": "Closed"}], "id": "3213600006", "name": "USPS COLLECTION BOX - BLUE BOX", "address": {"city": "FLAGLER BEACH", "state": "FL", "street": "3345 OLD KINGS RD S", "postcode": "32136"}}},
{"geometry": {"type": "Point", "coordinates": [-81.2336202395, 29.5524646487]}, "type": "Feature", "properties": {"collection_times": [{"days": "Mon-Fri", "time": "5:00pm"}, {"days": "Sat", "time": "4:00pm"}, {"days": "Sun", "time": "Closed"}], "id": "3213700001", "name": "USPS COLLECTION BOX - BLUE BOX", "address": {"city": "PALM COAST", "state": "FL", "street": "2 PINE CONE DR", "postcode": "32137"}}},
{"geometry": {"type": "Point", "coordinates": [-81.208387062, 29.556419035]}, "type": "Feature", "properties": {"collection_times": [{"days": "Mon-Fri", "time": "4:45pm"}, {"days": "Sat", "time": "11:30am"}, {"days": "Sun", "time": "Closed"}], "id": "3213700004", "name": "USPS COLLECTION BOX - BLUE BOX", "address": {"city": "PALM COAST", "state": "FL", "street": "238 PALM COAST PKWY NE", "postcode": "32137"}}},
{"geometry": {"type": "Point", "coordinates": [-81.2336202395, 29.5524646487]}, "type": "Feature", "properties": {"collection_times": [{"days": "Mon-Fri", "time": "4:45pm"}, {"days": "Sat", "time": "12:00pm"}, {"days": "Sun", "time": "Closed"}], "id": "3213700008", "name": "USPS COLLECTION BOX - APC", "address": {"city": "PALM COAST", "state": "FL", "street": "2 PINE CONE DR", "postcode": "32137"}}},
{"geometry": {"type": "Point", "coordinates": [-81.2336202395, 29.5524646487]}, "type": "Feature", "properties": {"collection_times": [{"days": "Mon-Fri", "time": "4:45pm"}, {"days": "Sat", "time": "12:00pm"}, {"days": "Sun", "time": "Closed"}], "id": "3213700009", "name": "USPS COLLECTION BOX - PO LOBBY", "address": {"city": "PALM COAST", "state": "FL", "street": "2 PINE CONE DR", "postcode": "32137"}}},
{"geometry": {"type": "Point", "coordinates": [-81.1974938522, 29.6019670139]}, "type": "Feature", "properties": {"collection_times": [{"days": "Mon-Sat", "time": "10:00am"}, {"days": "Sun", "time": "Closed"}], "id": "3213700012", "name": "USPS COLLECTION BOX - BLUE BOX", "address": {"city": "PALM COAST", "state": "FL", "street": "5415 N OCEANSHORE BLVD", "postcode": "32137"}}},
{"geometry": {"type": "Point", "coordinates": [-81.9191966938, 29.7277617785]}, "type": "Feature", "properties": {"collection_times": [{"days": "Mon-Fri", "time": "4:00pm"}, {"days": "Sat", "time": "9:00am"}, {"days": "Sun", "time": "Closed"}], "id": "3213800000", "name": "USPS COLLECTION BOX - BLUE BOX", "address": {"city": "GRANDIN", "state": "FL", "street": "938 CR 315 N", "postcode": "32138"}}},
{"geometry": {"type": "Point", "coordinates": [-81.9191966938, 29.7277617785]}, "type": "Feature", "properties": {"collection_times": [{"days": "Mon-Fri", "time": "12:45pm"}, {"days": "Sat", "time": "9:00am"}, {"days": "Sun", "time": "Closed"}], "id": "3213800001", "name": "USPS COLLECTION BOX - PO LOBBY", "address": {"city": "GRANDIN", "state": "FL", "street": "938 CR 315 N", "postcode": "32138"}}},
{"geometry": {"type": "Point", "coordinates": [-81.9191966938, 29.7277617785]}, "type": "Feature", "properties": {"collection_times": [{"days": "Mon-Fri", "time": "12:45pm"}, {"days": "Sat", "time": "9:00am"}, {"days": "Sun", "time": "Closed"}], "id": "3213800002", "name": "USPS COLLECTION BOX - PO LOBBY", "address": {"city": "GRANDIN", "state": "FL", "street": "938 CR 315 N", "postcode": "32138"}}},
{"geometry": {"type": "Point", "coordinates": [-81.6444542848, 29.4003455368]}, "type": "Feature", "properties": {"collection_times": [{"days": "Mon-Fri", "time": "3:45pm"}, {"days": "Sat", "time": "11:15am"}, {"days": "Sun", "time": "Closed"}], "id": "3213900000", "name": "USPS COLLECTION BOX - BLUE BOX", "address": {"city": "GEORGETOWN", "state": "FL", "street": "1441 COUNTY ROAD 309", "postcode": "32139"}}},
{"geometry": {"type": "Point", "coordinates": [-81.6444542848, 29.4003455368]}, "type": "Feature", "properties": {"collection_times": [{"days": "Mon-Fri", "time": "3:45pm"}, {"days": "Sat", "time": "11:15am"}, {"days": "Sun", "time": "Closed"}], "id": "3213900001", "name": "USPS COLLECTION BOX - PO LOBBY", "address": {"city": "GEORGETOWN", "state": "FL", "street": "1441 COUNTY ROAD 309", "postcode": "32139"}}},
{"geometry": {"type": "Point", "coordinates": [-81.6444542848, 29.4003455368]}, "type": "Feature", "properties": {"collection_times": [{"days": "Mon-Fri", "time": "3:45pm"}, {"days": "Sat", "time": "11:15am"}, {"days": "Sun", "time": "Closed"}], "id": "3213900003", "name": "USPS COLLECTION BOX - PO LOBBY", "address": {"city": "GEORGETOWN", "state": "FL", "street": "1441 COUNTY ROAD 309", "postcode": "32139"}}},
{"geometry": {"type": "Point", "coordinates": [-81.8837786254, 29.7340776122]}, "type": "Feature", "properties": {"collection_times": [{"days": "Mon-Fri", "time": "4:30pm"}, {"days": "Sat", "time": "11:30am"}, {"days": "Sun", "time": "Closed"}], "id": "3214000000", "name": "USPS COLLECTION BOX - BLUE BOX", "address": {"city": "FLORAHOME", "state": "FL", "street": "101 N IVY AVE", "postcode": "32140"}}},
{"geometry": {"type": "Point", "coordinates": [-81.8837786254, 29.7340776122]}, "type": "Feature", "properties": {"collection_times": [{"days": "Mon-Fri", "time": "4:30pm"}, {"days": "Sat", "time": "11:30am"}, {"days": "Sun", "time": "Closed"}], "id": "3214000001", "name": "USPS COLLECTION BOX - PO LOBBY", "address": {"city": "FLORAHOME", "state": "FL", "street": "101 N IVY AVE", "postcode": "32140"}}},
{"geometry": {"type": "Point", "coordinates": [-81.8837786254, 29.7340776122]}, "type": "Feature", "properties": {"collection_times": [{"days": "Mon-Fri", "time": "4:30pm"}, {"days": "Sat", "time": "11:30am"}, {"days": "Sun", "time": "Closed"}], "id": "3214000002", "name": "USPS COLLECTION BOX - PO LOBBY", "address": {"city": "FLORAHOME", "state": "FL", "street": "101 N IVY AVE", "postcode": "32140"}}},
{"geometry": {"type": "Point", "coordinates": [-81.506809234, 29.7179464124]}, "type": "Feature", "properties": {"collection_times": [{"days": "Mon-Fri", "time": "4:30pm"}, {"days": "Sat", "time": "12:30pm"}, {"days": "Sun", "time": "Closed"}], "id": "3214500000", "name": "USPS COLLECTION BOX - BLUE BOX", "address": {"city": "HASTINGS", "state": "FL", "street": "200 E COCHRAN ST", "postcode": "32145"}}},
{"geometry": {"type": "Point", "coordinates": [-81.506809234, 29.7179464124]}, "type": "Feature", "properties": {"collection_times": [{"days": "Mon-Fri", "time": "4:45pm"}, {"days": "Sat", "time": "12:30pm"}, {"days": "Sun", "time": "Closed"}], "id": "3214500001", "name": "USPS COLLECTION BOX - PO LOBBY", "address": {"city": "HASTINGS", "state": "FL", "street": "200 E COCHRAN ST", "postcode": "32145"}}},
{"geometry": {"type": "Point", "coordinates": [-81.506809234, 29.7179464124]}, "type": "Feature", "properties": {"collection_times": [{"days": "Mon-Fri", "time": "4:45pm"}, {"days": "Sat", "time": "12:30pm"}, {"days": "Sun", "time": "Closed"}], "id": "3214500002", "name": "USPS COLLECTION BOX - PO LOBBY", "address": {"city": "HASTINGS", "state": "FL", "street": "200 E COCHRAN ST", "postcode": "32145"}}},
{"geometry": {"type": "Point", "coordinates": [-81.4151885669, 29.6662213971]}, "type": "Feature", "properties": {"collection_times": [{"days": "Mon-Fri", "time": "9:30am"}, {"days": "Sat-Sun", "time": "Closed"}], "id": "3214500003", "name": "USPS COLLECTION BOX - BLUE BOX", "address": {"city": "HASTINGS", "state": "FL", "street": "9895 COUNTY ROAD 13 S", "postcode": "32145"}}},
{"geometry": {"type": "Point", "coordinates": [-81.8122058993, 29.6288083647]}, "type": "Feature", "properties": {"collection_times": [{"days": "Mon-Fri", "time": "3:45pm"}, {"days": "Sat", "time": "11:30am"}, {"days": "Sun", "time": "Closed"}], "id": "3214700000", "name": "USPS COLLECTION BOX - BLUE BOX", "address": {"city": "HOLLISTER", "state": "FL", "street": "650 STATE ROAD 20", "postcode": "32147"}}},
{"geometry": {"type": "Point", "coordinates": [-81.8122058993, 29.6288083647]}, "type": "Feature", "properties": {"collection_times": [{"days": "Mon-Fri", "time": "3:45pm"}, {"days": "Sat", "time": "11:30am"}, {"days": "Sun", "time": "Closed"}], "id": "3214700001", "name": "USPS COLLECTION BOX - PO LOBBY", "address": {"city": "HOLLISTER", "state": "FL", "street": "650 STATE ROAD 20", "postcode": "32147"}}},
{"geometry": {"type": "Point", "coordinates": [-81.8122058993, 29.6288083647]}, "type": "Feature", "properties": {"collection_times": [{"days": "Mon-Fri", "time": "3:45pm"}, {"days": "Sat", "time": "11:30am"}, {"days": "Sun", "time": "Closed"}], "id": "3214700002", "name": "USPS COLLECTION BOX - PO LOBBY", "address": {"city": "HOLLISTER", "state": "FL", "street": "650 STATE ROAD 20", "postcode": "32147"}}},
{"geometry": {"type": "Point", "coordinates": [-81.7971719087, 29.6265963249]}, "type": "Feature", "properties": {"collection_times": [{"days": "Mon-Sat", "time": "2:30pm"}, {"days": "Sun", "time": "Closed"}], "id": "3214800000", "name": "USPS COLLECTION BOX - BLUE BOX", "address": {"city": "INTERLACHEN", "state": "FL", "street": "1114 STATE ROAD 20", "postcode": "32148"}}},
{"geometry": {"type": "Point", "coordinates": [-81.8489871817, 29.6177944393]}, "type": "Feature", "properties": {"collection_times": [{"days": "Mon-Fri", "time": "4:30pm"}, {"days": "Sat", "time": "12:30pm"}, {"days": "Sun", "time": "Closed"}], "id": "3214800001", "name": "USPS COLLECTION BOX - BLUE BOX", "address": {"city": "INTERLACHEN", "state": "FL", "street": "100 MATHE AVE", "postcode": "32148"}}},
{"geometry": {"type": "Point", "coordinates": [-81.8489871817, 29.6177944393]}, "type": "Feature", "properties": {"collection_times": [{"days": "Mon-Fri", "time": "4:30pm"}, {"days": "Sat", "time": "12:30pm"}, {"days": "Sun", "time": "Closed"}], "id": "3214800002", "name": "USPS COLLECTION BOX - PO LOBBY", "address": {"city": "INTERLACHEN", "state": "FL", "street": "100 MATHE AVE", "postcode": "32148"}}},
{"geometry": {"type": "Point", "coordinates": [-81.8489871817, 29.6177944393]}, "type": "Feature", "properties": {"collection_times": [{"days": "Mon-Fri", "time": "4:30pm"}, {"days": "Sat", "time": "12:30pm"}, {"days": "Sun", "time": "Closed"}], "id": "3214800003", "name": "USPS COLLECTION BOX - PO LOBBY", "address": {"city": "INTERLACHEN", "state": "FL", "street": "100 MATHE AVE", "postcode": "32148"}}},
{"geometry": {"type": "Point", "coordinates": [-81.8489871817, 29.6177944393]}, "type": "Feature", "properties": {"collection_times": [{"days": "Mon-Fri", "time": "4:30pm"}, {"days": "Sat", "time": "12:30pm"}, {"days": "Sun", "time": "Closed"}], "id": "3214800006", "name": "USPS COLLECTION BOX - PO LOBBY", "address": {"city": "INTERLACHEN", "state": "FL", "street": "100 MATHE AVE", "postcode": "32148"}}},
{"geometry": {"type": "Point", "coordinates": [-81.5736774074, 29.4844850232]}, "type": "Feature", "properties": {"collection_times": [{"days": "Mon-Fri", "time": "4:00pm"}, {"days": "Sat", "time": "9:30am"}, {"days": "Sun", "time": "Closed"}], "id": "3215700000", "name": "USPS COLLECTION BOX - BLUE BOX", "address": {"city": "LAKE COMO", "state": "FL", "street": "148 EUCLID AVE", "postcode": "32157"}}},
{"geometry": {"type": "Point", "coordinates": [-81.5736774074, 29.4844850232]}, "type": "Feature", "properties": {"collection_times": [{"days": "Mon-Fri", "time": "11:30am"}, {"days": "Sat", "time": "9:30am"}, {"days": "Sun", "time": "Closed"}], "id": "3215700001", "name": "USPS COLLECTION BOX - PO LOBBY", "address": {"city": "LAKE COMO", "state": "FL", "street": "148 EUCLID AVE", "postcode": "32157"}}},
{"geometry": {"type": "Point", "coordinates": [-81.5736774074, 29.4844850232]}, "type": "Feature", "properties": {"collection_times": [{"days": "Mon-Fri", "time": "11:30am"}, {"days": "Sat", "time": "9:30am"}, {"days": "Sun", "time": "Closed"}], "id": "3215700002", "name": "USPS COLLECTION BOX - PO LOBBY", "address": {"city": "LAKE COMO", "state": "FL", "street": "148 EUCLID AVE", "postcode": "32157"}}},
{"geometry": {"type": "Point", "coordinates": [-81.9276811916, 28.9333323175]}, "type": "Feature", "properties": {"collection_times": [{"days": "Mon-Fri", "time": "4:30pm"}, {"days": "Sat", "time": "4:00pm"}, {"days": "Sun", "time": "Closed"}], "id": "3215900000", "name": "USPS COLLECTION BOX - BLUE BOX", "address": {"city": "LADY LAKE", "state": "FL", "street": "850 TEAGUE TRAIL/CR 25", "postcode": "32159"}}},
{"geometry": {"type": "Point", "coordinates": [-81.9047850208, 28.9089053978]}, "type": "Feature", "properties": {"collection_times": [{"days": "Mon-Sat", "time": "10:30am"}, {"days": "Sun", "time": "Closed"}], "id": "3215900001", "name": "USPS COLLECTION BOX - BLUE BOX", "address": {"city": "LADY LAKE", "state": "FL", "street": "2934 GRIFFINVIEW DR", "postcode": "32159"}}},
{"geometry": {"type": "Point", "coordinates": [-81.9424353531, 28.9368810161]}, "type": "Feature", "properties": {"collection_times": [{"days": "Mon-Sat", "time": "1:30pm"}, {"days": "Sun", "time": "Closed"}], "id": "3215900002", "name": "USPS COLLECTION BOX - BLUE BOX", "address": {"city": "LADY LAKE", "state": "FL", "street": "903 BICHARA BLVD", "postcode": "32159"}}},
{"geometry": {"type": "Point", "coordinates": [-81.9288073685, 28.9429852626]}, "type": "Feature", "properties": {"collection_times": [{"days": "Mon-Sat", "time": "10:00am"}, {"days": "Sun", "time": "Closed"}], "id": "3215900003", "name": "USPS COLLECTION BOX - BLUE BOX", "address": {"city": "LADY LAKE", "state": "FL", "street": "40840 COUNTY ROAD 25", "postcode": "32159"}}},
{"geometry": {"type": "Point", "coordinates": [-81.9327501707, 28.9161261793]}, "type": "Feature", "properties": {"collection_times": [{"days": "Mon-Sat", "time": "10:00am"}, {"days": "Sun", "time": "Closed"}], "id": "3215900004", "name": "USPS COLLECTION BOX - BLUE BOX", "address": {"city": "LADY LAKE", "state": "FL", "street": "609 HIGHWAY 466", "postcode": "32159"}}},
{"geometry": {"type": "Point", "coordinates": [-81.9226935088, 28.928124338]}, "type": "Feature", "properties": {"collection_times": [{"days": "Mon-Sat", "time": "12:00pm"}, {"days": "Sun", "time": "Closed"}], "id": "3215900005", "name": "USPS COLLECTION BOX - BLUE BOX", "address": {"city": "LADY LAKE", "state": "FL", "street": "106 EVERGREEN LN", "postcode": "32159"}}},
{"geometry": {"type": "Point", "coordinates": [-81.9276811916, 28.9333323175]}, "type": "Feature", "properties": {"collection_times": [{"days": "Mon-Fri", "time": "4:30pm"}, {"days": "Sat", "time": "4:00pm"}, {"days": "Sun", "time": "Closed"}], "id": "3215900006", "name": "USPS COLLECTION BOX - PO LOBBY", "address": {"city": "LADY LAKE", "state": "FL", "street": "850 TEAGUE TRAIL/CR 25", "postcode": "32159"}}},
{"geometry": {"type": "Point", "coordinates": [-81.9276811916, 28.9333323175]}, "type": "Feature", "properties": {"collection_times": [{"days": "Mon-Fri", "time": "4:30pm"}, {"days": "Sat", "time": "4:00pm"}, {"days": "Sun", "time": "Closed"}], "id": "3215900007", "name": "USPS COLLECTION BOX - BLUE BOX", "address": {"city": "LADY LAKE", "state": "FL", "street": "850 TEAGUE TRAIL/CR 25", "postcode": "32159"}}},
{"geometry": {"type": "Point", "coordinates": [-81.9276811916, 28.9333323175]}, "type": "Feature", "properties": {"collection_times": [{"days": "Mon-Fri", "time": "4:30pm"}, {"days": "Sat", "time": "4:00pm"}, {"days": "Sun", "time": "Closed"}], "id": "3215900008", "name": "USPS COLLECTION BOX - PO LOBBY", "address": {"city": "LADY LAKE", "state": "FL", "street": "850 TEAGUE TRAIL/CR 25", "postcode": "32159"}}},
{"geometry": {"type": "Point", "coordinates": [-81.9414004707, 28.9382121264]}, "type": "Feature", "properties": {"collection_times": [{"days": "Mon-Fri", "time": "4:30pm"}, {"days": "Sat", "time": "12:00pm"}, {"days": "Sun", "time": "Closed"}], "id": "3215900012", "name": "USPS COLLECTION BOX - BLUE BOX", "address": {"city": "LADY LAKE", "state": "FL", "street": "23 LA GRANDE BLVD", "postcode": "32159"}}},
{"geometry": {"type": "Point", "coordinates": [-81.9608359825, 28.9555281765]}, "type": "Feature", "properties": {"collection_times": [{"days": "Mon-Sat", "time": "11:00am"}, {"days": "Sun", "time": "Closed"}], "id": "3215900013", "name": "USPS COLLECTION BOX - BLUE BOX", "address": {"city": "LADY LAKE", "state": "FL", "street": "13700 N US HIGHWAY 441", "postcode": "32159"}}},
{"geometry": {"type": "Point", "coordinates": [-82.0173246315, 29.7771511071]}, "type": "Feature", "properties": {"collection_times": [{"days": "Mon-Fri", "time": "4:00pm"}, {"days": "Sat", "time": "9:00am"}, {"days": "Sun", "time": "Closed"}], "id": "3216000000", "name": "USPS COLLECTION BOX - BLUE BOX", "address": {"city": "LAKE GENEVA", "state": "FL", "street": "7921 STATE ROAD 100", "postcode": "32160"}}},
{"geometry": {"type": "Point", "coordinates": [-82.0173246315, 29.7771511071]}, "type": "Feature", "properties": {"collection_times": [{"days": "Mon-Fri", "time": "2:00pm"}, {"days": "Sat", "time": "9:00am"}, {"days": "Sun", "time": "Closed"}], "id": "3216000001", "name": "USPS COLLECTION BOX - PO LOBBY", "address": {"city": "LAKE GENEVA", "state": "FL", "street": "7921 STATE ROAD 100", "postcode": "32160"}}},
{"geometry": {"type": "Point", "coordinates": [-82.0173246315, 29.7771511071]}, "type": "Feature", "properties": {"collection_times": [{"days": "Mon-Fri", "time": "2:00pm"}, {"days": "Sat", "time": "9:00am"}, {"days": "Sun", "time": "Closed"}], "id": "3216000002", "name": "USPS COLLECTION BOX - PO LOBBY", "address": {"city": "LAKE GENEVA", "state": "FL", "street": "7921 STATE ROAD 100", "postcode": "32160"}}},
{"geometry": {"type": "Point", "coordinates": [-82.0062194495, 28.9271009198]}, "type": "Feature", "properties": {"collection_times": [{"days": "Mon-Sat", "time": "10:00am"}, {"days": "Sun", "time": "Closed"}], "id": "3216200001", "name": "USPS COLLECTION BOX - BLUE BOX", "address": {"city": "LADY LAKE", "state": "FL", "street": "8033 E COUNTY ROAD 466", "postcode": "32162"}}},
{"geometry": {"type": "Point", "coordinates": [-81.9731907867, 28.8926655509]}, "type": "Feature", "properties": {"collection_times": [{"days": "Mon-Sat", "time": "11:30am"}, {"days": "Sun", "time": "Closed"}], "id": "3216200002", "name": "USPS COLLECTION BOX - BLUE BOX", "address": {"city": "LADY LAKE", "state": "FL", "street": "8780 SE MULBERRY LN", "postcode": "32162"}}},
{"geometry": {"type": "Point", "coordinates": [-81.189636014, 29.4768220524]}, "type": "Feature", "properties": {"collection_times": [{"days": "Mon-Sat", "time": "11:30am"}, {"days": "Sun", "time": "Closed"}], "id": "3216400001", "name": "USPS COLLECTION BOX - BLUE BOX", "address": {"city": "PALM COAST", "state": "FL", "street": "61 MEMORIAL MEDICAL PKWY", "postcode": "32164"}}},
{"geometry": {"type": "Point", "coordinates": [-80.9402606116, 29.0121150186]}, "type": "Feature", "properties": {"collection_times": [{"days": "Mon-Fri", "time": "5:00pm"}, {"days": "Sat", "time": "3:00pm"}, {"days": "Sun", "time": "Closed"}], "id": "3216800001", "name": "USPS COLLECTION BOX - BLUE BOX", "address": {"city": "NEW SMYRNA", "state": "FL", "street": "301 MISSION DR", "postcode": "32168"}}},
{"geometry": {"type": "Point", "coordinates": [-80.9402606116, 29.0121150186]}, "type": "Feature", "properties": {"collection_times": [{"days": "Mon-Fri", "time": "5:00pm"}, {"days": "Sat", "time": "3:00pm"}, {"days": "Sun", "time": "Closed"}], "id": "3216800002", "name": "USPS COLLECTION BOX - BLUE BOX", "address": {"city": "NEW SMYRNA", "state": "FL", "street": "301 MISSION DR", "postcode": "32168"}}},
{"geometry": {"type": "Point", "coordinates": [-80.9454005684, 29.0123374149]}, "type": "Feature", "properties": {"collection_times": [{"days": "Mon-Sat", "time": "1:00pm"}, {"days": "Sun", "time": "Closed"}], "id": "3216800010", "name": "USPS COLLECTION BOX - BLUE BOX", "address": {"city": "NEW SMYRNA", "state": "FL", "street": "1930 SR 44", "postcode": "32168"}}},
{"geometry": {"type": "Point", "coordinates": [-80.9228025032, 29.0267434892]}, "type": "Feature", "properties": {"collection_times": [{"days": "Mon-Fri", "time": "3:00pm"}, {"days": "Sat", "time": "1:00pm"}, {"days": "Sun", "time": "Closed"}], "id": "3216800023", "name": "USPS COLLECTION BOX - BLUE BOX", "address": {"city": "NEW SMYRNA", "state": "FL", "street": "210 SAMS AVE", "postcode": "32168"}}},
{"geometry": {"type": "Point", "coordinates": [-80.9402606116, 29.0121150186]}, "type": "Feature", "properties": {"collection_times": [{"days": "Mon-Fri", "time": "5:00pm"}, {"days": "Sat", "time": "3:00pm"}, {"days": "Sun", "time": "Closed"}], "id": "3216800026", "name": "USPS COLLECTION BOX - PO LOBBY", "address": {"city": "NEW SMYRNA", "state": "FL", "street": "301 MISSION DR", "postcode": "32168"}}},
{"geometry": {"type": "Point", "coordinates": [-80.9402606116, 29.0121150186]}, "type": "Feature", "properties": {"collection_times": [{"days": "Mon-Fri", "time": "5:00pm"}, {"days": "Sat", "time": "3:00pm"}, {"days": "Sun", "time": "Closed"}], "id": "3216800028", "name": "USPS COLLECTION BOX - PO LOBBY", "address": {"city": "NEW SMYRNA", "state": "FL", "street": "301 MISSION DR", "postcode": "32168"}}},
{"geometry": {"type": "Point", "coordinates": [-80.9214527471, 29.0254718083]}, "type": "Feature", "properties": {"collection_times": [{"days": "Mon-Fri", "time": "3:00pm"}, {"days": "Sat", "time": "1:00pm"}, {"days": "Sun", "time": "Closed"}], "id": "3216800029", "name": "USPS COLLECTION BOX - BLUE BOX", "address": {"city": "NEW SMYRNA", "state": "FL", "street": "115 CANAL ST", "postcode": "32168"}}},
{"geometry": {"type": "Point", "coordinates": [-80.8933491909, 29.0286717123]}, "type": "Feature", "properties": {"collection_times": [{"days": "Mon-Sat", "time": "1:00pm"}, {"days": "Sun", "time": "Closed"}], "id": "3216900006", "name": "USPS COLLECTION BOX - BLUE BOX", "address": {"city": "NEW SMYRNA BEACH", "state": "FL", "street": "727 THIRD AVE", "postcode": "32169"}}},
{"geometry": {"type": "Point", "coordinates": [-81.1114560671, 29.2520250115]}, "type": "Feature", "properties": {"collection_times": [{"days": "Mon-Sat", "time": "5:00pm"}, {"days": "Sun", "time": "Closed"}], "id": "3217400000", "name": "USPS COLLECTION BOX - BLUE BOX", "address": {"city": "ORMOND BEACH", "state": "FL", "street": "260 WILLIAMSON BLVD", "postcode": "32174"}}},
{"geometry": {"type": "Point", "coordinates": [-81.1114560671, 29.2520250115]}, "type": "Feature", "properties": {"collection_times": [{"days": "Mon-Sat", "time": "5:00pm"}, {"days": "Sun", "time": "Closed"}], "id": "3217400001", "name": "USPS COLLECTION BOX - BLUE BOX", "address": {"city": "ORMOND BEACH", "state": "FL", "street": "260 WILLIAMSON BLVD", "postcode": "32174"}}},
{"geometry": {"type": "Point", "coordinates": [-81.0832873082, 29.2853555981]}, "type": "Feature", "properties": {"collection_times": [{"days": "Mon-Fri", "time": "4:45pm"}, {"days": "Sat", "time": "10:00am"}, {"days": "Sun", "time": "Closed"}], "id": "3217400003", "name": "USPS COLLECTION BOX - BLUE BOX", "address": {"city": "ORMOND BEACH", "state": "FL", "street": "294 N NOVA RD", "postcode": "32174"}}},
{"geometry": {"type": "Point", "coordinates": [-81.0710035399, 29.2798474626]}, "type": "Feature", "properties": {"collection_times": [{"days": "Mon-Fri", "time": "4:30pm"}, {"days": "Sat", "time": "9:45am"}, {"days": "Sun", "time": "Closed"}], "id": "3217400008", "name": "USPS COLLECTION BOX - BLUE BOX", "address": {"city": "ORMOND BEACH", "state": "FL", "street": "555 W GRANADA BLVD", "postcode": "32174"}}},
{"geometry": {"type": "Point", "coordinates": [-81.0595738529, 29.2840796506]}, "type": "Feature", "properties": {"collection_times": [{"days": "Mon-Fri", "time": "4:30pm"}, {"days": "Sat", "time": "10:00am"}, {"days": "Sun", "time": "Closed"}], "id": "3217400010", "name": "USPS COLLECTION BOX - BLUE BOX", "address": {"city": "ORMOND BEACH", "state": "FL", "street": "145 W GRANADA BLVD", "postcode": "32174"}}},
{"geometry": {"type": "Point", "coordinates": [-81.0829645005, 29.2776242435]}, "type": "Feature", "properties": {"collection_times": [{"days": "Mon-Fri", "time": "11:30am"}, {"days": "Sat", "time": "10:30am"}, {"days": "Sun", "time": "Closed"}], "id": "3217400014", "name": "USPS COLLECTION BOX - BLUE BOX", "address": {"city": "ORMOND BEACH", "state": "FL", "street": "130 S NOVA RD", "postcode": "32174"}}},
{"geometry": {"type": "Point", "coordinates": [-81.0549898869, 29.2842925832]}, "type": "Feature", "properties": {"collection_times": [{"days": "Mon-Fri", "time": "4:15pm"}, {"days": "Sat", "time": "9:30am"}, {"days": "Sun", "time": "Closed"}], "id": "3217400015", "name": "USPS COLLECTION BOX - BLUE BOX", "address": {"city": "ORMOND BEACH", "state": "FL", "street": "30 S BEACH ST", "postcode": "32174"}}},
{"geometry": {"type": "Point", "coordinates": [-81.0710793118, 29.2915157306]}, "type": "Feature", "properties": {"collection_times": [{"days": "Mon-Sat", "time": "12:00pm"}, {"days": "Sun", "time": "Closed"}], "id": "3217400016", "name": "USPS COLLECTION BOX - BLUE BOX", "address": {"city": "ORMOND BEACH", "state": "FL", "street": "401 N US HIGHWAY 1", "postcode": "32174"}}},
{"geometry": {"type": "Point", "coordinates": [-81.0820193163, 29.2585762383]}, "type": "Feature", "properties": {"collection_times": [{"days": "Mon-Sat", "time": "10:00am"}, {"days": "Sun", "time": "Closed"}], "id": "3217400017", "name": "USPS COLLECTION BOX - BLUE BOX", "address": {"city": "ORMOND BEACH", "state": "FL", "street": "1335 FLEMING AVE", "postcode": "32174"}}},
{"geometry": {"type": "Point", "coordinates": [-81.0974652115, 29.2711073226]}, "type": "Feature", "properties": {"collection_times": [{"days": "Mon-Sat", "time": "1:00pm"}, {"days": "Sun", "time": "Closed"}], "id": "3217400021", "name": "USPS COLLECTION BOX - BLUE BOX", "address": {"city": "ORMOND BEACH", "state": "FL", "street": "1102 W GRANADA BLVD", "postcode": "32174"}}},
{"geometry": {"type": "Point", "coordinates": [-81.0537276697, 29.2676755586]}, "type": "Feature", "properties": {"collection_times": [{"days": "Mon-Sat", "time": "11:00am"}, {"days": "Sun", "time": "Closed"}], "id": "3217400022", "name": "USPS COLLECTION BOX - BLUE BOX", "address": {"city": "ORMOND BEACH", "state": "FL", "street": "601 S YONGE ST", "postcode": "32174"}}},
{"geometry": {"type": "Point", "coordinates": [-81.1112265731, 29.2585312858]}, "type": "Feature", "properties": {"collection_times": [{"days": "Mon-Fri", "time": "4:00pm"}, {"days": "Sat", "time": "10:00am"}, {"days": "Sun", "time": "Closed"}], "id": "3217400023", "name": "USPS COLLECTION BOX - BLUE BOX", "address": {"city": "ORMOND BEACH", "state": "FL", "street": "1466 W GRANADA BLVD", "postcode": "32174"}}},
{"geometry": {"type": "Point", "coordinates": [-81.0902373322, 29.2941738394]}, "type": "Feature", "properties": {"collection_times": [{"days": "Mon-Sat", "time": "12:00pm"}, {"days": "Sun", "time": "Closed"}], "id": "3217400024", "name": "USPS COLLECTION BOX - BLUE BOX", "address": {"city": "ORMOND BEACH", "state": "FL", "street": "22 TOMOKA OAKS BLVD", "postcode": "32174"}}},
{"geometry": {"type": "Point", "coordinates": [-81.0756573629, 29.2611763821]}, "type": "Feature", "properties": {"collection_times": [{"days": "Mon-Fri", "time": "2:30pm"}, {"days": "Sat", "time": "1:30pm"}, {"days": "Sun", "time": "Closed"}], "id": "3217400025", "name": "USPS COLLECTION BOX - BLUE BOX", "address": {"city": "ORMOND BEACH", "state": "FL", "street": "757 S NOVA RD", "postcode": "32174"}}},
{"geometry": {"type": "Point", "coordinates": [-81.1023385079, 29.3070259871]}, "type": "Feature", "properties": {"collection_times": [{"days": "Mon-Sat", "time": "11:00am"}, {"days": "Sun", "time": "Closed"}], "id": "3217400026", "name": "USPS COLLECTION BOX - BLUE BOX", "address": {"city": "ORMOND BEACH", "state": "FL", "street": "6 BEAR CREEK PATH", "postcode": "32174"}}},
{"geometry": {"type": "Point", "coordinates": [-81.1202426467, 29.2934283189]}, "type": "Feature", "properties": {"collection_times": [{"days": "Mon-Sat", "time": "10:00am"}, {"days": "Sun", "time": "Closed"}], "id": "3217400027", "name": "USPS COLLECTION BOX - BLUE BOX", "address": {"city": "ORMOND BEACH", "state": "FL", "street": "7 W TOWER CIR", "postcode": "32174"}}},
{"geometry": {"type": "Point", "coordinates": [-81.1114560671, 29.2520250115]}, "type": "Feature", "properties": {"collection_times": [{"days": "Mon-Sat", "time": "5:00pm"}, {"days": "Sun", "time": "Closed"}], "id": "3217400028", "name": "USPS COLLECTION BOX - PO LOBBY", "address": {"city": "ORMOND BEACH", "state": "FL", "street": "260 WILLIAMSON BLVD", "postcode": "32174"}}},
{"geometry": {"type": "Point", "coordinates": [-81.1114560671, 29.2520250115]}, "type": "Feature", "properties": {"collection_times": [{"days": "Mon-Sat", "time": "5:00pm"}, {"days": "Sun", "time": "Closed"}], "id": "3217400029", "name": "USPS COLLECTION BOX - PO LOBBY", "address": {"city": "ORMOND BEACH", "state": "FL", "street": "260 WILLIAMSON BLVD", "postcode": "32174"}}},
{"geometry": {"type": "Point", "coordinates": [-81.0681562201, 29.2809909447]}, "type": "Feature", "properties": {"collection_times": [{"days": "Mon-Sat", "time": "11:00am"}, {"days": "Sun", "time": "Closed"}], "id": "3217400031", "name": "USPS COLLECTION BOX - BLUE BOX", "address": {"city": "ORMOND BEACH", "state": "FL", "street": "353 W GRANADA BLVD", "postcode": "32174"}}},
{"geometry": {"type": "Point", "coordinates": [-81.1141591284, 29.2897696832]}, "type": "Feature", "properties": {"collection_times": [{"days": "Mon-Sat", "time": "10:00am"}, {"days": "Sun", "time": "Closed"}], "id": "3217400032", "name": "USPS COLLECTION BOX - BLUE BOX", "address": {"city": "ORMOND BEACH", "state": "FL", "street": "1 SUNSHINE BLVD", "postcode": "32174"}}},
{"geometry": {"type": "Point", "coordinates": [-81.1478675441, 29.402118845]}, "type": "Feature", "properties": {"collection_times": [{"days": "Mon-Sat", "time": "12:00pm"}, {"days": "Sun", "time": "Closed"}], "id": "3217400033", "name": "USPS COLLECTION BOX - BLUE BOX", "address": {"city": "ORMOND BEACH", "state": "FL", "street": "3750 ROS COMMON DR", "postcode": "32174"}}},
{"geometry": {"type": "Point", "coordinates": [-81.1133558992, 29.2577789239]}, "type": "Feature", "properties": {"collection_times": [{"days": "Mon-Sat", "time": "10:30am"}, {"days": "Sun", "time": "Closed"}], "id": "3217400034", "name": "USPS COLLECTION BOX - BLUE BOX", "address": {"city": "ORMOND BEACH", "state": "FL", "street": "1521 W GRANADA BLVD", "postcode": "32174"}}},
{"geometry": {"type": "Point", "coordinates": [-81.094163573, 29.2620009045]}, "type": "Feature", "properties": {"collection_times": [{"days": "Mon-Fri", "time": "4:00pm"}, {"days": "Sat-Sun", "time": "Closed"}], "id": "3217400036", "name": "USPS COLLECTION BOX - BLUE BOX", "address": {"city": "ORMOND BEACH", "state": "FL", "street": "285 CLYDE MORRIS BLVD", "postcode": "32174"}}},
{"geometry": {"type": "Point", "coordinates": [-81.094163573, 29.2620009045]}, "type": "Feature", "properties": {"collection_times": [{"days": "Mon-Fri", "time": "4:00pm"}, {"days": "Sat-Sun", "time": "Closed"}], "id": "3217400038", "name": "USPS COLLECTION BOX - BLUE BOX", "address": {"city": "ORMOND BEACH", "state": "FL", "street": "285 CLYDE MORRIS BLVD", "postcode": "32174"}}},
{"geometry": {"type": "Point", "coordinates": [-81.1114560671, 29.2520250115]}, "type": "Feature", "properties": {"collection_times": [{"days": "Mon-Sat", "time": "5:00pm"}, {"days": "Sun", "time": "Closed"}], "id": "3217400040", "name": "USPS COLLECTION BOX - APC", "address": {"city": "ORMOND BEACH", "state": "FL", "street": "260 WILLIAMSON BLVD", "postcode": "32174"}}},
{"geometry": {"type": "Point", "coordinates": [-81.1011158228, 29.3079742387]}, "type": "Feature", "properties": {"collection_times": [{"days": "Mon-Sat", "time": "10:00am"}, {"days": "Sun", "time": "Closed"}], "id": "3217400041", "name": "USPS COLLECTION BOX - BLUE BOX", "address": {"city": "ORMOND BEACH", "state": "FL", "street": "880 AIRPORT RD", "postcode": "32174"}}},
{"geometry": {"type": "Point", "coordinates": [-81.0554275817, 29.3235490765]}, "type": "Feature", "properties": {"collection_times": [{"days": "Mon-Sat", "time": "2:00pm"}, {"days": "Sun", "time": "Closed"}], "id": "3217600004", "name": "USPS COLLECTION BOX - BLUE BOX", "address": {"city": "ORMOND BEACH", "state": "FL", "street": "1228 OCEANSHORE BLVD", "postcode": "32176"}}},
{"geometry": {"type": "Point", "coordinates": [-81.0327035842, 29.2758499967]}, "type": "Feature", "properties": {"collection_times": [{"days": "Mon-Sat", "time": "2:00pm"}, {"days": "Sun", "time": "Closed"}], "id": "3217600006", "name": "USPS COLLECTION BOX - BLUE BOX", "address": {"city": "ORMOND BEACH", "state": "FL", "street": "264 NORTHSHORE DR", "postcode": "32176"}}},
{"geometry": {"type": "Point", "coordinates": [-81.0412722947, 29.2913725926]}, "type": "Feature", "properties": {"collection_times": [{"days": "Mon-Sat", "time": "2:00pm"}, {"days": "Sun", "time": "Closed"}], "id": "3217600008", "name": "USPS COLLECTION BOX - BLUE BOX", "address": {"city": "ORMOND BEACH", "state": "FL", "street": "200 E GRANADA BLVD", "postcode": "32176"}}},
{"geometry": {"type": "Point", "coordinates": [-81.0456989272, 29.2896797783]}, "type": "Feature", "properties": {"collection_times": [{"days": "Mon-Sat", "time": "5:00pm"}, {"days": "Sun", "time": "Closed"}], "id": "3217600011", "name": "USPS COLLECTION BOX - PO LOBBY", "address": {"city": "ORMOND BEACH", "state": "FL", "street": "55 E GRANADA BLVD", "postcode": "32176"}}},
{"geometry": {"type": "Point", "coordinates": [-81.0456989272, 29.2896797783]}, "type": "Feature", "properties": {"collection_times": [{"days": "Mon-Sat", "time": "5:00pm"}, {"days": "Sun", "time": "Closed"}], "id": "3217600012", "name": "USPS COLLECTION BOX - PO LOBBY", "address": {"city": "ORMOND BEACH", "state": "FL", "street": "55 E GRANADA BLVD", "postcode": "32176"}}},
{"geometry": {"type": "Point", "coordinates": [-81.0456989272, 29.2896797783]}, "type": "Feature", "properties": {"collection_times": [{"days": "Mon-Sat", "time": "5:00pm"}, {"days": "Sun", "time": "Closed"}], "id": "3217600013", "name": "USPS COLLECTION BOX - BLUE BOX", "address": {"city": "ORMOND BEACH", "state": "FL", "street": "55 E GRANADA BLVD", "postcode": "32176"}}},
{"geometry": {"type": "Point", "coordinates": [-81.0423901909, 29.2910307175]}, "type": "Feature", "properties": {"collection_times": [{"days": "Mon-Sat", "time": "2:00pm"}, {"days": "Sun", "time": "Closed"}], "id": "3217600014", "name": "USPS COLLECTION BOX - BLUE BOX", "address": {"city": "ORMOND BEACH", "state": "FL", "street": "145 E GRANADA BLVD", "postcode": "32176"}}},
{"geometry": {"type": "Point", "coordinates": [-81.6324489397, 29.6469132755]}, "type": "Feature", "properties": {"collection_times": [{"days": "Mon-Fri", "time": "10:35am"}, {"days": "Sat-Sun", "time": "Closed"}], "id": "3217700002", "name": "USPS COLLECTION BOX - BLUE BOX", "address": {"city": "PALATKA", "state": "FL", "street": "400 SAINT JOHNS AVE", "postcode": "32177"}}},
{"geometry": {"type": "Point", "coordinates": [-81.6961661249, 29.69645336]}, "type": "Feature", "properties": {"collection_times": [{"days": "Mon-Fri", "time": "9:05am"}, {"days": "Sat-Sun", "time": "Closed"}], "id": "3217700003", "name": "USPS COLLECTION BOX - BLUE BOX", "address": {"city": "PALATKA", "state": "FL", "street": "111 TOWN & COUNTRY DR", "postcode": "32177"}}},
{"geometry": {"type": "Point", "coordinates": [-81.662221013, 29.6417085827]}, "type": "Feature", "properties": {"collection_times": [{"days": "Mon-Fri", "time": "8:45am"}, {"days": "Sat-Sun", "time": "Closed"}], "id": "3217700004", "name": "USPS COLLECTION BOX - BLUE BOX", "address": {"city": "PALATKA", "state": "FL", "street": "3202 CRILL AVE", "postcode": "32177"}}},
{"geometry": {"type": "Point", "coordinates": [-81.6724928263, 29.6514763165]}, "type": "Feature", "properties": {"collection_times": [{"days": "Mon-Fri", "time": "9:30am"}, {"days": "Sat-Sun", "time": "Closed"}], "id": "3217700007", "name": "USPS COLLECTION BOX - BLUE BOX", "address": {"city": "PALATKA", "state": "FL", "street": "327 N STATE ROAD 19", "postcode": "32177"}}},
{"geometry": {"type": "Point", "coordinates": [-81.6754221593, 29.6435446898]}, "type": "Feature", "properties": {"collection_times": [{"days": "Mon-Fri", "time": "12:00pm"}, {"days": "Sat-Sun", "time": "Closed"}], "id": "3217700011", "name": "USPS COLLECTION BOX - BLUE BOX", "address": {"city": "PALATKA", "state": "FL", "street": "400 HWY 19 N", "postcode": "32177"}}},
{"geometry": {"type": "Point", "coordinates": [-81.6790427556, 29.6482329939]}, "type": "Feature", "properties": {"collection_times": [{"days": "Mon-Fri", "time": "11:00am"}, {"days": "Sat-Sun", "time": "Closed"}], "id": "3217700012", "name": "USPS COLLECTION BOX - BLUE BOX", "address": {"city": "PALATKA", "state": "FL", "street": "5001 SAINT JOHNS AVE", "postcode": "32177"}}},
{"geometry": {"type": "Point", "coordinates": [-81.6753206911, 29.6438406388]}, "type": "Feature", "properties": {"collection_times": [{"days": "Mon-Fri", "time": "9:00am"}, {"days": "Sat-Sun", "time": "Closed"}], "id": "3217700014", "name": "USPS COLLECTION BOX - BLUE BOX", "address": {"city": "PALATKA", "state": "FL", "street": "322 S HIGHWAY 19", "postcode": "32177"}}},
{"geometry": {"type": "Point", "coordinates": [-81.6935456387, 29.6409347957]}, "type": "Feature", "properties": {"collection_times": [{"days": "Mon-Fri", "time": "1:05pm"}, {"days": "Sat-Sun", "time": "Closed"}], "id": "3217700016", "name": "USPS COLLECTION BOX - BLUE BOX", "address": {"city": "PALATKA", "state": "FL", "street": "800 ZEAGLER DR", "postcode": "32177"}}},
{"geometry": {"type": "Point", "coordinates": [-81.630913459, 29.646609255]}, "type": "Feature", "properties": {"collection_times": [{"days": "Mon-Fri", "time": "10:30am"}, {"days": "Sat-Sun", "time": "Closed"}], "id": "3217700018", "name": "USPS COLLECTION BOX - BLUE BOX", "address": {"city": "PALATKA", "state": "FL", "street": "220 SAINT JOHNS AVE", "postcode": "32177"}}},
{"geometry": {"type": "Point", "coordinates": [-81.676396272, 29.6407932449]}, "type": "Feature", "properties": {"collection_times": [{"days": "Mon-Fri", "time": "10:30am"}, {"days": "Sat-Sun", "time": "Closed"}], "id": "3217700019", "name": "USPS COLLECTION BOX - BLUE BOX", "address": {"city": "PALATKA", "state": "FL", "street": "901 S HIGHWAY 19", "postcode": "32177"}}},
{"geometry": {"type": "Point", "coordinates": [-81.676349995, 29.6402693945]}, "type": "Feature", "properties": {"collection_times": [{"days": "Mon-Fri", "time": "9:00am"}, {"days": "Sat-Sun", "time": "Closed"}], "id": "3217700020", "name": "USPS COLLECTION BOX - BLUE BOX", "address": {"city": "PALATKA", "state": "FL", "street": "904 S HIGHWAY 19", "postcode": "32177"}}},
{"geometry": {"type": "Point", "coordinates": [-81.629825959, 29.6472540926]}, "type": "Feature", "properties": {"collection_times": [{"days": "Mon-Fri", "time": "12:00pm"}, {"days": "Sat-Sun", "time": "Closed"}], "id": "3217700021", "name": "USPS COLLECTION BOX - BLUE BOX", "address": {"city": "PALATKA", "state": "FL", "street": "202 N 2ND ST", "postcode": "32177"}}},
{"geometry": {"type": "Point", "coordinates": [-81.6935120985, 29.6421092791]}, "type": "Feature", "properties": {"collection_times": [{"days": "Mon-Fri", "time": "1:00pm"}, {"days": "Sat-Sun", "time": "Closed"}], "id": "3217700025", "name": "USPS COLLECTION BOX - BLUE BOX", "address": {"city": "PALATKA", "state": "FL", "street": "610 ZEAGLER DR", "postcode": "32177"}}},
{"geometry": {"type": "Point", "coordinates": [-81.6407320184, 29.6480027807]}, "type": "Feature", "properties": {"collection_times": [{"days": "Mon-Fri", "time": "5:00pm"}, {"days": "Sat", "time": "1:45pm"}, {"days": "Sun", "time": "Closed"}], "id": "3217700027", "name": "USPS COLLECTION BOX - BLUE BOX", "address": {"city": "PALATKA", "state": "FL", "street": "1105 SAINT JOHNS AVE", "postcode": "32177"}}},
{"geometry": {"type": "Point", "coordinates": [-81.6334431085, 29.6470990841]}, "type": "Feature", "properties": {"collection_times": [{"days": "Mon-Fri", "time": "10:40am"}, {"days": "Sat-Sun", "time": "Closed"}], "id": "3217700031", "name": "USPS COLLECTION BOX - BLUE BOX", "address": {"city": "PALATKA", "state": "FL", "street": "506 SAINT JOHNS AVE", "postcode": "32177"}}},
{"geometry": {"type": "Point", "coordinates": [-81.6407320184, 29.6480027807]}, "type": "Feature", "properties": {"collection_times": [{"days": "Mon-Fri", "time": "5:00pm"}, {"days": "Sat", "time": "1:45pm"}, {"days": "Sun", "time": "Closed"}], "id": "3217700034", "name": "USPS COLLECTION BOX - PO LOBBY", "address": {"city": "PALATKA", "state": "FL", "street": "1105 SAINT JOHNS AVE", "postcode": "32177"}}},
{"geometry": {"type": "Point", "coordinates": [-81.6407320184, 29.6480027807]}, "type": "Feature", "properties": {"collection_times": [{"days": "Mon-Fri", "time": "5:00pm"}, {"days": "Sat", "time": "1:45pm"}, {"days": "Sun", "time": "Closed"}], "id": "3217700036", "name": "USPS COLLECTION BOX - PO LOBBY", "address": {"city": "PALATKA", "state": "FL", "street": "1105 SAINT JOHNS AVE", "postcode": "32177"}}},
{"geometry": {"type": "Point", "coordinates": [-81.6672504073, 29.6606101169]}, "type": "Feature", "properties": {"collection_times": [{"days": "Mon-Fri", "time": "9:05am"}, {"days": "Sat-Sun", "time": "Closed"}], "id": "3217700041", "name": "USPS COLLECTION BOX - BLUE BOX", "address": {"city": "PALATKA", "state": "FL", "street": "1024 S STATE ROAD 19", "postcode": "32177"}}},
{"geometry": {"type": "Point", "coordinates": [-81.6561862777, 29.6417879002]}, "type": "Feature", "properties": {"collection_times": [{"days": "Mon-Fri", "time": "10:30am"}, {"days": "Sat-Sun", "time": "Closed"}], "id": "3217700043", "name": "USPS COLLECTION BOX - BLUE BOX", "address": {"city": "PALATKA", "state": "FL", "street": "2509 CRILL AVE", "postcode": "32177"}}},
{"geometry": {"type": "Point", "coordinates": [-81.9299911308, 29.042837166]}, "type": "Feature", "properties": {"collection_times": [{"days": "Mon-Fri", "time": "3:30pm"}, {"days": "Sat", "time": "12:00pm"}, {"days": "Sun", "time": "Closed"}], "id": "3217900001", "name": "USPS COLLECTION BOX - BLUE BOX", "address": {"city": "OCKLAWAHA", "state": "FL", "street": "13470 E HIGHWAY 25", "postcode": "32179"}}},
{"geometry": {"type": "Point", "coordinates": [-81.9299911308, 29.042837166]}, "type": "Feature", "properties": {"collection_times": [{"days": "Mon-Fri", "time": "3:30pm"}, {"days": "Sat", "time": "12:00pm"}, {"days": "Sun", "time": "Closed"}], "id": "3217900002", "name": "USPS COLLECTION BOX - PO LOBBY", "address": {"city": "OCKLAWAHA", "state": "FL", "street": "13470 E HIGHWAY 25", "postcode": "32179"}}},
{"geometry": {"type": "Point", "coordinates": [-81.46711268, 29.2404781491]}, "type": "Feature", "properties": {"collection_times": [{"days": "Mon-Fri", "time": "4:00pm"}, {"days": "Sat", "time": "12:00pm"}, {"days": "Sun", "time": "Closed"}], "id": "3218000000", "name": "USPS COLLECTION BOX - BLUE BOX", "address": {"city": "PIERSON", "state": "FL", "street": "123 N VOLUSIA AVE", "postcode": "32180"}}},
{"geometry": {"type": "Point", "coordinates": [-81.46711268, 29.2404781491]}, "type": "Feature", "properties": {"collection_times": [{"days": "Mon-Fri", "time": "4:00pm"}, {"days": "Sat", "time": "12:00pm"}, {"days": "Sun", "time": "Closed"}], "id": "3218000001", "name": "USPS COLLECTION BOX - PO LOBBY", "address": {"city": "PIERSON", "state": "FL", "street": "123 N VOLUSIA AVE", "postcode": "32180"}}},
{"geometry": {"type": "Point", "coordinates": [-81.46711268, 29.2404781491]}, "type": "Feature", "properties": {"collection_times": [{"days": "Mon-Fri", "time": "4:00pm"}, {"days": "Sat", "time": "12:00pm"}, {"days": "Sun", "time": "Closed"}], "id": "3218000002", "name": "USPS COLLECTION BOX - PO LOBBY", "address": {"city": "PIERSON", "state": "FL", "street": "123 N VOLUSIA AVE", "postcode": "32180"}}},
{"geometry": {"type": "Point", "coordinates": [-81.583576996, 29.4907249734]}, "type": "Feature", "properties": {"collection_times": [{"days": "Mon-Fri", "time": "4:30pm"}, {"days": "Sat", "time": "12:00pm"}, {"days": "Sun", "time": "Closed"}], "id": "3218100000", "name": "USPS COLLECTION BOX - BLUE BOX", "address": {"city": "POMONA PARK", "state": "FL", "street": "1778 S HIGHWAY 17", "postcode": "32181"}}},
{"geometry": {"type": "Point", "coordinates": [-81.583576996, 29.4907249734]}, "type": "Feature", "properties": {"collection_times": [{"days": "Mon-Fri", "time": "4:30pm"}, {"days": "Sat", "time": "12:00pm"}, {"days": "Sun", "time": "Closed"}], "id": "3218100001", "name": "USPS COLLECTION BOX - PO LOBBY", "address": {"city": "POMONA PARK", "state": "FL", "street": "1778 S HIGHWAY 17", "postcode": "32181"}}},
{"geometry": {"type": "Point", "coordinates": [-81.583576996, 29.4907249734]}, "type": "Feature", "properties": {"collection_times": [{"days": "Mon-Fri", "time": "4:30pm"}, {"days": "Sat", "time": "12:00pm"}, {"days": "Sun", "time": "Closed"}], "id": "3218100002", "name": "USPS COLLECTION BOX - PO LOBBY", "address": {"city": "POMONA PARK", "state": "FL", "street": "1778 S HIGHWAY 17", "postcode": "32181"}}},
{"geometry": {"type": "Point", "coordinates": [-81.9407500025, 29.5070485099]}, "type": "Feature", "properties": {"collection_times": [{"days": "Mon-Fri", "time": "4:00pm"}, {"days": "Sat", "time": "10:30am"}, {"days": "Sun", "time": "Closed"}], "id": "3218200001", "name": "USPS COLLECTION BOX - PO LOBBY", "address": {"city": "ORANGE SPRINGS", "state": "FL", "street": "24282 NE CR 315", "postcode": "32182"}}},
{"geometry": {"type": "Point", "coordinates": [-81.9407500025, 29.5070485099]}, "type": "Feature", "properties": {"collection_times": [{"days": "Mon-Fri", "time": "4:00pm"}, {"days": "Sat", "time": "10:30am"}, {"days": "Sun", "time": "Closed"}], "id": "3218200002", "name": "USPS COLLECTION BOX - BLUE BOX", "address": {"city": "ORANGE SPRINGS", "state": "FL", "street": "24282 NE CR 315", "postcode": "32182"}}},
{"geometry": {"type": "Point", "coordinates": [-81.9407500025, 29.5070485099]}, "type": "Feature", "properties": {"collection_times": [{"days": "Mon-Fri", "time": "4:00pm"}, {"days": "Sat", "time": "10:30am"}, {"days": "Sun", "time": "Closed"}], "id": "3218200003", "name": "USPS COLLECTION BOX - PO LOBBY", "address": {"city": "ORANGE SPRINGS", "state": "FL", "street": "24282 NE CR 315", "postcode": "32182"}}},
{"geometry": {"type": "Point", "coordinates": [-81.9501499161, 29.7260852522]}, "type": "Feature", "properties": {"collection_times": [{"days": "Mon-Fri", "time": "4:00pm"}, {"days": "Sat", "time": "9:00am"}, {"days": "Sun", "time": "Closed"}], "id": "3218500000", "name": "USPS COLLECTION BOX - BLUE BOX", "address": {"city": "PUTNAM HALL", "state": "FL", "street": "971 STATE RD 26", "postcode": "32185"}}},
{"geometry": {"type": "Point", "coordinates": [-81.9501499161, 29.7260852522]}, "type": "Feature", "properties": {"collection_times": [{"days": "Mon-Fri", "time": "10:00am"}, {"days": "Sat", "time": "9:00am"}, {"days": "Sun", "time": "Closed"}], "id": "3218500001", "name": "USPS COLLECTION BOX - PO LOBBY", "address": {"city": "PUTNAM HALL", "state": "FL", "street": "971 STATE RD 26", "postcode": "32185"}}},
{"geometry": {"type": "Point", "coordinates": [-81.5712933302, 29.5965323916]}, "type": "Feature", "properties": {"collection_times": [{"days": "Mon-Fri", "time": "3:45pm"}, {"days": "Sat", "time": "11:00am"}, {"days": "Sun", "time": "Closed"}], "id": "3218700000", "name": "USPS COLLECTION BOX - BLUE BOX", "address": {"city": "SAN MATEO", "state": "FL", "street": "534 S US HIGHWAY 17", "postcode": "32187"}}},
{"geometry": {"type": "Point", "coordinates": [-81.5712933302, 29.5965323916]}, "type": "Feature", "properties": {"collection_times": [{"days": "Mon-Fri", "time": "3:45pm"}, {"days": "Sat", "time": "11:00am"}, {"days": "Sun", "time": "Closed"}], "id": "3218700001", "name": "USPS COLLECTION BOX - PO LOBBY", "address": {"city": "SAN MATEO", "state": "FL", "street": "534 S US HIGHWAY 17", "postcode": "32187"}}},
{"geometry": {"type": "Point", "coordinates": [-81.6574555093, 29.551216627]}, "type": "Feature", "properties": {"collection_times": [{"days": "Mon-Fri", "time": "4:30pm"}, {"days": "Sat", "time": "12:00pm"}, {"days": "Sun", "time": "Closed"}], "id": "3218900000", "name": "USPS COLLECTION BOX - BLUE BOX", "address": {"city": "SATSUMA", "state": "FL", "street": "115 COUNTY ROAD 309", "postcode": "32189"}}},
{"geometry": {"type": "Point", "coordinates": [-81.6574555093, 29.551216627]}, "type": "Feature", "properties": {"collection_times": [{"days": "Mon-Fri", "time": "4:30pm"}, {"days": "Sat", "time": "12:00pm"}, {"days": "Sun", "time": "Closed"}], "id": "3218900001", "name": "USPS COLLECTION BOX - PO LOBBY", "address": {"city": "SATSUMA", "state": "FL", "street": "115 COUNTY ROAD 309", "postcode": "32189"}}},
{"geometry": {"type": "Point", "coordinates": [-81.6574555093, 29.551216627]}, "type": "Feature", "properties": {"collection_times": [{"days": "Mon-Fri", "time": "4:30pm"}, {"days": "Sat", "time": "12:00pm"}, {"days": "Sun", "time": "Closed"}], "id": "3218900002", "name": "USPS COLLECTION BOX - PO LOBBY", "address": {"city": "SATSUMA", "state": "FL", "street": "115 COUNTY ROAD 309", "postcode": "32189"}}},
{"geometry": {"type": "Point", "coordinates": [-81.4937545921, 29.317045964]}, "type": "Feature", "properties": {"collection_times": [{"days": "Mon-Fri", "time": "4:15pm"}, {"days": "Sat", "time": "11:30am"}, {"days": "Sun", "time": "Closed"}], "id": "3219000000", "name": "USPS COLLECTION BOX - BLUE BOX", "address": {"city": "SEVILLE", "state": "FL", "street": "120 COUNTY ROAD 305", "postcode": "32190"}}},
{"geometry": {"type": "Point", "coordinates": [-81.4937545921, 29.317045964]}, "type": "Feature", "properties": {"collection_times": [{"days": "Mon-Fri", "time": "1:00pm"}, {"days": "Sat", "time": "11:30am"}, {"days": "Sun", "time": "Closed"}], "id": "3219000001", "name": "USPS COLLECTION BOX - PO LOBBY", "address": {"city": "SEVILLE", "state": "FL", "street": "120 COUNTY ROAD 305", "postcode": "32190"}}},
{"geometry": {"type": "Point", "coordinates": [-81.4937545921, 29.317045964]}, "type": "Feature", "properties": {"collection_times": [{"days": "Mon-Fri", "time": "1:00pm"}, {"days": "Sat", "time": "11:30am"}, {"days": "Sun", "time": "Closed"}], "id": "3219000003", "name": "USPS COLLECTION BOX - PO LOBBY", "address": {"city": "SEVILLE", "state": "FL", "street": "120 COUNTY ROAD 305", "postcode": "32190"}}},
{"geometry": {"type": "Point", "coordinates": [-82.112585425, 29.3344742792]}, "type": "Feature", "properties": {"collection_times": [{"days": "Mon-Fri", "time": "4:00pm"}, {"days": "Sat", "time": "12:00pm"}, {"days": "Sun", "time": "Closed"}], "id": "3219200000", "name": "USPS COLLECTION BOX - BLUE BOX", "address": {"city": "SPARR", "state": "FL", "street": "12855 NE JACKSONVILLE RD", "postcode": "32192"}}},
{"geometry": {"type": "Point", "coordinates": [-82.112585425, 29.3344742792]}, "type": "Feature", "properties": {"collection_times": [{"days": "Mon-Fri", "time": "4:00pm"}, {"days": "Sat", "time": "12:00pm"}, {"days": "Sun", "time": "Closed"}], "id": "3219200001", "name": "USPS COLLECTION BOX - PO LOBBY", "address": {"city": "SPARR", "state": "FL", "street": "12855 NE JACKSONVILLE RD", "postcode": "32192"}}},
{"geometry": {"type": "Point", "coordinates": [-82.112585425, 29.3344742792]}, "type": "Feature", "properties": {"collection_times": [{"days": "Mon-Fri", "time": "4:00pm"}, {"days": "Sat", "time": "12:00pm"}, {"days": "Sun", "time": "Closed"}], "id": "3219200003", "name": "USPS COLLECTION BOX - PO LOBBY", "address": {"city": "SPARR", "state": "FL", "street": "12855 NE JACKSONVILLE RD", "postcode": "32192"}}},
{"geometry": {"type": "Point", "coordinates": [-81.6719810624, 29.4829480651]}, "type": "Feature", "properties": {"collection_times": [{"days": "Mon-Fri", "time": "4:30pm"}, {"days": "Sat", "time": "12:00pm"}, {"days": "Sun", "time": "Closed"}], "id": "3219300000", "name": "USPS COLLECTION BOX - BLUE BOX", "address": {"city": "WELAKA", "state": "FL", "street": "664 3RD AVE", "postcode": "32193"}}},
{"geometry": {"type": "Point", "coordinates": [-81.6719810624, 29.4829480651]}, "type": "Feature", "properties": {"collection_times": [{"days": "Mon-Fri", "time": "4:30pm"}, {"days": "Sat", "time": "12:00pm"}, {"days": "Sun", "time": "Closed"}], "id": "3219300001", "name": "USPS COLLECTION BOX - PO LOBBY", "address": {"city": "WELAKA", "state": "FL", "street": "664 3RD AVE", "postcode": "32193"}}},
{"geometry": {"type": "Point", "coordinates": [-81.6719810624, 29.4829480651]}, "type": "Feature", "properties": {"collection_times": [{"days": "Mon-Fri", "time": "4:30pm"}, {"days": "Sat", "time": "12:00pm"}, {"days": "Sun", "time": "Closed"}], "id": "3219300004", "name": "USPS COLLECTION BOX - PO LOBBY", "address": {"city": "WELAKA", "state": "FL", "street": "664 3RD AVE", "postcode": "32193"}}},
{"geometry": {"type": "Point", "coordinates": [-81.9274150258, 28.9819471991]}, "type": "Feature", "properties": {"collection_times": [{"days": "Mon-Fri", "time": "3:45pm"}, {"days": "Sat", "time": "11:45am"}, {"days": "Sun", "time": "Closed"}], "id": "3219500000", "name": "USPS COLLECTION BOX - BLUE BOX", "address": {"city": "WEIRSDALE", "state": "FL", "street": "13595 SE HIGHWAY 42", "postcode": "32195"}}},
{"geometry": {"type": "Point", "coordinates": [-81.9274150258, 28.9819471991]}, "type": "Feature", "properties": {"collection_times": [{"days": "Mon-Fri", "time": "3:45pm"}, {"days": "Sat", "time": "11:45am"}, {"days": "Sun", "time": "Closed"}], "id": "3219500001", "name": "USPS COLLECTION BOX - PO LOBBY", "address": {"city": "WEIRSDALE", "state": "FL", "street": "13595 SE HIGHWAY 42", "postcode": "32195"}}}
]}
