{"type": "FeatureCollection", "features": [
{"geometry": {"type": "Point", "coordinates": [-81.6614710893, 30.32854965]}, "type": "Feature", "properties": {"collection_times": [{"days": "Mon-Sat", "time": "2:55pm"}, {"days": "Sun", "time": "Closed"}], "id": "3220200226", "name": "USPS COLLECTION BOX - BLUE BOX", "address": {"city": "JACKSONVILLE", "state": "FL", "street": "302 W ADAMS ST", "postcode": "32202"}}},
{"geometry": {"type": "Point", "coordinates": [-81.6590873784, 30.3280279151]}, "type": "Feature", "properties": {"collection_times": [{"days": "Mon-Sat", "time": "3:20pm"}, {"days": "Sun", "time": "Closed"}], "id": "3220200235", "name": "USPS COLLECTION BOX - BLUE BOX", "address": {"city": "JACKSONVILLE", "state": "FL", "street": "102 W ADAMS ST", "postcode": "32202"}}},
{"geometry": {"type": "Point", "coordinates": [-81.6562438768, 30.3257997615]}, "type": "Feature", "properties": {"collection_times": [{"days": "Mon-Sat", "time": "3:30pm"}, {"days": "Sun", "time": "Closed"}], "id": "3220200243", "name": "USPS COLLECTION BOX - BLUE BOX", "address": {"city": "JACKSONVILLE", "state": "FL", "street": "140 E BAY ST", "postcode": "32202"}}},
{"geometry": {"type": "Point", "coordinates": [-81.6607361516, 30.3277106893]}, "type": "Feature", "properties": {"collection_times": [{"days": "Mon-Sat", "time": "3:35pm"}, {"days": "Sun", "time": "Closed"}], "id": "3220200244", "name": "USPS COLLECTION BOX - BLUE BOX", "address": {"city": "JACKSONVILLE", "state": "FL", "street": "229 W FORSYTH ST", "postcode": "32202"}}},
{"geometry": {"type": "Point", "coordinates": [-81.6596208111, 30.33060995]}, "type": "Feature", "properties": {"collection_times": [{"days": "Mon-Sat", "time": "3:00pm"}, {"days": "Sun", "time": "Closed"}], "id": "3220200262", "name": "USPS COLLECTION BOX - BLUE BOX", "address": {"city": "JACKSONVILLE", "state": "FL", "street": "500 N HOGAN ST", "postcode": "32202"}}},
{"geometry": {"type": "Point", "coordinates": [-81.6538490582, 30.3285872484]}, "type": "Feature", "properties": {"collection_times": [{"days": "Mon-Sat", "time": "3:50pm"}, {"days": "Sun", "time": "Closed"}], "id": "3220200263", "name": "USPS COLLECTION BOX - BLUE BOX", "address": {"city": "JACKSONVILLE", "state": "FL", "street": "227 E DUVAL ST", "postcode": "32202"}}},
{"geometry": {"type": "Point", "coordinates": [-81.6508863218, 30.3271500262]}, "type": "Feature", "properties": {"collection_times": [{"days": "Mon-Sat", "time": "3:50pm"}, {"days": "Sun", "time": "Closed"}], "id": "3220200264", "name": "USPS COLLECTION BOX - BLUE BOX", "address": {"city": "JACKSONVILLE", "state": "FL", "street": "503 E MONROE ST", "postcode": "32202"}}},
{"geometry": {"type": "Point", "coordinates": [-81.6618431041, 30.3398823564]}, "type": "Feature", "properties": {"collection_times": [{"days": "Mon-Sat", "time": "4:30pm"}, {"days": "Sun", "time": "Closed"}], "id": "3220200268", "name": "USPS COLLECTION BOX - BLUE BOX", "address": {"city": "JACKSONVILLE", "state": "FL", "street": "1300 BROAD ST", "postcode": "32202"}}},
{"geometry": {"type": "Point", "coordinates": [-81.6560162231, 30.3282659863]}, "type": "Feature", "properties": {"collection_times": [{"days": "Mon-Sat", "time": "2:30pm"}, {"days": "Sun", "time": "Closed"}], "id": "3220200274", "name": "USPS COLLECTION BOX - BLUE BOX", "address": {"city": "JACKSONVILLE", "state": "FL", "street": "105 E MONROE ST", "postcode": "32202"}}},
{"geometry": {"type": "Point", "coordinates": [-81.6549961376, 30.3263942583]}, "type": "Feature", "properties": {"collection_times": [{"days": "Mon-Sat", "time": "3:45pm"}, {"days": "Sun", "time": "Closed"}], "id": "3220200276", "name": "USPS COLLECTION BOX - BLUE BOX", "address": {"city": "JACKSONVILLE", "state": "FL", "street": "210 E FORSYTH ST", "postcode": "32202"}}},
{"geometry": {"type": "Point", "coordinates": [-81.6578186777, 30.3278268216]}, "type": "Feature", "properties": {"collection_times": [{"days": "Mon-Sat", "time": "2:45pm"}, {"days": "Sun", "time": "Closed"}], "id": "3220200279", "name": "USPS COLLECTION BOX - BLUE BOX", "address": {"city": "JACKSONVILLE", "state": "FL", "street": "10 W ADAMS ST", "postcode": "32202"}}},
{"geometry": {"type": "Point", "coordinates": [-81.6541053695, 30.3269821889]}, "type": "Feature", "properties": {"collection_times": [{"days": "Mon-Sat", "time": "2:45pm"}, {"days": "Sun", "time": "Closed"}], "id": "3220200280", "name": "USPS COLLECTION BOX - BLUE BOX", "address": {"city": "JACKSONVILLE", "state": "FL", "street": "245 E ADAMS ST", "postcode": "32202"}}},
{"geometry": {"type": "Point", "coordinates": [-81.6490847696, 30.3250689563]}, "type": "Feature", "properties": {"collection_times": [{"days": "Mon-Sat", "time": "3:50pm"}, {"days": "Sun", "time": "Closed"}], "id": "3220200283", "name": "USPS COLLECTION BOX - BLUE BOX", "address": {"city": "JACKSONVILLE", "state": "FL", "street": "500 E FORSYTH ST", "postcode": "32202"}}},
{"geometry": {"type": "Point", "coordinates": [-81.658630164, 30.3271467026]}, "type": "Feature", "properties": {"collection_times": [{"days": "Mon-Sat", "time": "3:40pm"}, {"days": "Sun", "time": "Closed"}], "id": "3220200300", "name": "USPS COLLECTION BOX - BLUE BOX", "address": {"city": "JACKSONVILLE", "state": "FL", "street": "60 W FORSYTH ST", "postcode": "32202"}}},
{"geometry": {"type": "Point", "coordinates": [-81.6600532872, 30.3275050568]}, "type": "Feature", "properties": {"collection_times": [{"days": "Mon-Sat", "time": "3:35pm"}, {"days": "Sun", "time": "Closed"}], "id": "3220200301", "name": "USPS COLLECTION BOX - BLUE BOX", "address": {"city": "JACKSONVILLE", "state": "FL", "street": "121 W FORSYTH ST", "postcode": "32202"}}},
{"geometry": {"type": "Point", "coordinates": [-81.6710914773, 30.3386201392]}, "type": "Feature", "properties": {"collection_times": [{"days": "Mon-Sat", "time": "7:00pm"}, {"days": "Sun", "time": "Closed"}], "id": "3220300001", "name": "USPS COLLECTION BOX - BLUE BOX", "address": {"city": "JACKSONVILLE", "state": "FL", "street": "1100 KINGS RD", "postcode": "32203"}}},
{"geometry": {"type": "Point", "coordinates": [-81.6710914773, 30.3386201392]}, "type": "Feature", "properties": {"collection_times": [{"days": "Mon-Sat", "time": "7:00pm"}, {"days": "Sun", "time": "Closed"}], "id": "3220300003", "name": "USPS COLLECTION BOX - BLUE BOX", "address": {"city": "JACKSONVILLE", "state": "FL", "street": "1100 KINGS RD", "postcode": "32203"}}},
{"geometry": {"type": "Point", "coordinates": [-81.6710914773, 30.3386201392]}, "type": "Feature", "properties": {"collection_times": [{"days": "Mon-Sat", "time": "7:00pm"}, {"days": "Sun", "time": "Closed"}], "id": "3220300004", "name": "USPS COLLECTION BOX - BLUE BOX", "address": {"city": "JACKSONVILLE", "state": "FL", "street": "1100 KINGS RD", "postcode": "32203"}}},
{"geometry": {"type": "Point", "coordinates": [-81.6710914773, 30.3386201392]}, "type": "Feature", "properties": {"collection_times": [{"days": "Mon-Sat", "time": "7:00pm"}, {"days": "Sun", "time": "Closed"}], "id": "3220300011", "name": "USPS COLLECTION BOX - PO LOBBY", "address": {"city": "JACKSONVILLE", "state": "FL", "street": "1100 KINGS RD", "postcode": "32203"}}},
{"geometry": {"type": "Point", "coordinates": [-81.6710914773, 30.3386201392]}, "type": "Feature", "properties": {"collection_times": [{"days": "Mon-Sat", "time": "7:00pm"}, {"days": "Sun", "time": "Closed"}], "id": "3220300016", "name": "USPS COLLECTION BOX - BLUE BOX", "address": {"city": "JACKSONVILLE", "state": "FL", "street": "1100 KINGS RD", "postcode": "32203"}}},
{"geometry": {"type": "Point", "coordinates": [-81.6756115635, 30.3184211149]}, "type": "Feature", "properties": {"collection_times": [{"days": "Mon-Sat", "time": "3:45pm"}, {"days": "Sun", "time": "Closed"}], "id": "3220400010", "name": "USPS COLLECTION BOX - BLUE BOX", "address": {"city": "JACKSONVILLE", "state": "FL", "street": "601 RIVERSIDE AVE", "postcode": "32204"}}},
{"geometry": {"type": "Point", "coordinates": [-81.6804910746, 30.3135841919]}, "type": "Feature", "properties": {"collection_times": [{"days": "Mon-Sat", "time": "3:35pm"}, {"days": "Sun", "time": "Closed"}], "id": "3220400012", "name": "USPS COLLECTION BOX - BLUE BOX", "address": {"city": "JACKSONVILLE", "state": "FL", "street": "800 LOMAX ST", "postcode": "32204"}}},
{"geometry": {"type": "Point", "coordinates": [-81.6784092614, 30.316313082]}, "type": "Feature", "properties": {"collection_times": [{"days": "Mon-Sat", "time": "3:45pm"}, {"days": "Sun", "time": "Closed"}], "id": "3220400014", "name": "USPS COLLECTION BOX - BLUE BOX", "address": {"city": "JACKSONVILLE", "state": "FL", "street": "701 RIVERSIDE PARK PL", "postcode": "32204"}}},
{"geometry": {"type": "Point", "coordinates": [-81.6944901205, 30.3115414999]}, "type": "Feature", "properties": {"collection_times": [{"days": "Mon-Sat", "time": "3:25pm"}, {"days": "Sun", "time": "Closed"}], "id": "3220400033", "name": "USPS COLLECTION BOX - BLUE BOX", "address": {"city": "JACKSONVILLE", "state": "FL", "street": "1234 KING ST", "postcode": "32204"}}},
{"geometry": {"type": "Point", "coordinates": [-81.6822728054, 30.317378928]}, "type": "Feature", "properties": {"collection_times": [{"days": "Mon-Sat", "time": "3:40pm"}, {"days": "Sun", "time": "Closed"}], "id": "3220400035", "name": "USPS COLLECTION BOX - BLUE BOX", "address": {"city": "JACKSONVILLE", "state": "FL", "street": "1107 MYRA ST", "postcode": "32204"}}},
{"geometry": {"type": "Point", "coordinates": [-81.6833552129, 30.3133994541]}, "type": "Feature", "properties": {"collection_times": [{"days": "Mon-Sat", "time": "3:30pm"}, {"days": "Sun", "time": "Closed"}], "id": "3220400047", "name": "USPS COLLECTION BOX - BLUE BOX", "address": {"city": "JACKSONVILLE", "state": "FL", "street": "2104 PARK ST", "postcode": "32204"}}},
{"geometry": {"type": "Point", "coordinates": [-81.6782953108, 30.3128963527]}, "type": "Feature", "properties": {"collection_times": [{"days": "Mon-Sat", "time": "3:35pm"}, {"days": "Sun", "time": "Closed"}], "id": "3220400062", "name": "USPS COLLECTION BOX - BLUE BOX", "address": {"city": "JACKSONVILLE", "state": "FL", "street": "601 LOMAX ST", "postcode": "32204"}}},
{"geometry": {"type": "Point", "coordinates": [-81.6895067559, 30.3091612068]}, "type": "Feature", "properties": {"collection_times": [{"days": "Mon-Sat", "time": "3:25pm"}, {"days": "Sun", "time": "Closed"}], "id": "3220400071", "name": "USPS COLLECTION BOX - BLUE BOX", "address": {"city": "JACKSONVILLE", "state": "FL", "street": "1 SHIRCLIFF WAY", "postcode": "32204"}}},
{"geometry": {"type": "Point", "coordinates": [-81.6831282785, 30.3198300727]}, "type": "Feature", "properties": {"collection_times": [{"days": "Mon-Fri", "time": "3:35pm"}, {"days": "Sat-Sun", "time": "Closed"}], "id": "3220400073", "name": "USPS COLLECTION BOX - BLUE BOX", "address": {"city": "JACKSONVILLE", "state": "FL", "street": "1000 RIVERSIDE AVE", "postcode": "32204"}}},
{"geometry": {"type": "Point", "coordinates": [-81.7402293113, 30.3109358276]}, "type": "Feature", "properties": {"collection_times": [{"days": "Mon-Fri", "time": "6:00pm"}, {"days": "Sat", "time": "4:00pm"}, {"days": "Sun", "time": "Closed"}], "id": "3220500003", "name": "USPS COLLECTION BOX - BLUE BOX", "address": {"city": "JACKSONVILLE", "state": "FL", "street": "5455 VERNA BLVD", "postcode": "32205"}}},
{"geometry": {"type": "Point", "coordinates": [-81.7402293113, 30.3109358276]}, "type": "Feature", "properties": {"collection_times": [{"days": "Mon-Fri", "time": "6:00pm"}, {"days": "Sat", "time": "4:00pm"}, {"days": "Sun", "time": "Closed"}], "id": "3220500005", "name": "USPS COLLECTION BOX - BLUE BOX", "address": {"city": "JACKSONVILLE", "state": "FL", "street": "5455 VERNA BLVD", "postcode": "32205"}}},
{"geometry": {"type": "Point", "coordinates": [-81.7119828198, 30.2907552536]}, "type": "Feature", "properties": {"collection_times": [{"days": "Mon-Sat", "time": "3:15pm"}, {"days": "Sun", "time": "Closed"}], "id": "3220500036", "name": "USPS COLLECTION BOX - BLUE BOX", "address": {"city": "JACKSONVILLE", "state": "FL", "street": "4000 SAINT JOHNS AVE", "postcode": "32205"}}},
{"geometry": {"type": "Point", "coordinates": [-81.7402293113, 30.3109358276]}, "type": "Feature", "properties": {"collection_times": [{"days": "Mon-Fri", "time": "6:00pm"}, {"days": "Sat", "time": "4:00pm"}, {"days": "Sun", "time": "Closed"}], "id": "3220500130", "name": "USPS COLLECTION BOX - PO LOBBY", "address": {"city": "JACKSONVILLE", "state": "FL", "street": "5455 VERNA BLVD", "postcode": "32205"}}},
{"geometry": {"type": "Point", "coordinates": [-81.7402293113, 30.3109358276]}, "type": "Feature", "properties": {"collection_times": [{"days": "Mon-Fri", "time": "6:00pm"}, {"days": "Sat", "time": "4:00pm"}, {"days": "Sun", "time": "Closed"}], "id": "3220500135", "name": "USPS COLLECTION BOX - APC", "address": {"city": "JACKSONVILLE", "state": "FL", "street": "5455 VERNA BLVD", "postcode": "32205"}}},
{"geometry": {"type": "Point", "coordinates": [-81.7402293113, 30.3109358276]}, "type": "Feature", "properties": {"collection_times": [{"days": "Mon-Fri", "time": "6:00pm"}, {"days": "Sat", "time": "4:00pm"}, {"days": "Sun", "time": "Closed"}], "id": "3220500140", "name": "USPS COLLECTION BOX - PO LOBBY", "address": {"city": "JACKSONVILLE", "state": "FL", "street": "5455 VERNA BLVD", "postcode": "32205"}}},
{"geometry": {"type": "Point", "coordinates": [-81.6541959268, 30.3431348024]}, "type": "Feature", "properties": {"collection_times": [{"days": "Mon-Sat", "time": "4:20pm"}, {"days": "Sun", "time": "Closed"}], "id": "3220600004", "name": "USPS COLLECTION BOX - BLUE BOX", "address": {"city": "JACKSONVILLE", "state": "FL", "street": "1601-1 N MAIN ST", "postcode": "32206"}}},
{"geometry": {"type": "Point", "coordinates": [-81.6541959268, 30.3431348024]}, "type": "Feature", "properties": {"collection_times": [{"days": "Mon-Fri", "time": "4:00pm"}, {"days": "Sat-Sun", "time": "Closed"}], "id": "3220600047", "name": "USPS COLLECTION BOX - PO LOBBY", "address": {"city": "JACKSONVILLE", "state": "FL", "street": "1601-1 N MAIN ST", "postcode": "32206"}}},
{"geometry": {"type": "Point", "coordinates": [-81.6541959268, 30.3431348024]}, "type": "Feature", "properties": {"collection_times": [{"days": "Mon-Fri", "time": "4:00pm"}, {"days": "Sat-Sun", "time": "Closed"}], "id": "3220600048", "name": "USPS COLLECTION BOX - PO LOBBY", "address": {"city": "JACKSONVILLE", "state": "FL", "street": "1601-1 N MAIN ST", "postcode": "32206"}}},
{"geometry": {"type": "Point", "coordinates": [-81.6351159678, 30.2948419922]}, "type": "Feature", "properties": {"collection_times": [{"days": "Mon-Fri", "time": "5:00pm"}, {"days": "Sat", "time": "4:00pm"}, {"days": "Sun", "time": "Closed"}], "id": "3220700003", "name": "USPS COLLECTION BOX - BLUE BOX", "address": {"city": "JACKSONVILLE", "state": "FL", "street": "3000 SPRING PARK RD", "postcode": "32207"}}},
{"geometry": {"type": "Point", "coordinates": [-81.6569030674, 30.318476714]}, "type": "Feature", "properties": {"collection_times": [{"days": "Mon-Sat", "time": "4:30pm"}, {"days": "Sun", "time": "Closed"}], "id": "3220700032", "name": "USPS COLLECTION BOX - BLUE BOX", "address": {"city": "JACKSONVILLE", "state": "FL", "street": "1300 RIVERPLACE BLVD", "postcode": "32207"}}},
{"geometry": {"type": "Point", "coordinates": [-81.62656017, 30.2932749562]}, "type": "Feature", "properties": {"collection_times": [{"days": "Mon-Fri", "time": "5:00pm"}, {"days": "Sat", "time": "4:00pm"}, {"days": "Sun", "time": "Closed"}], "id": "3220700142", "name": "USPS COLLECTION BOX - BLUE BOX", "address": {"city": "JACKSONVILLE", "state": "FL", "street": "3000 SPRING PARK RD", "postcode": "32207"}}},
{"geometry": {"type": "Point", "coordinates": [-81.6251110453, 30.2674426813]}, "type": "Feature", "properties": {"collection_times": [{"days": "Mon-Sat", "time": "3:10pm"}, {"days": "Sun", "time": "Closed"}], "id": "3220700154", "name": "USPS COLLECTION BOX - BLUE BOX", "address": {"city": "JACKSONVILLE", "state": "FL", "street": "3030 POWERS AVE", "postcode": "32207"}}},
{"geometry": {"type": "Point", "coordinates": [-81.6249312355, 30.3009949464]}, "type": "Feature", "properties": {"collection_times": [{"days": "Mon-Sat", "time": "4:15pm"}, {"days": "Sun", "time": "Closed"}], "id": "3220700159", "name": "USPS COLLECTION BOX - BLUE BOX", "address": {"city": "JACKSONVILLE", "state": "FL", "street": "3740 BEACH BLVD", "postcode": "32207"}}},
{"geometry": {"type": "Point", "coordinates": [-81.6199450635, 30.3021932838]}, "type": "Feature", "properties": {"collection_times": [{"days": "Mon-Sat", "time": "4:20pm"}, {"days": "Sun", "time": "Closed"}], "id": "3220700174", "name": "USPS COLLECTION BOX - BLUE BOX", "address": {"city": "JACKSONVILLE", "state": "FL", "street": "4040 WOODCOCK DR", "postcode": "32207"}}},
{"geometry": {"type": "Point", "coordinates": [-81.6098035562, 30.2934878888]}, "type": "Feature", "properties": {"collection_times": [{"days": "Mon-Sat", "time": "3:55pm"}, {"days": "Sun", "time": "Closed"}], "id": "3220700185", "name": "USPS COLLECTION BOX - BLUE BOX", "address": {"city": "JACKSONVILLE", "state": "FL", "street": "3107 SPRING GLEN RD", "postcode": "32207"}}},
{"geometry": {"type": "Point", "coordinates": [-81.614855974, 30.3093714788]}, "type": "Feature", "properties": {"collection_times": [{"days": "Mon-Sat", "time": "4:05pm"}, {"days": "Sun", "time": "Closed"}], "id": "3220700186", "name": "USPS COLLECTION BOX - BLUE BOX", "address": {"city": "JACKSONVILLE", "state": "FL", "street": "4811 ATLANTIC BLVD", "postcode": "32207"}}},
{"geometry": {"type": "Point", "coordinates": [-81.6511621676, 30.3163118991]}, "type": "Feature", "properties": {"collection_times": [{"days": "Mon-Sat", "time": "2:10pm"}, {"days": "Sun", "time": "Closed"}], "id": "3220700187", "name": "USPS COLLECTION BOX - BLUE BOX", "address": {"city": "JACKSONVILLE", "state": "FL", "street": "1701 PRUDENTIAL DR", "postcode": "32207"}}},
{"geometry": {"type": "Point", "coordinates": [-81.62656017, 30.2932749562]}, "type": "Feature", "properties": {"collection_times": [{"days": "Mon-Fri", "time": "5:00pm"}, {"days": "Sat", "time": "4:00pm"}, {"days": "Sun", "time": "Closed"}], "id": "3220700208", "name": "USPS COLLECTION BOX - PO LOBBY", "address": {"city": "JACKSONVILLE", "state": "FL", "street": "3000 SPRING PARK RD", "postcode": "32207"}}},
{"geometry": {"type": "Point", "coordinates": [-81.62656017, 30.2932749562]}, "type": "Feature", "properties": {"collection_times": [{"days": "Mon-Fri", "time": "5:00pm"}, {"days": "Sat", "time": "4:00pm"}, {"days": "Sun", "time": "Closed"}], "id": "3220700209", "name": "USPS COLLECTION BOX - PO LOBBY", "address": {"city": "JACKSONVILLE", "state": "FL", "street": "3000 SPRING PARK RD", "postcode": "32207"}}},
{"geometry": {"type": "Point", "coordinates": [-81.6579973045, 30.3184944584]}, "type": "Feature", "properties": {"collection_times": [{"days": "Mon-Sat", "time": "2:25pm"}, {"days": "Sun", "time": "Closed"}], "id": "3220700278", "name": "USPS COLLECTION BOX - BLUE BOX", "address": {"city": "JACKSONVILLE", "state": "FL", "street": "1200 RIVERPLACE BLVD", "postcode": "32207"}}},
{"geometry": {"type": "Point", "coordinates": [-81.6641001898, 30.3162740444]}, "type": "Feature", "properties": {"collection_times": [{"days": "Mon-Sat", "time": "4:20pm"}, {"days": "Sun", "time": "Closed"}], "id": "3220700279", "name": "USPS COLLECTION BOX - BLUE BOX", "address": {"city": "JACKSONVILLE", "state": "FL", "street": "1601 MAIN ST", "postcode": "32207"}}},
{"geometry": {"type": "Point", "coordinates": [-81.6814234409, 30.3896730993]}, "type": "Feature", "properties": {"collection_times": [{"days": "Mon-Sat", "time": "5:00pm"}, {"days": "Sun", "time": "Closed"}], "id": "3220800003", "name": "USPS COLLECTION BOX - BLUE BOX", "address": {"city": "JACKSONVILLE", "state": "FL", "street": "1440 EDGEWOOD AVE W", "postcode": "32208"}}},
{"geometry": {"type": "Point", "coordinates": [-81.6639915975, 30.3714645534]}, "type": "Feature", "properties": {"collection_times": [{"days": "Mon-Sat", "time": "3:10pm"}, {"days": "Sun", "time": "Closed"}], "id": "3220800004", "name": "USPS COLLECTION BOX - BLUE BOX", "address": {"city": "JACKSONVILLE", "state": "FL", "street": "5200 NORWOOD AVE", "postcode": "32208"}}},
{"geometry": {"type": "Point", "coordinates": [-81.6639915975, 30.3714645534]}, "type": "Feature", "properties": {"collection_times": [{"days": "Mon-Sat", "time": "3:10pm"}, {"days": "Sun", "time": "Closed"}], "id": "3220800005", "name": "USPS COLLECTION BOX - BLUE BOX", "address": {"city": "JACKSONVILLE", "state": "FL", "street": "5200 NORWOOD AVE", "postcode": "32208"}}},
{"geometry": {"type": "Point", "coordinates": [-81.6813460673, 30.3896866445]}, "type": "Feature", "properties": {"collection_times": [{"days": "Mon-Sat", "time": "5:00pm"}, {"days": "Sun", "time": "Closed"}], "id": "3220800040", "name": "USPS COLLECTION BOX - BLUE BOX", "address": {"city": "JACKSONVILLE", "state": "FL", "street": "1440 EDGEWOOD AVE W", "postcode": "32208"}}},
{"geometry": {"type": "Point", "coordinates": [-81.6814234409, 30.3896730993]}, "type": "Feature", "properties": {"collection_times": [{"days": "Mon-Fri", "time": "5:00pm"}, {"days": "Sat", "time": "4:00pm"}, {"days": "Sun", "time": "Closed"}], "id": "3220800047", "name": "USPS COLLECTION BOX - PO LOBBY", "address": {"city": "JACKSONVILLE", "state": "FL", "street": "1440 EDGEWOOD AVE W", "postcode": "32208"}}},
{"geometry": {"type": "Point", "coordinates": [-81.6814234409, 30.3896730993]}, "type": "Feature", "properties": {"collection_times": [{"days": "Mon-Fri", "time": "5:00pm"}, {"days": "Sat", "time": "4:00pm"}, {"days": "Sun", "time": "Closed"}], "id": "3220800049", "name": "USPS COLLECTION BOX - PO LOBBY", "address": {"city": "JACKSONVILLE", "state": "FL", "street": "1440 EDGEWOOD AVE W", "postcode": "32208"}}},
{"geometry": {"type": "Point", "coordinates": [-81.6972668103, 30.364311642]}, "type": "Feature", "properties": {"collection_times": [{"days": "Mon-Sat", "time": "5:00pm"}, {"days": "Sun", "time": "Closed"}], "id": "3220900001", "name": "USPS COLLECTION BOX - BLUE BOX", "address": {"city": "JACKSONVILLE", "state": "FL", "street": "4160 N CANAL ST", "postcode": "32209"}}},
{"geometry": {"type": "Point", "coordinates": [-81.6670008052, 30.3359076143]}, "type": "Feature", "properties": {"collection_times": [{"days": "Mon-Fri", "time": "3:45pm"}, {"days": "Sat-Sun", "time": "Closed"}], "id": "3220900053", "name": "USPS COLLECTION BOX - BLUE BOX", "address": {"city": "JACKSONVILLE", "state": "FL", "street": "921 N DAVIS ST", "postcode": "32209"}}},
{"geometry": {"type": "Point", "coordinates": [-81.6670008052, 30.3359076143]}, "type": "Feature", "properties": {"collection_times": [{"days": "Mon-Fri", "time": "3:45pm"}, {"days": "Sat-Sun", "time": "Closed"}], "id": "3220900055", "name": "USPS COLLECTION BOX - BLUE BOX", "address": {"city": "JACKSONVILLE", "state": "FL", "street": "921 N DAVIS ST", "postcode": "32209"}}},
{"geometry": {"type": "Point", "coordinates": [-81.6645591571, 30.3469254431]}, "type": "Feature", "properties": {"collection_times": [{"days": "Mon-Sat", "time": "3:45pm"}, {"days": "Sun", "time": "Closed"}], "id": "3220900058", "name": "USPS COLLECTION BOX - BLUE BOX", "address": {"city": "JACKSONVILLE", "state": "FL", "street": "653 W 8TH ST", "postcode": "32209"}}},
{"geometry": {"type": "Point", "coordinates": [-81.6972668103, 30.364311642]}, "type": "Feature", "properties": {"collection_times": [{"days": "Mon-Fri", "time": "5:00pm"}, {"days": "Sat", "time": "4:00pm"}, {"days": "Sun", "time": "Closed"}], "id": "3220900059", "name": "USPS COLLECTION BOX - PO LOBBY", "address": {"city": "JACKSONVILLE", "state": "FL", "street": "4160 N CANAL ST", "postcode": "32209"}}},
{"geometry": {"type": "Point", "coordinates": [-81.6972668103, 30.364311642]}, "type": "Feature", "properties": {"collection_times": [{"days": "Mon-Fri", "time": "5:00pm"}, {"days": "Sat", "time": "4:00pm"}, {"days": "Sun", "time": "Closed"}], "id": "3220900060", "name": "USPS COLLECTION BOX - PO LOBBY", "address": {"city": "JACKSONVILLE", "state": "FL", "street": "4160 N CANAL ST", "postcode": "32209"}}},
{"geometry": {"type": "Point", "coordinates": [-81.7386005795, 30.2466249694]}, "type": "Feature", "properties": {"collection_times": [{"days": "Mon-Fri", "time": "5:00pm"}, {"days": "Sat", "time": "4:00pm"}, {"days": "Sun", "time": "Closed"}], "id": "3221000004", "name": "USPS COLLECTION BOX - BLUE BOX", "address": {"city": "JACKSONVILLE", "state": "FL", "street": "5501 WESCONNETT BLVD", "postcode": "32210"}}},
{"geometry": {"type": "Point", "coordinates": [-81.7135425151, 30.2855661748]}, "type": "Feature", "properties": {"collection_times": [{"days": "Mon-Sat", "time": "3:05pm"}, {"days": "Sun", "time": "Closed"}], "id": "3221000007", "name": "USPS COLLECTION BOX - BLUE BOX", "address": {"city": "JACKSONVILLE", "state": "FL", "street": "4208 HERSCHEL ST", "postcode": "32210"}}},
{"geometry": {"type": "Point", "coordinates": [-81.72003392, 30.2789915986]}, "type": "Feature", "properties": {"collection_times": [{"days": "Mon-Sat", "time": "3:05pm"}, {"days": "Sun", "time": "Closed"}], "id": "3221000014", "name": "USPS COLLECTION BOX - BLUE BOX", "address": {"city": "JACKSONVILLE", "state": "FL", "street": "4495 ROOSEVELT BLVD STE 103", "postcode": "32210"}}},
{"geometry": {"type": "Point", "coordinates": [-81.7235888302, 30.283969801]}, "type": "Feature", "properties": {"collection_times": [{"days": "Mon-Sat", "time": "2:55pm"}, {"days": "Sun", "time": "Closed"}], "id": "3221000020", "name": "USPS COLLECTION BOX - BLUE BOX", "address": {"city": "JACKSONVILLE", "state": "FL", "street": "4541 SHIRLEY AVE", "postcode": "32210"}}},
{"geometry": {"type": "Point", "coordinates": [-81.7397279394, 30.2626457827]}, "type": "Feature", "properties": {"collection_times": [{"days": "Mon-Sat", "time": "2:50pm"}, {"days": "Sun", "time": "Closed"}], "id": "3221000024", "name": "USPS COLLECTION BOX - BLUE BOX", "address": {"city": "JACKSONVILLE", "state": "FL", "street": "4328 BLANDING BLVD", "postcode": "32210"}}},
{"geometry": {"type": "Point", "coordinates": [-81.7372406985, 30.2679680696]}, "type": "Feature", "properties": {"collection_times": [{"days": "Mon-Sat", "time": "2:50pm"}, {"days": "Sun", "time": "Closed"}], "id": "3221000080", "name": "USPS COLLECTION BOX - BLUE BOX", "address": {"city": "JACKSONVILLE", "state": "FL", "street": "3728 BLANDING BLVD", "postcode": "32210"}}},
{"geometry": {"type": "Point", "coordinates": [-81.7529652502, 30.2483721998]}, "type": "Feature", "properties": {"collection_times": [{"days": "Mon-Sat", "time": "2:20pm"}, {"days": "Sun", "time": "Closed"}], "id": "3221000094", "name": "USPS COLLECTION BOX - BLUE BOX", "address": {"city": "JACKSONVILLE", "state": "FL", "street": "6677 103RD ST", "postcode": "32210"}}},
{"geometry": {"type": "Point", "coordinates": [-81.7386005795, 30.2466249694]}, "type": "Feature", "properties": {"collection_times": [{"days": "Mon-Fri", "time": "5:00pm"}, {"days": "Sat", "time": "4:00pm"}, {"days": "Sun", "time": "Closed"}], "id": "3221000100", "name": "USPS COLLECTION BOX - PO LOBBY", "address": {"city": "JACKSONVILLE", "state": "FL", "street": "5501 WESCONNETT BLVD", "postcode": "32210"}}},
{"geometry": {"type": "Point", "coordinates": [-81.7386005795, 30.2466249694]}, "type": "Feature", "properties": {"collection_times": [{"days": "Mon-Fri", "time": "5:00pm"}, {"days": "Sat", "time": "4:00pm"}, {"days": "Sun", "time": "Closed"}], "id": "3221000101", "name": "USPS COLLECTION BOX - PO LOBBY", "address": {"city": "JACKSONVILLE", "state": "FL", "street": "5501 WESCONNETT BLVD", "postcode": "32210"}}},
{"geometry": {"type": "Point", "coordinates": [-81.7041499254, 30.2722257703]}, "type": "Feature", "properties": {"collection_times": [{"days": "Mon-Sat", "time": "3:00pm"}, {"days": "Sun", "time": "Closed"}], "id": "3221000104", "name": "USPS COLLECTION BOX - BLUE BOX", "address": {"city": "JACKSONVILLE", "state": "FL", "street": "4208 OXFORD AVE", "postcode": "32210"}}},
{"geometry": {"type": "Point", "coordinates": [-81.6036971221, 30.3294912449]}, "type": "Feature", "properties": {"collection_times": [{"days": "Mon-Sat", "time": "4:20pm"}, {"days": "Sun", "time": "Closed"}], "id": "3221100059", "name": "USPS COLLECTION BOX - BLUE BOX", "address": {"city": "JACKSONVILLE", "state": "FL", "street": "840 UNIVERSITY BLVD N", "postcode": "32211"}}},
{"geometry": {"type": "Point", "coordinates": [-81.5848485986, 30.3314921139]}, "type": "Feature", "properties": {"collection_times": [{"days": "Mon-Sat", "time": "3:05pm"}, {"days": "Sun", "time": "Closed"}], "id": "3221100065", "name": "USPS COLLECTION BOX - BLUE BOX", "address": {"city": "JACKSONVILLE", "state": "FL", "street": "13170 ATLANTIC BLVD", "postcode": "32211"}}},
{"geometry": {"type": "Point", "coordinates": [-81.6075448478, 30.3270245143]}, "type": "Feature", "properties": {"collection_times": [{"days": "Mon-Sat", "time": "4:15pm"}, {"days": "Sun", "time": "Closed"}], "id": "3221100156", "name": "USPS COLLECTION BOX - BLUE BOX", "address": {"city": "JACKSONVILLE", "state": "FL", "street": "5353 ARLINGTON EXPY", "postcode": "32211"}}},
{"geometry": {"type": "Point", "coordinates": [-81.5984057466, 30.3137365974]}, "type": "Feature", "properties": {"collection_times": [{"days": "Mon-Sat", "time": "4:45pm"}, {"days": "Sun", "time": "Closed"}], "id": "3221100157", "name": "USPS COLLECTION BOX - BLUE BOX", "address": {"city": "JACKSONVILLE", "state": "FL", "street": "6022 ATLANTIC BLVD", "postcode": "32211"}}},
{"geometry": {"type": "Point", "coordinates": [-81.6946949707, 30.2220885633]}, "type": "Feature", "properties": {"collection_times": [{"days": "Mon-Fri", "time": "2:00pm"}, {"days": "Sat-Sun", "time": "Closed"}], "id": "3221200001", "name": "USPS COLLECTION BOX - BLUE BOX", "address": {"city": "JACKSONVILLE", "state": "FL", "street": "569 ENTERPRISE ST", "postcode": "32212"}}},
{"geometry": {"type": "Point", "coordinates": [-81.5707256898, 30.2979074235]}, "type": "Feature", "properties": {"collection_times": [{"days": "Mon-Sat", "time": "1:25pm"}, {"days": "Sun", "time": "Closed"}], "id": "3221600014", "name": "USPS COLLECTION BOX - BLUE BOX", "address": {"city": "JACKSONVILLE", "state": "FL", "street": "8133 JAMAICA RD N", "postcode": "32216"}}},
{"geometry": {"type": "Point", "coordinates": [-81.5722150351, 30.3123714627]}, "type": "Feature", "properties": {"collection_times": [{"days": "Mon-Sat", "time": "1:10pm"}, {"days": "Sun", "time": "Closed"}], "id": "3221600023", "name": "USPS COLLECTION BOX - BLUE BOX", "address": {"city": "JACKSONVILLE", "state": "FL", "street": "101 CENTURY 21 DR", "postcode": "32216"}}},
{"geometry": {"type": "Point", "coordinates": [-81.5721641679, 30.3117764344]}, "type": "Feature", "properties": {"collection_times": [{"days": "Mon-Sat", "time": "1:05pm"}, {"days": "Sun", "time": "Closed"}], "id": "3221600025", "name": "USPS COLLECTION BOX - BLUE BOX", "address": {"city": "JACKSONVILLE", "state": "FL", "street": "103 CENTURY 21 DR", "postcode": "32216"}}},
{"geometry": {"type": "Point", "coordinates": [-81.5721736316, 30.3113434714]}, "type": "Feature", "properties": {"collection_times": [{"days": "Mon-Sat", "time": "1:00pm"}, {"days": "Sun", "time": "Closed"}], "id": "3221600027", "name": "USPS COLLECTION BOX - BLUE BOX", "address": {"city": "JACKSONVILLE", "state": "FL", "street": "198 CENTURY 21 DR", "postcode": "32216"}}},
{"geometry": {"type": "Point", "coordinates": [-81.5790016707, 30.3127500096]}, "type": "Feature", "properties": {"collection_times": [{"days": "Mon-Sat", "time": "1:20pm"}, {"days": "Sun", "time": "Closed"}], "id": "3221600029", "name": "USPS COLLECTION BOX - BLUE BOX", "address": {"city": "JACKSONVILLE", "state": "FL", "street": "29 ARLINGTON RD S", "postcode": "32216"}}},
{"geometry": {"type": "Point", "coordinates": [-81.6027152661, 30.2815967853]}, "type": "Feature", "properties": {"collection_times": [{"days": "Mon-Sat", "time": "3:20pm"}, {"days": "Sun", "time": "Closed"}], "id": "3221600033", "name": "USPS COLLECTION BOX - BLUE BOX", "address": {"city": "JACKSONVILLE", "state": "FL", "street": "4133 UNIVERSITY BLVD S", "postcode": "32216"}}},
{"geometry": {"type": "Point", "coordinates": [-81.6024325389, 30.2873518806]}, "type": "Feature", "properties": {"collection_times": [{"days": "Mon-Sat", "time": "3:30pm"}, {"days": "Sun", "time": "Closed"}], "id": "3221600080", "name": "USPS COLLECTION BOX - BLUE BOX", "address": {"city": "JACKSONVILLE", "state": "FL", "street": "3627 UNIVERSITY BLVD S", "postcode": "32216"}}},
{"geometry": {"type": "Point", "coordinates": [-81.6022165527, 30.2890791176]}, "type": "Feature", "properties": {"collection_times": [{"days": "Mon-Sat", "time": "3:35pm"}, {"days": "Sun", "time": "Closed"}], "id": "3221600219", "name": "USPS COLLECTION BOX - BLUE BOX", "address": {"city": "JACKSONVILLE", "state": "FL", "street": "3599 UNIVERSITY BLVD S", "postcode": "32216"}}},
{"geometry": {"type": "Point", "coordinates": [-81.6022165527, 30.2890791176]}, "type": "Feature", "properties": {"collection_times": [{"days": "Mon-Sat", "time": "3:35pm"}, {"days": "Sun", "time": "Closed"}], "id": "3221600223", "name": "USPS COLLECTION BOX - BLUE BOX", "address": {"city": "JACKSONVILLE", "state": "FL", "street": "3599 UNIVERSITY BLVD S", "postcode": "32216"}}},
{"geometry": {"type": "Point", "coordinates": [-81.5828741488, 30.2787166322]}, "type": "Feature", "properties": {"collection_times": [{"days": "Mon-Sat", "time": "12:55pm"}, {"days": "Sun", "time": "Closed"}], "id": "3221600225", "name": "USPS COLLECTION BOX - BLUE BOX", "address": {"city": "JACKSONVILLE", "state": "FL", "street": "9600 CORPORATE SQUARE PL", "postcode": "32216"}}},
{"geometry": {"type": "Point", "coordinates": [-81.5948817119, 30.2534411789]}, "type": "Feature", "properties": {"collection_times": [{"days": "Mon-Sat", "time": "2:35pm"}, {"days": "Sun", "time": "Closed"}], "id": "3221600237", "name": "USPS COLLECTION BOX - BLUE BOX", "address": {"city": "JACKSONVILLE", "state": "FL", "street": "4237 SALISBURY RD", "postcode": "32216"}}},
{"geometry": {"type": "Point", "coordinates": [-81.5550051407, 30.2565156436]}, "type": "Feature", "properties": {"collection_times": [{"days": "Mon-Sat", "time": "2:00pm"}, {"days": "Sun", "time": "Closed"}], "id": "3221600249", "name": "USPS COLLECTION BOX - BLUE BOX", "address": {"city": "JACKSONVILLE", "state": "FL", "street": "8711 PERIMETER PARK BLVD", "postcode": "32216"}}},
{"geometry": {"type": "Point", "coordinates": [-81.5848355521, 30.2590962413]}, "type": "Feature", "properties": {"collection_times": [{"days": "Mon-Sat", "time": "2:10pm"}, {"days": "Sun", "time": "Closed"}], "id": "3221600284", "name": "USPS COLLECTION BOX - BLUE BOX", "address": {"city": "JACKSONVILLE", "state": "FL", "street": "6850 BELFORT OAKS PL", "postcode": "32216"}}},
{"geometry": {"type": "Point", "coordinates": [-81.6022165527, 30.2890791176]}, "type": "Feature", "properties": {"collection_times": [{"days": "Mon-Sat", "time": "3:35pm"}, {"days": "Sun", "time": "Closed"}], "id": "3221600298", "name": "USPS COLLECTION BOX - BLUE BOX", "address": {"city": "JACKSONVILLE", "state": "FL", "street": "3599 UNIVERSITY BLVD S", "postcode": "32216"}}},
{"geometry": {"type": "Point", "coordinates": [-81.5979157268, 30.2571077434]}, "type": "Feature", "properties": {"collection_times": [{"days": "Mon-Sat", "time": "2:40pm"}, {"days": "Sun", "time": "Closed"}], "id": "3221600301", "name": "USPS COLLECTION BOX - BLUE BOX", "address": {"city": "JACKSONVILLE", "state": "FL", "street": "6676 CORPORATE CENTER PKWY", "postcode": "32216"}}},
{"geometry": {"type": "Point", "coordinates": [-81.6259891722, 30.2526697048]}, "type": "Feature", "properties": {"collection_times": [{"days": "Mon-Sat", "time": "4:15pm"}, {"days": "Sun", "time": "Closed"}], "id": "3221700015", "name": "USPS COLLECTION BOX - BLUE BOX", "address": {"city": "JACKSONVILLE", "state": "FL", "street": "6849 SAINT AUGUSTINE RD", "postcode": "32217"}}},
{"geometry": {"type": "Point", "coordinates": [-81.5928227148, 30.2222803317]}, "type": "Feature", "properties": {"collection_times": [{"days": "Mon-Sat", "time": "2:00pm"}, {"days": "Sun", "time": "Closed"}], "id": "3221700027", "name": "USPS COLLECTION BOX - BLUE BOX", "address": {"city": "JACKSONVILLE", "state": "FL", "street": "8717 OLD KINGS RD S", "postcode": "32217"}}},
{"geometry": {"type": "Point", "coordinates": [-81.6304852278, 30.260906833]}, "type": "Feature", "properties": {"collection_times": [{"days": "Mon-Sat", "time": "4:30pm"}, {"days": "Sun", "time": "Closed"}], "id": "3221700029", "name": "USPS COLLECTION BOX - BLUE BOX", "address": {"city": "JACKSONVILLE", "state": "FL", "street": "2777 UNIVERSITY BLVD W", "postcode": "32217"}}},
{"geometry": {"type": "Point", "coordinates": [-81.6167613534, 30.2191296831]}, "type": "Feature", "properties": {"collection_times": [{"days": "Mon-Sat", "time": "4:00pm"}, {"days": "Sun", "time": "Closed"}], "id": "3221700036", "name": "USPS COLLECTION BOX - BLUE BOX", "address": {"city": "JACKSONVILLE", "state": "FL", "street": "8823 SAN JOSE BLVD", "postcode": "32217"}}},
{"geometry": {"type": "Point", "coordinates": [-81.6108824148, 30.2190821358]}, "type": "Feature", "properties": {"collection_times": [{"days": "Mon-Sat", "time": "4:00pm"}, {"days": "Sun", "time": "Closed"}], "id": "3221700037", "name": "USPS COLLECTION BOX - BLUE BOX", "address": {"city": "JACKSONVILLE", "state": "FL", "street": "8834 GOODBYS EXEC DR", "postcode": "32217"}}},
{"geometry": {"type": "Point", "coordinates": [-81.6261697935, 30.2611552544]}, "type": "Feature", "properties": {"collection_times": [{"days": "Mon-Sat", "time": "4:25pm"}, {"days": "Sun", "time": "Closed"}], "id": "3221700038", "name": "USPS COLLECTION BOX - BLUE BOX", "address": {"city": "JACKSONVILLE", "state": "FL", "street": "3505 UNIVERSITY BLVD W", "postcode": "32217"}}},
{"geometry": {"type": "Point", "coordinates": [-81.6066900083, 30.3635036811]}, "type": "Feature", "properties": {"collection_times": [{"days": "Mon-Sat", "time": "4:15pm"}, {"days": "Sun", "time": "Closed"}], "id": "3221700039", "name": "USPS COLLECTION BOX - BLUE BOX", "address": {"city": "JACKSONVILLE", "state": "FL", "street": "3544 UNIVERSITY BLVD W", "postcode": "32217"}}},
{"geometry": {"type": "Point", "coordinates": [-81.619723483, 30.2603770257]}, "type": "Feature", "properties": {"collection_times": [{"days": "Mon-Sat", "time": "4:15pm"}, {"days": "Sun", "time": "Closed"}], "id": "3221700045", "name": "USPS COLLECTION BOX - BLUE BOX", "address": {"city": "JACKSONVILLE", "state": "FL", "street": "6201 POWERS AVE", "postcode": "32217"}}},
{"geometry": {"type": "Point", "coordinates": [-81.6242273749, 30.2624257523]}, "type": "Feature", "properties": {"collection_times": [{"days": "Mon-Sat", "time": "4:20pm"}, {"days": "Sun", "time": "Closed"}], "id": "3221700111", "name": "USPS COLLECTION BOX - BLUE BOX", "address": {"city": "JACKSONVILLE", "state": "FL", "street": "3733 UNIVERSITY BLVD W", "postcode": "32217"}}},
{"geometry": {"type": "Point", "coordinates": [-81.6444525566, 30.2608315296]}, "type": "Feature", "properties": {"collection_times": [{"days": "Mon-Sat", "time": "4:30pm"}, {"days": "Sun", "time": "Closed"}], "id": "3221700148", "name": "USPS COLLECTION BOX - BLUE BOX", "address": {"city": "JACKSONVILLE", "state": "FL", "street": "1520 UNIVERSITY BLVD W", "postcode": "32217"}}},
{"geometry": {"type": "Point", "coordinates": [-81.6242273749, 30.2624257523]}, "type": "Feature", "properties": {"collection_times": [{"days": "Mon-Sat", "time": "4:20pm"}, {"days": "Sun", "time": "Closed"}], "id": "3221700157", "name": "USPS COLLECTION BOX - BLUE BOX", "address": {"city": "JACKSONVILLE", "state": "FL", "street": "3733 UNIVERSITY BLVD W", "postcode": "32217"}}},
{"geometry": {"type": "Point", "coordinates": [-81.6484116164, 30.4299521874]}, "type": "Feature", "properties": {"collection_times": [{"days": "Mon-Sat", "time": "5:00pm"}, {"days": "Sun", "time": "Closed"}], "id": "3221800010", "name": "USPS COLLECTION BOX - BLUE BOX", "address": {"city": "JACKSONVILLE", "state": "FL", "street": "150 BUSCH DR", "postcode": "32218"}}},
{"geometry": {"type": "Point", "coordinates": [-81.6702764185, 30.4297765911]}, "type": "Feature", "properties": {"collection_times": [{"days": "Mon-Sat", "time": "2:00pm"}, {"days": "Sun", "time": "Closed"}], "id": "3221800026", "name": "USPS COLLECTION BOX - BLUE BOX", "address": {"city": "JACKSONVILLE", "state": "FL", "street": "1440 DUNN AVE", "postcode": "32218"}}},
{"geometry": {"type": "Point", "coordinates": [-81.6695036734, 30.4868630573]}, "type": "Feature", "properties": {"collection_times": [{"days": "Mon-Sat", "time": "2:50pm"}, {"days": "Sun", "time": "Closed"}], "id": "3221800028", "name": "USPS COLLECTION BOX - BLUE BOX", "address": {"city": "JACKSONVILLE", "state": "FL", "street": "1 BLOUNT ISLAND BLVD", "postcode": "32218"}}},
{"geometry": {"type": "Point", "coordinates": [-81.6989430631, 30.438632222]}, "type": "Feature", "properties": {"collection_times": [{"days": "Mon-Sat", "time": "1:55pm"}, {"days": "Sun", "time": "Closed"}], "id": "3221800038", "name": "USPS COLLECTION BOX - BLUE BOX", "address": {"city": "JACKSONVILLE", "state": "FL", "street": "3000 DUNN AVE", "postcode": "32218"}}},
{"geometry": {"type": "Point", "coordinates": [-81.4364648224, 30.3967498127]}, "type": "Feature", "properties": {"collection_times": [{"days": "Mon-Sat", "time": "2:35pm"}, {"days": "Sun", "time": "Closed"}], "id": "3221800042", "name": "USPS COLLECTION BOX - BLUE BOX", "address": {"city": "JACKSONVILLE", "state": "FL", "street": "9715 HECKSCHER DR", "postcode": "32218"}}},
{"geometry": {"type": "Point", "coordinates": [-81.6484116164, 30.4299521874]}, "type": "Feature", "properties": {"collection_times": [{"days": "Mon-Sat", "time": "5:00pm"}, {"days": "Sun", "time": "Closed"}], "id": "3221800046", "name": "USPS COLLECTION BOX - BLUE BOX", "address": {"city": "JACKSONVILLE", "state": "FL", "street": "150 BUSCH DR", "postcode": "32218"}}},
{"geometry": {"type": "Point", "coordinates": [-81.6484116164, 30.4299521874]}, "type": "Feature", "properties": {"collection_times": [{"days": "Mon-Fri", "time": "5:00pm"}, {"days": "Sat", "time": "4:30pm"}, {"days": "Sun", "time": "Closed"}], "id": "3221800059", "name": "USPS COLLECTION BOX - PO LOBBY", "address": {"city": "JACKSONVILLE", "state": "FL", "street": "150 BUSCH DR", "postcode": "32218"}}},
{"geometry": {"type": "Point", "coordinates": [-81.6484116164, 30.4299521874]}, "type": "Feature", "properties": {"collection_times": [{"days": "Mon-Fri", "time": "5:00pm"}, {"days": "Sat", "time": "4:30pm"}, {"days": "Sun", "time": "Closed"}], "id": "3221800060", "name": "USPS COLLECTION BOX - PO LOBBY", "address": {"city": "JACKSONVILLE", "state": "FL", "street": "150 BUSCH DR", "postcode": "32218"}}},
{"geometry": {"type": "Point", "coordinates": [-81.6532985915, 30.478902511]}, "type": "Feature", "properties": {"collection_times": [{"days": "Mon-Sat", "time": "2:15pm"}, {"days": "Sun", "time": "Closed"}], "id": "3221800062", "name": "USPS COLLECTION BOX - BLUE BOX", "address": {"city": "JACKSONVILLE", "state": "FL", "street": "1350 TRADEPORT DR", "postcode": "32218"}}},
{"geometry": {"type": "Point", "coordinates": [-81.79007, 30.37389]}, "type": "Feature", "properties": {"collection_times": [{"days": "Mon-Sat", "time": "1:40pm"}, {"days": "Sun", "time": "Closed"}], "id": "3221900001", "name": "USPS COLLECTION BOX - BLUE BOX", "address": {"city": "JACKSONVILLE", "state": "FL", "street": "4102 BULLS BAY HWY", "postcode": "32219"}}},
{"geometry": {"type": "Point", "coordinates": [-81.7638995036, 30.3357416057]}, "type": "Feature", "properties": {"collection_times": [{"days": "Mon-Sat", "time": "2:05pm"}, {"days": "Sun", "time": "Closed"}], "id": "3222000001", "name": "USPS COLLECTION BOX - BLUE BOX", "address": {"city": "JACKSONVILLE", "state": "FL", "street": "7033 COMMONWEALTH AVE", "postcode": "32220"}}},
{"geometry": {"type": "Point", "coordinates": [-81.8486051166, 30.3069061923]}, "type": "Feature", "properties": {"collection_times": [{"days": "Mon-Sat", "time": "2:15pm"}, {"days": "Sun", "time": "Closed"}], "id": "3222100001", "name": "USPS COLLECTION BOX - BLUE BOX", "address": {"city": "JACKSONVILLE", "state": "FL", "street": "620 CHAFFEE RD S", "postcode": "32221"}}},
{"geometry": {"type": "Point", "coordinates": [-81.7768860436, 30.2948164261]}, "type": "Feature", "properties": {"collection_times": [{"days": "Mon-Sat", "time": "2:20pm"}, {"days": "Sun", "time": "Closed"}], "id": "3222100002", "name": "USPS COLLECTION BOX - BLUE BOX", "address": {"city": "JACKSONVILLE", "state": "FL", "street": "7749 NORMANDY BLVD", "postcode": "32221"}}},
{"geometry": {"type": "Point", "coordinates": [-81.6326169199, 30.1590931037]}, "type": "Feature", "properties": {"collection_times": [{"days": "Mon-Sat", "time": "3:30pm"}, {"days": "Sun", "time": "Closed"}], "id": "3222300003", "name": "USPS COLLECTION BOX - BLUE BOX", "address": {"city": "JACKSONVILLE", "state": "FL", "street": "11701 SAN JOSE BLVD", "postcode": "32223"}}},
{"geometry": {"type": "Point", "coordinates": [-81.6326973611, 30.1485399268]}, "type": "Feature", "properties": {"collection_times": [{"days": "Mon-Sat", "time": "3:05pm"}, {"days": "Sun", "time": "Closed"}], "id": "3222300004", "name": "USPS COLLECTION BOX - BLUE BOX", "address": {"city": "JACKSONVILLE", "state": "FL", "street": "12200 SAN JOSE BLVD", "postcode": "32223"}}},
{"geometry": {"type": "Point", "coordinates": [-81.6326902633, 30.1463029514]}, "type": "Feature", "properties": {"collection_times": [{"days": "Mon-Sat", "time": "3:10pm"}, {"days": "Sun", "time": "Closed"}], "id": "3222300005", "name": "USPS COLLECTION BOX - BLUE BOX", "address": {"city": "JACKSONVILLE", "state": "FL", "street": "12276 SAN JOSE BLVD", "postcode": "32223"}}},
{"geometry": {"type": "Point", "coordinates": [-81.63242256, 30.1386009475]}, "type": "Feature", "properties": {"collection_times": [{"days": "Mon-Sat", "time": "3:30pm"}, {"days": "Sun", "time": "Closed"}], "id": "3222300006", "name": "USPS COLLECTION BOX - BLUE BOX", "address": {"city": "JACKSONVILLE", "state": "FL", "street": "12627 SAN JOSE BLVD", "postcode": "32223"}}},
{"geometry": {"type": "Point", "coordinates": [-81.6315274147, 30.167589115]}, "type": "Feature", "properties": {"collection_times": [{"days": "Mon-Sat", "time": "3:00pm"}, {"days": "Sun", "time": "Closed"}], "id": "3222300007", "name": "USPS COLLECTION BOX - BLUE BOX", "address": {"city": "JACKSONVILLE", "state": "FL", "street": "11362 SAN JOSE BLVD", "postcode": "32223"}}},
{"geometry": {"type": "Point", "coordinates": [-81.632412268, 30.1652657836]}, "type": "Feature", "properties": {"collection_times": [{"days": "Mon-Sat", "time": "3:30pm"}, {"days": "Sun", "time": "Closed"}], "id": "3222300008", "name": "USPS COLLECTION BOX - BLUE BOX", "address": {"city": "JACKSONVILLE", "state": "FL", "street": "11457 SAN JOSE BLVD", "postcode": "32223"}}},
{"geometry": {"type": "Point", "coordinates": [-81.5102575593, 30.2839047382]}, "type": "Feature", "properties": {"collection_times": [{"days": "Mon-Sat", "time": "12:30pm"}, {"days": "Sun", "time": "Closed"}], "id": "3222400001", "name": "USPS COLLECTION BOX - BLUE BOX", "address": {"city": "JACKSONVILLE", "state": "FL", "street": "11820 CENTRAL PKWY", "postcode": "32224"}}},
{"geometry": {"type": "Point", "coordinates": [-81.4617692543, 30.2586355518]}, "type": "Feature", "properties": {"collection_times": [{"days": "Mon-Sat", "time": "12:45pm"}, {"days": "Sun", "time": "Closed"}], "id": "3222400006", "name": "USPS COLLECTION BOX - BLUE BOX", "address": {"city": "JACKSONVILLE", "state": "FL", "street": "13400 SUTTON PARK DR S", "postcode": "32224"}}},
{"geometry": {"type": "Point", "coordinates": [-81.5166222543, 30.3591694857]}, "type": "Feature", "properties": {"collection_times": [{"days": "Mon-Fri", "time": "5:15pm"}, {"days": "Sat", "time": "4:30pm"}, {"days": "Sun", "time": "Closed"}], "id": "3222500001", "name": "USPS COLLECTION BOX - BLUE BOX", "address": {"city": "JACKSONVILLE", "state": "FL", "street": "10990 FORT CAROLINE RD", "postcode": "32225"}}},
{"geometry": {"type": "Point", "coordinates": [-81.5555333107, 30.3217863075]}, "type": "Feature", "properties": {"collection_times": [{"days": "Mon-Sat", "time": "4:25pm"}, {"days": "Sun", "time": "Closed"}], "id": "3222500004", "name": "USPS COLLECTION BOX - BLUE BOX", "address": {"city": "JACKSONVILLE", "state": "FL", "street": "9378 ARLINGTON EXPY", "postcode": "32225"}}},
{"geometry": {"type": "Point", "coordinates": [-81.5410523471, 30.3226099726]}, "type": "Feature", "properties": {"collection_times": [{"days": "Mon-Sat", "time": "3:05pm"}, {"days": "Sun", "time": "Closed"}], "id": "3222500014", "name": "USPS COLLECTION BOX - BLUE BOX", "address": {"city": "JACKSONVILLE", "state": "FL", "street": "13170 ATLANTIC BLVD", "postcode": "32225"}}},
{"geometry": {"type": "Point", "coordinates": [-81.5042603239, 30.3723014799]}, "type": "Feature", "properties": {"collection_times": [{"days": "Mon-Sat", "time": "3:30pm"}, {"days": "Sun", "time": "Closed"}], "id": "3222500026", "name": "USPS COLLECTION BOX - BLUE BOX", "address": {"city": "JACKSONVILLE", "state": "FL", "street": "12261 HIDDEN HILLS DR", "postcode": "32225"}}},
{"geometry": {"type": "Point", "coordinates": [-81.5027315744, 30.3608432063]}, "type": "Feature", "properties": {"collection_times": [{"days": "Mon-Sat", "time": "3:55pm"}, {"days": "Sun", "time": "Closed"}], "id": "3222500032", "name": "USPS COLLECTION BOX - BLUE BOX", "address": {"city": "JACKSONVILLE", "state": "FL", "street": "9100 MERRILL RD", "postcode": "32225"}}},
{"geometry": {"type": "Point", "coordinates": [-81.4982221348, 30.3741467629]}, "type": "Feature", "properties": {"collection_times": [{"days": "Mon-Sat", "time": "3:30pm"}, {"days": "Sun", "time": "Closed"}], "id": "3222500033", "name": "USPS COLLECTION BOX - BLUE BOX", "address": {"city": "JACKSONVILLE", "state": "FL", "street": "12495 MISSION HILLS DR S", "postcode": "32225"}}},
{"geometry": {"type": "Point", "coordinates": [-81.5234469363, 30.3378790249]}, "type": "Feature", "properties": {"collection_times": [{"days": "Mon-Sat", "time": "3:20pm"}, {"days": "Sun", "time": "Closed"}], "id": "3222500035", "name": "USPS COLLECTION BOX - BLUE BOX", "address": {"city": "JACKSONVILLE", "state": "FL", "street": "958 SAINT JOHNS BLUFF RD N", "postcode": "32225"}}},
{"geometry": {"type": "Point", "coordinates": [-81.5500070132, 30.3261921923]}, "type": "Feature", "properties": {"collection_times": [{"days": "Mon-Sat", "time": "4:30pm"}, {"days": "Sun", "time": "Closed"}], "id": "3222500037", "name": "USPS COLLECTION BOX - BLUE BOX", "address": {"city": "JACKSONVILLE", "state": "FL", "street": "9550 REGENCY SQUARE BLVD", "postcode": "32225"}}},
{"geometry": {"type": "Point", "coordinates": [-81.549030156, 30.3261969218]}, "type": "Feature", "properties": {"collection_times": [{"days": "Mon-Sat", "time": "4:30pm"}, {"days": "Sun", "time": "Closed"}], "id": "3222500039", "name": "USPS COLLECTION BOX - BLUE BOX", "address": {"city": "JACKSONVILLE", "state": "FL", "street": "9570 REGENCY SQUARE BLVD", "postcode": "32225"}}},
{"geometry": {"type": "Point", "coordinates": [-81.5166222543, 30.3591694857]}, "type": "Feature", "properties": {"collection_times": [{"days": "Mon-Fri", "time": "5:15pm"}, {"days": "Sat", "time": "4:30pm"}, {"days": "Sun", "time": "Closed"}], "id": "3222500042", "name": "USPS COLLECTION BOX - APC", "address": {"city": "JACKSONVILLE", "state": "FL", "street": "10990 FORT CAROLINE RD", "postcode": "32225"}}},
{"geometry": {"type": "Point", "coordinates": [-81.5519877657, 30.3263711706]}, "type": "Feature", "properties": {"collection_times": [{"days": "Mon-Sat", "time": "4:30pm"}, {"days": "Sun", "time": "Closed"}], "id": "3222500045", "name": "USPS COLLECTION BOX - BLUE BOX", "address": {"city": "JACKSONVILLE", "state": "FL", "street": "9487 REGENCY SQUARE BLVD", "postcode": "32225"}}},
{"geometry": {"type": "Point", "coordinates": [-81.4570968946, 30.3244561633]}, "type": "Feature", "properties": {"collection_times": [{"days": "Mon-Sat", "time": "3:00pm"}, {"days": "Sun", "time": "Closed"}], "id": "3222500048", "name": "USPS COLLECTION BOX - BLUE BOX", "address": {"city": "JACKSONVILLE", "state": "FL", "street": "241 QUEENS HARBOR BLVD", "postcode": "32225"}}},
{"geometry": {"type": "Point", "coordinates": [-81.5166222543, 30.3591694857]}, "type": "Feature", "properties": {"collection_times": [{"days": "Mon-Fri", "time": "5:15pm"}, {"days": "Sat", "time": "4:30pm"}, {"days": "Sun", "time": "Closed"}], "id": "3222500050", "name": "USPS COLLECTION BOX - PO LOBBY", "address": {"city": "JACKSONVILLE", "state": "FL", "street": "10990 FORT CAROLINE RD", "postcode": "32225"}}},
{"geometry": {"type": "Point", "coordinates": [-81.5166222543, 30.3591694857]}, "type": "Feature", "properties": {"collection_times": [{"days": "Mon-Fri", "time": "5:15pm"}, {"days": "Sat", "time": "4:30pm"}, {"days": "Sun", "time": "Closed"}], "id": "3222500051", "name": "USPS COLLECTION BOX - PO LOBBY", "address": {"city": "JACKSONVILLE", "state": "FL", "street": "10990 FORT CAROLINE RD", "postcode": "32225"}}},
{"geometry": {"type": "Point", "coordinates": [-81.4121583049, 30.3875004575]}, "type": "Feature", "properties": {"collection_times": [{"days": "Mon-Sat", "time": "2:20pm"}, {"days": "Sun", "time": "Closed"}], "id": "3222800001", "name": "USPS COLLECTION BOX - BLUE BOX", "address": {"city": "JACKSONVILLE", "state": "FL", "street": "460 MASSEY AVE", "postcode": "32228"}}},
{"geometry": {"type": "Point", "coordinates": [-81.4121583049, 30.3875004575]}, "type": "Feature", "properties": {"collection_times": [{"days": "Mon-Fri", "time": "4:00pm"}, {"days": "Sat-Sun", "time": "Closed"}], "id": "3222800002", "name": "USPS COLLECTION BOX - PO LOBBY", "address": {"city": "JACKSONVILLE", "state": "FL", "street": "460 MASSEY AVE", "postcode": "32228"}}},
{"geometry": {"type": "Point", "coordinates": [-81.4136746442, 30.3503126751]}, "type": "Feature", "properties": {"collection_times": [{"days": "Mon-Sat", "time": "2:45pm"}, {"days": "Sun", "time": "Closed"}], "id": "3223300017", "name": "USPS COLLECTION BOX - BLUE BOX", "address": {"city": "JACKSONVILLE", "state": "FL", "street": "2292 MAYPORT RD", "postcode": "32233"}}},
{"geometry": {"type": "Point", "coordinates": [-81.4163862166, 30.3319328722]}, "type": "Feature", "properties": {"collection_times": [{"days": "Mon-Fri", "time": "5:30pm"}, {"days": "Sat", "time": "3:00pm"}, {"days": "Sun", "time": "Closed"}], "id": "3223300028", "name": "USPS COLLECTION BOX - PO LOBBY", "address": {"city": "JACKSONVILLE", "state": "FL", "street": "1001 MAYPORT RD", "postcode": "32233"}}},
{"geometry": {"type": "Point", "coordinates": [-81.4163862166, 30.3319328722]}, "type": "Feature", "properties": {"collection_times": [{"days": "Mon-Fri", "time": "5:30pm"}, {"days": "Sat", "time": "3:30pm"}, {"days": "Sun", "time": "Closed"}], "id": "3223300029", "name": "USPS COLLECTION BOX - BLUE BOX", "address": {"city": "JACKSONVILLE", "state": "FL", "street": "1001 MAYPORT RD", "postcode": "32233"}}},
{"geometry": {"type": "Point", "coordinates": [-81.4163862166, 30.3319328722]}, "type": "Feature", "properties": {"collection_times": [{"days": "Mon-Fri", "time": "5:30pm"}, {"days": "Sat", "time": "3:30pm"}, {"days": "Sun", "time": "Closed"}], "id": "3223300080", "name": "USPS COLLECTION BOX - BLUE BOX", "address": {"city": "JACKSONVILLE", "state": "FL", "street": "1001 MAYPORT RD", "postcode": "32233"}}},
{"geometry": {"type": "Point", "coordinates": [-81.397376066, 30.3323291634]}, "type": "Feature", "properties": {"collection_times": [{"days": "Mon-Sat", "time": "1:55pm"}, {"days": "Sun", "time": "Closed"}], "id": "3223300121", "name": "USPS COLLECTION BOX - BLUE BOX", "address": {"city": "JACKSONVILLE", "state": "FL", "street": "716 OCEAN BLVD", "postcode": "32233"}}},
{"geometry": {"type": "Point", "coordinates": [-81.3991296226, 30.3406627112]}, "type": "Feature", "properties": {"collection_times": [{"days": "Mon-Sat", "time": "2:00pm"}, {"days": "Sun", "time": "Closed"}], "id": "3223300122", "name": "USPS COLLECTION BOX - BLUE BOX", "address": {"city": "JACKSONVILLE", "state": "FL", "street": "1598 SEMINOLE RD", "postcode": "32233"}}},
{"geometry": {"type": "Point", "coordinates": [-81.9755516357, 30.3010783563]}, "type": "Feature", "properties": {"collection_times": [{"days": "Mon-Fri", "time": "4:00pm"}, {"days": "Sat", "time": "2:30pm"}, {"days": "Sun", "time": "Closed"}], "id": "3223400000", "name": "USPS COLLECTION BOX - BLUE BOX", "address": {"city": "JACKSONVILLE", "state": "FL", "street": "199 CENTER ST S", "postcode": "32234"}}},
{"geometry": {"type": "Point", "coordinates": [-81.9755516357, 30.3010783563]}, "type": "Feature", "properties": {"collection_times": [{"days": "Mon-Fri", "time": "4:00pm"}, {"days": "Sat", "time": "2:30pm"}, {"days": "Sun", "time": "Closed"}], "id": "3223400001", "name": "USPS COLLECTION BOX - PO LOBBY", "address": {"city": "JACKSONVILLE", "state": "FL", "street": "199 CENTER ST S", "postcode": "32234"}}},
{"geometry": {"type": "Point", "coordinates": [-81.9829679618, 30.2853124594]}, "type": "Feature", "properties": {"collection_times": [{"days": "Mon-Sat", "time": "11:45am"}, {"days": "Sun", "time": "Closed"}], "id": "3223400003", "name": "USPS COLLECTION BOX - BLUE BOX", "address": {"city": "JACKSONVILLE", "state": "FL", "street": "1024 US HIGHWAY 301 S", "postcode": "32234"}}},
{"geometry": {"type": "Point", "coordinates": [-81.6975467468, 30.2474341022]}, "type": "Feature", "properties": {"collection_times": [{"days": "Mon-Sat", "time": "3:00pm"}, {"days": "Sun", "time": "Closed"}], "id": "3224400015", "name": "USPS COLLECTION BOX - BLUE BOX", "address": {"city": "JACKSONVILLE", "state": "FL", "street": "5513 ROOSEVELT BLVD", "postcode": "32244"}}},
{"geometry": {"type": "Point", "coordinates": [-81.7367788887, 30.2203323288]}, "type": "Feature", "properties": {"collection_times": [{"days": "Mon-Fri", "time": "6:15pm"}, {"days": "Sat", "time": "4:00pm"}, {"days": "Sun", "time": "Closed"}], "id": "3224400023", "name": "USPS COLLECTION BOX - BLUE BOX", "address": {"city": "JACKSONVILLE", "state": "FL", "street": "7055 BLANDING BLVD", "postcode": "32244"}}},
{"geometry": {"type": "Point", "coordinates": [-81.7367835545, 30.2197327632]}, "type": "Feature", "properties": {"collection_times": [{"days": "Mon-Fri", "time": "6:15pm"}, {"days": "Sat", "time": "4:00pm"}, {"days": "Sun", "time": "Closed"}], "id": "3224400030", "name": "USPS COLLECTION BOX - PO LOBBY", "address": {"city": "JACKSONVILLE", "state": "FL", "street": "7055 BLANDING BLVD", "postcode": "32244"}}},
{"geometry": {"type": "Point", "coordinates": [-81.7367835545, 30.2197327632]}, "type": "Feature", "properties": {"collection_times": [{"days": "Mon-Fri", "time": "6:15pm"}, {"days": "Sat", "time": "4:00pm"}, {"days": "Sun", "time": "Closed"}], "id": "3224400031", "name": "USPS COLLECTION BOX - PO LOBBY", "address": {"city": "JACKSONVILLE", "state": "FL", "street": "7055 BLANDING BLVD", "postcode": "32244"}}},
{"geometry": {"type": "Point", "coordinates": [-81.7367835545, 30.2197327632]}, "type": "Feature", "properties": {"collection_times": [{"days": "Mon-Fri", "time": "6:15pm"}, {"days": "Sat", "time": "4:00pm"}, {"days": "Sun", "time": "Closed"}], "id": "3224400033", "name": "USPS COLLECTION BOX - APC", "address": {"city": "JACKSONVILLE", "state": "FL", "street": "7055 BLANDING BLVD", "postcode": "32244"}}},
{"geometry": {"type": "Point", "coordinates": [-81.5374348586, 30.2866823259]}, "type": "Feature", "properties": {"collection_times": [{"days": "Mon-Fri", "time": "5:00pm"}, {"days": "Sat", "time": "4:30pm"}, {"days": "Sun", "time": "Closed"}], "id": "3224600003", "name": "USPS COLLECTION BOX - BLUE BOX", "address": {"city": "JACKSONVILLE", "state": "FL", "street": "10700 BEACH BLVD", "postcode": "32246"}}},
{"geometry": {"type": "Point", "coordinates": [-81.5374348586, 30.2866823259]}, "type": "Feature", "properties": {"collection_times": [{"days": "Mon-Fri", "time": "5:30pm"}, {"days": "Sat", "time": "4:30pm"}, {"days": "Sun", "time": "Closed"}], "id": "3224600004", "name": "USPS COLLECTION BOX - PO LOBBY", "address": {"city": "JACKSONVILLE", "state": "FL", "street": "10700 BEACH BLVD", "postcode": "32246"}}},
{"geometry": {"type": "Point", "coordinates": [-81.5374348586, 30.2866823259]}, "type": "Feature", "properties": {"collection_times": [{"days": "Mon-Fri", "time": "5:30pm"}, {"days": "Sat", "time": "4:30pm"}, {"days": "Sun", "time": "Closed"}], "id": "3224600005", "name": "USPS COLLECTION BOX - PO LOBBY", "address": {"city": "JACKSONVILLE", "state": "FL", "street": "10700 BEACH BLVD", "postcode": "32246"}}},
{"geometry": {"type": "Point", "coordinates": [-81.5374348586, 30.2866823259]}, "type": "Feature", "properties": {"collection_times": [{"days": "Mon-Fri", "time": "5:30pm"}, {"days": "Sat", "time": "4:30pm"}, {"days": "Sun", "time": "Closed"}], "id": "3224600006", "name": "USPS COLLECTION BOX - APC", "address": {"city": "JACKSONVILLE", "state": "FL", "street": "10700 BEACH BLVD", "postcode": "32246"}}},
{"geometry": {"type": "Point", "coordinates": [-81.5453192801, 30.2557373023]}, "type": "Feature", "properties": {"collection_times": [{"days": "Mon-Fri", "time": "1:45pm"}, {"days": "Sat-Sun", "time": "Closed"}], "id": "3224600007", "name": "USPS COLLECTION BOX - BLUE BOX", "address": {"city": "JACKSONVILLE", "state": "FL", "street": "4800 DEERWOOD CAMPUS PKWY", "postcode": "32246"}}},
{"geometry": {"type": "Point", "coordinates": [-81.524803905, 30.2793523437]}, "type": "Feature", "properties": {"collection_times": [{"days": "Mon-Sat", "time": "12:30pm"}, {"days": "Sun", "time": "Closed"}], "id": "3224600010", "name": "USPS COLLECTION BOX - BLUE BOX", "address": {"city": "JACKSONVILLE", "state": "FL", "street": "3740 SAINT JOHNS BLUFF RD S", "postcode": "32246"}}},
{"geometry": {"type": "Point", "coordinates": [-81.5273658462, 30.2553692736]}, "type": "Feature", "properties": {"collection_times": [{"days": "Mon-Sat", "time": "1:50pm"}, {"days": "Sun", "time": "Closed"}], "id": "3224600012", "name": "USPS COLLECTION BOX - BLUE BOX", "address": {"city": "JACKSONVILLE", "state": "FL", "street": "4755 TOWN CROSSING DR", "postcode": "32246"}}},
{"geometry": {"type": "Point", "coordinates": [-81.5453192801, 30.2557373023]}, "type": "Feature", "properties": {"collection_times": [{"days": "Mon-Fri", "time": "1:45pm"}, {"days": "Sat-Sun", "time": "Closed"}], "id": "3224600013", "name": "USPS COLLECTION BOX - BLUE BOX", "address": {"city": "JACKSONVILLE", "state": "FL", "street": "4800 DEERWOOD CAMPUS PKWY", "postcode": "32246"}}},
{"geometry": {"type": "Point", "coordinates": [-81.3985448295, 30.2745475328]}, "type": "Feature", "properties": {"collection_times": [{"days": "Mon-Sat", "time": "1:10pm"}, {"days": "Sun", "time": "Closed"}], "id": "3225000137", "name": "USPS COLLECTION BOX - BLUE BOX", "address": {"city": "JACKSONVILLE", "state": "FL", "street": "1350 13TH AVE S", "postcode": "32250"}}},
{"geometry": {"type": "Point", "coordinates": [-81.3901434549, 30.2916531194]}, "type": "Feature", "properties": {"collection_times": [{"days": "Mon-Sat", "time": "1:35pm"}, {"days": "Sun", "time": "Closed"}], "id": "3225000148", "name": "USPS COLLECTION BOX - BLUE BOX", "address": {"city": "JACKSONVILLE", "state": "FL", "street": "305 1ST ST N", "postcode": "32250"}}},
{"geometry": {"type": "Point", "coordinates": [-81.388049592, 30.2575588481]}, "type": "Feature", "properties": {"collection_times": [{"days": "Mon-Sat", "time": "1:25pm"}, {"days": "Sun", "time": "Closed"}], "id": "3225000164", "name": "USPS COLLECTION BOX - BLUE BOX", "address": {"city": "JACKSONVILLE", "state": "FL", "street": "3952 3RD ST S", "postcode": "32250"}}},
{"geometry": {"type": "Point", "coordinates": [-81.4390505274, 30.2878156006]}, "type": "Feature", "properties": {"collection_times": [{"days": "Mon-Sat", "time": "12:55pm"}, {"days": "Sun", "time": "Closed"}], "id": "3225000171", "name": "USPS COLLECTION BOX - BLUE BOX", "address": {"city": "JACKSONVILLE", "state": "FL", "street": "14286 BEACH BLVD", "postcode": "32250"}}},
{"geometry": {"type": "Point", "coordinates": [-81.3924940493, 30.255637099]}, "type": "Feature", "properties": {"collection_times": [{"days": "Mon-Sat", "time": "1:20pm"}, {"days": "Sun", "time": "Closed"}], "id": "3225000173", "name": "USPS COLLECTION BOX - BLUE BOX", "address": {"city": "JACKSONVILLE", "state": "FL", "street": "738 MARSH LANDING PKWY", "postcode": "32250"}}},
{"geometry": {"type": "Point", "coordinates": [-81.3902296651, 30.2674123353]}, "type": "Feature", "properties": {"collection_times": [{"days": "Mon-Sat", "time": "1:15pm"}, {"days": "Sun", "time": "Closed"}], "id": "3225000174", "name": "USPS COLLECTION BOX - BLUE BOX", "address": {"city": "JACKSONVILLE", "state": "FL", "street": "472 OSCEOLA AVE", "postcode": "32250"}}},
{"geometry": {"type": "Point", "coordinates": [-81.4038833712, 30.2881734917]}, "type": "Feature", "properties": {"collection_times": [{"days": "Mon-Fri", "time": "5:00pm"}, {"days": "Sat", "time": "2:00pm"}, {"days": "Sun", "time": "Closed"}], "id": "3225000182", "name": "USPS COLLECTION BOX - APC", "address": {"city": "JACKSONVILLE", "state": "FL", "street": "1348 BEACH BLVD", "postcode": "32250"}}},
{"geometry": {"type": "Point", "coordinates": [-81.3988275567, 30.274540435]}, "type": "Feature", "properties": {"collection_times": [{"days": "Mon-Sat", "time": "1:10pm"}, {"days": "Sun", "time": "Closed"}], "id": "3225000183", "name": "USPS COLLECTION BOX - BLUE BOX", "address": {"city": "JACKSONVILLE", "state": "FL", "street": "1361 13TH AVE S", "postcode": "32250"}}},
{"geometry": {"type": "Point", "coordinates": [-81.4038833712, 30.2881734917]}, "type": "Feature", "properties": {"collection_times": [{"days": "Mon-Fri", "time": "5:00pm"}, {"days": "Sat", "time": "2:00pm"}, {"days": "Sun", "time": "Closed"}], "id": "3225000185", "name": "USPS COLLECTION BOX - BLUE BOX", "address": {"city": "JACKSONVILLE", "state": "FL", "street": "1348 BEACH BLVD", "postcode": "32250"}}},
{"geometry": {"type": "Point", "coordinates": [-81.4038833712, 30.2881734917]}, "type": "Feature", "properties": {"collection_times": [{"days": "Mon-Fri", "time": "5:00pm"}, {"days": "Sat", "time": "2:00pm"}, {"days": "Sun", "time": "Closed"}], "id": "3225000186", "name": "USPS COLLECTION BOX - PO LOBBY", "address": {"city": "JACKSONVILLE", "state": "FL", "street": "1348 BEACH BLVD", "postcode": "32250"}}},
{"geometry": {"type": "Point", "coordinates": [-81.4038833712, 30.2881734917]}, "type": "Feature", "properties": {"collection_times": [{"days": "Mon-Fri", "time": "5:00pm"}, {"days": "Sat", "time": "2:00pm"}, {"days": "Sun", "time": "Closed"}], "id": "3225000187", "name": "USPS COLLECTION BOX - PO LOBBY", "address": {"city": "JACKSONVILLE", "state": "FL", "street": "1348 BEACH BLVD", "postcode": "32250"}}},
{"geometry": {"type": "Point", "coordinates": [-81.4039840748, 30.2882249044]}, "type": "Feature", "properties": {"collection_times": [{"days": "Mon-Sat", "time": "1:40pm"}, {"days": "Sun", "time": "Closed"}], "id": "3225000188", "name": "USPS COLLECTION BOX - BLUE BOX", "address": {"city": "JACKSONVILLE", "state": "FL", "street": "1200 BEACH BLVD", "postcode": "32250"}}},
{"geometry": {"type": "Point", "coordinates": [-81.7297496805, 30.3218505129]}, "type": "Feature", "properties": {"collection_times": [{"days": "Mon-Sat", "time": "2:00pm"}, {"days": "Sun", "time": "Closed"}], "id": "3225400001", "name": "USPS COLLECTION BOX - BLUE BOX", "address": {"city": "JACKSONVILLE", "state": "FL", "street": "481 RYAN AVE", "postcode": "32254"}}},
{"geometry": {"type": "Point", "coordinates": [-81.5839283187, 30.2545144005]}, "type": "Feature", "properties": {"collection_times": [{"days": "Mon-Fri", "time": "5:00pm"}, {"days": "Sat", "time": "2:15pm"}, {"days": "Sun", "time": "Closed"}], "id": "3225500002", "name": "USPS COLLECTION BOX - BLUE BOX", "address": {"city": "JACKSONVILLE", "state": "FL", "street": "4150 BELFORT RD", "postcode": "32255"}}},
{"geometry": {"type": "Point", "coordinates": [-81.5836814564, 30.2548193261]}, "type": "Feature", "properties": {"collection_times": [{"days": "Mon-Fri", "time": "4:30pm"}, {"days": "Sat", "time": "12:00pm"}, {"days": "Sun", "time": "Closed"}], "id": "3225500003", "name": "USPS COLLECTION BOX - PO LOBBY", "address": {"city": "JACKSONVILLE", "state": "FL", "street": "4150 BELFORT RD", "postcode": "32255"}}},
{"geometry": {"type": "Point", "coordinates": [-81.5836814564, 30.2548193261]}, "type": "Feature", "properties": {"collection_times": [{"days": "Mon-Fri", "time": "4:30pm"}, {"days": "Sat", "time": "12:00pm"}, {"days": "Sun", "time": "Closed"}], "id": "3225500005", "name": "USPS COLLECTION BOX - APC", "address": {"city": "JACKSONVILLE", "state": "FL", "street": "4150 BELFORT RD", "postcode": "32255"}}},
{"geometry": {"type": "Point", "coordinates": [-81.5836814564, 30.2548193261]}, "type": "Feature", "properties": {"collection_times": [{"days": "Mon-Fri", "time": "4:30pm"}, {"days": "Sat", "time": "12:00pm"}, {"days": "Sun", "time": "Closed"}], "id": "3225500006", "name": "USPS COLLECTION BOX - PO LOBBY", "address": {"city": "JACKSONVILLE", "state": "FL", "street": "4150 BELFORT RD", "postcode": "32255"}}},
{"geometry": {"type": "Point", "coordinates": [-81.5861230837, 30.234962177]}, "type": "Feature", "properties": {"collection_times": [{"days": "Mon-Sat", "time": "1:45pm"}, {"days": "Sun", "time": "Closed"}], "id": "3225600003", "name": "USPS COLLECTION BOX - BLUE BOX", "address": {"city": "JACKSONVILLE", "state": "FL", "street": "7400 BAYMEADOWS WAY", "postcode": "32256"}}},
{"geometry": {"type": "Point", "coordinates": [-81.5835548798, 30.2303510029]}, "type": "Feature", "properties": {"collection_times": [{"days": "Mon-Sat", "time": "1:50pm"}, {"days": "Sun", "time": "Closed"}], "id": "3225600005", "name": "USPS COLLECTION BOX - BLUE BOX", "address": {"city": "JACKSONVILLE", "state": "FL", "street": "7775 BAYMEADOWS WAY", "postcode": "32256"}}},
{"geometry": {"type": "Point", "coordinates": [-81.5856581144, 30.2281877227]}, "type": "Feature", "properties": {"collection_times": [{"days": "Mon-Sat", "time": "1:40pm"}, {"days": "Sun", "time": "Closed"}], "id": "3225600019", "name": "USPS COLLECTION BOX - BLUE BOX", "address": {"city": "JACKSONVILLE", "state": "FL", "street": "7900 BAYBERRY RD", "postcode": "32256"}}},
{"geometry": {"type": "Point", "coordinates": [-81.5774023102, 30.229253217]}, "type": "Feature", "properties": {"collection_times": [{"days": "Mon-Sat", "time": "1:50pm"}, {"days": "Sun", "time": "Closed"}], "id": "3225600026", "name": "USPS COLLECTION BOX - BLUE BOX", "address": {"city": "JACKSONVILLE", "state": "FL", "street": "8657 BAYPINE RD", "postcode": "32256"}}},
{"geometry": {"type": "Point", "coordinates": [-81.5775194231, 30.2277946286]}, "type": "Feature", "properties": {"collection_times": [{"days": "Mon-Sat", "time": "1:55pm"}, {"days": "Sun", "time": "Closed"}], "id": "3225600028", "name": "USPS COLLECTION BOX - BLUE BOX", "address": {"city": "JACKSONVILLE", "state": "FL", "street": "8659 BAYPINE RD", "postcode": "32256"}}},
{"geometry": {"type": "Point", "coordinates": [-81.5627605591, 30.2258016743]}, "type": "Feature", "properties": {"collection_times": [{"days": "Mon-Sat", "time": "2:25pm"}, {"days": "Sun", "time": "Closed"}], "id": "3225600032", "name": "USPS COLLECTION BOX - BLUE BOX", "address": {"city": "JACKSONVILLE", "state": "FL", "street": "8000 BAYMEADOWS CIR E", "postcode": "32256"}}},
{"geometry": {"type": "Point", "coordinates": [-81.5518054441, 30.2212209256]}, "type": "Feature", "properties": {"collection_times": [{"days": "Mon-Sat", "time": "2:05pm"}, {"days": "Sun", "time": "Closed"}], "id": "3225600038", "name": "USPS COLLECTION BOX - BLUE BOX", "address": {"city": "JACKSONVILLE", "state": "FL", "street": "8101 SOUTHSIDE BLVD", "postcode": "32256"}}},
{"geometry": {"type": "Point", "coordinates": [-81.4982394064, 30.1915330015]}, "type": "Feature", "properties": {"collection_times": [{"days": "Mon-Sat", "time": "2:15pm"}, {"days": "Sun", "time": "Closed"}], "id": "3225600043", "name": "USPS COLLECTION BOX - BLUE BOX", "address": {"city": "JACKSONVILLE", "state": "FL", "street": "8211 PRINCETON SQ E", "postcode": "32256"}}},
{"geometry": {"type": "Point", "coordinates": [-81.5576977627, 30.2037710979]}, "type": "Feature", "properties": {"collection_times": [{"days": "Mon-Sat", "time": "1:05pm"}, {"days": "Sun", "time": "Closed"}], "id": "3225600049", "name": "USPS COLLECTION BOX - BLUE BOX", "address": {"city": "JACKSONVILLE", "state": "FL", "street": "8917 WESTERN WAY", "postcode": "32256"}}},
{"geometry": {"type": "Point", "coordinates": [-81.5622153502, 30.2207635628]}, "type": "Feature", "properties": {"collection_times": [{"days": "Mon-Sat", "time": "2:20pm"}, {"days": "Sun", "time": "Closed"}], "id": "3225600056", "name": "USPS COLLECTION BOX - BLUE BOX", "address": {"city": "JACKSONVILLE", "state": "FL", "street": "9428 BAYMEADOWS RD", "postcode": "32256"}}},
{"geometry": {"type": "Point", "coordinates": [-81.5634575899, 30.220978419]}, "type": "Feature", "properties": {"collection_times": [{"days": "Mon-Sat", "time": "2:20pm"}, {"days": "Sun", "time": "Closed"}], "id": "3225600058", "name": "USPS COLLECTION BOX - BLUE BOX", "address": {"city": "JACKSONVILLE", "state": "FL", "street": "9471 BAYMEADOWS RD", "postcode": "32256"}}},
{"geometry": {"type": "Point", "coordinates": [-81.5727108651, 30.2153141993]}, "type": "Feature", "properties": {"collection_times": [{"days": "Mon-Sat", "time": "1:15pm"}, {"days": "Sun", "time": "Closed"}], "id": "3225600063", "name": "USPS COLLECTION BOX - BLUE BOX", "address": {"city": "JACKSONVILLE", "state": "FL", "street": "8900 FREEDOM COMMERCE PKWY", "postcode": "32256"}}},
{"geometry": {"type": "Point", "coordinates": [-81.5518617969, 30.185811047]}, "type": "Feature", "properties": {"collection_times": [{"days": "Mon-Sat", "time": "3:05pm"}, {"days": "Sun", "time": "Closed"}], "id": "3225600067", "name": "USPS COLLECTION BOX - BLUE BOX", "address": {"city": "JACKSONVILLE", "state": "FL", "street": "10300 SOUTHSIDE BLVD", "postcode": "32256"}}},
{"geometry": {"type": "Point", "coordinates": [-81.5521887228, 30.1950231164]}, "type": "Feature", "properties": {"collection_times": [{"days": "Mon-Sat", "time": "3:00pm"}, {"days": "Sun", "time": "Closed"}], "id": "3225600070", "name": "USPS COLLECTION BOX - BLUE BOX", "address": {"city": "JACKSONVILLE", "state": "FL", "street": "9000 SOUTHSIDE BLVD", "postcode": "32256"}}},
{"geometry": {"type": "Point", "coordinates": [-81.5522809936, 30.2349101268]}, "type": "Feature", "properties": {"collection_times": [{"days": "Mon-Sat", "time": "1:50pm"}, {"days": "Sun", "time": "Closed"}], "id": "3225600071", "name": "USPS COLLECTION BOX - BLUE BOX", "address": {"city": "JACKSONVILLE", "state": "FL", "street": "7632 SOUTHSIDE BLVD", "postcode": "32256"}}},
{"geometry": {"type": "Point", "coordinates": [-81.5647458322, 30.234816673]}, "type": "Feature", "properties": {"collection_times": [{"days": "Mon-Sat", "time": "1:45pm"}, {"days": "Sun", "time": "Closed"}], "id": "3225600075", "name": "USPS COLLECTION BOX - BLUE BOX", "address": {"city": "JACKSONVILLE", "state": "FL", "street": "7623 BAYMEADOWS CIR W", "postcode": "32256"}}},
{"geometry": {"type": "Point", "coordinates": [-81.5675587125, 30.1938374389]}, "type": "Feature", "properties": {"collection_times": [{"days": "Mon-Sat", "time": "1:25pm"}, {"days": "Sun", "time": "Closed"}], "id": "3225600091", "name": "USPS COLLECTION BOX - BLUE BOX", "address": {"city": "JACKSONVILLE", "state": "FL", "street": "9452 PHILIPS HWY", "postcode": "32256"}}},
{"geometry": {"type": "Point", "coordinates": [-81.5812883304, 30.2273285428]}, "type": "Feature", "properties": {"collection_times": [{"days": "Mon-Sat", "time": "2:00pm"}, {"days": "Sun", "time": "Closed"}], "id": "3225600102", "name": "USPS COLLECTION BOX - BLUE BOX", "address": {"city": "JACKSONVILLE", "state": "FL", "street": "7901 BAYMEADOWS WAY", "postcode": "32256"}}},
{"geometry": {"type": "Point", "coordinates": [-81.5803727202, 30.2180364001]}, "type": "Feature", "properties": {"collection_times": [{"days": "Mon-Sat", "time": "1:10pm"}, {"days": "Sun", "time": "Closed"}], "id": "3225600110", "name": "USPS COLLECTION BOX - BLUE BOX", "address": {"city": "JACKSONVILLE", "state": "FL", "street": "8400 BAYMEADOWS WAY", "postcode": "32256"}}},
{"geometry": {"type": "Point", "coordinates": [-81.5666764213, 30.2226144513]}, "type": "Feature", "properties": {"collection_times": [{"days": "Mon-Sat", "time": "2:30pm"}, {"days": "Sun", "time": "Closed"}], "id": "3225600115", "name": "USPS COLLECTION BOX - BLUE BOX", "address": {"city": "JACKSONVILLE", "state": "FL", "street": "8130 BAYMEADOWS CIR W", "postcode": "32256"}}},
{"geometry": {"type": "Point", "coordinates": [-81.5552606056, 30.2208046491]}, "type": "Feature", "properties": {"collection_times": [{"days": "Mon-Sat", "time": "2:35pm"}, {"days": "Sun", "time": "Closed"}], "id": "3225600118", "name": "USPS COLLECTION BOX - BLUE BOX", "address": {"city": "JACKSONVILLE", "state": "FL", "street": "9852 OLD BAYMEADOWS RD", "postcode": "32256"}}},
{"geometry": {"type": "Point", "coordinates": [-81.5622153502, 30.2207635628]}, "type": "Feature", "properties": {"collection_times": [{"days": "Mon-Sat", "time": "2:20pm"}, {"days": "Sun", "time": "Closed"}], "id": "3225600128", "name": "USPS COLLECTION BOX - BLUE BOX", "address": {"city": "JACKSONVILLE", "state": "FL", "street": "9428 BAYMEADOWS RD", "postcode": "32256"}}},
{"geometry": {"type": "Point", "coordinates": [-81.5518617969, 30.185811047]}, "type": "Feature", "properties": {"collection_times": [{"days": "Mon-Sat", "time": "3:05pm"}, {"days": "Sun", "time": "Closed"}], "id": "3225600134", "name": "USPS COLLECTION BOX - BLUE BOX", "address": {"city": "JACKSONVILLE", "state": "FL", "street": "10300 SOUTHSIDE BLVD", "postcode": "32256"}}},
{"geometry": {"type": "Point", "coordinates": [-81.5479584236, 30.2403680206]}, "type": "Feature", "properties": {"collection_times": [{"days": "Mon-Sat", "time": "1:35pm"}, {"days": "Sun", "time": "Closed"}], "id": "3225600135", "name": "USPS COLLECTION BOX - BLUE BOX", "address": {"city": "JACKSONVILLE", "state": "FL", "street": "10150 DEERWOOD PARK BLVD", "postcode": "32256"}}},
{"geometry": {"type": "Point", "coordinates": [-81.5869866437, 30.2231314043]}, "type": "Feature", "properties": {"collection_times": [{"days": "Mon-Sat", "time": "1:35pm"}, {"days": "Sun", "time": "Closed"}], "id": "3225600139", "name": "USPS COLLECTION BOX - BLUE BOX", "address": {"city": "JACKSONVILLE", "state": "FL", "street": "8081 PHILIPS HWY", "postcode": "32256"}}},
{"geometry": {"type": "Point", "coordinates": [-81.5333146125, 30.1660418047]}, "type": "Feature", "properties": {"collection_times": [{"days": "Mon-Sat", "time": "3:10pm"}, {"days": "Sun", "time": "Closed"}], "id": "3225600148", "name": "USPS COLLECTION BOX - BLUE BOX", "address": {"city": "JACKSONVILLE", "state": "FL", "street": "11259 PHILLIPS PARKWAY DR E", "postcode": "32256"}}},
{"geometry": {"type": "Point", "coordinates": [-81.5392879316, 30.2148273361]}, "type": "Feature", "properties": {"collection_times": [{"days": "Mon-Sat", "time": "2:45pm"}, {"days": "Sun", "time": "Closed"}], "id": "3225600166", "name": "USPS COLLECTION BOX - BLUE BOX", "address": {"city": "JACKSONVILLE", "state": "FL", "street": "8515 HAMPTON RIDGE BLVD", "postcode": "32256"}}},
{"geometry": {"type": "Point", "coordinates": [-81.5517900656, 30.2140758535]}, "type": "Feature", "properties": {"collection_times": [{"days": "Mon-Sat", "time": "2:50pm"}, {"days": "Sun", "time": "Closed"}], "id": "3225600168", "name": "USPS COLLECTION BOX - BLUE BOX", "address": {"city": "JACKSONVILLE", "state": "FL", "street": "8433 SOUTHSIDE BLVD", "postcode": "32256"}}},
{"geometry": {"type": "Point", "coordinates": [-81.5243161067, 30.1645524483]}, "type": "Feature", "properties": {"collection_times": [{"days": "Mon-Sat", "time": "5:00pm"}, {"days": "Sun", "time": "Closed"}], "id": "3225600171", "name": "USPS COLLECTION BOX - BLUE BOX", "address": {"city": "JACKSONVILLE", "state": "FL", "street": "11250 PHILLIPS INDUSTRIAL BLVD E", "postcode": "32256"}}},
{"geometry": {"type": "Point", "coordinates": [-81.5804117578, 30.2423379261]}, "type": "Feature", "properties": {"collection_times": [{"days": "Mon-Sat", "time": "4:05pm"}, {"days": "Sun", "time": "Closed"}], "id": "3225600176", "name": "USPS COLLECTION BOX - BLUE BOX", "address": {"city": "JACKSONVILLE", "state": "FL", "street": "7800 BELFORT PKWY", "postcode": "32256"}}},
{"geometry": {"type": "Point", "coordinates": [-81.578819495, 30.2489258246]}, "type": "Feature", "properties": {"collection_times": [{"days": "Mon-Sat", "time": "3:55pm"}, {"days": "Sun", "time": "Closed"}], "id": "3225600177", "name": "USPS COLLECTION BOX - BLUE BOX", "address": {"city": "JACKSONVILLE", "state": "FL", "street": "7020 A C SKINNER PKWY", "postcode": "32256"}}},
{"geometry": {"type": "Point", "coordinates": [-81.5722457921, 30.1993704906]}, "type": "Feature", "properties": {"collection_times": [{"days": "Mon-Sat", "time": "1:20pm"}, {"days": "Sun", "time": "Closed"}], "id": "3225600195", "name": "USPS COLLECTION BOX - BLUE BOX", "address": {"city": "JACKSONVILLE", "state": "FL", "street": "9150 PHILIPS HWY", "postcode": "32256"}}},
{"geometry": {"type": "Point", "coordinates": [-81.5840276346, 30.2477803877]}, "type": "Feature", "properties": {"collection_times": [{"days": "Mon-Sat", "time": "3:50pm"}, {"days": "Sun", "time": "Closed"}], "id": "3225600209", "name": "USPS COLLECTION BOX - BLUE BOX", "address": {"city": "JACKSONVILLE", "state": "FL", "street": "4887 BELFORT RD", "postcode": "32256"}}},
{"geometry": {"type": "Point", "coordinates": [-81.5504036377, 30.2277023578]}, "type": "Feature", "properties": {"collection_times": [{"days": "Mon-Sat", "time": "1:55pm"}, {"days": "Sun", "time": "Closed"}], "id": "3225600210", "name": "USPS COLLECTION BOX - BLUE BOX", "address": {"city": "JACKSONVILLE", "state": "FL", "street": "10100 WHIPPOORWILL LN", "postcode": "32256"}}},
{"geometry": {"type": "Point", "coordinates": [-81.5390307235, 30.2226112232]}, "type": "Feature", "properties": {"collection_times": [{"days": "Mon-Sat", "time": "2:40pm"}, {"days": "Sun", "time": "Closed"}], "id": "3225600211", "name": "USPS COLLECTION BOX - BLUE BOX", "address": {"city": "JACKSONVILLE", "state": "FL", "street": "8100 HUNTERS GROVE RD", "postcode": "32256"}}},
{"geometry": {"type": "Point", "coordinates": [-81.5724244189, 30.1999548723]}, "type": "Feature", "properties": {"collection_times": [{"days": "Mon-Sat", "time": "1:30pm"}, {"days": "Sun", "time": "Closed"}], "id": "3225600220", "name": "USPS COLLECTION BOX - BLUE BOX", "address": {"city": "JACKSONVILLE", "state": "FL", "street": "9143 PHILIPS HWY", "postcode": "32256"}}},
{"geometry": {"type": "Point", "coordinates": [-81.5711326277, 30.2169220527]}, "type": "Feature", "properties": {"collection_times": [{"days": "Mon-Sat", "time": "1:15pm"}, {"days": "Sun", "time": "Closed"}], "id": "3225600221", "name": "USPS COLLECTION BOX - BLUE BOX", "address": {"city": "JACKSONVILLE", "state": "FL", "street": "8365 DIX ELLIS TRL", "postcode": "32256"}}},
{"geometry": {"type": "Point", "coordinates": [-81.5479584236, 30.2403680206]}, "type": "Feature", "properties": {"collection_times": [{"days": "Mon-Sat", "time": "1:35pm"}, {"days": "Sun", "time": "Closed"}], "id": "3225600222", "name": "USPS COLLECTION BOX - BLUE BOX", "address": {"city": "JACKSONVILLE", "state": "FL", "street": "10150 DEERWOOD PARK BLVD", "postcode": "32256"}}},
{"geometry": {"type": "Point", "coordinates": [-81.5345507437, 30.2478352853]}, "type": "Feature", "properties": {"collection_times": [{"days": "Mon-Sat", "time": "1:30pm"}, {"days": "Sun", "time": "Closed"}], "id": "3225600224", "name": "USPS COLLECTION BOX - BLUE BOX", "address": {"city": "JACKSONVILLE", "state": "FL", "street": "10739 DEERWOOD PARK BLVD", "postcode": "32256"}}},
{"geometry": {"type": "Point", "coordinates": [-81.6306165363, 30.1854529784]}, "type": "Feature", "properties": {"collection_times": [{"days": "Mon-Sat", "time": "3:35pm"}, {"days": "Sun", "time": "Closed"}], "id": "3225700002", "name": "USPS COLLECTION BOX - BLUE BOX", "address": {"city": "JACKSONVILLE", "state": "FL", "street": "3007 HARTLEY RD", "postcode": "32257"}}},
{"geometry": {"type": "Point", "coordinates": [-81.6296950112, 30.1855890186]}, "type": "Feature", "properties": {"collection_times": [{"days": "Mon-Sat", "time": "3:35pm"}, {"days": "Sun", "time": "Closed"}], "id": "3225700003", "name": "USPS COLLECTION BOX - BLUE BOX", "address": {"city": "JACKSONVILLE", "state": "FL", "street": "3030 HARTLEY RD", "postcode": "32257"}}},
{"geometry": {"type": "Point", "coordinates": [-81.6128939154, 30.1954543681]}, "type": "Feature", "properties": {"collection_times": [{"days": "Mon-Sat", "time": "3:50pm"}, {"days": "Sun", "time": "Closed"}], "id": "3225700004", "name": "USPS COLLECTION BOX - BLUE BOX", "address": {"city": "JACKSONVILLE", "state": "FL", "street": "1 SAN JOSE PL", "postcode": "32257"}}},
{"geometry": {"type": "Point", "coordinates": [-81.6165194855, 30.2013287059]}, "type": "Feature", "properties": {"collection_times": [{"days": "Mon-Sat", "time": "2:25pm"}, {"days": "Sun", "time": "Closed"}], "id": "3225700005", "name": "USPS COLLECTION BOX - BLUE BOX", "address": {"city": "JACKSONVILLE", "state": "FL", "street": "9714 OLD SAINT AUGUSTINE RD", "postcode": "32257"}}},
{"geometry": {"type": "Point", "coordinates": [-81.6201438006, 30.198867733]}, "type": "Feature", "properties": {"collection_times": [{"days": "Mon-Sat", "time": "3:55pm"}, {"days": "Sun", "time": "Closed"}], "id": "3225700006", "name": "USPS COLLECTION BOX - BLUE BOX", "address": {"city": "JACKSONVILLE", "state": "FL", "street": "9825 SAN JOSE BLVD", "postcode": "32257"}}},
{"geometry": {"type": "Point", "coordinates": [-81.627628644, 30.1872536327]}, "type": "Feature", "properties": {"collection_times": [{"days": "Mon-Sat", "time": "3:45pm"}, {"days": "Sun", "time": "Closed"}], "id": "3225700007", "name": "USPS COLLECTION BOX - BLUE BOX", "address": {"city": "JACKSONVILLE", "state": "FL", "street": "10503 SAN JOSE BLVD", "postcode": "32257"}}},
{"geometry": {"type": "Point", "coordinates": [-81.6279619764, 30.1862597564]}, "type": "Feature", "properties": {"collection_times": [{"days": "Mon-Sat", "time": "3:40pm"}, {"days": "Sun", "time": "Closed"}], "id": "3225700008", "name": "USPS COLLECTION BOX - BLUE BOX", "address": {"city": "JACKSONVILLE", "state": "FL", "street": "10553 SAN JOSE BLVD", "postcode": "32257"}}},
{"geometry": {"type": "Point", "coordinates": [-81.6080385815, 30.1871185846]}, "type": "Feature", "properties": {"collection_times": [{"days": "Mon-Sat", "time": "2:35pm"}, {"days": "Sun", "time": "Closed"}], "id": "3225700010", "name": "USPS COLLECTION BOX - BLUE BOX", "address": {"city": "JACKSONVILLE", "state": "FL", "street": "10405 OLD SAINT AUGUSTINE RD", "postcode": "32257"}}},
{"geometry": {"type": "Point", "coordinates": [-81.607991807, 30.1851600792]}, "type": "Feature", "properties": {"collection_times": [{"days": "Mon-Sat", "time": "2:40pm"}, {"days": "Sun", "time": "Closed"}], "id": "3225700011", "name": "USPS COLLECTION BOX - BLUE BOX", "address": {"city": "JACKSONVILLE", "state": "FL", "street": "10550 OLD SAINT AUGUSTINE RD", "postcode": "32257"}}},
{"geometry": {"type": "Point", "coordinates": [-81.603959739, 30.1747188087]}, "type": "Feature", "properties": {"collection_times": [{"days": "Mon-Sat", "time": "2:40pm"}, {"days": "Sun", "time": "Closed"}], "id": "3225700012", "name": "USPS COLLECTION BOX - BLUE BOX", "address": {"city": "JACKSONVILLE", "state": "FL", "street": "11018 OLD SAINT AUGUSTINE RD", "postcode": "32257"}}},
{"geometry": {"type": "Point", "coordinates": [-81.6011135397, 30.2059181684]}, "type": "Feature", "properties": {"collection_times": [{"days": "Mon-Fri", "time": "5:00pm"}, {"days": "Sat", "time": "2:15pm"}, {"days": "Sun", "time": "Closed"}], "id": "3225700013", "name": "USPS COLLECTION BOX - BLUE BOX", "address": {"city": "JACKSONVILLE", "state": "FL", "street": "4411 SUNBEAM RD", "postcode": "32257"}}},
{"geometry": {"type": "Point", "coordinates": [-81.6011135397, 30.2059181684]}, "type": "Feature", "properties": {"collection_times": [{"days": "Mon-Fri", "time": "5:00pm"}, {"days": "Sat", "time": "2:15pm"}, {"days": "Sun", "time": "Closed"}], "id": "3225700014", "name": "USPS COLLECTION BOX - BLUE BOX", "address": {"city": "JACKSONVILLE", "state": "FL", "street": "4411 SUNBEAM RD", "postcode": "32257"}}},
{"geometry": {"type": "Point", "coordinates": [-81.6011135397, 30.2059181684]}, "type": "Feature", "properties": {"collection_times": [{"days": "Mon-Fri", "time": "5:00pm"}, {"days": "Sat", "time": "2:15pm"}, {"days": "Sun", "time": "Closed"}], "id": "3225700015", "name": "USPS COLLECTION BOX - BLUE BOX", "address": {"city": "JACKSONVILLE", "state": "FL", "street": "4411 SUNBEAM RD", "postcode": "32257"}}},
{"geometry": {"type": "Point", "coordinates": [-81.6011135397, 30.2059181684]}, "type": "Feature", "properties": {"collection_times": [{"days": "Mon-Fri", "time": "5:00pm"}, {"days": "Sat", "time": "2:00pm"}, {"days": "Sun", "time": "Closed"}], "id": "3225700016", "name": "USPS COLLECTION BOX - PO LOBBY", "address": {"city": "JACKSONVILLE", "state": "FL", "street": "4411 SUNBEAM RD", "postcode": "32257"}}},
{"geometry": {"type": "Point", "coordinates": [-81.6011135397, 30.2059181684]}, "type": "Feature", "properties": {"collection_times": [{"days": "Mon-Fri", "time": "5:00pm"}, {"days": "Sat", "time": "2:00pm"}, {"days": "Sun", "time": "Closed"}], "id": "3225700017", "name": "USPS COLLECTION BOX - APC", "address": {"city": "JACKSONVILLE", "state": "FL", "street": "4411 SUNBEAM RD", "postcode": "32257"}}},
{"geometry": {"type": "Point", "coordinates": [-81.5834531453, 30.2093582131]}, "type": "Feature", "properties": {"collection_times": [{"days": "Mon-Sat", "time": "2:05pm"}, {"days": "Sun", "time": "Closed"}], "id": "3225700018", "name": "USPS COLLECTION BOX - BLUE BOX", "address": {"city": "JACKSONVILLE", "state": "FL", "street": "9310 OLD KINGS RD S", "postcode": "32257"}}},
{"geometry": {"type": "Point", "coordinates": [-81.6004345212, 30.1628277052]}, "type": "Feature", "properties": {"collection_times": [{"days": "Mon-Sat", "time": "2:40pm"}, {"days": "Sun", "time": "Closed"}], "id": "3225800001", "name": "USPS COLLECTION BOX - BLUE BOX", "address": {"city": "JACKSONVILLE", "state": "FL", "street": "11560 OLD SAINT AUGUSTINE RD", "postcode": "32258"}}},
{"geometry": {"type": "Point", "coordinates": [-81.5302943762, 30.1407239098]}, "type": "Feature", "properties": {"collection_times": [{"days": "Mon-Sat", "time": "3:35pm"}, {"days": "Sun", "time": "Closed"}], "id": "3225800002", "name": "USPS COLLECTION BOX - BLUE BOX", "address": {"city": "JACKSONVILLE", "state": "FL", "street": "14546 OLD SAINT AUGUSTINE RD", "postcode": "32258"}}},
{"geometry": {"type": "Point", "coordinates": [-81.495246993, 30.0659291704]}, "type": "Feature", "properties": {"collection_times": [{"days": "Mon-Sat", "time": "10:00am"}, {"days": "Sun", "time": "Closed"}], "id": "3225900001", "name": "USPS COLLECTION BOX - BLUE BOX", "address": {"city": "JACKSONVILLE", "state": "FL", "street": "1650 COUNTY ROAD 210 W", "postcode": "32259"}}},
{"geometry": {"type": "Point", "coordinates": [-81.6396365984, 30.082029242]}, "type": "Feature", "properties": {"collection_times": [{"days": "Mon-Sat", "time": "3:15pm"}, {"days": "Sun", "time": "Closed"}], "id": "3225900002", "name": "USPS COLLECTION BOX - BLUE BOX", "address": {"city": "JACKSONVILLE", "state": "FL", "street": "1820 STATE ROAD 13", "postcode": "32259"}}},
{"geometry": {"type": "Point", "coordinates": [-81.6248739746, 30.1227471159]}, "type": "Feature", "properties": {"collection_times": [{"days": "Mon-Fri", "time": "5:00pm"}, {"days": "Sat", "time": "3:20pm"}, {"days": "Sun", "time": "Closed"}], "id": "3226000004", "name": "USPS COLLECTION BOX - BLUE BOX", "address": {"city": "JACKSONVILLE", "state": "FL", "street": "112 BARTRAM OAKS WALK", "postcode": "32260"}}},
{"geometry": {"type": "Point", "coordinates": [-81.6248739746, 30.1227471159]}, "type": "Feature", "properties": {"collection_times": [{"days": "Mon-Fri", "time": "5:00pm"}, {"days": "Sat", "time": "1:00pm"}, {"days": "Sun", "time": "Closed"}], "id": "3226000006", "name": "USPS COLLECTION BOX - PO LOBBY", "address": {"city": "JACKSONVILLE", "state": "FL", "street": "112 BARTRAM OAKS WALK", "postcode": "32260"}}},
{"geometry": {"type": "Point", "coordinates": [-81.6248739746, 30.1227471159]}, "type": "Feature", "properties": {"collection_times": [{"days": "Mon-Fri", "time": "5:00pm"}, {"days": "Sat", "time": "1:00pm"}, {"days": "Sun", "time": "Closed"}], "id": "3226000007", "name": "USPS COLLECTION BOX - PO LOBBY", "address": {"city": "JACKSONVILLE", "state": "FL", "street": "112 BARTRAM OAKS WALK", "postcode": "32260"}}},
{"geometry": {"type": "Point", "coordinates": [-81.3968834084, 30.3236274805]}, "type": "Feature", "properties": {"collection_times": [{"days": "Mon-Sat", "time": "1:50pm"}, {"days": "Sun", "time": "Closed"}], "id": "3226600001", "name": "USPS COLLECTION BOX - BLUE BOX", "address": {"city": "JACKSONVILLE", "state": "FL", "street": "200 LEMON ST", "postcode": "32266"}}},
{"geometry": {"type": "Point", "coordinates": [-81.605314227, 30.3643175568]}, "type": "Feature", "properties": {"collection_times": [{"days": "Mon-Sat", "time": "4:05pm"}, {"days": "Sun", "time": "Closed"}], "id": "3227700001", "name": "USPS COLLECTION BOX - BLUE BOX", "address": {"city": "JACKSONVILLE", "state": "FL", "street": "5566 FORT CAROLINE RD", "postcode": "32277"}}},
{"geometry": {"type": "Point", "coordinates": [-81.5884423132, 30.3663825193]}, "type": "Feature", "properties": {"collection_times": [{"days": "Mon-Sat", "time": "4:05pm"}, {"days": "Sun", "time": "Closed"}], "id": "3227700002", "name": "USPS COLLECTION BOX - BLUE BOX", "address": {"city": "JACKSONVILLE", "state": "FL", "street": "6538 FORT CAROLINE RD", "postcode": "32277"}}},
{"geometry": {"type": "Point", "coordinates": [-81.5680865083, 30.3521898615]}, "type": "Feature", "properties": {"collection_times": [{"days": "Mon-Fri", "time": "5:30pm"}, {"days": "Sat", "time": "4:30pm"}, {"days": "Sun", "time": "Closed"}], "id": "3227700003", "name": "USPS COLLECTION BOX - BLUE BOX", "address": {"city": "JACKSONVILLE", "state": "FL", "street": "7707 MERRILL RD", "postcode": "32277"}}},
{"geometry": {"type": "Point", "coordinates": [-81.5680865083, 30.3521898615]}, "type": "Feature", "properties": {"collection_times": [{"days": "Mon-Fri", "time": "5:30pm"}, {"days": "Sat", "time": "4:30pm"}, {"days": "Sun", "time": "Closed"}], "id": "3227700004", "name": "USPS COLLECTION BOX - APC", "address": {"city": "JACKSONVILLE", "state": "FL", "street": "7707 MERRILL RD", "postcode": "32277"}}},
{"geometry": {"type": "Point", "coordinates": [-81.5680865083, 30.3521898615]}, "type": "Feature", "properties": {"collection_times": [{"days": "Mon-Fri", "time": "5:30pm"}, {"days": "Sat", "time": "4:30pm"}, {"days": "Sun", "time": "Closed"}], "id": "3227700005", "name": "USPS COLLECTION BOX - BLUE BOX", "address": {"city": "JACKSONVILLE", "state": "FL", "street": "7707 MERRILL RD", "postcode": "32277"}}},
{"geometry": {"type": "Point", "coordinates": [-81.5680865083, 30.3521898615]}, "type": "Feature", "properties": {"collection_times": [{"days": "Mon-Fri", "time": "5:30pm"}, {"days": "Sat", "time": "4:30pm"}, {"days": "Sun", "time": "Closed"}], "id": "3227700006", "name": "USPS COLLECTION BOX - PO LOBBY", "address": {"city": "JACKSONVILLE", "state": "FL", "street": "7707 MERRILL RD", "postcode": "32277"}}},
{"geometry": {"type": "Point", "coordinates": [-81.5776349891, 30.3523128168]}, "type": "Feature", "properties": {"collection_times": [{"days": "Mon-Sat", "time": "3:55pm"}, {"days": "Sun", "time": "Closed"}], "id": "3227700007", "name": "USPS COLLECTION BOX - BLUE BOX", "address": {"city": "JACKSONVILLE", "state": "FL", "street": "2820 TOWNSEND BLVD", "postcode": "32277"}}}
]}
