{"type": "FeatureCollection", "features": [
{"geometry": {"type": "Point", "coordinates": [-84.2820061237, 30.4466479519]}, "type": "Feature", "properties": {"collection_times": [{"days": "Mon-Fri", "time": "1:00pm"}, {"days": "Sat-Sun", "time": "Closed"}], "id": "3230100003", "name": "USPS COLLECTION BOX - BLUE BOX", "address": {"city": "TALLAHASSEE", "state": "FL", "street": "420 N ADAMS ST", "postcode": "32301"}}},
{"geometry": {"type": "Point", "coordinates": [-84.2832174737, 30.4112762959]}, "type": "Feature", "properties": {"collection_times": [{"days": "Mon-Sat", "time": "7:00pm"}, {"days": "Sun", "time": "Closed"}], "id": "3230100005", "name": "USPS COLLECTION BOX - BLUE BOX", "address": {"city": "TALLAHASSEE", "state": "FL", "street": "2800 S ADAMS ST", "postcode": "32301"}}},
{"geometry": {"type": "Point", "coordinates": [-84.2832174737, 30.4112762959]}, "type": "Feature", "properties": {"collection_times": [{"days": "Mon-Sat", "time": "7:00pm"}, {"days": "Sun", "time": "Closed"}], "id": "3230100007", "name": "USPS COLLECTION BOX - BLUE BOX", "address": {"city": "TALLAHASSEE", "state": "FL", "street": "2800 S ADAMS ST", "postcode": "32301"}}},
{"geometry": {"type": "Point", "coordinates": [-84.2619585628, 30.4308232382]}, "type": "Feature", "properties": {"collection_times": [{"days": "Mon-Sat", "time": "7:00pm"}, {"days": "Sun", "time": "Closed"}], "id": "3230100008", "name": "USPS COLLECTION BOX - BLUE BOX", "address": {"city": "TALLAHASSEE", "state": "FL", "street": "2800 S ADAMS ST", "postcode": "32301"}}},
{"geometry": {"type": "Point", "coordinates": [-84.2513801321, 30.4328165778]}, "type": "Feature", "properties": {"collection_times": [{"days": "Mon-Fri", "time": "11:00am"}, {"days": "Sat-Sun", "time": "Closed"}], "id": "3230100015", "name": "USPS COLLECTION BOX - BLUE BOX", "address": {"city": "TALLAHASSEE", "state": "FL", "street": "1701 APALACHEE PKWY", "postcode": "32301"}}},
{"geometry": {"type": "Point", "coordinates": [-84.2462074195, 30.4309086829]}, "type": "Feature", "properties": {"collection_times": [{"days": "Mon-Fri", "time": "11:00am"}, {"days": "Sat-Sun", "time": "Closed"}], "id": "3230100020", "name": "USPS COLLECTION BOX - BLUE BOX", "address": {"city": "TALLAHASSEE", "state": "FL", "street": "2003 APALACHEE PKWY", "postcode": "32301"}}},
{"geometry": {"type": "Point", "coordinates": [-84.2796023511, 30.4403072919]}, "type": "Feature", "properties": {"collection_times": [{"days": "Mon-Fri", "time": "4:15pm"}, {"days": "Sat-Sun", "time": "Closed"}], "id": "3230100030", "name": "USPS COLLECTION BOX - BLUE BOX", "address": {"city": "TALLAHASSEE", "state": "FL", "street": "215 S CALHOUN ST", "postcode": "32301"}}},
{"geometry": {"type": "Point", "coordinates": [-84.2807345915, 30.4418268128]}, "type": "Feature", "properties": {"collection_times": [{"days": "Mon-Fri", "time": "1:00pm"}, {"days": "Sat-Sun", "time": "Closed"}], "id": "3230100044", "name": "USPS COLLECTION BOX - BLUE BOX", "address": {"city": "TALLAHASSEE", "state": "FL", "street": "100 S MONROE ST", "postcode": "32301"}}},
{"geometry": {"type": "Point", "coordinates": [-84.2806627525, 30.4406811745]}, "type": "Feature", "properties": {"collection_times": [{"days": "Mon-Fri", "time": "2:15pm"}, {"days": "Sat-Sun", "time": "Closed"}], "id": "3230100047", "name": "USPS COLLECTION BOX - BLUE BOX", "address": {"city": "TALLAHASSEE", "state": "FL", "street": "199 E COLLEGE AVE", "postcode": "32301"}}},
{"geometry": {"type": "Point", "coordinates": [-84.2806563675, 30.4399251961]}, "type": "Feature", "properties": {"collection_times": [{"days": "Mon-Fri", "time": "4:00pm"}, {"days": "Sat-Sun", "time": "Closed"}], "id": "3230100050", "name": "USPS COLLECTION BOX - BLUE BOX", "address": {"city": "TALLAHASSEE", "state": "FL", "street": "220 S MONROE ST", "postcode": "32301"}}},
{"geometry": {"type": "Point", "coordinates": [-84.2616947183, 30.4408041346]}, "type": "Feature", "properties": {"collection_times": [{"days": "Mon-Fri", "time": "12:00pm"}, {"days": "Sat", "time": "10:00am"}, {"days": "Sun", "time": "Closed"}], "id": "3230100055", "name": "USPS COLLECTION BOX - BLUE BOX", "address": {"city": "TALLAHASSEE", "state": "FL", "street": "111 S MAGNOLIA DR", "postcode": "32301"}}},
{"geometry": {"type": "Point", "coordinates": [-84.2616947183, 30.4408041346]}, "type": "Feature", "properties": {"collection_times": [{"days": "Mon-Fri", "time": "12:00pm"}, {"days": "Sat", "time": "10:00am"}, {"days": "Sun", "time": "Closed"}], "id": "3230100056", "name": "USPS COLLECTION BOX - BLUE BOX", "address": {"city": "TALLAHASSEE", "state": "FL", "street": "111 S MAGNOLIA DR", "postcode": "32301"}}},
{"geometry": {"type": "Point", "coordinates": [-84.2268719552, 30.4290561691]}, "type": "Feature", "properties": {"collection_times": [{"days": "Mon-Fri", "time": "12:00pm"}, {"days": "Sat-Sun", "time": "Closed"}], "id": "3230100058", "name": "USPS COLLECTION BOX - BLUE BOX", "address": {"city": "TALLAHASSEE", "state": "FL", "street": "1212 CAPITAL CIR SE", "postcode": "32301"}}},
{"geometry": {"type": "Point", "coordinates": [-84.2806788438, 30.4456779256]}, "type": "Feature", "properties": {"collection_times": [{"days": "Mon-Fri", "time": "2:00pm"}, {"days": "Sat-Sun", "time": "Closed"}], "id": "3230100062", "name": "USPS COLLECTION BOX - BLUE BOX", "address": {"city": "TALLAHASSEE", "state": "FL", "street": "359 N MONROE ST", "postcode": "32301"}}},
{"geometry": {"type": "Point", "coordinates": [-84.2806788438, 30.4478297279]}, "type": "Feature", "properties": {"collection_times": [{"days": "Mon-Fri", "time": "2:15pm"}, {"days": "Sat-Sun", "time": "Closed"}], "id": "3230100064", "name": "USPS COLLECTION BOX - BLUE BOX", "address": {"city": "TALLAHASSEE", "state": "FL", "street": "547 N MONROE ST", "postcode": "32301"}}},
{"geometry": {"type": "Point", "coordinates": [-84.2806788438, 30.4455927525]}, "type": "Feature", "properties": {"collection_times": [{"days": "Mon-Fri", "time": "1:00pm"}, {"days": "Sat-Sun", "time": "Closed"}], "id": "3230100065", "name": "USPS COLLECTION BOX - BLUE BOX", "address": {"city": "TALLAHASSEE", "state": "FL", "street": "324 N MONROE ST", "postcode": "32301"}}},
{"geometry": {"type": "Point", "coordinates": [-84.2795881556, 30.4393147893]}, "type": "Feature", "properties": {"collection_times": [{"days": "Mon-Fri", "time": "4:30pm"}, {"days": "Sat-Sun", "time": "Closed"}], "id": "3230100085", "name": "USPS COLLECTION BOX - BLUE BOX", "address": {"city": "TALLAHASSEE", "state": "FL", "street": "311 S CALHOUN ST", "postcode": "32301"}}},
{"geometry": {"type": "Point", "coordinates": [-84.2346225705, 30.4240839341]}, "type": "Feature", "properties": {"collection_times": [{"days": "Mon-Fri", "time": "11:30am"}, {"days": "Sat-Sun", "time": "Closed"}], "id": "3230100089", "name": "USPS COLLECTION BOX - BLUE BOX", "address": {"city": "TALLAHASSEE", "state": "FL", "street": "2599 E EXECUTIVE CENTER CIR", "postcode": "32301"}}},
{"geometry": {"type": "Point", "coordinates": [-84.2357098417, 30.4266500306]}, "type": "Feature", "properties": {"collection_times": [{"days": "Mon-Fri", "time": "11:30am"}, {"days": "Sat-Sun", "time": "Closed"}], "id": "3230100091", "name": "USPS COLLECTION BOX - BLUE BOX", "address": {"city": "TALLAHASSEE", "state": "FL", "street": "1300 EXECUTIVE CENTER DR", "postcode": "32301"}}},
{"geometry": {"type": "Point", "coordinates": [-84.2357098417, 30.4266500306]}, "type": "Feature", "properties": {"collection_times": [{"days": "Mon-Fri", "time": "11:30am"}, {"days": "Sat-Sun", "time": "Closed"}], "id": "3230100092", "name": "USPS COLLECTION BOX - BLUE BOX", "address": {"city": "TALLAHASSEE", "state": "FL", "street": "1300 EXECUTIVE CENTER DR", "postcode": "32301"}}},
{"geometry": {"type": "Point", "coordinates": [-84.2783212065, 30.4405793724]}, "type": "Feature", "properties": {"collection_times": [{"days": "Mon-Fri", "time": "4:30pm"}, {"days": "Sat-Sun", "time": "Closed"}], "id": "3230100096", "name": "USPS COLLECTION BOX - BLUE BOX", "address": {"city": "TALLAHASSEE", "state": "FL", "street": "207 S GADSDEN ST", "postcode": "32301"}}},
{"geometry": {"type": "Point", "coordinates": [-84.278335402, 30.4423478961]}, "type": "Feature", "properties": {"collection_times": [{"days": "Mon-Fri", "time": "4:15pm"}, {"days": "Sat-Sun", "time": "Closed"}], "id": "3230100098", "name": "USPS COLLECTION BOX - BLUE BOX", "address": {"city": "TALLAHASSEE", "state": "FL", "street": "101 N GADSDEN ST", "postcode": "32301"}}},
{"geometry": {"type": "Point", "coordinates": [-84.2266034235, 30.4521901147]}, "type": "Feature", "properties": {"collection_times": [{"days": "Mon-Fri", "time": "10:30am"}, {"days": "Sat-Sun", "time": "Closed"}], "id": "3230100104", "name": "USPS COLLECTION BOX - BLUE BOX", "address": {"city": "TALLAHASSEE", "state": "FL", "street": "1290 CAPITAL CIR NE", "postcode": "32301"}}},
{"geometry": {"type": "Point", "coordinates": [-84.2627534666, 30.4427086986]}, "type": "Feature", "properties": {"collection_times": [{"days": "Mon-Fri", "time": "4:30pm"}, {"days": "Sat-Sun", "time": "Closed"}], "id": "3230100107", "name": "USPS COLLECTION BOX - BLUE BOX", "address": {"city": "TALLAHASSEE", "state": "FL", "street": "1201 HAYS ST", "postcode": "32301"}}},
{"geometry": {"type": "Point", "coordinates": [-84.2436432386, 30.4282138697]}, "type": "Feature", "properties": {"collection_times": [{"days": "Mon-Fri", "time": "11:00am"}, {"days": "Sat-Sun", "time": "Closed"}], "id": "3230100121", "name": "USPS COLLECTION BOX - BLUE BOX", "address": {"city": "TALLAHASSEE", "state": "FL", "street": "1274 N PAUL RUSSELL RD", "postcode": "32301"}}},
{"geometry": {"type": "Point", "coordinates": [-84.2267146217, 30.439352644]}, "type": "Feature", "properties": {"collection_times": [{"days": "Mon-Fri", "time": "3:00pm"}, {"days": "Sat-Sun", "time": "Closed"}], "id": "3230100132", "name": "USPS COLLECTION BOX - BLUE BOX", "address": {"city": "TALLAHASSEE", "state": "FL", "street": "400 CAPITAL CIR SE", "postcode": "32301"}}},
{"geometry": {"type": "Point", "coordinates": [-84.2617234589, 30.4356187269]}, "type": "Feature", "properties": {"collection_times": [{"days": "Mon-Fri", "time": "11:00am"}, {"days": "Sat-Sun", "time": "Closed"}], "id": "3230100133", "name": "USPS COLLECTION BOX - BLUE BOX", "address": {"city": "TALLAHASSEE", "state": "FL", "street": "1300 E LAFAYETTE ST", "postcode": "32301"}}},
{"geometry": {"type": "Point", "coordinates": [-84.2820368806, 30.4397394716]}, "type": "Feature", "properties": {"collection_times": [{"days": "Mon-Fri", "time": "4:45pm"}, {"days": "Sat-Sun", "time": "Closed"}], "id": "3230100151", "name": "USPS COLLECTION BOX - BLUE BOX", "address": {"city": "TALLAHASSEE", "state": "FL", "street": "300 S ADAMS ST", "postcode": "32301"}}},
{"geometry": {"type": "Point", "coordinates": [-84.2863965541, 30.4395761206]}, "type": "Feature", "properties": {"collection_times": [{"days": "Mon-Fri", "time": "1:30pm"}, {"days": "Sat-Sun", "time": "Closed"}], "id": "3230100157", "name": "USPS COLLECTION BOX - BLUE BOX", "address": {"city": "TALLAHASSEE", "state": "FL", "street": "425 W JEFFERSON ST", "postcode": "32301"}}},
{"geometry": {"type": "Point", "coordinates": [-84.2806812097, 30.4425620116]}, "type": "Feature", "properties": {"collection_times": [{"days": "Mon-Fri", "time": "4:15pm"}, {"days": "Sat-Sun", "time": "Closed"}], "id": "3230100164", "name": "USPS COLLECTION BOX - BLUE BOX", "address": {"city": "TALLAHASSEE", "state": "FL", "street": "101 N MONROE ST", "postcode": "32301"}}},
{"geometry": {"type": "Point", "coordinates": [-84.2832174737, 30.4112762959]}, "type": "Feature", "properties": {"collection_times": [{"days": "Mon-Sat", "time": "7:00pm"}, {"days": "Sun", "time": "Closed"}], "id": "3230100171", "name": "USPS COLLECTION BOX - PO LOBBY", "address": {"city": "TALLAHASSEE", "state": "FL", "street": "2800 S ADAMS ST", "postcode": "32301"}}},
{"geometry": {"type": "Point", "coordinates": [-84.2379125113, 30.4278696613]}, "type": "Feature", "properties": {"collection_times": [{"days": "Mon-Fri", "time": "11:30am"}, {"days": "Sat-Sun", "time": "Closed"}], "id": "3230100172", "name": "USPS COLLECTION BOX - BLUE BOX", "address": {"city": "TALLAHASSEE", "state": "FL", "street": "2722 APALACHEE PKWY", "postcode": "32301"}}},
{"geometry": {"type": "Point", "coordinates": [-84.2819904111, 30.425969139]}, "type": "Feature", "properties": {"collection_times": [{"days": "Mon-Fri", "time": "4:00pm"}, {"days": "Sat-Sun", "time": "Closed"}], "id": "3230100178", "name": "USPS COLLECTION BOX - BLUE BOX", "address": {"city": "TALLAHASSEE", "state": "FL", "street": "1700 S ADAMS ST", "postcode": "32301"}}},
{"geometry": {"type": "Point", "coordinates": [-84.2855438568, 30.4271169795]}, "type": "Feature", "properties": {"collection_times": [{"days": "Mon-Fri", "time": "4:00pm"}, {"days": "Sat-Sun", "time": "Closed"}], "id": "3230100190", "name": "USPS COLLECTION BOX - BLUE BOX", "address": {"city": "TALLAHASSEE", "state": "FL", "street": "1605 S MARTIN LUTHER KING JR BLVD", "postcode": "32301"}}},
{"geometry": {"type": "Point", "coordinates": [-84.2832174737, 30.4112762959]}, "type": "Feature", "properties": {"collection_times": [{"days": "Mon-Sat", "time": "7:00pm"}, {"days": "Sun", "time": "Closed"}], "id": "3230100192", "name": "USPS COLLECTION BOX - APC", "address": {"city": "TALLAHASSEE", "state": "FL", "street": "2800 S ADAMS ST", "postcode": "32301"}}},
{"geometry": {"type": "Point", "coordinates": [-84.2495575593, 30.4258669118]}, "type": "Feature", "properties": {"collection_times": [{"days": "Mon-Fri", "time": "4:00pm"}, {"days": "Sat-Sun", "time": "Closed"}], "id": "3230100195", "name": "USPS COLLECTION BOX - BLUE BOX", "address": {"city": "TALLAHASSEE", "state": "FL", "street": "2600 BLAIRSTONE RD", "postcode": "32301"}}},
{"geometry": {"type": "Point", "coordinates": [-84.2795846067, 30.4384701566]}, "type": "Feature", "properties": {"collection_times": [{"days": "Mon-Fri", "time": "4:00pm"}, {"days": "Sat-Sun", "time": "Closed"}], "id": "3230100196", "name": "USPS COLLECTION BOX - BLUE BOX", "address": {"city": "TALLAHASSEE", "state": "FL", "street": "407 S CALHOUN ST", "postcode": "32301"}}},
{"geometry": {"type": "Point", "coordinates": [-84.2340430525, 30.4204182028]}, "type": "Feature", "properties": {"collection_times": [{"days": "Mon-Fri", "time": "3:30pm"}, {"days": "Sat-Sun", "time": "Closed"}], "id": "3230100198", "name": "USPS COLLECTION BOX - BLUE BOX", "address": {"city": "TALLAHASSEE", "state": "FL", "street": "2740 CENTERVIEW DR", "postcode": "32301"}}},
{"geometry": {"type": "Point", "coordinates": [-84.2830814334, 30.4380987075]}, "type": "Feature", "properties": {"collection_times": [{"days": "Mon-Fri", "time": "2:30pm"}, {"days": "Sat-Sun", "time": "Closed"}], "id": "3230100199", "name": "USPS COLLECTION BOX - BLUE BOX", "address": {"city": "TALLAHASSEE", "state": "FL", "street": "500 S DUVAL ST", "postcode": "32301"}}},
{"geometry": {"type": "Point", "coordinates": [-84.2800885472, 30.4354914659]}, "type": "Feature", "properties": {"collection_times": [{"days": "Mon-Fri", "time": "4:00pm"}, {"days": "Sat-Sun", "time": "Closed"}], "id": "3230100201", "name": "USPS COLLECTION BOX - BLUE BOX", "address": {"city": "TALLAHASSEE", "state": "FL", "street": "200 E GAINES ST", "postcode": "32301"}}},
{"geometry": {"type": "Point", "coordinates": [-84.281335386, 30.436611728]}, "type": "Feature", "properties": {"collection_times": [{"days": "Mon-Fri", "time": "4:30pm"}, {"days": "Sat-Sun", "time": "Closed"}], "id": "3230100203", "name": "USPS COLLECTION BOX - BLUE BOX", "address": {"city": "TALLAHASSEE", "state": "FL", "street": "111 W MADISON ST", "postcode": "32301"}}},
{"geometry": {"type": "Point", "coordinates": [-84.2499171788, 30.4238002825]}, "type": "Feature", "properties": {"collection_times": [{"days": "Mon-Fri", "time": "4:00pm"}, {"days": "Sat-Sun", "time": "Closed"}], "id": "3230100204", "name": "USPS COLLECTION BOX - BLUE BOX", "address": {"city": "TALLAHASSEE", "state": "FL", "street": "1317 WINEWOOD BLVD", "postcode": "32301"}}},
{"geometry": {"type": "Point", "coordinates": [-84.2638694065, 30.4414318688]}, "type": "Feature", "properties": {"collection_times": [{"days": "Mon-Fri", "time": "4:00pm"}, {"days": "Sat-Sun", "time": "Closed"}], "id": "3230100231", "name": "USPS COLLECTION BOX - BLUE BOX", "address": {"city": "TALLAHASSEE", "state": "FL", "street": "125 MARRIOTT DR", "postcode": "32301"}}},
{"geometry": {"type": "Point", "coordinates": [-84.2573130383, 30.4355009296]}, "type": "Feature", "properties": {"collection_times": [{"days": "Mon-Fri", "time": "11:00am"}, {"days": "Sat", "time": "10:00am"}, {"days": "Sun", "time": "Closed"}], "id": "3230100232", "name": "USPS COLLECTION BOX - BLUE BOX", "address": {"city": "TALLAHASSEE", "state": "FL", "street": "1500 APALACHEE PKWY", "postcode": "32301"}}},
{"geometry": {"type": "Point", "coordinates": [-84.2634555543, 30.4370843505]}, "type": "Feature", "properties": {"collection_times": [{"days": "Mon-Fri", "time": "11:00am"}, {"days": "Sat-Sun", "time": "Closed"}], "id": "3230100233", "name": "USPS COLLECTION BOX - BLUE BOX", "address": {"city": "TALLAHASSEE", "state": "FL", "street": "1217 APALACHEE PKWY", "postcode": "32301"}}},
{"geometry": {"type": "Point", "coordinates": [-84.2839923118, 30.44073434]}, "type": "Feature", "properties": {"collection_times": [{"days": "Mon-Fri", "time": "5:00pm"}, {"days": "Sat", "time": "10:00am"}, {"days": "Sun", "time": "Closed"}], "id": "3230200000", "name": "USPS COLLECTION BOX - BLUE BOX", "address": {"city": "TALLAHASSEE", "state": "FL", "street": "216 W COLLEGE AVE", "postcode": "32302"}}},
{"geometry": {"type": "Point", "coordinates": [-84.2839923118, 30.44073434]}, "type": "Feature", "properties": {"collection_times": [{"days": "Mon-Fri", "time": "5:00pm"}, {"days": "Sat-Sun", "time": "Closed"}], "id": "3230200005", "name": "USPS COLLECTION BOX - PO LOBBY", "address": {"city": "TALLAHASSEE", "state": "FL", "street": "216 W COLLEGE AVE", "postcode": "32302"}}},
{"geometry": {"type": "Point", "coordinates": [-84.2839923118, 30.44073434]}, "type": "Feature", "properties": {"collection_times": [{"days": "Mon-Fri", "time": "5:00pm"}, {"days": "Sat", "time": "10:00am"}, {"days": "Sun", "time": "Closed"}], "id": "3230200007", "name": "USPS COLLECTION BOX - BLUE BOX", "address": {"city": "TALLAHASSEE", "state": "FL", "street": "216 W COLLEGE AVE", "postcode": "32302"}}},
{"geometry": {"type": "Point", "coordinates": [-84.365878641, 30.5190250312]}, "type": "Feature", "properties": {"collection_times": [{"days": "Mon-Fri", "time": "2:15pm"}, {"days": "Sat-Sun", "time": "Closed"}], "id": "3230300009", "name": "USPS COLLECTION BOX - BLUE BOX", "address": {"city": "TALLAHASSEE", "state": "FL", "street": "4800 CAPITAL CIR NW", "postcode": "32303"}}},
{"geometry": {"type": "Point", "coordinates": [-84.3286550924, 30.5016476859]}, "type": "Feature", "properties": {"collection_times": [{"days": "Mon-Fri", "time": "2:00pm"}, {"days": "Sat-Sun", "time": "Closed"}], "id": "3230300011", "name": "USPS COLLECTION BOX - BLUE BOX", "address": {"city": "TALLAHASSEE", "state": "FL", "street": "3813 N MONROE ST", "postcode": "32303"}}},
{"geometry": {"type": "Point", "coordinates": [-84.2925309096, 30.4730456812]}, "type": "Feature", "properties": {"collection_times": [{"days": "Mon-Fri", "time": "3:00pm"}, {"days": "Sat-Sun", "time": "Closed"}], "id": "3230300014", "name": "USPS COLLECTION BOX - BLUE BOX", "address": {"city": "TALLAHASSEE", "state": "FL", "street": "2415 N MONROE ST", "postcode": "32303"}}},
{"geometry": {"type": "Point", "coordinates": [-84.2804174098, 30.4736655517]}, "type": "Feature", "properties": {"collection_times": [{"days": "Mon-Fri", "time": "3:30pm"}, {"days": "Sat-Sun", "time": "Closed"}], "id": "3230300016", "name": "USPS COLLECTION BOX - BLUE BOX", "address": {"city": "TALLAHASSEE", "state": "FL", "street": "2015 DELTA BLVD", "postcode": "32303"}}},
{"geometry": {"type": "Point", "coordinates": [-84.2866563354, 30.4654830245]}, "type": "Feature", "properties": {"collection_times": [{"days": "Mon-Fri", "time": "3:15pm"}, {"days": "Sat-Sun", "time": "Closed"}], "id": "3230300019", "name": "USPS COLLECTION BOX - BLUE BOX", "address": {"city": "TALLAHASSEE", "state": "FL", "street": "1940 N MONROE ST", "postcode": "32303"}}},
{"geometry": {"type": "Point", "coordinates": [-84.2708472521, 30.4640969423]}, "type": "Feature", "properties": {"collection_times": [{"days": "Mon-Fri", "time": "4:00pm"}, {"days": "Sat-Sun", "time": "Closed"}], "id": "3230300020", "name": "USPS COLLECTION BOX - BLUE BOX", "address": {"city": "TALLAHASSEE", "state": "FL", "street": "1840 THOMASVILLE RD", "postcode": "32303"}}},
{"geometry": {"type": "Point", "coordinates": [-84.2726347228, 30.4625421886]}, "type": "Feature", "properties": {"collection_times": [{"days": "Mon-Fri", "time": "4:00pm"}, {"days": "Sat-Sun", "time": "Closed"}], "id": "3230300021", "name": "USPS COLLECTION BOX - BLUE BOX", "address": {"city": "TALLAHASSEE", "state": "FL", "street": "1704 THOMASVILLE RD", "postcode": "32303"}}},
{"geometry": {"type": "Point", "coordinates": [-84.2792817692, 30.4578624029]}, "type": "Feature", "properties": {"collection_times": [{"days": "Mon-Fri", "time": "4:00pm"}, {"days": "Sat-Sun", "time": "Closed"}], "id": "3230300022", "name": "USPS COLLECTION BOX - BLUE BOX", "address": {"city": "TALLAHASSEE", "state": "FL", "street": "234 E 7TH AVE", "postcode": "32303"}}},
{"geometry": {"type": "Point", "coordinates": [-84.2785053189, 30.4540036842]}, "type": "Feature", "properties": {"collection_times": [{"days": "Mon-Fri", "time": "4:00pm"}, {"days": "Sat-Sun", "time": "Closed"}], "id": "3230300024", "name": "USPS COLLECTION BOX - BLUE BOX", "address": {"city": "TALLAHASSEE", "state": "FL", "street": "1100 THOMASVILLE RD", "postcode": "32303"}}},
{"geometry": {"type": "Point", "coordinates": [-84.2806791325, 30.452621251]}, "type": "Feature", "properties": {"collection_times": [{"days": "Mon-Fri", "time": "4:15pm"}, {"days": "Sat-Sun", "time": "Closed"}], "id": "3230300028", "name": "USPS COLLECTION BOX - BLUE BOX", "address": {"city": "TALLAHASSEE", "state": "FL", "street": "200 E 3RD AVE", "postcode": "32303"}}},
{"geometry": {"type": "Point", "coordinates": [-84.2783531464, 30.4526313584]}, "type": "Feature", "properties": {"collection_times": [{"days": "Mon-Fri", "time": "4:15pm"}, {"days": "Sat-Sun", "time": "Closed"}], "id": "3230300029", "name": "USPS COLLECTION BOX - BLUE BOX", "address": {"city": "TALLAHASSEE", "state": "FL", "street": "313 WILLIAMS ST", "postcode": "32303"}}},
{"geometry": {"type": "Point", "coordinates": [-84.2783531464, 30.4526313584]}, "type": "Feature", "properties": {"collection_times": [{"days": "Mon-Fri", "time": "4:15pm"}, {"days": "Sat-Sun", "time": "Closed"}], "id": "3230300030", "name": "USPS COLLECTION BOX - BLUE BOX", "address": {"city": "TALLAHASSEE", "state": "FL", "street": "313 WILLIAMS ST", "postcode": "32303"}}},
{"geometry": {"type": "Point", "coordinates": [-84.2772376161, 30.4695464886]}, "type": "Feature", "properties": {"collection_times": [{"days": "Mon-Fri", "time": "3:45pm"}, {"days": "Sat-Sun", "time": "Closed"}], "id": "3230300041", "name": "USPS COLLECTION BOX - BLUE BOX", "address": {"city": "TALLAHASSEE", "state": "FL", "street": "2000 N MERIDIAN RD", "postcode": "32303"}}},
{"geometry": {"type": "Point", "coordinates": [-84.2773358017, 30.4567421408]}, "type": "Feature", "properties": {"collection_times": [{"days": "Mon-Fri", "time": "4:30pm"}, {"days": "Sat-Sun", "time": "Closed"}], "id": "3230300090", "name": "USPS COLLECTION BOX - BLUE BOX", "address": {"city": "TALLAHASSEE", "state": "FL", "street": "1309 THOMASVILLE RD", "postcode": "32303"}}},
{"geometry": {"type": "Point", "coordinates": [-84.3611387479, 30.4700306462]}, "type": "Feature", "properties": {"collection_times": [{"days": "Mon-Fri", "time": "2:30pm"}, {"days": "Sat-Sun", "time": "Closed"}], "id": "3230300093", "name": "USPS COLLECTION BOX - BLUE BOX", "address": {"city": "TALLAHASSEE", "state": "FL", "street": "1495 CAPITAL CIR NW", "postcode": "32303"}}},
{"geometry": {"type": "Point", "coordinates": [-84.3624153934, 30.5328158659]}, "type": "Feature", "properties": {"collection_times": [{"days": "Mon-Fri", "time": "2:15pm"}, {"days": "Sat-Sun", "time": "Closed"}], "id": "3230300097", "name": "USPS COLLECTION BOX - BLUE BOX", "address": {"city": "TALLAHASSEE", "state": "FL", "street": "5810 N MONROE ST", "postcode": "32303"}}},
{"geometry": {"type": "Point", "coordinates": [-84.2833937346, 30.4723501013]}, "type": "Feature", "properties": {"collection_times": [{"days": "Mon-Fri", "time": "3:30pm"}, {"days": "Sat-Sun", "time": "Closed"}], "id": "3230300110", "name": "USPS COLLECTION BOX - BLUE BOX", "address": {"city": "TALLAHASSEE", "state": "FL", "street": "275 JOHN KNOX RD", "postcode": "32303"}}},
{"geometry": {"type": "Point", "coordinates": [-84.3257188234, 30.4957230046]}, "type": "Feature", "properties": {"collection_times": [{"days": "Mon-Fri", "time": "6:00pm"}, {"days": "Sat", "time": "11:00am"}, {"days": "Sun", "time": "Closed"}], "id": "3230300111", "name": "USPS COLLECTION BOX - PO LOBBY", "address": {"city": "TALLAHASSEE", "state": "FL", "street": "3607 N MONROE ST", "postcode": "32303"}}},
{"geometry": {"type": "Point", "coordinates": [-84.297103046, 30.4763709789]}, "type": "Feature", "properties": {"collection_times": [{"days": "Mon-Fri", "time": "2:45pm"}, {"days": "Sat-Sun", "time": "Closed"}], "id": "3230300115", "name": "USPS COLLECTION BOX - BLUE BOX", "address": {"city": "TALLAHASSEE", "state": "FL", "street": "2639 N MONROE ST", "postcode": "32303"}}},
{"geometry": {"type": "Point", "coordinates": [-84.297103046, 30.4763709789]}, "type": "Feature", "properties": {"collection_times": [{"days": "Mon-Fri", "time": "2:45pm"}, {"days": "Sat-Sun", "time": "Closed"}], "id": "3230300116", "name": "USPS COLLECTION BOX - BLUE BOX", "address": {"city": "TALLAHASSEE", "state": "FL", "street": "2639 N MONROE ST", "postcode": "32303"}}},
{"geometry": {"type": "Point", "coordinates": [-84.3257188234, 30.4957230046]}, "type": "Feature", "properties": {"collection_times": [{"days": "Mon-Fri", "time": "5:30pm"}, {"days": "Sat", "time": "12:30pm"}, {"days": "Sun", "time": "Closed"}], "id": "3230300117", "name": "USPS COLLECTION BOX - BLUE BOX", "address": {"city": "TALLAHASSEE", "state": "FL", "street": "3607 N MONROE ST", "postcode": "32303"}}},
{"geometry": {"type": "Point", "coordinates": [-84.2866196637, 30.4744108159]}, "type": "Feature", "properties": {"collection_times": [{"days": "Mon-Fri", "time": "3:30pm"}, {"days": "Sat-Sun", "time": "Closed"}], "id": "3230300118", "name": "USPS COLLECTION BOX - BLUE BOX", "address": {"city": "TALLAHASSEE", "state": "FL", "street": "325 JOHN KNOX RD", "postcode": "32303"}}},
{"geometry": {"type": "Point", "coordinates": [-84.3135088478, 30.4492050438]}, "type": "Feature", "properties": {"collection_times": [{"days": "Mon-Fri", "time": "1:15pm"}, {"days": "Sat-Sun", "time": "Closed"}], "id": "3230400001", "name": "USPS COLLECTION BOX - BLUE BOX", "address": {"city": "TALLAHASSEE", "state": "FL", "street": "1900 W TENNESSEE ST", "postcode": "32304"}}},
{"geometry": {"type": "Point", "coordinates": [-84.3175824316, 30.4406136782]}, "type": "Feature", "properties": {"collection_times": [{"days": "Mon-Fri", "time": "5:00pm"}, {"days": "Sat", "time": "10:30am"}, {"days": "Sun", "time": "Closed"}], "id": "3230400007", "name": "USPS COLLECTION BOX - BLUE BOX", "address": {"city": "TALLAHASSEE", "state": "FL", "street": "2020 W PENSACOLA ST", "postcode": "32304"}}},
{"geometry": {"type": "Point", "coordinates": [-84.3389312921, 30.453622678]}, "type": "Feature", "properties": {"collection_times": [{"days": "Mon-Fri", "time": "1:30pm"}, {"days": "Sat-Sun", "time": "Closed"}], "id": "3230400041", "name": "USPS COLLECTION BOX - BLUE BOX", "address": {"city": "TALLAHASSEE", "state": "FL", "street": "2720 W TENNESSEE ST", "postcode": "32304"}}},
{"geometry": {"type": "Point", "coordinates": [-84.3458961197, 30.4513383579]}, "type": "Feature", "properties": {"collection_times": [{"days": "Mon-Fri", "time": "1:45pm"}, {"days": "Sat-Sun", "time": "Closed"}], "id": "3230400042", "name": "USPS COLLECTION BOX - BLUE BOX", "address": {"city": "TALLAHASSEE", "state": "FL", "street": "1250 BLOUNTSTOWN HWY", "postcode": "32304"}}},
{"geometry": {"type": "Point", "coordinates": [-84.3175824316, 30.4406136782]}, "type": "Feature", "properties": {"collection_times": [{"days": "Mon-Fri", "time": "5:00pm"}, {"days": "Sat", "time": "10:30am"}, {"days": "Sun", "time": "Closed"}], "id": "3230400047", "name": "USPS COLLECTION BOX - BLUE BOX", "address": {"city": "TALLAHASSEE", "state": "FL", "street": "2020 W PENSACOLA ST", "postcode": "32304"}}},
{"geometry": {"type": "Point", "coordinates": [-84.3571488601, 30.4594842396]}, "type": "Feature", "properties": {"collection_times": [{"days": "Mon-Fri", "time": "1:30pm"}, {"days": "Sat-Sun", "time": "Closed"}], "id": "3230400107", "name": "USPS COLLECTION BOX - BLUE BOX", "address": {"city": "TALLAHASSEE", "state": "FL", "street": "4400 W TENNESSEE ST", "postcode": "32304"}}},
{"geometry": {"type": "Point", "coordinates": [-84.3397877544, 30.4407094979]}, "type": "Feature", "properties": {"collection_times": [{"days": "Mon-Fri", "time": "2:00pm"}, {"days": "Sat-Sun", "time": "Closed"}], "id": "3230400145", "name": "USPS COLLECTION BOX - BLUE BOX", "address": {"city": "TALLAHASSEE", "state": "FL", "street": "3333 W PENSACOLA ST", "postcode": "32304"}}},
{"geometry": {"type": "Point", "coordinates": [-84.3445557646, 30.4438499155]}, "type": "Feature", "properties": {"collection_times": [{"days": "Mon-Fri", "time": "4:30pm"}, {"days": "Sat-Sun", "time": "Closed"}], "id": "3230400146", "name": "USPS COLLECTION BOX - BLUE BOX", "address": {"city": "TALLAHASSEE", "state": "FL", "street": "150 PROGRESS DR", "postcode": "32304"}}},
{"geometry": {"type": "Point", "coordinates": [-84.2908380953, 30.4415269225]}, "type": "Feature", "properties": {"collection_times": [{"days": "Mon-Fri", "time": "1:00pm"}, {"days": "Sat-Sun", "time": "Closed"}], "id": "3230400147", "name": "USPS COLLECTION BOX - BLUE BOX", "address": {"city": "TALLAHASSEE", "state": "FL", "street": "107 S COPELAND ST", "postcode": "32304"}}},
{"geometry": {"type": "Point", "coordinates": [-84.3175824316, 30.4406136782]}, "type": "Feature", "properties": {"collection_times": [{"days": "Mon-Fri", "time": "5:00pm"}, {"days": "Sat", "time": "10:00am"}, {"days": "Sun", "time": "Closed"}], "id": "3230400151", "name": "USPS COLLECTION BOX - PO LOBBY", "address": {"city": "TALLAHASSEE", "state": "FL", "street": "2020 W PENSACOLA ST", "postcode": "32304"}}},
{"geometry": {"type": "Point", "coordinates": [-84.3120875872, 30.448604566]}, "type": "Feature", "properties": {"collection_times": [{"days": "Mon-Fri", "time": "12:15pm"}, {"days": "Sat-Sun", "time": "Closed"}], "id": "3230400153", "name": "USPS COLLECTION BOX - BLUE BOX", "address": {"city": "TALLAHASSEE", "state": "FL", "street": "1825 W CALL ST", "postcode": "32304"}}},
{"geometry": {"type": "Point", "coordinates": [-84.3361844614, 30.439813998]}, "type": "Feature", "properties": {"collection_times": [{"days": "Mon-Fri", "time": "12:15pm"}, {"days": "Sat-Sun", "time": "Closed"}], "id": "3230400159", "name": "USPS COLLECTION BOX - BLUE BOX", "address": {"city": "TALLAHASSEE", "state": "FL", "street": "2825 MUNICIPAL WAY", "postcode": "32304"}}},
{"geometry": {"type": "Point", "coordinates": [-84.3516147341, 30.4535200747]}, "type": "Feature", "properties": {"collection_times": [{"days": "Mon-Fri", "time": "12:30pm"}, {"days": "Sat-Sun", "time": "Closed"}], "id": "3230400162", "name": "USPS COLLECTION BOX - BLUE BOX", "address": {"city": "TALLAHASSEE", "state": "FL", "street": "400 CHAMPION DR", "postcode": "32304"}}},
{"geometry": {"type": "Point", "coordinates": [-84.3026660604, 30.4399696416]}, "type": "Feature", "properties": {"collection_times": [{"days": "Mon-Fri", "time": "12:30pm"}, {"days": "Sat-Sun", "time": "Closed"}], "id": "3230400163", "name": "USPS COLLECTION BOX - BLUE BOX", "address": {"city": "TALLAHASSEE", "state": "FL", "street": "401 CHIEFTAIN WAY", "postcode": "32304"}}},
{"geometry": {"type": "Point", "coordinates": [-84.3516147341, 30.4535200747]}, "type": "Feature", "properties": {"collection_times": [{"days": "Mon-Fri", "time": "1:00pm"}, {"days": "Sat-Sun", "time": "Closed"}], "id": "3230400164", "name": "USPS COLLECTION BOX - BLUE BOX", "address": {"city": "TALLAHASSEE", "state": "FL", "street": "200 IVY WAY", "postcode": "32304"}}},
{"geometry": {"type": "Point", "coordinates": [-84.2980389581, 30.4464191922]}, "type": "Feature", "properties": {"collection_times": [{"days": "Mon-Fri", "time": "1:00pm"}, {"days": "Sat-Sun", "time": "Closed"}], "id": "3230400165", "name": "USPS COLLECTION BOX - BLUE BOX", "address": {"city": "TALLAHASSEE", "state": "FL", "street": "501 N WOODWARD AVE", "postcode": "32304"}}},
{"geometry": {"type": "Point", "coordinates": [-84.3619978089, 30.4586810105]}, "type": "Feature", "properties": {"collection_times": [{"days": "Mon-Fri", "time": "1:30pm"}, {"days": "Sat-Sun", "time": "Closed"}], "id": "3230400169", "name": "USPS COLLECTION BOX - BLUE BOX", "address": {"city": "TALLAHASSEE", "state": "FL", "street": "5010 W TENNESSEE ST", "postcode": "32304"}}},
{"geometry": {"type": "Point", "coordinates": [-84.3059322678, 30.3834990894]}, "type": "Feature", "properties": {"collection_times": [{"days": "Mon-Fri", "time": "10:30am"}, {"days": "Sat-Sun", "time": "Closed"}], "id": "3230500000", "name": "USPS COLLECTION BOX - BLUE BOX", "address": {"city": "TALLAHASSEE", "state": "FL", "street": "1630 BALKIN RD", "postcode": "32305"}}},
{"geometry": {"type": "Point", "coordinates": [-84.2793373683, 30.3817425424]}, "type": "Feature", "properties": {"collection_times": [{"days": "Mon-Fri", "time": "10:30am"}, {"days": "Sat-Sun", "time": "Closed"}], "id": "3230500003", "name": "USPS COLLECTION BOX - BLUE BOX", "address": {"city": "TALLAHASSEE", "state": "FL", "street": "274 ROSS RD", "postcode": "32305"}}},
{"geometry": {"type": "Point", "coordinates": [-84.2442261138, 30.4917385184]}, "type": "Feature", "properties": {"collection_times": [{"days": "Mon-Fri", "time": "2:00pm"}, {"days": "Sat", "time": "3:30pm"}, {"days": "Sun", "time": "Closed"}], "id": "3230800015", "name": "USPS COLLECTION BOX - BLUE BOX", "address": {"city": "TALLAHASSEE", "state": "FL", "street": "2800 REMINGTON GREEN CIR", "postcode": "32308"}}},
{"geometry": {"type": "Point", "coordinates": [-84.2442261138, 30.4917385184]}, "type": "Feature", "properties": {"collection_times": [{"days": "Mon-Fri", "time": "2:00pm"}, {"days": "Sat", "time": "3:30pm"}, {"days": "Sun", "time": "Closed"}], "id": "3230800016", "name": "USPS COLLECTION BOX - BLUE BOX", "address": {"city": "TALLAHASSEE", "state": "FL", "street": "2800 REMINGTON GREEN CIR", "postcode": "32308"}}},
{"geometry": {"type": "Point", "coordinates": [-84.2442261138, 30.4917385184]}, "type": "Feature", "properties": {"collection_times": [{"days": "Mon-Fri", "time": "2:00pm"}, {"days": "Sat", "time": "3:30pm"}, {"days": "Sun", "time": "Closed"}], "id": "3230800018", "name": "USPS COLLECTION BOX - BLUE BOX", "address": {"city": "TALLAHASSEE", "state": "FL", "street": "2800 REMINGTON GREEN CIR", "postcode": "32308"}}},
{"geometry": {"type": "Point", "coordinates": [-84.2318504115, 30.4744706523]}, "type": "Feature", "properties": {"collection_times": [{"days": "Mon-Fri", "time": "2:30pm"}, {"days": "Sat-Sun", "time": "Closed"}], "id": "3230800020", "name": "USPS COLLECTION BOX - BLUE BOX", "address": {"city": "TALLAHASSEE", "state": "FL", "street": "2600 CAPITAL MEDICAL BLVD", "postcode": "32308"}}},
{"geometry": {"type": "Point", "coordinates": [-84.2252193616, 30.4609960612]}, "type": "Feature", "properties": {"collection_times": [{"days": "Mon-Fri", "time": "3:00pm"}, {"days": "Sat-Sun", "time": "Closed"}], "id": "3230800021", "name": "USPS COLLECTION BOX - BLUE BOX", "address": {"city": "TALLAHASSEE", "state": "FL", "street": "3111 MAHAN DR", "postcode": "32308"}}},
{"geometry": {"type": "Point", "coordinates": [-84.2376640899, 30.4578482074]}, "type": "Feature", "properties": {"collection_times": [{"days": "Mon-Fri", "time": "3:30pm"}, {"days": "Sat-Sun", "time": "Closed"}], "id": "3230800022", "name": "USPS COLLECTION BOX - BLUE BOX", "address": {"city": "TALLAHASSEE", "state": "FL", "street": "1605 E PLAZA DR", "postcode": "32308"}}},
{"geometry": {"type": "Point", "coordinates": [-84.2376640899, 30.4578482074]}, "type": "Feature", "properties": {"collection_times": [{"days": "Mon-Fri", "time": "3:30pm"}, {"days": "Sat-Sun", "time": "Closed"}], "id": "3230800023", "name": "USPS COLLECTION BOX - BLUE BOX", "address": {"city": "TALLAHASSEE", "state": "FL", "street": "1605 E PLAZA DR", "postcode": "32308"}}},
{"geometry": {"type": "Point", "coordinates": [-84.2376640899, 30.4578482074]}, "type": "Feature", "properties": {"collection_times": [{"days": "Mon-Fri", "time": "3:30pm"}, {"days": "Sat-Sun", "time": "Closed"}], "id": "3230800024", "name": "USPS COLLECTION BOX - BLUE BOX", "address": {"city": "TALLAHASSEE", "state": "FL", "street": "1605 E PLAZA DR", "postcode": "32308"}}},
{"geometry": {"type": "Point", "coordinates": [-84.245805651, 30.4607776448]}, "type": "Feature", "properties": {"collection_times": [{"days": "Mon-Fri", "time": "2:30pm"}, {"days": "Sat-Sun", "time": "Closed"}], "id": "3230800026", "name": "USPS COLLECTION BOX - BLUE BOX", "address": {"city": "TALLAHASSEE", "state": "FL", "street": "2331 PHILLIPS RD", "postcode": "32308"}}},
{"geometry": {"type": "Point", "coordinates": [-84.3045604193, 30.4490481756]}, "type": "Feature", "properties": {"collection_times": [{"days": "Mon-Fri", "time": "4:30pm"}, {"days": "Sat-Sun", "time": "Closed"}], "id": "3230800028", "name": "USPS COLLECTION BOX - BLUE BOX", "address": {"city": "TALLAHASSEE", "state": "FL", "street": "1350 E TENNESSEE ST", "postcode": "32308"}}},
{"geometry": {"type": "Point", "coordinates": [-84.2646083462, 30.446788724]}, "type": "Feature", "properties": {"collection_times": [{"days": "Mon-Fri", "time": "4:15pm"}, {"days": "Sat-Sun", "time": "Closed"}], "id": "3230800029", "name": "USPS COLLECTION BOX - BLUE BOX", "address": {"city": "TALLAHASSEE", "state": "FL", "street": "1113 E TENNESSEE ST", "postcode": "32308"}}},
{"geometry": {"type": "Point", "coordinates": [-84.263630132, 30.4550292585]}, "type": "Feature", "properties": {"collection_times": [{"days": "Mon-Fri", "time": "4:30pm"}, {"days": "Sat-Sun", "time": "Closed"}], "id": "3230800031", "name": "USPS COLLECTION BOX - BLUE BOX", "address": {"city": "TALLAHASSEE", "state": "FL", "street": "1300 MICCOSUKEE RD", "postcode": "32308"}}},
{"geometry": {"type": "Point", "coordinates": [-84.2627948701, 30.4577488388]}, "type": "Feature", "properties": {"collection_times": [{"days": "Mon-Fri", "time": "4:45pm"}, {"days": "Sat-Sun", "time": "Closed"}], "id": "3230800032", "name": "USPS COLLECTION BOX - BLUE BOX", "address": {"city": "TALLAHASSEE", "state": "FL", "street": "1401 CENTERVILLE RD", "postcode": "32308"}}},
{"geometry": {"type": "Point", "coordinates": [-84.2389594299, 30.4770405336]}, "type": "Feature", "properties": {"collection_times": [{"days": "Mon-Fri", "time": "5:45pm"}, {"days": "Sat", "time": "4:00pm"}, {"days": "Sun", "time": "Closed"}], "id": "3230800041", "name": "USPS COLLECTION BOX - PO LOBBY", "address": {"city": "TALLAHASSEE", "state": "FL", "street": "2355 CENTERVILLE RD", "postcode": "32308"}}},
{"geometry": {"type": "Point", "coordinates": [-84.2318504115, 30.4744706523]}, "type": "Feature", "properties": {"collection_times": [{"days": "Mon-Fri", "time": "2:30pm"}, {"days": "Sat-Sun", "time": "Closed"}], "id": "3230800047", "name": "USPS COLLECTION BOX - BLUE BOX", "address": {"city": "TALLAHASSEE", "state": "FL", "street": "2600 CAPITAL MEDICAL BLVD", "postcode": "32308"}}},
{"geometry": {"type": "Point", "coordinates": [-84.3045604193, 30.4490481756]}, "type": "Feature", "properties": {"collection_times": [{"days": "Mon-Fri", "time": "4:30pm"}, {"days": "Sat-Sun", "time": "Closed"}], "id": "3230800051", "name": "USPS COLLECTION BOX - BLUE BOX", "address": {"city": "TALLAHASSEE", "state": "FL", "street": "1350 E TENNESSEE ST", "postcode": "32308"}}},
{"geometry": {"type": "Point", "coordinates": [-84.2627948701, 30.4577488388]}, "type": "Feature", "properties": {"collection_times": [{"days": "Mon-Fri", "time": "4:45pm"}, {"days": "Sat-Sun", "time": "Closed"}], "id": "3230800054", "name": "USPS COLLECTION BOX - BLUE BOX", "address": {"city": "TALLAHASSEE", "state": "FL", "street": "1401 CENTERVILLE RD", "postcode": "32308"}}},
{"geometry": {"type": "Point", "coordinates": [-84.2372926408, 30.4851355218]}, "type": "Feature", "properties": {"collection_times": [{"days": "Mon-Fri", "time": "2:15pm"}, {"days": "Sat", "time": "3:30pm"}, {"days": "Sun", "time": "Closed"}], "id": "3230800055", "name": "USPS COLLECTION BOX - BLUE BOX", "address": {"city": "TALLAHASSEE", "state": "FL", "street": "2522 CAPITAL CIR NE", "postcode": "32308"}}},
{"geometry": {"type": "Point", "coordinates": [-84.2382391778, 30.4739213478]}, "type": "Feature", "properties": {"collection_times": [{"days": "Mon-Fri", "time": "5:45pm"}, {"days": "Sat", "time": "4:00pm"}, {"days": "Sun", "time": "Closed"}], "id": "3230800057", "name": "USPS COLLECTION BOX - BLUE BOX", "address": {"city": "TALLAHASSEE", "state": "FL", "street": "2355 CENTERVILLE RD", "postcode": "32308"}}},
{"geometry": {"type": "Point", "coordinates": [-84.2470792603, 30.4919884031]}, "type": "Feature", "properties": {"collection_times": [{"days": "Mon-Fri", "time": "2:00pm"}, {"days": "Sat", "time": "3:30pm"}, {"days": "Sun", "time": "Closed"}], "id": "3230800063", "name": "USPS COLLECTION BOX - BLUE BOX", "address": {"city": "TALLAHASSEE", "state": "FL", "street": "1801 HERMITAGE BLVD", "postcode": "32308"}}},
{"geometry": {"type": "Point", "coordinates": [-84.2646083462, 30.446788724]}, "type": "Feature", "properties": {"collection_times": [{"days": "Mon-Fri", "time": "4:15pm"}, {"days": "Sat-Sun", "time": "Closed"}], "id": "3230800071", "name": "USPS COLLECTION BOX - BLUE BOX", "address": {"city": "TALLAHASSEE", "state": "FL", "street": "1113 E TENNESSEE ST", "postcode": "32308"}}},
{"geometry": {"type": "Point", "coordinates": [-84.2471230298, 30.4993558716]}, "type": "Feature", "properties": {"collection_times": [{"days": "Mon-Fri", "time": "1:45pm"}, {"days": "Sat", "time": "2:45pm"}, {"days": "Sun", "time": "Closed"}], "id": "3230800075", "name": "USPS COLLECTION BOX - BLUE BOX", "address": {"city": "TALLAHASSEE", "state": "FL", "street": "3375 CAPITAL CIR NE", "postcode": "32308"}}},
{"geometry": {"type": "Point", "coordinates": [-84.2411585507, 30.4565457696]}, "type": "Feature", "properties": {"collection_times": [{"days": "Mon-Fri", "time": "2:45pm"}, {"days": "Sat-Sun", "time": "Closed"}], "id": "3230800081", "name": "USPS COLLECTION BOX - BLUE BOX", "address": {"city": "TALLAHASSEE", "state": "FL", "street": "1600 PHILLIPS RD", "postcode": "32308"}}},
{"geometry": {"type": "Point", "coordinates": [-84.2389594299, 30.4770405336]}, "type": "Feature", "properties": {"collection_times": [{"days": "Mon-Fri", "time": "5:45pm"}, {"days": "Sat", "time": "4:00pm"}, {"days": "Sun", "time": "Closed"}], "id": "3230800083", "name": "USPS COLLECTION BOX - PO LOBBY", "address": {"city": "TALLAHASSEE", "state": "FL", "street": "2355 CENTERVILLE RD", "postcode": "32308"}}},
{"geometry": {"type": "Point", "coordinates": [-84.2469893554, 30.4984095044]}, "type": "Feature", "properties": {"collection_times": [{"days": "Mon-Fri", "time": "2:00pm"}, {"days": "Sat", "time": "3:15pm"}, {"days": "Sun", "time": "Closed"}], "id": "3230800086", "name": "USPS COLLECTION BOX - BLUE BOX", "address": {"city": "TALLAHASSEE", "state": "FL", "street": "3372 CAPITAL CIR NE", "postcode": "32308"}}},
{"geometry": {"type": "Point", "coordinates": [-84.2672546254, 30.468610768]}, "type": "Feature", "properties": {"collection_times": [{"days": "Mon-Fri", "time": "1:00pm"}, {"days": "Sat-Sun", "time": "Closed"}], "id": "3230800091", "name": "USPS COLLECTION BOX - BLUE BOX", "address": {"city": "TALLAHASSEE", "state": "FL", "street": "2037 THOMASVILLE RD", "postcode": "32308"}}},
{"geometry": {"type": "Point", "coordinates": [-84.2564724671, 30.4862905799]}, "type": "Feature", "properties": {"collection_times": [{"days": "Mon-Sat", "time": "1:15pm"}, {"days": "Sun", "time": "Closed"}], "id": "3230800093", "name": "USPS COLLECTION BOX - BLUE BOX", "address": {"city": "TALLAHASSEE", "state": "FL", "street": "1300 WOODGATE WAY", "postcode": "32308"}}},
{"geometry": {"type": "Point", "coordinates": [-84.2542754295, 30.4951923171]}, "type": "Feature", "properties": {"collection_times": [{"days": "Mon-Fri", "time": "1:30pm"}, {"days": "Sat", "time": "2:30pm"}, {"days": "Sun", "time": "Closed"}], "id": "3230800096", "name": "USPS COLLECTION BOX - BLUE BOX", "address": {"city": "TALLAHASSEE", "state": "FL", "street": "1400 PIEDMONT DR E", "postcode": "32308"}}},
{"geometry": {"type": "Point", "coordinates": [-84.2448765907, 30.4941047167]}, "type": "Feature", "properties": {"collection_times": [{"days": "Mon-Fri", "time": "2:00pm"}, {"days": "Sat", "time": "3:15pm"}, {"days": "Sun", "time": "Closed"}], "id": "3230800098", "name": "USPS COLLECTION BOX - BLUE BOX", "address": {"city": "TALLAHASSEE", "state": "FL", "street": "3116 CAPITAL CIR NE", "postcode": "32308"}}},
{"geometry": {"type": "Point", "coordinates": [-84.2499905223, 30.4982829278]}, "type": "Feature", "properties": {"collection_times": [{"days": "Mon-Fri", "time": "1:30pm"}, {"days": "Sat", "time": "2:45pm"}, {"days": "Sun", "time": "Closed"}], "id": "3230800101", "name": "USPS COLLECTION BOX - BLUE BOX", "address": {"city": "TALLAHASSEE", "state": "FL", "street": "1648 METROPOLITAN CIR", "postcode": "32308"}}},
{"geometry": {"type": "Point", "coordinates": [-84.2299519858, 30.4595257828]}, "type": "Feature", "properties": {"collection_times": [{"days": "Mon-Fri", "time": "3:15pm"}, {"days": "Sat-Sun", "time": "Closed"}], "id": "3230800102", "name": "USPS COLLECTION BOX - BLUE BOX", "address": {"city": "TALLAHASSEE", "state": "FL", "street": "2888 MAHAN DR", "postcode": "32308"}}},
{"geometry": {"type": "Point", "coordinates": [-84.2299519858, 30.4595257828]}, "type": "Feature", "properties": {"collection_times": [{"days": "Mon-Fri", "time": "3:15pm"}, {"days": "Sat-Sun", "time": "Closed"}], "id": "3230800103", "name": "USPS COLLECTION BOX - BLUE BOX", "address": {"city": "TALLAHASSEE", "state": "FL", "street": "2888 MAHAN DR", "postcode": "32308"}}},
{"geometry": {"type": "Point", "coordinates": [-84.2389594299, 30.4770405336]}, "type": "Feature", "properties": {"collection_times": [{"days": "Mon-Fri", "time": "5:45pm"}, {"days": "Sat-Sun", "time": "Closed"}], "id": "3230800104", "name": "USPS COLLECTION BOX - APC", "address": {"city": "TALLAHASSEE", "state": "FL", "street": "2355 CENTERVILLE RD", "postcode": "32308"}}},
{"geometry": {"type": "Point", "coordinates": [-84.2389594299, 30.4770405336]}, "type": "Feature", "properties": {"collection_times": [{"days": "Mon-Fri", "time": "5:45pm"}, {"days": "Sat", "time": "4:00pm"}, {"days": "Sun", "time": "Closed"}], "id": "3230800105", "name": "USPS COLLECTION BOX - BLUE BOX", "address": {"city": "TALLAHASSEE", "state": "FL", "street": "2355 CENTERVILLE RD", "postcode": "32308"}}},
{"geometry": {"type": "Point", "coordinates": [-84.2264259797, 30.5415946044]}, "type": "Feature", "properties": {"collection_times": [{"days": "Mon-Fri", "time": "12:00pm"}, {"days": "Sat", "time": "1:45pm"}, {"days": "Sun", "time": "Closed"}], "id": "3230900001", "name": "USPS COLLECTION BOX - BLUE BOX", "address": {"city": "TALLAHASSEE", "state": "FL", "street": "2910 KERRY FOREST PKWY", "postcode": "32309"}}},
{"geometry": {"type": "Point", "coordinates": [-84.1679282988, 30.5352206854]}, "type": "Feature", "properties": {"collection_times": [{"days": "Mon-Fri", "time": "12:00pm"}, {"days": "Sat", "time": "1:45pm"}, {"days": "Sun", "time": "Closed"}], "id": "3230900002", "name": "USPS COLLECTION BOX - BLUE BOX", "address": {"city": "TALLAHASSEE", "state": "FL", "street": "2910 KERRY FOREST PKWY", "postcode": "32309"}}},
{"geometry": {"type": "Point", "coordinates": [-84.2264259797, 30.5415946044]}, "type": "Feature", "properties": {"collection_times": [{"days": "Mon-Fri", "time": "12:00pm"}, {"days": "Sat", "time": "1:45pm"}, {"days": "Sun", "time": "Closed"}], "id": "3230900003", "name": "USPS COLLECTION BOX - BLUE BOX", "address": {"city": "TALLAHASSEE", "state": "FL", "street": "2910 KERRY FOREST PKWY", "postcode": "32309"}}},
{"geometry": {"type": "Point", "coordinates": [-84.2264259797, 30.5415946044]}, "type": "Feature", "properties": {"collection_times": [{"days": "Mon-Fri", "time": "12:00pm"}, {"days": "Sat", "time": "1:45pm"}, {"days": "Sun", "time": "Closed"}], "id": "3230900004", "name": "USPS COLLECTION BOX - BLUE BOX", "address": {"city": "TALLAHASSEE", "state": "FL", "street": "2910 KERRY FOREST PKWY", "postcode": "32309"}}},
{"geometry": {"type": "Point", "coordinates": [-84.2429215854, 30.5115745101]}, "type": "Feature", "properties": {"collection_times": [{"days": "Mon-Fri", "time": "12:30pm"}, {"days": "Sat", "time": "2:00pm"}, {"days": "Sun", "time": "Closed"}], "id": "3230900006", "name": "USPS COLLECTION BOX - BLUE BOX", "address": {"city": "TALLAHASSEE", "state": "FL", "street": "2200 KILLARNEY WAY", "postcode": "32309"}}},
{"geometry": {"type": "Point", "coordinates": [-84.1154036285, 30.5215423029]}, "type": "Feature", "properties": {"collection_times": [{"days": "Mon-Fri", "time": "10:00am"}, {"days": "Sat-Sun", "time": "Closed"}], "id": "3230900007", "name": "USPS COLLECTION BOX - BLUE BOX", "address": {"city": "TALLAHASSEE", "state": "FL", "street": "9601 MICCOSUKEE RD", "postcode": "32309"}}},
{"geometry": {"type": "Point", "coordinates": [-84.0538479579, 30.5917775627]}, "type": "Feature", "properties": {"collection_times": [{"days": "Mon-Fri", "time": "10:30am"}, {"days": "Sat-Sun", "time": "Closed"}], "id": "3230900008", "name": "USPS COLLECTION BOX - BLUE BOX", "address": {"city": "TALLAHASSEE", "state": "FL", "street": "14000 MOCCASIN GAP RD", "postcode": "32309"}}},
{"geometry": {"type": "Point", "coordinates": [-84.2233669543, 30.513889031]}, "type": "Feature", "properties": {"collection_times": [{"days": "Mon-Fri", "time": "12:15pm"}, {"days": "Sat", "time": "2:00pm"}, {"days": "Sun", "time": "Closed"}], "id": "3230900009", "name": "USPS COLLECTION BOX - BLUE BOX", "address": {"city": "TALLAHASSEE", "state": "FL", "street": "3600 SHAMROCK ST W", "postcode": "32309"}}},
{"geometry": {"type": "Point", "coordinates": [-84.2233669543, 30.513889031]}, "type": "Feature", "properties": {"collection_times": [{"days": "Mon-Fri", "time": "12:15pm"}, {"days": "Sat", "time": "2:00pm"}, {"days": "Sun", "time": "Closed"}], "id": "3230900010", "name": "USPS COLLECTION BOX - BLUE BOX", "address": {"city": "TALLAHASSEE", "state": "FL", "street": "3600 SHAMROCK ST W", "postcode": "32309"}}},
{"geometry": {"type": "Point", "coordinates": [-84.2155522209, 30.5357117494]}, "type": "Feature", "properties": {"collection_times": [{"days": "Mon-Fri", "time": "12:00pm"}, {"days": "Sat", "time": "1:45pm"}, {"days": "Sun", "time": "Closed"}], "id": "3230900013", "name": "USPS COLLECTION BOX - BLUE BOX", "address": {"city": "TALLAHASSEE", "state": "FL", "street": "4500 W SHANNON LAKES DR", "postcode": "32309"}}},
{"geometry": {"type": "Point", "coordinates": [-84.2155522209, 30.5357117494]}, "type": "Feature", "properties": {"collection_times": [{"days": "Mon-Fri", "time": "12:00pm"}, {"days": "Sat", "time": "1:45pm"}, {"days": "Sun", "time": "Closed"}], "id": "3230900014", "name": "USPS COLLECTION BOX - BLUE BOX", "address": {"city": "TALLAHASSEE", "state": "FL", "street": "4500 W SHANNON LAKES DR", "postcode": "32309"}}},
{"geometry": {"type": "Point", "coordinates": [-84.2495232535, 30.5070959721]}, "type": "Feature", "properties": {"collection_times": [{"days": "Mon-Fri", "time": "11:15am"}, {"days": "Sat", "time": "3:00pm"}, {"days": "Sun", "time": "Closed"}], "id": "3230900015", "name": "USPS COLLECTION BOX - BLUE BOX", "address": {"city": "TALLAHASSEE", "state": "FL", "street": "3471 THOMASVILLE RD", "postcode": "32309"}}},
{"geometry": {"type": "Point", "coordinates": [-84.2482054372, 30.5093388623]}, "type": "Feature", "properties": {"collection_times": [{"days": "Mon-Fri", "time": "12:45pm"}, {"days": "Sat", "time": "2:15pm"}, {"days": "Sun", "time": "Closed"}], "id": "3230900017", "name": "USPS COLLECTION BOX - BLUE BOX", "address": {"city": "TALLAHASSEE", "state": "FL", "street": "3520 THOMASVILLE RD", "postcode": "32309"}}},
{"geometry": {"type": "Point", "coordinates": [-84.2482054372, 30.5093388623]}, "type": "Feature", "properties": {"collection_times": [{"days": "Mon-Fri", "time": "12:45pm"}, {"days": "Sat", "time": "2:15pm"}, {"days": "Sun", "time": "Closed"}], "id": "3230900018", "name": "USPS COLLECTION BOX - BLUE BOX", "address": {"city": "TALLAHASSEE", "state": "FL", "street": "3520 THOMASVILLE RD", "postcode": "32309"}}},
{"geometry": {"type": "Point", "coordinates": [-84.347148125, 30.3978012103]}, "type": "Feature", "properties": {"collection_times": [{"days": "Mon-Fri", "time": "10:30am"}, {"days": "Sat-Sun", "time": "Closed"}], "id": "3231000022", "name": "USPS COLLECTION BOX - BLUE BOX", "address": {"city": "TALLAHASSEE", "state": "FL", "street": "3300 CAPITAL CIR SW", "postcode": "32310"}}},
{"geometry": {"type": "Point", "coordinates": [-84.3217310687, 30.423122447]}, "type": "Feature", "properties": {"collection_times": [{"days": "Mon-Fri", "time": "10:30am"}, {"days": "Sat-Sun", "time": "Closed"}], "id": "3231000024", "name": "USPS COLLECTION BOX - BLUE BOX", "address": {"city": "TALLAHASSEE", "state": "FL", "street": "2035 E PAUL DIRAC DR", "postcode": "32310"}}},
{"geometry": {"type": "Point", "coordinates": [-84.1630140484, 30.3869307227]}, "type": "Feature", "properties": {"collection_times": [{"days": "Mon-Fri", "time": "10:30am"}, {"days": "Sat-Sun", "time": "Closed"}], "id": "3231100007", "name": "USPS COLLECTION BOX - BLUE BOX", "address": {"city": "TALLAHASSEE", "state": "FL", "street": "1300 TWIN LAKES CIR", "postcode": "32311"}}},
{"geometry": {"type": "Point", "coordinates": [-84.2324188498, 30.3861206735]}, "type": "Feature", "properties": {"collection_times": [{"days": "Mon-Fri", "time": "3:30pm"}, {"days": "Sat-Sun", "time": "Closed"}], "id": "3231100013", "name": "USPS COLLECTION BOX - BLUE BOX", "address": {"city": "TALLAHASSEE", "state": "FL", "street": "4065 ESPLANADE WAY", "postcode": "32311"}}},
{"geometry": {"type": "Point", "coordinates": [-84.2324188498, 30.3861206735]}, "type": "Feature", "properties": {"collection_times": [{"days": "Mon-Fri", "time": "3:30pm"}, {"days": "Sat-Sun", "time": "Closed"}], "id": "3231100014", "name": "USPS COLLECTION BOX - BLUE BOX", "address": {"city": "TALLAHASSEE", "state": "FL", "street": "4065 ESPLANADE WAY", "postcode": "32311"}}},
{"geometry": {"type": "Point", "coordinates": [-84.2966085692, 30.4787499093]}, "type": "Feature", "properties": {"collection_times": [{"days": "Mon-Fri", "time": "2:30pm"}, {"days": "Sat-Sun", "time": "Closed"}], "id": "3231200001", "name": "USPS COLLECTION BOX - BLUE BOX", "address": {"city": "TALLAHASSEE", "state": "FL", "street": "2810 SHARER RD", "postcode": "32312"}}},
{"geometry": {"type": "Point", "coordinates": [-84.2483899788, 30.510961882]}, "type": "Feature", "properties": {"collection_times": [{"days": "Mon-Fri", "time": "12:30pm"}, {"days": "Sat", "time": "2:15pm"}, {"days": "Sun", "time": "Closed"}], "id": "3231200004", "name": "USPS COLLECTION BOX - BLUE BOX", "address": {"city": "TALLAHASSEE", "state": "FL", "street": "1400 VILLAGE SQUARE BLVD", "postcode": "32312"}}},
{"geometry": {"type": "Point", "coordinates": [-84.2483899788, 30.510961882]}, "type": "Feature", "properties": {"collection_times": [{"days": "Mon-Fri", "time": "12:30pm"}, {"days": "Sat", "time": "2:15pm"}, {"days": "Sun", "time": "Closed"}], "id": "3231200005", "name": "USPS COLLECTION BOX - BLUE BOX", "address": {"city": "TALLAHASSEE", "state": "FL", "street": "1400 VILLAGE SQUARE BLVD", "postcode": "32312"}}},
{"geometry": {"type": "Point", "coordinates": [-84.2532507572, 30.5065411643]}, "type": "Feature", "properties": {"collection_times": [{"days": "Mon-Fri", "time": "1:00pm"}, {"days": "Sat", "time": "2:30pm"}, {"days": "Sun", "time": "Closed"}], "id": "3231200006", "name": "USPS COLLECTION BOX - BLUE BOX", "address": {"city": "TALLAHASSEE", "state": "FL", "street": "1410 MARKET ST", "postcode": "32312"}}},
{"geometry": {"type": "Point", "coordinates": [-84.2532507572, 30.5065411643]}, "type": "Feature", "properties": {"collection_times": [{"days": "Mon-Fri", "time": "1:00pm"}, {"days": "Sat", "time": "2:30pm"}, {"days": "Sun", "time": "Closed"}], "id": "3231200007", "name": "USPS COLLECTION BOX - BLUE BOX", "address": {"city": "TALLAHASSEE", "state": "FL", "street": "1410 MARKET ST", "postcode": "32312"}}},
{"geometry": {"type": "Point", "coordinates": [-84.2575396922, 30.5529309278]}, "type": "Feature", "properties": {"collection_times": [{"days": "Mon-Fri", "time": "1:00pm"}, {"days": "Sat", "time": "2:30pm"}, {"days": "Sun", "time": "Closed"}], "id": "3231200008", "name": "USPS COLLECTION BOX - BLUE BOX", "address": {"city": "TALLAHASSEE", "state": "FL", "street": "1410 MARKET ST", "postcode": "32312"}}},
{"geometry": {"type": "Point", "coordinates": [-84.2943029822, 30.4786410771]}, "type": "Feature", "properties": {"collection_times": [{"days": "Mon-Fri", "time": "2:30pm"}, {"days": "Sat-Sun", "time": "Closed"}], "id": "3231200013", "name": "USPS COLLECTION BOX - BLUE BOX", "address": {"city": "TALLAHASSEE", "state": "FL", "street": "2711 ALLEN RD", "postcode": "32312"}}},
{"geometry": {"type": "Point", "coordinates": [-84.2579636657, 30.503639366]}, "type": "Feature", "properties": {"collection_times": [{"days": "Mon-Fri", "time": "1:00pm"}, {"days": "Sat", "time": "2:30pm"}, {"days": "Sun", "time": "Closed"}], "id": "3231200035", "name": "USPS COLLECTION BOX - BLUE BOX", "address": {"city": "TALLAHASSEE", "state": "FL", "street": "1300 TIMBERLANE RD", "postcode": "32312"}}},
{"geometry": {"type": "Point", "coordinates": [-84.2147004904, 30.5638058419]}, "type": "Feature", "properties": {"collection_times": [{"days": "Mon-Fri", "time": "11:45am"}, {"days": "Sat", "time": "1:30pm"}, {"days": "Sun", "time": "Closed"}], "id": "3231200036", "name": "USPS COLLECTION BOX - BLUE BOX", "address": {"city": "TALLAHASSEE", "state": "FL", "street": "6753 THOMASVILLE RD", "postcode": "32312"}}},
{"geometry": {"type": "Point", "coordinates": [-84.2147004904, 30.5638058419]}, "type": "Feature", "properties": {"collection_times": [{"days": "Mon-Fri", "time": "11:45am"}, {"days": "Sat", "time": "1:30pm"}, {"days": "Sun", "time": "Closed"}], "id": "3231200039", "name": "USPS COLLECTION BOX - BLUE BOX", "address": {"city": "TALLAHASSEE", "state": "FL", "street": "6753 THOMASVILLE RD", "postcode": "32312"}}},
{"geometry": {"type": "Point", "coordinates": [-84.2137162686, 30.5650846205]}, "type": "Feature", "properties": {"collection_times": [{"days": "Mon-Fri", "time": "5:00pm"}, {"days": "Sat", "time": "1:30pm"}, {"days": "Sun", "time": "Closed"}], "id": "3231200040", "name": "USPS COLLECTION BOX - BLUE BOX", "address": {"city": "TALLAHASSEE", "state": "FL", "street": "6800 THOMASVILLE RD", "postcode": "32312"}}},
{"geometry": {"type": "Point", "coordinates": [-84.2419301311, 30.6027678571]}, "type": "Feature", "properties": {"collection_times": [{"days": "Mon-Fri", "time": "11:30am"}, {"days": "Sat", "time": "1:15pm"}, {"days": "Sun", "time": "Closed"}], "id": "3231200042", "name": "USPS COLLECTION BOX - BLUE BOX", "address": {"city": "TALLAHASSEE", "state": "FL", "street": "6700 TEKESTA RD", "postcode": "32312"}}},
{"geometry": {"type": "Point", "coordinates": [-84.2137162686, 30.5650846205]}, "type": "Feature", "properties": {"collection_times": [{"days": "Mon-Fri", "time": "5:00pm"}, {"days": "Sat", "time": "1:30pm"}, {"days": "Sun", "time": "Closed"}], "id": "3231200043", "name": "USPS COLLECTION BOX - BLUE BOX", "address": {"city": "TALLAHASSEE", "state": "FL", "street": "6800 THOMASVILLE RD", "postcode": "32312"}}},
{"geometry": {"type": "Point", "coordinates": [-84.2137162686, 30.5650846205]}, "type": "Feature", "properties": {"collection_times": [{"days": "Mon-Fri", "time": "5:00pm"}, {"days": "Sat", "time": "1:30pm"}, {"days": "Sun", "time": "Closed"}], "id": "3231200045", "name": "USPS COLLECTION BOX - BLUE BOX", "address": {"city": "TALLAHASSEE", "state": "FL", "street": "6800 THOMASVILLE RD", "postcode": "32312"}}},
{"geometry": {"type": "Point", "coordinates": [-84.280647984, 30.4397710683]}, "type": "Feature", "properties": {"collection_times": [{"days": "Mon-Fri", "time": "5:30pm"}, {"days": "Sat", "time": "12:30pm"}, {"days": "Sun", "time": "Closed"}], "id": "3231500000", "name": "USPS COLLECTION BOX - BLUE BOX", "address": {"city": "TALLAHASSEE", "state": "FL", "street": "1845 N M L KING JR BLVD", "postcode": "32315"}}},
{"geometry": {"type": "Point", "coordinates": [-84.280647984, 30.4397710683]}, "type": "Feature", "properties": {"collection_times": [{"days": "Mon-Fri", "time": "5:30pm"}, {"days": "Sat", "time": "12:30pm"}, {"days": "Sun", "time": "Closed"}], "id": "3231500006", "name": "USPS COLLECTION BOX - PO LOBBY", "address": {"city": "TALLAHASSEE", "state": "FL", "street": "1845 N M L KING JR BLVD", "postcode": "32315"}}},
{"geometry": {"type": "Point", "coordinates": [-84.280647984, 30.4397710683]}, "type": "Feature", "properties": {"collection_times": [{"days": "Mon-Fri", "time": "5:30pm"}, {"days": "Sat", "time": "12:30pm"}, {"days": "Sun", "time": "Closed"}], "id": "3231500007", "name": "USPS COLLECTION BOX - BLUE BOX", "address": {"city": "TALLAHASSEE", "state": "FL", "street": "1845 N M L KING JR BLVD", "postcode": "32315"}}},
{"geometry": {"type": "Point", "coordinates": [-84.1521645477, 30.4835610034]}, "type": "Feature", "properties": {"collection_times": [{"days": "Mon-Fri", "time": "3:15pm"}, {"days": "Sat", "time": "11:30am"}, {"days": "Sun", "time": "Closed"}], "id": "3231700001", "name": "USPS COLLECTION BOX - BLUE BOX", "address": {"city": "TALLAHASSEE", "state": "FL", "street": "1700 SUMMIT LAKE DR", "postcode": "32317"}}},
{"geometry": {"type": "Point", "coordinates": [-84.1521645477, 30.4835610034]}, "type": "Feature", "properties": {"collection_times": [{"days": "Mon-Fri", "time": "3:15pm"}, {"days": "Sat", "time": "11:30am"}, {"days": "Sun", "time": "Closed"}], "id": "3231700002", "name": "USPS COLLECTION BOX - BLUE BOX", "address": {"city": "TALLAHASSEE", "state": "FL", "street": "1700 SUMMIT LAKE DR", "postcode": "32317"}}},
{"geometry": {"type": "Point", "coordinates": [-84.9837706358, 29.7270240788]}, "type": "Feature", "properties": {"collection_times": [{"days": "Mon-Fri", "time": "4:00pm"}, {"days": "Sat", "time": "12:00pm"}, {"days": "Sun", "time": "Closed"}], "id": "3232000002", "name": "USPS COLLECTION BOX - BLUE BOX", "address": {"city": "APALACHICOLA", "state": "FL", "street": "20 AVENUE D", "postcode": "32320"}}},
{"geometry": {"type": "Point", "coordinates": [-84.9837706358, 29.7270240788]}, "type": "Feature", "properties": {"collection_times": [{"days": "Mon-Fri", "time": "4:00pm"}, {"days": "Sat", "time": "12:00pm"}, {"days": "Sun", "time": "Closed"}], "id": "3232000006", "name": "USPS COLLECTION BOX - PO LOBBY", "address": {"city": "APALACHICOLA", "state": "FL", "street": "20 AVENUE D", "postcode": "32320"}}},
{"geometry": {"type": "Point", "coordinates": [-84.9909779352, 30.2807739289]}, "type": "Feature", "properties": {"collection_times": [{"days": "Mon-Fri", "time": "3:00pm"}, {"days": "Sat", "time": "12:00pm"}, {"days": "Sun", "time": "Closed"}], "id": "3232100001", "name": "USPS COLLECTION BOX - BLUE BOX", "address": {"city": "BRISTOL", "state": "FL", "street": "12587 NW VIRGINIA G WEAVER ST", "postcode": "32321"}}},
{"geometry": {"type": "Point", "coordinates": [-84.9909779352, 30.2807739289]}, "type": "Feature", "properties": {"collection_times": [{"days": "Mon-Fri", "time": "3:00pm"}, {"days": "Sat", "time": "12:00pm"}, {"days": "Sun", "time": "Closed"}], "id": "3232100002", "name": "USPS COLLECTION BOX - PO LOBBY", "address": {"city": "BRISTOL", "state": "FL", "street": "12587 NW VIRGINIA G WEAVER ST", "postcode": "32321"}}},
{"geometry": {"type": "Point", "coordinates": [-84.9909779352, 30.2807739289]}, "type": "Feature", "properties": {"collection_times": [{"days": "Mon-Sat", "time": "2:00pm"}, {"days": "Sun", "time": "Closed"}], "id": "3232100003", "name": "USPS COLLECTION BOX - BLUE BOX", "address": {"city": "BRISTOL", "state": "FL", "street": "46041 SW SR 65", "postcode": "32321"}}},
{"geometry": {"type": "Point", "coordinates": [-84.9708473196, 30.4317687733]}, "type": "Feature", "properties": {"collection_times": [{"days": "Mon-Sat", "time": "1:30pm"}, {"days": "Sun", "time": "Closed"}], "id": "3232100004", "name": "USPS COLLECTION BOX - BLUE BOX", "address": {"city": "BRISTOL", "state": "FL", "street": "11325 NW STATE ROAD 20", "postcode": "32321"}}},
{"geometry": {"type": "Point", "coordinates": [-84.6646993603, 29.8518137684]}, "type": "Feature", "properties": {"collection_times": [{"days": "Mon-Fri", "time": "4:00pm"}, {"days": "Sat", "time": "12:00pm"}, {"days": "Sun", "time": "Closed"}], "id": "3232200000", "name": "USPS COLLECTION BOX - BLUE BOX", "address": {"city": "CARRABELLE", "state": "FL", "street": "93 TALLAHASSEE ST", "postcode": "32322"}}},
{"geometry": {"type": "Point", "coordinates": [-84.6646993603, 29.8518137684]}, "type": "Feature", "properties": {"collection_times": [{"days": "Mon-Fri", "time": "4:00pm"}, {"days": "Sat", "time": "12:00pm"}, {"days": "Sun", "time": "Closed"}], "id": "3232200001", "name": "USPS COLLECTION BOX - PO LOBBY", "address": {"city": "CARRABELLE", "state": "FL", "street": "93 TALLAHASSEE ST", "postcode": "32322"}}},
{"geometry": {"type": "Point", "coordinates": [-84.6646993603, 29.8518137684]}, "type": "Feature", "properties": {"collection_times": [{"days": "Mon-Fri", "time": "4:00pm"}, {"days": "Sat", "time": "12:00pm"}, {"days": "Sun", "time": "Closed"}], "id": "3232200002", "name": "USPS COLLECTION BOX - PO LOBBY", "address": {"city": "CARRABELLE", "state": "FL", "street": "93 TALLAHASSEE ST", "postcode": "32322"}}},
{"geometry": {"type": "Point", "coordinates": [-84.6609636756, 29.9173172317]}, "type": "Feature", "properties": {"collection_times": [{"days": "Mon-Sat", "time": "10:30am"}, {"days": "Sun", "time": "Closed"}], "id": "3232200003", "name": "USPS COLLECTION BOX - BLUE BOX", "address": {"city": "CARRABELLE", "state": "FL", "street": "156B HEFFERNAN DR", "postcode": "32322"}}},
{"geometry": {"type": "Point", "coordinates": [-84.8463381174, 30.7037710128]}, "type": "Feature", "properties": {"collection_times": [{"days": "Mon-Fri", "time": "2:00pm"}, {"days": "Sat", "time": "10:00am"}, {"days": "Sun", "time": "Closed"}], "id": "3232400000", "name": "USPS COLLECTION BOX - BLUE BOX", "address": {"city": "CHATTAHOOCHEE", "state": "FL", "street": "35 JEFFERSON ST", "postcode": "32324"}}},
{"geometry": {"type": "Point", "coordinates": [-84.8333885375, 30.6822390537]}, "type": "Feature", "properties": {"collection_times": [{"days": "Mon-Sat", "time": "10:00am"}, {"days": "Sun", "time": "Closed"}], "id": "3232400002", "name": "USPS COLLECTION BOX - BLUE BOX", "address": {"city": "CHATTAHOOCHEE", "state": "FL", "street": "424 LINE ST", "postcode": "32324"}}},
{"geometry": {"type": "Point", "coordinates": [-84.8442024238, 30.7050049497]}, "type": "Feature", "properties": {"collection_times": [{"days": "Mon-Fri", "time": "4:00pm"}, {"days": "Sat", "time": "12:00pm"}, {"days": "Sun", "time": "Closed"}], "id": "3232400003", "name": "USPS COLLECTION BOX - PO LOBBY", "address": {"city": "CHATTAHOOCHEE", "state": "FL", "street": "116 W WASHINGTON ST", "postcode": "32324"}}},
{"geometry": {"type": "Point", "coordinates": [-84.8442024238, 30.7050049497]}, "type": "Feature", "properties": {"collection_times": [{"days": "Mon-Fri", "time": "4:00pm"}, {"days": "Sat", "time": "12:00pm"}, {"days": "Sun", "time": "Closed"}], "id": "3232400005", "name": "USPS COLLECTION BOX - BLUE BOX", "address": {"city": "CHATTAHOOCHEE", "state": "FL", "street": "116 W WASHINGTON ST", "postcode": "32324"}}},
{"geometry": {"type": "Point", "coordinates": [-84.3754058378, 30.1762335173]}, "type": "Feature", "properties": {"collection_times": [{"days": "Mon-Fri", "time": "2:00pm"}, {"days": "Sat", "time": "12:00pm"}, {"days": "Sun", "time": "Closed"}], "id": "3232700001", "name": "USPS COLLECTION BOX - BLUE BOX", "address": {"city": "CRAWFORDVILLE", "state": "FL", "street": "11 ARRAN RD", "postcode": "32327"}}},
{"geometry": {"type": "Point", "coordinates": [-84.373835954, 30.1936510605]}, "type": "Feature", "properties": {"collection_times": [{"days": "Mon-Fri", "time": "4:30pm"}, {"days": "Sat", "time": "12:00pm"}, {"days": "Sun", "time": "Closed"}], "id": "3232700006", "name": "USPS COLLECTION BOX - BLUE BOX", "address": {"city": "CRAWFORDVILLE", "state": "FL", "street": "606 WAKULLA ARRAN RD", "postcode": "32327"}}},
{"geometry": {"type": "Point", "coordinates": [-84.373835954, 30.1936510605]}, "type": "Feature", "properties": {"collection_times": [{"days": "Mon-Fri", "time": "4:30pm"}, {"days": "Sat", "time": "12:00pm"}, {"days": "Sun", "time": "Closed"}], "id": "3232700007", "name": "USPS COLLECTION BOX - BLUE BOX", "address": {"city": "CRAWFORDVILLE", "state": "FL", "street": "606 WAKULLA ARRAN RD", "postcode": "32327"}}},
{"geometry": {"type": "Point", "coordinates": [-84.373835954, 30.1936510605]}, "type": "Feature", "properties": {"collection_times": [{"days": "Mon-Fri", "time": "4:30pm"}, {"days": "Sat", "time": "12:00pm"}, {"days": "Sun", "time": "Closed"}], "id": "3232700008", "name": "USPS COLLECTION BOX - PO LOBBY", "address": {"city": "CRAWFORDVILLE", "state": "FL", "street": "606 WAKULLA ARRAN RD", "postcode": "32327"}}},
{"geometry": {"type": "Point", "coordinates": [-84.373835954, 30.1936510605]}, "type": "Feature", "properties": {"collection_times": [{"days": "Mon-Fri", "time": "4:30pm"}, {"days": "Sat", "time": "12:00pm"}, {"days": "Sun", "time": "Closed"}], "id": "3232700009", "name": "USPS COLLECTION BOX - PO LOBBY", "address": {"city": "CRAWFORDVILLE", "state": "FL", "street": "606 WAKULLA ARRAN RD", "postcode": "32327"}}},
{"geometry": {"type": "Point", "coordinates": [-84.8792087095, 29.7367175329]}, "type": "Feature", "properties": {"collection_times": [{"days": "Mon-Fri", "time": "4:00pm"}, {"days": "Sat", "time": "12:00pm"}, {"days": "Sun", "time": "Closed"}], "id": "3232800000", "name": "USPS COLLECTION BOX - BLUE BOX", "address": {"city": "EASTPOINT", "state": "FL", "street": "353 US HIGHWAY 98", "postcode": "32328"}}},
{"geometry": {"type": "Point", "coordinates": [-84.8636711518, 29.663779119]}, "type": "Feature", "properties": {"collection_times": [{"days": "Mon-Sat", "time": "12:30pm"}, {"days": "Sun", "time": "Closed"}], "id": "3232800001", "name": "USPS COLLECTION BOX - BLUE BOX", "address": {"city": "EASTPOINT", "state": "FL", "street": "244 FRANKLIN BLVD", "postcode": "32328"}}},
{"geometry": {"type": "Point", "coordinates": [-84.8613868042, 29.6650559022]}, "type": "Feature", "properties": {"collection_times": [{"days": "Mon-Sat", "time": "12:30pm"}, {"days": "Sun", "time": "Closed"}], "id": "3232800002", "name": "USPS COLLECTION BOX - BLUE BOX", "address": {"city": "EASTPOINT", "state": "FL", "street": "140 E PINE AVE", "postcode": "32328"}}},
{"geometry": {"type": "Point", "coordinates": [-84.8792087095, 29.7367175329]}, "type": "Feature", "properties": {"collection_times": [{"days": "Mon-Fri", "time": "4:00pm"}, {"days": "Sat", "time": "12:00pm"}, {"days": "Sun", "time": "Closed"}], "id": "3232800003", "name": "USPS COLLECTION BOX - PO LOBBY", "address": {"city": "EASTPOINT", "state": "FL", "street": "353 US HIGHWAY 98", "postcode": "32328"}}},
{"geometry": {"type": "Point", "coordinates": [-84.8792087095, 29.7367175329]}, "type": "Feature", "properties": {"collection_times": [{"days": "Mon-Fri", "time": "4:00pm"}, {"days": "Sat", "time": "12:00pm"}, {"days": "Sun", "time": "Closed"}], "id": "3232800004", "name": "USPS COLLECTION BOX - PO LOBBY", "address": {"city": "EASTPOINT", "state": "FL", "street": "353 US HIGHWAY 98", "postcode": "32328"}}},
{"geometry": {"type": "Point", "coordinates": [-84.8792087095, 29.7367175329]}, "type": "Feature", "properties": {"collection_times": [{"days": "Mon-Sat", "time": "7:00am"}, {"days": "Sun", "time": "Closed"}], "id": "3232800005", "name": "USPS COLLECTION BOX - PO LOBBY", "address": {"city": "EASTPOINT", "state": "FL", "street": "353 US HIGHWAY 98", "postcode": "32328"}}},
{"geometry": {"type": "Point", "coordinates": [-84.7433250617, 30.5686001775]}, "type": "Feature", "properties": {"collection_times": [{"days": "Mon-Fri", "time": "4:00pm"}, {"days": "Sat", "time": "12:00pm"}, {"days": "Sun", "time": "Closed"}], "id": "3233000000", "name": "USPS COLLECTION BOX - BLUE BOX", "address": {"city": "GREENSBORO", "state": "FL", "street": "191 GREEN AVE", "postcode": "32330"}}},
{"geometry": {"type": "Point", "coordinates": [-84.7433250617, 30.5686001775]}, "type": "Feature", "properties": {"collection_times": [{"days": "Mon-Fri", "time": "4:00pm"}, {"days": "Sat", "time": "12:00pm"}, {"days": "Sun", "time": "Closed"}], "id": "3233000001", "name": "USPS COLLECTION BOX - PO LOBBY", "address": {"city": "GREENSBORO", "state": "FL", "street": "191 GREEN AVE", "postcode": "32330"}}},
{"geometry": {"type": "Point", "coordinates": [-83.6296840328, 30.4291109881]}, "type": "Feature", "properties": {"collection_times": [{"days": "Mon-Fri", "time": "4:30pm"}, {"days": "Sat", "time": "11:30am"}, {"days": "Sun", "time": "Closed"}], "id": "3233100000", "name": "USPS COLLECTION BOX - BLUE BOX", "address": {"city": "GREENVILLE", "state": "FL", "street": "13626 W US 90", "postcode": "32331"}}},
{"geometry": {"type": "Point", "coordinates": [-83.6296840328, 30.4291109881]}, "type": "Feature", "properties": {"collection_times": [{"days": "Mon-Fri", "time": "4:30pm"}, {"days": "Sat", "time": "11:30am"}, {"days": "Sun", "time": "Closed"}], "id": "3233100002", "name": "USPS COLLECTION BOX - PO LOBBY", "address": {"city": "GREENVILLE", "state": "FL", "street": "13626 W US 90", "postcode": "32331"}}},
{"geometry": {"type": "Point", "coordinates": [-83.640357731, 30.4711839943]}, "type": "Feature", "properties": {"collection_times": [{"days": "Mon-Sat", "time": "11:00am"}, {"days": "Sun", "time": "Closed"}], "id": "3233100006", "name": "USPS COLLECTION BOX - BLUE BOX", "address": {"city": "GREENVILLE", "state": "FL", "street": "3713 ALTON WENTWORTH RD", "postcode": "32331"}}},
{"geometry": {"type": "Point", "coordinates": [-84.6630867671, 30.6178345031]}, "type": "Feature", "properties": {"collection_times": [{"days": "Mon-Fri", "time": "4:30pm"}, {"days": "Sat", "time": "12:00pm"}, {"days": "Sun", "time": "Closed"}], "id": "3233200001", "name": "USPS COLLECTION BOX - BLUE BOX", "address": {"city": "GRETNA", "state": "FL", "street": "14678 MAIN ST", "postcode": "32332"}}},
{"geometry": {"type": "Point", "coordinates": [-84.6630867671, 30.6178345031]}, "type": "Feature", "properties": {"collection_times": [{"days": "Mon-Fri", "time": "4:30pm"}, {"days": "Sat", "time": "12:00pm"}, {"days": "Sun", "time": "Closed"}], "id": "3233200002", "name": "USPS COLLECTION BOX - PO LOBBY", "address": {"city": "GRETNA", "state": "FL", "street": "14678 MAIN ST", "postcode": "32332"}}},
{"geometry": {"type": "Point", "coordinates": [-84.4293840917, 30.6199792675]}, "type": "Feature", "properties": {"collection_times": [{"days": "Mon-Fri", "time": "5:00pm"}, {"days": "Sat", "time": "12:00pm"}, {"days": "Sun", "time": "Closed"}], "id": "3233300000", "name": "USPS COLLECTION BOX - PO LOBBY", "address": {"city": "HAVANA", "state": "FL", "street": "9080 HAVANA HWY", "postcode": "32333"}}},
{"geometry": {"type": "Point", "coordinates": [-84.4293840917, 30.6199792675]}, "type": "Feature", "properties": {"collection_times": [{"days": "Mon-Fri", "time": "5:00pm"}, {"days": "Sat", "time": "12:00pm"}, {"days": "Sun", "time": "Closed"}], "id": "3233300001", "name": "USPS COLLECTION BOX - BLUE BOX", "address": {"city": "HAVANA", "state": "FL", "street": "9080 HAVANA HWY", "postcode": "32333"}}},
{"geometry": {"type": "Point", "coordinates": [-84.4151831252, 30.6304254204]}, "type": "Feature", "properties": {"collection_times": [{"days": "Mon-Sat", "time": "12:00pm"}, {"days": "Sun", "time": "Closed"}], "id": "3233300002", "name": "USPS COLLECTION BOX - BLUE BOX", "address": {"city": "HAVANA", "state": "FL", "street": "711 N MAIN ST", "postcode": "32333"}}},
{"geometry": {"type": "Point", "coordinates": [-84.7984567895, 30.389687823]}, "type": "Feature", "properties": {"collection_times": [{"days": "Mon-Fri", "time": "3:00pm"}, {"days": "Sat", "time": "11:00am"}, {"days": "Sun", "time": "Closed"}], "id": "3233400000", "name": "USPS COLLECTION BOX - BLUE BOX", "address": {"city": "HOSFORD", "state": "FL", "street": "16827 NE STATE ROAD 65", "postcode": "32334"}}},
{"geometry": {"type": "Point", "coordinates": [-84.7984567895, 30.389687823]}, "type": "Feature", "properties": {"collection_times": [{"days": "Mon-Fri", "time": "3:00pm"}, {"days": "Sat", "time": "11:00am"}, {"days": "Sun", "time": "Closed"}], "id": "3233400001", "name": "USPS COLLECTION BOX - PO LOBBY", "address": {"city": "HOSFORD", "state": "FL", "street": "16827 NE STATE ROAD 65", "postcode": "32334"}}},
{"geometry": {"type": "Point", "coordinates": [-84.7984567895, 30.389687823]}, "type": "Feature", "properties": {"collection_times": [{"days": "Mon-Fri", "time": "3:00pm"}, {"days": "Sat", "time": "11:00am"}, {"days": "Sun", "time": "Closed"}], "id": "3233400002", "name": "USPS COLLECTION BOX - PO LOBBY", "address": {"city": "HOSFORD", "state": "FL", "street": "16827 NE STATE ROAD 65", "postcode": "32334"}}},
{"geometry": {"type": "Point", "coordinates": [-83.9333555174, 30.2728274783]}, "type": "Feature", "properties": {"collection_times": [{"days": "Mon-Fri", "time": "11:00am"}, {"days": "Sat", "time": "8:00am"}, {"days": "Sun", "time": "Closed"}], "id": "3233600000", "name": "USPS COLLECTION BOX - BLUE BOX", "address": {"city": "LAMONT", "state": "FL", "street": "6244 E CAPPS HWY", "postcode": "32336"}}},
{"geometry": {"type": "Point", "coordinates": [-83.9333555174, 30.2728274783]}, "type": "Feature", "properties": {"collection_times": [{"days": "Mon-Fri", "time": "11:00am"}, {"days": "Sat", "time": "8:00am"}, {"days": "Sun", "time": "Closed"}], "id": "3233600001", "name": "USPS COLLECTION BOX - PO LOBBY", "address": {"city": "LAMONT", "state": "FL", "street": "6244 E CAPPS HWY", "postcode": "32336"}}},
{"geometry": {"type": "Point", "coordinates": [-84.0215580985, 30.478031723]}, "type": "Feature", "properties": {"collection_times": [{"days": "Mon-Sat", "time": "12:00pm"}, {"days": "Sun", "time": "Closed"}], "id": "3233700000", "name": "USPS COLLECTION BOX - BLUE BOX", "address": {"city": "LLOYD", "state": "FL", "street": "PO BOX 9998", "postcode": "32337"}}},
{"geometry": {"type": "Point", "coordinates": [-84.0215580985, 30.478031723]}, "type": "Feature", "properties": {"collection_times": [{"days": "Mon-Sat", "time": "12:00pm"}, {"days": "Sun", "time": "Closed"}], "id": "3233700001", "name": "USPS COLLECTION BOX - PO LOBBY", "address": {"city": "LLOYD", "state": "FL", "street": "PO BOX 9998", "postcode": "32337"}}},
{"geometry": {"type": "Point", "coordinates": [-83.4139112521, 30.4686463603]}, "type": "Feature", "properties": {"collection_times": [{"days": "Mon-Fri", "time": "5:00pm"}, {"days": "Sat", "time": "4:00pm"}, {"days": "Sun", "time": "Closed"}], "id": "3234000000", "name": "USPS COLLECTION BOX - BLUE BOX", "address": {"city": "MADISON", "state": "FL", "street": "197 SW PINCKNEY ST", "postcode": "32340"}}},
{"geometry": {"type": "Point", "coordinates": [-83.4139112521, 30.4686463603]}, "type": "Feature", "properties": {"collection_times": [{"days": "Mon-Fri", "time": "5:00pm"}, {"days": "Sat", "time": "4:00pm"}, {"days": "Sun", "time": "Closed"}], "id": "3234000001", "name": "USPS COLLECTION BOX - BLUE BOX", "address": {"city": "MADISON", "state": "FL", "street": "197 SW PINCKNEY ST", "postcode": "32340"}}},
{"geometry": {"type": "Point", "coordinates": [-83.4107508324, 30.4678128282]}, "type": "Feature", "properties": {"collection_times": [{"days": "Mon-Sat", "time": "12:00pm"}, {"days": "Sun", "time": "Closed"}], "id": "3234000002", "name": "USPS COLLECTION BOX - BLUE BOX", "address": {"city": "MADISON", "state": "FL", "street": "321 SW RUTLEDGE ST", "postcode": "32340"}}},
{"geometry": {"type": "Point", "coordinates": [-83.4139112521, 30.4686463603]}, "type": "Feature", "properties": {"collection_times": [{"days": "Mon-Fri", "time": "5:00pm"}, {"days": "Sat", "time": "4:00pm"}, {"days": "Sun", "time": "Closed"}], "id": "3234000006", "name": "USPS COLLECTION BOX - PO LOBBY", "address": {"city": "MADISON", "state": "FL", "street": "197 SW PINCKNEY ST", "postcode": "32340"}}},
{"geometry": {"type": "Point", "coordinates": [-83.4139112521, 30.4686463603]}, "type": "Feature", "properties": {"collection_times": [{"days": "Mon-Fri", "time": "5:00pm"}, {"days": "Sat", "time": "4:00pm"}, {"days": "Sun", "time": "Closed"}], "id": "3234000007", "name": "USPS COLLECTION BOX - PO LOBBY", "address": {"city": "MADISON", "state": "FL", "street": "197 SW PINCKNEY ST", "postcode": "32340"}}},
{"geometry": {"type": "Point", "coordinates": [-83.4139112521, 30.4686463603]}, "type": "Feature", "properties": {"collection_times": [{"days": "Mon-Fri", "time": "5:00pm"}, {"days": "Sat", "time": "4:00pm"}, {"days": "Sun", "time": "Closed"}], "id": "3234000008", "name": "USPS COLLECTION BOX - PO LOBBY", "address": {"city": "MADISON", "state": "FL", "street": "197 SW PINCKNEY ST", "postcode": "32340"}}},
{"geometry": {"type": "Point", "coordinates": [-84.4548639076, 30.5067853059]}, "type": "Feature", "properties": {"collection_times": [{"days": "Mon-Fri", "time": "4:30pm"}, {"days": "Sat", "time": "11:30am"}, {"days": "Sun", "time": "Closed"}], "id": "3234300002", "name": "USPS COLLECTION BOX - BLUE BOX", "address": {"city": "MIDWAY", "state": "FL", "street": "31000 BLUE STAR HWY", "postcode": "32343"}}},
{"geometry": {"type": "Point", "coordinates": [-84.4548639076, 30.5067853059]}, "type": "Feature", "properties": {"collection_times": [{"days": "Mon-Fri", "time": "4:30pm"}, {"days": "Sat", "time": "11:30am"}, {"days": "Sun", "time": "Closed"}], "id": "3234300003", "name": "USPS COLLECTION BOX - PO LOBBY", "address": {"city": "MIDWAY", "state": "FL", "street": "31000 BLUE STAR HWY", "postcode": "32343"}}},
{"geometry": {"type": "Point", "coordinates": [-84.4548639076, 30.5067853059]}, "type": "Feature", "properties": {"collection_times": [{"days": "Mon-Fri", "time": "4:30pm"}, {"days": "Sat", "time": "11:30am"}, {"days": "Sun", "time": "Closed"}], "id": "3234300004", "name": "USPS COLLECTION BOX - PO LOBBY", "address": {"city": "MIDWAY", "state": "FL", "street": "31000 BLUE STAR HWY", "postcode": "32343"}}},
{"geometry": {"type": "Point", "coordinates": [-84.4548639076, 30.5067853059]}, "type": "Feature", "properties": {"collection_times": [{"days": "Mon-Fri", "time": "4:30pm"}, {"days": "Sat", "time": "11:30am"}, {"days": "Sun", "time": "Closed"}], "id": "3234300006", "name": "USPS COLLECTION BOX - BLUE BOX", "address": {"city": "MIDWAY", "state": "FL", "street": "31000 BLUE STAR HWY", "postcode": "32343"}}},
{"geometry": {"type": "Point", "coordinates": [-83.8702105362, 30.5464162412]}, "type": "Feature", "properties": {"collection_times": [{"days": "Mon-Sat", "time": "5:00pm"}, {"days": "Sun", "time": "Closed"}], "id": "3234400000", "name": "USPS COLLECTION BOX - BLUE BOX", "address": {"city": "MONTICELLO", "state": "FL", "street": "275 N JEFFERSON ST", "postcode": "32344"}}},
{"geometry": {"type": "Point", "coordinates": [-83.8702105362, 30.5464162412]}, "type": "Feature", "properties": {"collection_times": [{"days": "Mon-Sat", "time": "5:00pm"}, {"days": "Sun", "time": "Closed"}], "id": "3234400001", "name": "USPS COLLECTION BOX - BLUE BOX", "address": {"city": "MONTICELLO", "state": "FL", "street": "275 N JEFFERSON ST", "postcode": "32344"}}},
{"geometry": {"type": "Point", "coordinates": [-83.8701324767, 30.5358605486]}, "type": "Feature", "properties": {"collection_times": [{"days": "Mon-Sat", "time": "10:00am"}, {"days": "Sun", "time": "Closed"}], "id": "3234400003", "name": "USPS COLLECTION BOX - BLUE BOX", "address": {"city": "MONTICELLO", "state": "FL", "street": "1200 S JEFFERSON ST", "postcode": "32344"}}},
{"geometry": {"type": "Point", "coordinates": [-83.8702105362, 30.5464162412]}, "type": "Feature", "properties": {"collection_times": [{"days": "Mon-Fri", "time": "5:00pm"}, {"days": "Sat", "time": "12:00pm"}, {"days": "Sun", "time": "Closed"}], "id": "3234400009", "name": "USPS COLLECTION BOX - PO LOBBY", "address": {"city": "MONTICELLO", "state": "FL", "street": "275 N JEFFERSON ST", "postcode": "32344"}}},
{"geometry": {"type": "Point", "coordinates": [-83.8702105362, 30.5464162412]}, "type": "Feature", "properties": {"collection_times": [{"days": "Mon-Fri", "time": "5:00pm"}, {"days": "Sat", "time": "12:00pm"}, {"days": "Sun", "time": "Closed"}], "id": "3234400010", "name": "USPS COLLECTION BOX - PO LOBBY", "address": {"city": "MONTICELLO", "state": "FL", "street": "275 N JEFFERSON ST", "postcode": "32344"}}},
{"geometry": {"type": "Point", "coordinates": [-84.3904820335, 30.0318928052]}, "type": "Feature", "properties": {"collection_times": [{"days": "Mon-Fri", "time": "4:30pm"}, {"days": "Sat", "time": "11:30am"}, {"days": "Sun", "time": "Closed"}], "id": "3234600000", "name": "USPS COLLECTION BOX - BLUE BOX", "address": {"city": "PANACEA", "state": "FL", "street": "1444 COASTAL HWY", "postcode": "32346"}}},
{"geometry": {"type": "Point", "coordinates": [-84.3904820335, 30.0318928052]}, "type": "Feature", "properties": {"collection_times": [{"days": "Mon-Fri", "time": "4:30pm"}, {"days": "Sat", "time": "11:30am"}, {"days": "Sun", "time": "Closed"}], "id": "3234600001", "name": "USPS COLLECTION BOX - PO LOBBY", "address": {"city": "PANACEA", "state": "FL", "street": "1444 COASTAL HWY", "postcode": "32346"}}},
{"geometry": {"type": "Point", "coordinates": [-83.5819796288, 30.1172231607]}, "type": "Feature", "properties": {"collection_times": [{"days": "Mon-Fri", "time": "3:00pm"}, {"days": "Sat", "time": "10:00am"}, {"days": "Sun", "time": "Closed"}], "id": "3234700006", "name": "USPS COLLECTION BOX - BLUE BOX", "address": {"city": "PERRY", "state": "FL", "street": "108 N JEFFERSON ST", "postcode": "32347"}}},
{"geometry": {"type": "Point", "coordinates": [-83.5822168478, 30.1049617289]}, "type": "Feature", "properties": {"collection_times": [{"days": "Mon-Fri", "time": "5:00pm"}, {"days": "Sat", "time": "12:00pm"}, {"days": "Sun", "time": "Closed"}], "id": "3234800001", "name": "USPS COLLECTION BOX - BLUE BOX", "address": {"city": "PERRY", "state": "FL", "street": "1600 S JEFFERSON ST", "postcode": "32348"}}},
{"geometry": {"type": "Point", "coordinates": [-83.5822168478, 30.1049617289]}, "type": "Feature", "properties": {"collection_times": [{"days": "Mon-Fri", "time": "5:00pm"}, {"days": "Sat", "time": "12:00pm"}, {"days": "Sun", "time": "Closed"}], "id": "3234800002", "name": "USPS COLLECTION BOX - BLUE BOX", "address": {"city": "PERRY", "state": "FL", "street": "1600 S JEFFERSON ST", "postcode": "32348"}}},
{"geometry": {"type": "Point", "coordinates": [-83.5822168478, 30.1049617289]}, "type": "Feature", "properties": {"collection_times": [{"days": "Mon-Fri", "time": "5:00pm"}, {"days": "Sat", "time": "12:00pm"}, {"days": "Sun", "time": "Closed"}], "id": "3234800003", "name": "USPS COLLECTION BOX - PO LOBBY", "address": {"city": "PERRY", "state": "FL", "street": "1600 S JEFFERSON ST", "postcode": "32348"}}},
{"geometry": {"type": "Point", "coordinates": [-83.5822168478, 30.1049617289]}, "type": "Feature", "properties": {"collection_times": [{"days": "Mon-Fri", "time": "5:00pm"}, {"days": "Sat", "time": "12:00pm"}, {"days": "Sun", "time": "Closed"}], "id": "3234800004", "name": "USPS COLLECTION BOX - PO LOBBY", "address": {"city": "PERRY", "state": "FL", "street": "1600 S JEFFERSON ST", "postcode": "32348"}}},
{"geometry": {"type": "Point", "coordinates": [-83.3296383915, 30.5914513045]}, "type": "Feature", "properties": {"collection_times": [{"days": "Mon-Fri", "time": "12:00pm"}, {"days": "Sat", "time": "11:00am"}, {"days": "Sun", "time": "Closed"}], "id": "3235000000", "name": "USPS COLLECTION BOX - BLUE BOX", "address": {"city": "PINETTA", "state": "FL", "street": "115 NE POPLAR AVE", "postcode": "32350"}}},
{"geometry": {"type": "Point", "coordinates": [-83.3296383915, 30.5914513045]}, "type": "Feature", "properties": {"collection_times": [{"days": "Mon-Fri", "time": "12:00pm"}, {"days": "Sat", "time": "11:00am"}, {"days": "Sun", "time": "Closed"}], "id": "3235000001", "name": "USPS COLLECTION BOX - PO LOBBY", "address": {"city": "PINETTA", "state": "FL", "street": "115 NE POPLAR AVE", "postcode": "32350"}}},
{"geometry": {"type": "Point", "coordinates": [-83.3296383915, 30.5914513045]}, "type": "Feature", "properties": {"collection_times": [{"days": "Mon-Fri", "time": "12:00pm"}, {"days": "Sat", "time": "11:00am"}, {"days": "Sun", "time": "Closed"}], "id": "3235000002", "name": "USPS COLLECTION BOX - PO LOBBY", "address": {"city": "PINETTA", "state": "FL", "street": "115 NE POPLAR AVE", "postcode": "32350"}}},
{"geometry": {"type": "Point", "coordinates": [-84.5757127151, 30.5892363404]}, "type": "Feature", "properties": {"collection_times": [{"days": "Mon-Fri", "time": "3:00pm"}, {"days": "Sat", "time": "12:00pm"}, {"days": "Sun", "time": "Closed"}], "id": "3235100001", "name": "USPS COLLECTION BOX - BLUE BOX", "address": {"city": "QUINCY", "state": "FL", "street": "103 N MADISON ST", "postcode": "32351"}}},
{"geometry": {"type": "Point", "coordinates": [-84.5961277824, 30.5865284686]}, "type": "Feature", "properties": {"collection_times": [{"days": "Mon-Fri", "time": "3:00pm"}, {"days": "Sat", "time": "12:00pm"}, {"days": "Sun", "time": "Closed"}], "id": "3235100002", "name": "USPS COLLECTION BOX - BLUE BOX", "address": {"city": "QUINCY", "state": "FL", "street": "1600 W JEFFERSON ST", "postcode": "32351"}}},
{"geometry": {"type": "Point", "coordinates": [-84.5893801872, 30.5879526032]}, "type": "Feature", "properties": {"collection_times": [{"days": "Mon-Fri", "time": "3:00pm"}, {"days": "Sat", "time": "12:00pm"}, {"days": "Sun", "time": "Closed"}], "id": "3235100003", "name": "USPS COLLECTION BOX - BLUE BOX", "address": {"city": "QUINCY", "state": "FL", "street": "1107 W JEFFERSON ST", "postcode": "32351"}}},
{"geometry": {"type": "Point", "coordinates": [-84.5770262505, 30.5892298564]}, "type": "Feature", "properties": {"collection_times": [{"days": "Mon-Fri", "time": "3:00pm"}, {"days": "Sat", "time": "12:00pm"}, {"days": "Sun", "time": "Closed"}], "id": "3235100005", "name": "USPS COLLECTION BOX - BLUE BOX", "address": {"city": "QUINCY", "state": "FL", "street": "102 N ADAMS ST", "postcode": "32351"}}},
{"geometry": {"type": "Point", "coordinates": [-84.5837543471, 30.5879809502]}, "type": "Feature", "properties": {"collection_times": [{"days": "Mon-Fri", "time": "1:00pm"}, {"days": "Sat", "time": "12:00pm"}, {"days": "Sun", "time": "Closed"}], "id": "3235100007", "name": "USPS COLLECTION BOX - BLUE BOX", "address": {"city": "QUINCY", "state": "FL", "street": "6 S KEY ST", "postcode": "32351"}}},
{"geometry": {"type": "Point", "coordinates": [-84.5928868677, 30.574816757]}, "type": "Feature", "properties": {"collection_times": [{"days": "Mon-Fri", "time": "5:00pm"}, {"days": "Sat", "time": "12:00pm"}, {"days": "Sun", "time": "Closed"}], "id": "3235100008", "name": "USPS COLLECTION BOX - BLUE BOX", "address": {"city": "QUINCY", "state": "FL", "street": "772 S PAT THOMAS PKWY", "postcode": "32351"}}},
{"geometry": {"type": "Point", "coordinates": [-84.5928868677, 30.574816757]}, "type": "Feature", "properties": {"collection_times": [{"days": "Mon-Fri", "time": "5:00pm"}, {"days": "Sat", "time": "12:00pm"}, {"days": "Sun", "time": "Closed"}], "id": "3235100009", "name": "USPS COLLECTION BOX - BLUE BOX", "address": {"city": "QUINCY", "state": "FL", "street": "772 S PAT THOMAS PKWY", "postcode": "32351"}}},
{"geometry": {"type": "Point", "coordinates": [-84.5928868677, 30.574816757]}, "type": "Feature", "properties": {"collection_times": [{"days": "Mon-Fri", "time": "5:00pm"}, {"days": "Sat", "time": "12:00pm"}, {"days": "Sun", "time": "Closed"}], "id": "3235100010", "name": "USPS COLLECTION BOX - BLUE BOX", "address": {"city": "QUINCY", "state": "FL", "street": "772 S PAT THOMAS PKWY", "postcode": "32351"}}},
{"geometry": {"type": "Point", "coordinates": [-84.5928868677, 30.574816757]}, "type": "Feature", "properties": {"collection_times": [{"days": "Mon-Fri", "time": "4:30pm"}, {"days": "Sat", "time": "12:00pm"}, {"days": "Sun", "time": "Closed"}], "id": "3235100012", "name": "USPS COLLECTION BOX - PO LOBBY", "address": {"city": "QUINCY", "state": "FL", "street": "772 S PAT THOMAS PKWY", "postcode": "32351"}}},
{"geometry": {"type": "Point", "coordinates": [-84.2048391675, 30.1582536634]}, "type": "Feature", "properties": {"collection_times": [{"days": "Mon-Fri", "time": "1:00pm"}, {"days": "Sat", "time": "9:30am"}, {"days": "Sun", "time": "Closed"}], "id": "3235500000", "name": "USPS COLLECTION BOX - BLUE BOX", "address": {"city": "SAINT MARKS", "state": "FL", "street": "779 PORT LEON DR", "postcode": "32355"}}},
{"geometry": {"type": "Point", "coordinates": [-84.2048391675, 30.1582536634]}, "type": "Feature", "properties": {"collection_times": [{"days": "Mon-Fri", "time": "1:00pm"}, {"days": "Sat", "time": "9:30am"}, {"days": "Sun", "time": "Closed"}], "id": "3235500001", "name": "USPS COLLECTION BOX - PO LOBBY", "address": {"city": "SAINT MARKS", "state": "FL", "street": "779 PORT LEON DR", "postcode": "32355"}}},
{"geometry": {"type": "Point", "coordinates": [-83.4124164395, 29.8862116808]}, "type": "Feature", "properties": {"collection_times": [{"days": "Mon-Fri", "time": "10:00am"}, {"days": "Sat", "time": "11:45am"}, {"days": "Sun", "time": "Closed"}], "id": "3235600000", "name": "USPS COLLECTION BOX - BLUE BOX", "address": {"city": "SALEM", "state": "FL", "street": "16580 S US 19", "postcode": "32356"}}},
{"geometry": {"type": "Point", "coordinates": [-83.4124164395, 29.8862116808]}, "type": "Feature", "properties": {"collection_times": [{"days": "Mon-Fri", "time": "10:00am"}, {"days": "Sat", "time": "11:45am"}, {"days": "Sun", "time": "Closed"}], "id": "3235600001", "name": "USPS COLLECTION BOX - PO LOBBY", "address": {"city": "SALEM", "state": "FL", "street": "16580 S US 19", "postcode": "32356"}}},
{"geometry": {"type": "Point", "coordinates": [-84.4909503365, 30.0572667697]}, "type": "Feature", "properties": {"collection_times": [{"days": "Mon-Fri", "time": "4:30pm"}, {"days": "Sat", "time": "12:00pm"}, {"days": "Sun", "time": "Closed"}], "id": "3235800000", "name": "USPS COLLECTION BOX - BLUE BOX", "address": {"city": "SOPCHOPPY", "state": "FL", "street": "2284 SOPCHOPPY HWY", "postcode": "32358"}}},
{"geometry": {"type": "Point", "coordinates": [-84.4909503365, 30.0572667697]}, "type": "Feature", "properties": {"collection_times": [{"days": "Mon-Fri", "time": "4:30pm"}, {"days": "Sat", "time": "12:00pm"}, {"days": "Sun", "time": "Closed"}], "id": "3235800001", "name": "USPS COLLECTION BOX - PO LOBBY", "address": {"city": "SOPCHOPPY", "state": "FL", "street": "2284 SOPCHOPPY HWY", "postcode": "32358"}}},
{"geometry": {"type": "Point", "coordinates": [-84.4909503365, 30.0572667697]}, "type": "Feature", "properties": {"collection_times": [{"days": "Mon-Fri", "time": "4:30pm"}, {"days": "Sat", "time": "12:00pm"}, {"days": "Sun", "time": "Closed"}], "id": "3235800002", "name": "USPS COLLECTION BOX - PO LOBBY", "address": {"city": "SOPCHOPPY", "state": "FL", "street": "2284 SOPCHOPPY HWY", "postcode": "32358"}}},
{"geometry": {"type": "Point", "coordinates": [-83.3423941993, 29.6194453915]}, "type": "Feature", "properties": {"collection_times": [{"days": "Mon-Fri", "time": "3:45pm"}, {"days": "Sat", "time": "12:00pm"}, {"days": "Sun", "time": "Closed"}], "id": "3235900000", "name": "USPS COLLECTION BOX - BLUE BOX", "address": {"city": "STEINHATCHEE", "state": "FL", "street": "104 15TH ST SE", "postcode": "32359"}}},
{"geometry": {"type": "Point", "coordinates": [-83.3423941993, 29.6194453915]}, "type": "Feature", "properties": {"collection_times": [{"days": "Mon-Fri", "time": "3:45pm"}, {"days": "Sat", "time": "12:00pm"}, {"days": "Sun", "time": "Closed"}], "id": "3235900001", "name": "USPS COLLECTION BOX - PO LOBBY", "address": {"city": "STEINHATCHEE", "state": "FL", "street": "104 15TH ST SE", "postcode": "32359"}}},
{"geometry": {"type": "Point", "coordinates": [-84.8193684175, 30.350653819]}, "type": "Feature", "properties": {"collection_times": [{"days": "Mon-Sat", "time": "11:00am"}, {"days": "Sun", "time": "Closed"}], "id": "3236000000", "name": "USPS COLLECTION BOX - BLUE BOX", "address": {"city": "TELOGIA", "state": "FL", "street": "27134 NE COUNTY ROAD 67", "postcode": "32360"}}},
{"geometry": {"type": "Point", "coordinates": [-84.8193684175, 30.350653819]}, "type": "Feature", "properties": {"collection_times": [{"days": "Mon-Sat", "time": "9:15am"}, {"days": "Sun", "time": "Closed"}], "id": "3236000001", "name": "USPS COLLECTION BOX - PO LOBBY", "address": {"city": "TELOGIA", "state": "FL", "street": "27134 NE COUNTY ROAD 67", "postcode": "32360"}}},
{"geometry": {"type": "Point", "coordinates": [-83.9901073539, 30.3586158982]}, "type": "Feature", "properties": {"collection_times": [{"days": "Mon-Fri", "time": "4:00pm"}, {"days": "Sat", "time": "8:50am"}, {"days": "Sun", "time": "Closed"}], "id": "3236100000", "name": "USPS COLLECTION BOX - BLUE BOX", "address": {"city": "WACISSA", "state": "FL", "street": "38 TRAM RD", "postcode": "32361"}}},
{"geometry": {"type": "Point", "coordinates": [-83.9901073539, 30.3586158982]}, "type": "Feature", "properties": {"collection_times": [{"days": "Mon-Fri", "time": "4:00pm"}, {"days": "Sat", "time": "8:50am"}, {"days": "Sun", "time": "Closed"}], "id": "3236100001", "name": "USPS COLLECTION BOX - PO LOBBY", "address": {"city": "WACISSA", "state": "FL", "street": "38 TRAM RD", "postcode": "32361"}}},
{"geometry": {"type": "Point", "coordinates": [-84.2499114522, 30.3257410736]}, "type": "Feature", "properties": {"collection_times": [{"days": "Mon-Sat", "time": "11:30am"}, {"days": "Sun", "time": "Closed"}], "id": "3236200000", "name": "USPS COLLECTION BOX - BLUE BOX", "address": {"city": "WOODVILLE", "state": "FL", "street": "8219 WOODVILLE HWY", "postcode": "32362"}}},
{"geometry": {"type": "Point", "coordinates": [-84.2499114522, 30.3257410736]}, "type": "Feature", "properties": {"collection_times": [{"days": "Mon-Sat", "time": "11:30am"}, {"days": "Sun", "time": "Closed"}], "id": "3236200001", "name": "USPS COLLECTION BOX - BLUE BOX", "address": {"city": "WOODVILLE", "state": "FL", "street": "8219 WOODVILLE HWY", "postcode": "32362"}}},
{"geometry": {"type": "Point", "coordinates": [-84.2499114522, 30.3257410736]}, "type": "Feature", "properties": {"collection_times": [{"days": "Mon-Sat", "time": "11:30am"}, {"days": "Sun", "time": "Closed"}], "id": "3236200002", "name": "USPS COLLECTION BOX - PO LOBBY", "address": {"city": "WOODVILLE", "state": "FL", "street": "8219 WOODVILLE HWY", "postcode": "32362"}}},
{"geometry": {"type": "Point", "coordinates": [-84.2499114522, 30.3257410736]}, "type": "Feature", "properties": {"collection_times": [{"days": "Mon-Sat", "time": "11:30am"}, {"days": "Sun", "time": "Closed"}], "id": "3236200003", "name": "USPS COLLECTION BOX - PO LOBBY", "address": {"city": "WOODVILLE", "state": "FL", "street": "8219 WOODVILLE HWY", "postcode": "32362"}}}
]}
