{"type": "FeatureCollection", "features": [
{"geometry": {"type": "Point", "coordinates": [-85.7300567661, 30.1847592944]}, "type": "Feature", "properties": {"collection_times": [{"days": "Mon-Fri", "time": "2:50pm"}, {"days": "Sat-Sun", "time": "Closed"}], "id": "3240100003", "name": "USPS COLLECTION BOX - BLUE BOX", "address": {"city": "PANAMA CITY", "state": "FL", "street": "5321 W HIGHWAY 98", "postcode": "32401"}}},
{"geometry": {"type": "Point", "coordinates": [-85.6578601729, 30.1551539279]}, "type": "Feature", "properties": {"collection_times": [{"days": "Mon-Fri", "time": "4:00pm"}, {"days": "Sat-Sun", "time": "Closed"}], "id": "3240100004", "name": "USPS COLLECTION BOX - BLUE BOX", "address": {"city": "PANAMA CITY", "state": "FL", "street": "300 E 4TH ST", "postcode": "32401"}}},
{"geometry": {"type": "Point", "coordinates": [-85.6492085047, 30.1587868889]}, "type": "Feature", "properties": {"collection_times": [{"days": "Mon-Fri", "time": "3:30pm"}, {"days": "Sat-Sun", "time": "Closed"}], "id": "3240100025", "name": "USPS COLLECTION BOX - BLUE BOX", "address": {"city": "PANAMA CITY", "state": "FL", "street": "801 E 6TH ST", "postcode": "32401"}}},
{"geometry": {"type": "Point", "coordinates": [-85.6627620929, 30.1559067037]}, "type": "Feature", "properties": {"collection_times": [{"days": "Mon-Fri", "time": "5:00pm"}, {"days": "Sat", "time": "4:00pm"}, {"days": "Sun", "time": "Closed"}], "id": "3240100035", "name": "USPS COLLECTION BOX - BLUE BOX", "address": {"city": "PANAMA CITY", "state": "FL", "street": "421 JENKS AVE", "postcode": "32401"}}},
{"geometry": {"type": "Point", "coordinates": [-85.6627620929, 30.1559067037]}, "type": "Feature", "properties": {"collection_times": [{"days": "Mon-Fri", "time": "5:00pm"}, {"days": "Sat", "time": "4:00pm"}, {"days": "Sun", "time": "Closed"}], "id": "3240100038", "name": "USPS COLLECTION BOX - BLUE BOX", "address": {"city": "PANAMA CITY", "state": "FL", "street": "421 JENKS AVE", "postcode": "32401"}}},
{"geometry": {"type": "Point", "coordinates": [-85.6333140617, 30.1720265164]}, "type": "Feature", "properties": {"collection_times": [{"days": "Mon-Sat", "time": "6:30pm"}, {"days": "Sun", "time": "Closed"}], "id": "3240100056", "name": "USPS COLLECTION BOX - BLUE BOX", "address": {"city": "PANAMA CITY", "state": "FL", "street": "1336 SHERMAN AVE", "postcode": "32401"}}},
{"geometry": {"type": "Point", "coordinates": [-85.6333140617, 30.1720265164]}, "type": "Feature", "properties": {"collection_times": [{"days": "Mon-Sat", "time": "6:30pm"}, {"days": "Sun", "time": "Closed"}], "id": "3240100057", "name": "USPS COLLECTION BOX - BLUE BOX", "address": {"city": "PANAMA CITY", "state": "FL", "street": "1336 SHERMAN AVE", "postcode": "32401"}}},
{"geometry": {"type": "Point", "coordinates": [-85.6333140617, 30.1720265164]}, "type": "Feature", "properties": {"collection_times": [{"days": "Mon-Sat", "time": "6:30pm"}, {"days": "Sun", "time": "Closed"}], "id": "3240100058", "name": "USPS COLLECTION BOX - BLUE BOX", "address": {"city": "PANAMA CITY", "state": "FL", "street": "1336 SHERMAN AVE", "postcode": "32401"}}},
{"geometry": {"type": "Point", "coordinates": [-85.6333140617, 30.1720265164]}, "type": "Feature", "properties": {"collection_times": [{"days": "Mon-Sat", "time": "6:30pm"}, {"days": "Sun", "time": "Closed"}], "id": "3240100059", "name": "USPS COLLECTION BOX - BLUE BOX", "address": {"city": "PANAMA CITY", "state": "FL", "street": "1336 SHERMAN AVE", "postcode": "32401"}}},
{"geometry": {"type": "Point", "coordinates": [-85.6333140617, 30.1720265164]}, "type": "Feature", "properties": {"collection_times": [{"days": "Mon-Sat", "time": "6:30pm"}, {"days": "Sun", "time": "Closed"}], "id": "3240100064", "name": "USPS COLLECTION BOX - BLUE BOX", "address": {"city": "PANAMA CITY", "state": "FL", "street": "1336 SHERMAN AVE", "postcode": "32401"}}},
{"geometry": {"type": "Point", "coordinates": [-85.6333140617, 30.1720265164]}, "type": "Feature", "properties": {"collection_times": [{"days": "Mon-Sat", "time": "6:30pm"}, {"days": "Sun", "time": "Closed"}], "id": "3240100066", "name": "USPS COLLECTION BOX - PO LOBBY", "address": {"city": "PANAMA CITY", "state": "FL", "street": "1336 SHERMAN AVE", "postcode": "32401"}}},
{"geometry": {"type": "Point", "coordinates": [-85.6333140617, 30.1720265164]}, "type": "Feature", "properties": {"collection_times": [{"days": "Mon-Sat", "time": "6:30pm"}, {"days": "Sun", "time": "Closed"}], "id": "3240100067", "name": "USPS COLLECTION BOX - PO LOBBY", "address": {"city": "PANAMA CITY", "state": "FL", "street": "1336 SHERMAN AVE", "postcode": "32401"}}},
{"geometry": {"type": "Point", "coordinates": [-85.6333140617, 30.1720265164]}, "type": "Feature", "properties": {"collection_times": [{"days": "Mon-Sat", "time": "6:30pm"}, {"days": "Sun", "time": "Closed"}], "id": "3240100068", "name": "USPS COLLECTION BOX - PO LOBBY", "address": {"city": "PANAMA CITY", "state": "FL", "street": "1336 SHERMAN AVE", "postcode": "32401"}}},
{"geometry": {"type": "Point", "coordinates": [-85.6661929191, 30.167941756]}, "type": "Feature", "properties": {"collection_times": [{"days": "Mon-Fri", "time": "4:00pm"}, {"days": "Sat-Sun", "time": "Closed"}], "id": "3240100077", "name": "USPS COLLECTION BOX - BLUE BOX", "address": {"city": "PANAMA CITY", "state": "FL", "street": "500 W 11TH ST", "postcode": "32401"}}},
{"geometry": {"type": "Point", "coordinates": [-85.6683258145, 30.1733328293]}, "type": "Feature", "properties": {"collection_times": [{"days": "Mon-Fri", "time": "4:00pm"}, {"days": "Sat-Sun", "time": "Closed"}], "id": "3240100078", "name": "USPS COLLECTION BOX - BLUE BOX", "address": {"city": "PANAMA CITY", "state": "FL", "street": "651 W 14TH ST", "postcode": "32401"}}},
{"geometry": {"type": "Point", "coordinates": [-85.6590509781, 30.1556325144]}, "type": "Feature", "properties": {"collection_times": [{"days": "Mon-Fri", "time": "4:00pm"}, {"days": "Sat-Sun", "time": "Closed"}], "id": "3240100079", "name": "USPS COLLECTION BOX - BLUE BOX", "address": {"city": "PANAMA CITY", "state": "FL", "street": "421 MAGNOLIA AVE", "postcode": "32401"}}},
{"geometry": {"type": "Point", "coordinates": [-85.6627620929, 30.1559067037]}, "type": "Feature", "properties": {"collection_times": [{"days": "Mon-Fri", "time": "5:00pm"}, {"days": "Sat", "time": "4:00pm"}, {"days": "Sun", "time": "Closed"}], "id": "3240100083", "name": "USPS COLLECTION BOX - BLUE BOX", "address": {"city": "PANAMA CITY", "state": "FL", "street": "421 JENKS AVE", "postcode": "32401"}}},
{"geometry": {"type": "Point", "coordinates": [-85.6627620929, 30.1559067037]}, "type": "Feature", "properties": {"collection_times": [{"days": "Mon-Fri", "time": "5:00pm"}, {"days": "Sat", "time": "4:00pm"}, {"days": "Sun", "time": "Closed"}], "id": "3240100084", "name": "USPS COLLECTION BOX - PO LOBBY", "address": {"city": "PANAMA CITY", "state": "FL", "street": "421 JENKS AVE", "postcode": "32401"}}},
{"geometry": {"type": "Point", "coordinates": [-85.6627620929, 30.1559067037]}, "type": "Feature", "properties": {"collection_times": [{"days": "Mon-Fri", "time": "5:00pm"}, {"days": "Sat", "time": "4:00pm"}, {"days": "Sun", "time": "Closed"}], "id": "3240100085", "name": "USPS COLLECTION BOX - PO LOBBY", "address": {"city": "PANAMA CITY", "state": "FL", "street": "421 JENKS AVE", "postcode": "32401"}}},
{"geometry": {"type": "Point", "coordinates": [-85.511651598, 30.0306901926]}, "type": "Feature", "properties": {"collection_times": [{"days": "Mon-Fri", "time": "12:30pm"}, {"days": "Sat", "time": "10:30am"}, {"days": "Sun", "time": "Closed"}], "id": "3240300010", "name": "USPS COLLECTION BOX - BLUE BOX", "address": {"city": "PANAMA CITY", "state": "FL", "street": "590 SUWANNEE RD STE 105", "postcode": "32403"}}},
{"geometry": {"type": "Point", "coordinates": [-85.6673830632, 30.189642366]}, "type": "Feature", "properties": {"collection_times": [{"days": "Mon-Fri", "time": "3:00pm"}, {"days": "Sat-Sun", "time": "Closed"}], "id": "3240500001", "name": "USPS COLLECTION BOX - BLUE BOX", "address": {"city": "PANAMA CITY", "state": "FL", "street": "449 W 23RD ST", "postcode": "32405"}}},
{"geometry": {"type": "Point", "coordinates": [-85.66494289, 30.1897238069]}, "type": "Feature", "properties": {"collection_times": [{"days": "Mon-Fri", "time": "3:00pm"}, {"days": "Sat", "time": "10:00am"}, {"days": "Sun", "time": "Closed"}], "id": "3240500002", "name": "USPS COLLECTION BOX - BLUE BOX", "address": {"city": "PANAMA CITY", "state": "FL", "street": "340 W 23RD ST", "postcode": "32405"}}},
{"geometry": {"type": "Point", "coordinates": [-85.7320542585, 30.1866617422]}, "type": "Feature", "properties": {"collection_times": [{"days": "Mon-Fri", "time": "2:55pm"}, {"days": "Sat-Sun", "time": "Closed"}], "id": "3240500011", "name": "USPS COLLECTION BOX - BLUE BOX", "address": {"city": "PANAMA CITY", "state": "FL", "street": "4750 COLLEGIATE DR", "postcode": "32405"}}},
{"geometry": {"type": "Point", "coordinates": [-85.6698632723, 30.1896721906]}, "type": "Feature", "properties": {"collection_times": [{"days": "Mon-Fri", "time": "3:15pm"}, {"days": "Sat", "time": "10:45am"}, {"days": "Sun", "time": "Closed"}], "id": "3240500030", "name": "USPS COLLECTION BOX - BLUE BOX", "address": {"city": "PANAMA CITY", "state": "FL", "street": "653 W 23RD ST", "postcode": "32405"}}},
{"geometry": {"type": "Point", "coordinates": [-85.6624096967, 30.1949835682]}, "type": "Feature", "properties": {"collection_times": [{"days": "Mon-Fri", "time": "3:15pm"}, {"days": "Sat", "time": "10:30am"}, {"days": "Sun", "time": "Closed"}], "id": "3240500035", "name": "USPS COLLECTION BOX - BLUE BOX", "address": {"city": "PANAMA CITY", "state": "FL", "street": "2638 JENKS AVE", "postcode": "32405"}}},
{"geometry": {"type": "Point", "coordinates": [-85.6757873289, 30.1898462261]}, "type": "Feature", "properties": {"collection_times": [{"days": "Mon-Fri", "time": "3:00pm"}, {"days": "Sat-Sun", "time": "Closed"}], "id": "3240500040", "name": "USPS COLLECTION BOX - BLUE BOX", "address": {"city": "PANAMA CITY", "state": "FL", "street": "1002 W 23RD ST", "postcode": "32405"}}},
{"geometry": {"type": "Point", "coordinates": [-85.627777503, 30.1987691788]}, "type": "Feature", "properties": {"collection_times": [{"days": "Mon-Fri", "time": "3:30pm"}, {"days": "Sat", "time": "9:00am"}, {"days": "Sun", "time": "Closed"}], "id": "3240500041", "name": "USPS COLLECTION BOX - BLUE BOX", "address": {"city": "PANAMA CITY", "state": "FL", "street": "2611 N HIGHWAY 231", "postcode": "32405"}}},
{"geometry": {"type": "Point", "coordinates": [-85.6637864827, 30.1945391433]}, "type": "Feature", "properties": {"collection_times": [{"days": "Mon-Fri", "time": "3:30pm"}, {"days": "Sat", "time": "9:00am"}, {"days": "Sun", "time": "Closed"}], "id": "3240500043", "name": "USPS COLLECTION BOX - BLUE BOX", "address": {"city": "PANAMA CITY", "state": "FL", "street": "2579 HUNTCLIFF LN", "postcode": "32405"}}},
{"geometry": {"type": "Point", "coordinates": [-85.6836378333, 30.1788813679]}, "type": "Feature", "properties": {"collection_times": [{"days": "Mon-Fri", "time": "5:00pm"}, {"days": "Sat", "time": "3:00pm"}, {"days": "Sun", "time": "Closed"}], "id": "3240500044", "name": "USPS COLLECTION BOX - PO LOBBY", "address": {"city": "PANAMA CITY", "state": "FL", "street": "1315 W 17TH ST", "postcode": "32405"}}},
{"geometry": {"type": "Point", "coordinates": [-85.6836378333, 30.1788813679]}, "type": "Feature", "properties": {"collection_times": [{"days": "Mon-Fri", "time": "5:00pm"}, {"days": "Sat", "time": "3:00pm"}, {"days": "Sun", "time": "Closed"}], "id": "3240500046", "name": "USPS COLLECTION BOX - BLUE BOX", "address": {"city": "PANAMA CITY", "state": "FL", "street": "1315 W 17TH ST", "postcode": "32405"}}},
{"geometry": {"type": "Point", "coordinates": [-85.8066323688, 30.1780963337]}, "type": "Feature", "properties": {"collection_times": [{"days": "Mon-Sat", "time": "9:00am"}, {"days": "Sun", "time": "Closed"}], "id": "3240700001", "name": "USPS COLLECTION BOX - BLUE BOX", "address": {"city": "P C BEACH", "state": "FL", "street": "10270 FRONT BEACH RD", "postcode": "32407"}}},
{"geometry": {"type": "Point", "coordinates": [-85.8088164626, 30.1837540092]}, "type": "Feature", "properties": {"collection_times": [{"days": "Mon-Fri", "time": "5:00pm"}, {"days": "Sat", "time": "3:00pm"}, {"days": "Sun", "time": "Closed"}], "id": "3240700009", "name": "USPS COLLECTION BOX - PO LOBBY", "address": {"city": "P C BEACH", "state": "FL", "street": "420 CHURCHWELL DR", "postcode": "32407"}}},
{"geometry": {"type": "Point", "coordinates": [-85.8088164626, 30.1837540092]}, "type": "Feature", "properties": {"collection_times": [{"days": "Mon-Fri", "time": "5:00pm"}, {"days": "Sat", "time": "3:00pm"}, {"days": "Sun", "time": "Closed"}], "id": "3240700023", "name": "USPS COLLECTION BOX - BLUE BOX", "address": {"city": "P C BEACH", "state": "FL", "street": "420 CHURCHWELL DR", "postcode": "32407"}}},
{"geometry": {"type": "Point", "coordinates": [-85.8088164626, 30.1837540092]}, "type": "Feature", "properties": {"collection_times": [{"days": "Mon-Fri", "time": "4:30pm"}, {"days": "Sat", "time": "3:00pm"}, {"days": "Sun", "time": "Closed"}], "id": "3240700025", "name": "USPS COLLECTION BOX - APC", "address": {"city": "P C BEACH", "state": "FL", "street": "420 CHURCHWELL DR", "postcode": "32407"}}},
{"geometry": {"type": "Point", "coordinates": [-85.7552187323, 30.1881275841]}, "type": "Feature", "properties": {"collection_times": [{"days": "Mon-Fri", "time": "2:00pm"}, {"days": "Sat-Sun", "time": "Closed"}], "id": "3240700026", "name": "USPS COLLECTION BOX - BLUE BOX", "address": {"city": "P C BEACH", "state": "FL", "street": "6703 W HIGHWAY 98", "postcode": "32407"}}},
{"geometry": {"type": "Point", "coordinates": [-85.7495459741, 30.1398064283]}, "type": "Feature", "properties": {"collection_times": [{"days": "Mon-Sat", "time": "11:00am"}, {"days": "Sun", "time": "Closed"}], "id": "3240800003", "name": "USPS COLLECTION BOX - BLUE BOX", "address": {"city": "P C BEACH", "state": "FL", "street": "4341 THOMAS DR", "postcode": "32408"}}},
{"geometry": {"type": "Point", "coordinates": [-85.7538186338, 30.1603469744]}, "type": "Feature", "properties": {"collection_times": [{"days": "Mon-Sat", "time": "10:00am"}, {"days": "Sun", "time": "Closed"}], "id": "3240800012", "name": "USPS COLLECTION BOX - BLUE BOX", "address": {"city": "P C BEACH", "state": "FL", "street": "2423 THOMAS DR", "postcode": "32408"}}},
{"geometry": {"type": "Point", "coordinates": [-85.2947794052, 29.8142017827]}, "type": "Feature", "properties": {"collection_times": [{"days": "Mon-Fri", "time": "2:30pm"}, {"days": "Sat", "time": "11:30am"}, {"days": "Sun", "time": "Closed"}], "id": "3241000001", "name": "USPS COLLECTION BOX - BLUE BOX", "address": {"city": "PORT ST JOE", "state": "FL", "street": "625C 15TH ST", "postcode": "32410"}}},
{"geometry": {"type": "Point", "coordinates": [-85.7233627727, 30.1508743968]}, "type": "Feature", "properties": {"collection_times": [{"days": "Mon-Fri", "time": "3:00pm"}, {"days": "Sat-Sun", "time": "Closed"}], "id": "3241100001", "name": "USPS COLLECTION BOX - BLUE BOX", "address": {"city": "P C BEACH", "state": "FL", "street": "3900 MARRIOTT DR", "postcode": "32411"}}},
{"geometry": {"type": "Point", "coordinates": [-85.8903596867, 30.2242135545]}, "type": "Feature", "properties": {"collection_times": [{"days": "Mon-Sat", "time": "9:00am"}, {"days": "Sun", "time": "Closed"}], "id": "3241300003", "name": "USPS COLLECTION BOX - BLUE BOX", "address": {"city": "PANAMA CITY BCH", "state": "FL", "street": "268 S HIGHWAY 79", "postcode": "32413"}}},
{"geometry": {"type": "Point", "coordinates": [-85.3919607968, 30.6949534714]}, "type": "Feature", "properties": {"collection_times": [{"days": "Mon-Fri", "time": "2:45pm"}, {"days": "Sat", "time": "11:00am"}, {"days": "Sun", "time": "Closed"}], "id": "3242000001", "name": "USPS COLLECTION BOX - PO LOBBY", "address": {"city": "ALFORD", "state": "FL", "street": "1772 GEORGIA ST", "postcode": "32420"}}},
{"geometry": {"type": "Point", "coordinates": [-85.3919607968, 30.6949534714]}, "type": "Feature", "properties": {"collection_times": [{"days": "Mon-Fri", "time": "2:45pm"}, {"days": "Sat", "time": "11:00am"}, {"days": "Sun", "time": "Closed"}], "id": "3242000002", "name": "USPS COLLECTION BOX - BLUE BOX", "address": {"city": "ALFORD", "state": "FL", "street": "1772 GEORGIA ST", "postcode": "32420"}}},
{"geometry": {"type": "Point", "coordinates": [-85.1272225265, 30.5752168523]}, "type": "Feature", "properties": {"collection_times": [{"days": "Mon-Fri", "time": "4:15pm"}, {"days": "Sat", "time": "11:30am"}, {"days": "Sun", "time": "Closed"}], "id": "3242100003", "name": "USPS COLLECTION BOX - PO LOBBY", "address": {"city": "ALTHA", "state": "FL", "street": "25934 N MAIN ST", "postcode": "32421"}}},
{"geometry": {"type": "Point", "coordinates": [-85.1272225265, 30.5752168523]}, "type": "Feature", "properties": {"collection_times": [{"days": "Mon-Fri", "time": "4:15pm"}, {"days": "Sat", "time": "11:30am"}, {"days": "Sun", "time": "Closed"}], "id": "3242100004", "name": "USPS COLLECTION BOX - BLUE BOX", "address": {"city": "ALTHA", "state": "FL", "street": "25934 N MAIN ST", "postcode": "32421"}}},
{"geometry": {"type": "Point", "coordinates": [-86.0714153188, 30.7433687419]}, "type": "Feature", "properties": {"collection_times": [{"days": "Mon-Fri", "time": "11:00am"}, {"days": "Sat", "time": "9:00am"}, {"days": "Sun", "time": "Closed"}], "id": "3242200001", "name": "USPS COLLECTION BOX - BLUE BOX", "address": {"city": "ARGYLE", "state": "FL", "street": "4757 U S HIGHWAY 90 E", "postcode": "32422"}}},
{"geometry": {"type": "Point", "coordinates": [-86.0714153188, 30.7433687419]}, "type": "Feature", "properties": {"collection_times": [{"days": "Mon-Fri", "time": "11:00am"}, {"days": "Sat", "time": "9:00am"}, {"days": "Sun", "time": "Closed"}], "id": "3242200003", "name": "USPS COLLECTION BOX - PO LOBBY", "address": {"city": "ARGYLE", "state": "FL", "street": "4757 U S HIGHWAY 90 E", "postcode": "32422"}}},
{"geometry": {"type": "Point", "coordinates": [-85.118697952, 30.9281620041]}, "type": "Feature", "properties": {"collection_times": [{"days": "Mon-Fri", "time": "12:00pm"}, {"days": "Sat", "time": "9:00am"}, {"days": "Sun", "time": "Closed"}], "id": "3242300000", "name": "USPS COLLECTION BOX - BLUE BOX", "address": {"city": "BASCOM", "state": "FL", "street": "5011 BASSWOOD RD", "postcode": "32423"}}},
{"geometry": {"type": "Point", "coordinates": [-85.118697952, 30.9281620041]}, "type": "Feature", "properties": {"collection_times": [{"days": "Mon-Fri", "time": "12:00pm"}, {"days": "Sat", "time": "8:00am"}, {"days": "Sun", "time": "Closed"}], "id": "3242300001", "name": "USPS COLLECTION BOX - PO LOBBY", "address": {"city": "BASCOM", "state": "FL", "street": "5011 BASSWOOD RD", "postcode": "32423"}}},
{"geometry": {"type": "Point", "coordinates": [-85.0456834581, 30.4494998689]}, "type": "Feature", "properties": {"collection_times": [{"days": "Mon-Fri", "time": "4:00pm"}, {"days": "Sat", "time": "4:15pm"}, {"days": "Sun", "time": "Closed"}], "id": "3242400001", "name": "USPS COLLECTION BOX - PO LOBBY", "address": {"city": "BLOUNTSTOWN", "state": "FL", "street": "17621 MAIN ST N", "postcode": "32424"}}},
{"geometry": {"type": "Point", "coordinates": [-85.0456834581, 30.4494998689]}, "type": "Feature", "properties": {"collection_times": [{"days": "Mon-Fri", "time": "4:00pm"}, {"days": "Sat", "time": "4:15pm"}, {"days": "Sun", "time": "Closed"}], "id": "3242400007", "name": "USPS COLLECTION BOX - BLUE BOX", "address": {"city": "BLOUNTSTOWN", "state": "FL", "street": "17621 MAIN ST N", "postcode": "32424"}}},
{"geometry": {"type": "Point", "coordinates": [-85.0456834581, 30.4494998689]}, "type": "Feature", "properties": {"collection_times": [{"days": "Mon-Fri", "time": "4:00pm"}, {"days": "Sat", "time": "4:15pm"}, {"days": "Sun", "time": "Closed"}], "id": "3242400008", "name": "USPS COLLECTION BOX - PO LOBBY", "address": {"city": "BLOUNTSTOWN", "state": "FL", "street": "17621 MAIN ST N", "postcode": "32424"}}},
{"geometry": {"type": "Point", "coordinates": [-85.0692289462, 30.4432560986]}, "type": "Feature", "properties": {"collection_times": [{"days": "Mon-Fri", "time": "12:30pm"}, {"days": "Sat", "time": "12:00pm"}, {"days": "Sun", "time": "Closed"}], "id": "3242400009", "name": "USPS COLLECTION BOX - BLUE BOX", "address": {"city": "BLOUNTSTOWN", "state": "FL", "street": "20118 CENTRAL AVE W", "postcode": "32424"}}},
{"geometry": {"type": "Point", "coordinates": [-85.0798608248, 30.3959015593]}, "type": "Feature", "properties": {"collection_times": [{"days": "Mon-Sat", "time": "10:30am"}, {"days": "Sun", "time": "Closed"}], "id": "3242400010", "name": "USPS COLLECTION BOX - BLUE BOX", "address": {"city": "BLOUNTSTOWN", "state": "FL", "street": "16978 NW MAYO ST", "postcode": "32424"}}},
{"geometry": {"type": "Point", "coordinates": [-85.6824830918, 30.7881911667]}, "type": "Feature", "properties": {"collection_times": [{"days": "Mon-Fri", "time": "4:30pm"}, {"days": "Sat", "time": "2:45pm"}, {"days": "Sun", "time": "Closed"}], "id": "3242500006", "name": "USPS COLLECTION BOX - BLUE BOX", "address": {"city": "BONIFAY", "state": "FL", "street": "325 W HIGHWAY 90", "postcode": "32425"}}},
{"geometry": {"type": "Point", "coordinates": [-85.6824830918, 30.7881911667]}, "type": "Feature", "properties": {"collection_times": [{"days": "Mon-Fri", "time": "4:30pm"}, {"days": "Sat", "time": "2:45pm"}, {"days": "Sun", "time": "Closed"}], "id": "3242500009", "name": "USPS COLLECTION BOX - PO LOBBY", "address": {"city": "BONIFAY", "state": "FL", "street": "325 W HIGHWAY 90", "postcode": "32425"}}},
{"geometry": {"type": "Point", "coordinates": [-85.7188418348, 30.8569377711]}, "type": "Feature", "properties": {"collection_times": [{"days": "Mon-Fri", "time": "3:15pm"}, {"days": "Sat", "time": "11:30am"}, {"days": "Sun", "time": "Closed"}], "id": "3242500012", "name": "USPS COLLECTION BOX - BLUE BOX", "address": {"city": "BONIFAY", "state": "FL", "street": "2600 HOSPITAL DR", "postcode": "32425"}}},
{"geometry": {"type": "Point", "coordinates": [-85.6784499377, 30.7940581409]}, "type": "Feature", "properties": {"collection_times": [{"days": "Mon-Fri", "time": "3:15pm"}, {"days": "Sat", "time": "11:30am"}, {"days": "Sun", "time": "Closed"}], "id": "3242500014", "name": "USPS COLLECTION BOX - BLUE BOX", "address": {"city": "BONIFAY", "state": "FL", "street": "201 N OKLAHOMA ST", "postcode": "32425"}}},
{"geometry": {"type": "Point", "coordinates": [-85.6793355516, 30.8008215023]}, "type": "Feature", "properties": {"collection_times": [{"days": "Mon-Fri", "time": "3:15pm"}, {"days": "Sat", "time": "11:30am"}, {"days": "Sun", "time": "Closed"}], "id": "3242500017", "name": "USPS COLLECTION BOX - BLUE BOX", "address": {"city": "BONIFAY", "state": "FL", "street": "911 N WAUKESHA ST", "postcode": "32425"}}},
{"geometry": {"type": "Point", "coordinates": [-85.6824830918, 30.7881911667]}, "type": "Feature", "properties": {"collection_times": [{"days": "Mon-Fri", "time": "4:30pm"}, {"days": "Sat", "time": "2:45pm"}, {"days": "Sun", "time": "Closed"}], "id": "3242500018", "name": "USPS COLLECTION BOX - PO LOBBY", "address": {"city": "BONIFAY", "state": "FL", "street": "325 W HIGHWAY 90", "postcode": "32425"}}},
{"geometry": {"type": "Point", "coordinates": [-85.6824830918, 30.7881911667]}, "type": "Feature", "properties": {"collection_times": [{"days": "Mon-Fri", "time": "4:30pm"}, {"days": "Sat", "time": "2:45pm"}, {"days": "Sun", "time": "Closed"}], "id": "3242500019", "name": "USPS COLLECTION BOX - PO LOBBY", "address": {"city": "BONIFAY", "state": "FL", "street": "325 W HIGHWAY 90", "postcode": "32425"}}},
{"geometry": {"type": "Point", "coordinates": [-85.6824830918, 30.7881911667]}, "type": "Feature", "properties": {"collection_times": [{"days": "Mon-Fri", "time": "4:30pm"}, {"days": "Sat", "time": "2:45pm"}, {"days": "Sun", "time": "Closed"}], "id": "3242500020", "name": "USPS COLLECTION BOX - PO LOBBY", "address": {"city": "BONIFAY", "state": "FL", "street": "325 W HIGHWAY 90", "postcode": "32425"}}},
{"geometry": {"type": "Point", "coordinates": [-85.4089985561, 30.9724738251]}, "type": "Feature", "properties": {"collection_times": [{"days": "Mon-Fri", "time": "12:00pm"}, {"days": "Sat", "time": "10:00am"}, {"days": "Sun", "time": "Closed"}], "id": "3242600003", "name": "USPS COLLECTION BOX - PO LOBBY", "address": {"city": "CAMPBELLTON", "state": "FL", "street": "5265 HIGHWAY 231", "postcode": "32426"}}},
{"geometry": {"type": "Point", "coordinates": [-85.4089985561, 30.9724738251]}, "type": "Feature", "properties": {"collection_times": [{"days": "Mon-Fri", "time": "12:00pm"}, {"days": "Sat", "time": "10:00am"}, {"days": "Sun", "time": "Closed"}], "id": "3242600004", "name": "USPS COLLECTION BOX - BLUE BOX", "address": {"city": "CAMPBELLTON", "state": "FL", "street": "5265 HIGHWAY 231", "postcode": "32426"}}},
{"geometry": {"type": "Point", "coordinates": [-85.7848265055, 30.7280042344]}, "type": "Feature", "properties": {"collection_times": [{"days": "Mon-Fri", "time": "12:45pm"}, {"days": "Sat-Sun", "time": "Closed"}], "id": "3242700001", "name": "USPS COLLECTION BOX - PO LOBBY", "address": {"city": "BONIFAY", "state": "FL", "street": "PO BOX 1", "postcode": "32427"}}},
{"geometry": {"type": "Point", "coordinates": [-85.7956111113, 30.7215667959]}, "type": "Feature", "properties": {"collection_times": [{"days": "Mon-Fri", "time": "12:45pm"}, {"days": "Sat-Sun", "time": "Closed"}], "id": "3242700002", "name": "USPS COLLECTION BOX - BLUE BOX", "address": {"city": "BONIFAY", "state": "FL", "street": "866 CHURCH ST", "postcode": "32427"}}},
{"geometry": {"type": "Point", "coordinates": [-85.5362900502, 30.7820307182]}, "type": "Feature", "properties": {"collection_times": [{"days": "Mon-Fri", "time": "4:30pm"}, {"days": "Sat", "time": "11:30am"}, {"days": "Sun", "time": "Closed"}], "id": "3242800005", "name": "USPS COLLECTION BOX - BLUE BOX", "address": {"city": "CHIPLEY", "state": "FL", "street": "1276 CHURCH AVE", "postcode": "32428"}}},
{"geometry": {"type": "Point", "coordinates": [-85.5362900502, 30.7820307182]}, "type": "Feature", "properties": {"collection_times": [{"days": "Mon-Fri", "time": "4:30pm"}, {"days": "Sat", "time": "11:30am"}, {"days": "Sun", "time": "Closed"}], "id": "3242800006", "name": "USPS COLLECTION BOX - PO LOBBY", "address": {"city": "CHIPLEY", "state": "FL", "street": "1276 CHURCH AVE", "postcode": "32428"}}},
{"geometry": {"type": "Point", "coordinates": [-85.5421928291, 30.7646179076]}, "type": "Feature", "properties": {"collection_times": [{"days": "Mon-Sat", "time": "2:00pm"}, {"days": "Sun", "time": "Closed"}], "id": "3242800009", "name": "USPS COLLECTION BOX - BLUE BOX", "address": {"city": "CHIPLEY", "state": "FL", "street": "1360 BRICKYARD RD", "postcode": "32428"}}},
{"geometry": {"type": "Point", "coordinates": [-85.5403957867, 30.7717748815]}, "type": "Feature", "properties": {"collection_times": [{"days": "Mon-Sat", "time": "12:00pm"}, {"days": "Sun", "time": "Closed"}], "id": "3242800011", "name": "USPS COLLECTION BOX - BLUE BOX", "address": {"city": "CHIPLEY", "state": "FL", "street": "1331 SOUTH BLVD", "postcode": "32428"}}},
{"geometry": {"type": "Point", "coordinates": [-85.1989726455, 30.4367152506]}, "type": "Feature", "properties": {"collection_times": [{"days": "Mon-Fri", "time": "1:00pm"}, {"days": "Sat", "time": "9:00am"}, {"days": "Sun", "time": "Closed"}], "id": "3243000001", "name": "USPS COLLECTION BOX - PO LOBBY", "address": {"city": "CLARKSVILLE", "state": "FL", "street": "11351 STATE ROAD 20 W", "postcode": "32430"}}},
{"geometry": {"type": "Point", "coordinates": [-85.1989726455, 30.4367152506]}, "type": "Feature", "properties": {"collection_times": [{"days": "Mon-Fri", "time": "4:00pm"}, {"days": "Sat", "time": "9:00am"}, {"days": "Sun", "time": "Closed"}], "id": "3243000002", "name": "USPS COLLECTION BOX - BLUE BOX", "address": {"city": "CLARKSVILLE", "state": "FL", "street": "11351 SR 20 W", "postcode": "32430"}}},
{"geometry": {"type": "Point", "coordinates": [-85.4024179662, 30.8947933944]}, "type": "Feature", "properties": {"collection_times": [{"days": "Mon-Fri", "time": "3:00pm"}, {"days": "Sat", "time": "12:00pm"}, {"days": "Sun", "time": "Closed"}], "id": "3243100003", "name": "USPS COLLECTION BOX - BLUE BOX", "address": {"city": "COTTONDALE", "state": "FL", "street": "3155 MAIN ST", "postcode": "32431"}}},
{"geometry": {"type": "Point", "coordinates": [-85.4024179662, 30.8947933944]}, "type": "Feature", "properties": {"collection_times": [{"days": "Mon-Fri", "time": "3:00pm"}, {"days": "Sat", "time": "12:00pm"}, {"days": "Sun", "time": "Closed"}], "id": "3243100004", "name": "USPS COLLECTION BOX - PO LOBBY", "address": {"city": "COTTONDALE", "state": "FL", "street": "3155 MAIN ST", "postcode": "32431"}}},
{"geometry": {"type": "Point", "coordinates": [-85.0779910717, 30.7137112756]}, "type": "Feature", "properties": {"collection_times": [{"days": "Mon-Fri", "time": "12:00pm"}, {"days": "Sat", "time": "9:00am"}, {"days": "Sun", "time": "Closed"}], "id": "3243200001", "name": "USPS COLLECTION BOX - BLUE BOX", "address": {"city": "CYPRESS", "state": "FL", "street": "2045 MAIN ST", "postcode": "32432"}}},
{"geometry": {"type": "Point", "coordinates": [-85.0779910717, 30.7137112756]}, "type": "Feature", "properties": {"collection_times": [{"days": "Mon-Fri", "time": "12:00pm"}, {"days": "Sat", "time": "9:00am"}, {"days": "Sun", "time": "Closed"}], "id": "3243200002", "name": "USPS COLLECTION BOX - PO LOBBY", "address": {"city": "CYPRESS", "state": "FL", "street": "2045 MAIN ST", "postcode": "32432"}}},
{"geometry": {"type": "Point", "coordinates": [-86.1251673534, 30.7214698207]}, "type": "Feature", "properties": {"collection_times": [{"days": "Mon-Fri", "time": "4:30pm"}, {"days": "Sat", "time": "12:00pm"}, {"days": "Sun", "time": "Closed"}], "id": "3243500003", "name": "USPS COLLECTION BOX - BLUE BOX", "address": {"city": "DEFUNIAK SPGS", "state": "FL", "street": "100 S 18TH ST", "postcode": "32435"}}},
{"geometry": {"type": "Point", "coordinates": [-86.1251673534, 30.7214698207]}, "type": "Feature", "properties": {"collection_times": [{"days": "Mon-Fri", "time": "4:30pm"}, {"days": "Sat", "time": "12:00pm"}, {"days": "Sun", "time": "Closed"}], "id": "3243500008", "name": "USPS COLLECTION BOX - PO LOBBY", "address": {"city": "DEFUNIAK SPGS", "state": "FL", "street": "100 S 18TH ST", "postcode": "32435"}}},
{"geometry": {"type": "Point", "coordinates": [-86.1251673534, 30.7214698207]}, "type": "Feature", "properties": {"collection_times": [{"days": "Mon-Fri", "time": "4:30pm"}, {"days": "Sat", "time": "12:00pm"}, {"days": "Sun", "time": "Closed"}], "id": "3243500009", "name": "USPS COLLECTION BOX - PO LOBBY", "address": {"city": "DEFUNIAK SPGS", "state": "FL", "street": "100 S 18TH ST", "postcode": "32435"}}},
{"geometry": {"type": "Point", "coordinates": [-85.8750435673, 30.4410822618]}, "type": "Feature", "properties": {"collection_times": [{"days": "Mon-Fri", "time": "12:00pm"}, {"days": "Sat", "time": "9:45am"}, {"days": "Sun", "time": "Closed"}], "id": "3243700002", "name": "USPS COLLECTION BOX - BLUE BOX", "address": {"city": "EBRO", "state": "FL", "street": "5416 OBIES ST", "postcode": "32437"}}},
{"geometry": {"type": "Point", "coordinates": [-85.8750435673, 30.4410822618]}, "type": "Feature", "properties": {"collection_times": [{"days": "Mon-Fri", "time": "12:00pm"}, {"days": "Sat", "time": "9:45am"}, {"days": "Sun", "time": "Closed"}], "id": "3243700003", "name": "USPS COLLECTION BOX - PO LOBBY", "address": {"city": "EBRO", "state": "FL", "street": "5416 OBIES ST", "postcode": "32437"}}},
{"geometry": {"type": "Point", "coordinates": [-85.422341246, 30.4793025136]}, "type": "Feature", "properties": {"collection_times": [{"days": "Mon-Fri", "time": "4:00pm"}, {"days": "Sat", "time": "11:30am"}, {"days": "Sun", "time": "Closed"}], "id": "3243800001", "name": "USPS COLLECTION BOX - PO LOBBY", "address": {"city": "FOUNTAIN", "state": "FL", "street": "12606 SILVER LAKE RD", "postcode": "32438"}}},
{"geometry": {"type": "Point", "coordinates": [-85.422341246, 30.4793025136]}, "type": "Feature", "properties": {"collection_times": [{"days": "Mon-Fri", "time": "4:00pm"}, {"days": "Sat", "time": "11:30am"}, {"days": "Sun", "time": "Closed"}], "id": "3243800002", "name": "USPS COLLECTION BOX - BLUE BOX", "address": {"city": "FOUNTAIN", "state": "FL", "street": "12606 SILVER LAKE RD", "postcode": "32438"}}},
{"geometry": {"type": "Point", "coordinates": [-85.422341246, 30.4793025136]}, "type": "Feature", "properties": {"collection_times": [{"days": "Mon-Fri", "time": "4:00pm"}, {"days": "Sat", "time": "11:30am"}, {"days": "Sun", "time": "Closed"}], "id": "3243800003", "name": "USPS COLLECTION BOX - PO LOBBY", "address": {"city": "FOUNTAIN", "state": "FL", "street": "12606 SILVER LAKE RD", "postcode": "32438"}}},
{"geometry": {"type": "Point", "coordinates": [-86.112797103, 30.4982804857]}, "type": "Feature", "properties": {"collection_times": [{"days": "Mon-Fri", "time": "4:00pm"}, {"days": "Sat", "time": "11:30am"}, {"days": "Sun", "time": "Closed"}], "id": "3243900002", "name": "USPS COLLECTION BOX - PO LOBBY", "address": {"city": "FREEPORT", "state": "FL", "street": "77 BRECKYN LOOP", "postcode": "32439"}}},
{"geometry": {"type": "Point", "coordinates": [-86.112797103, 30.4982804857]}, "type": "Feature", "properties": {"collection_times": [{"days": "Mon-Fri", "time": "4:00pm"}, {"days": "Sat", "time": "11:30am"}, {"days": "Sun", "time": "Closed"}], "id": "3243900003", "name": "USPS COLLECTION BOX - PO LOBBY", "address": {"city": "FREEPORT", "state": "FL", "street": "77 BRECKYN LOOP", "postcode": "32439"}}},
{"geometry": {"type": "Point", "coordinates": [-86.112797103, 30.4982804857]}, "type": "Feature", "properties": {"collection_times": [{"days": "Mon-Fri", "time": "4:00pm"}, {"days": "Sat", "time": "11:30am"}, {"days": "Sun", "time": "Closed"}], "id": "3243900004", "name": "USPS COLLECTION BOX - BLUE BOX", "address": {"city": "FREEPORT", "state": "FL", "street": "77 BRECKYN LOOP", "postcode": "32439"}}},
{"geometry": {"type": "Point", "coordinates": [-85.5139287379, 30.956788493]}, "type": "Feature", "properties": {"collection_times": [{"days": "Mon-Sat", "time": "4:00pm"}, {"days": "Sun", "time": "Closed"}], "id": "3244000007", "name": "USPS COLLECTION BOX - BLUE BOX", "address": {"city": "GRACEVILLE", "state": "FL", "street": "5360 CLIFF ST", "postcode": "32440"}}},
{"geometry": {"type": "Point", "coordinates": [-85.5139287379, 30.956788493]}, "type": "Feature", "properties": {"collection_times": [{"days": "Mon-Sat", "time": "4:00pm"}, {"days": "Sun", "time": "Closed"}], "id": "3244000008", "name": "USPS COLLECTION BOX - BLUE BOX", "address": {"city": "GRACEVILLE", "state": "FL", "street": "5360 CLIFF ST", "postcode": "32440"}}},
{"geometry": {"type": "Point", "coordinates": [-85.5139287379, 30.956788493]}, "type": "Feature", "properties": {"collection_times": [{"days": "Mon-Sat", "time": "4:00pm"}, {"days": "Sun", "time": "Closed"}], "id": "3244000011", "name": "USPS COLLECTION BOX - PO LOBBY", "address": {"city": "GRACEVILLE", "state": "FL", "street": "5360 CLIFF ST", "postcode": "32440"}}},
{"geometry": {"type": "Point", "coordinates": [-85.5139287379, 30.956788493]}, "type": "Feature", "properties": {"collection_times": [{"days": "Mon-Sat", "time": "4:00pm"}, {"days": "Sun", "time": "Closed"}], "id": "3244000012", "name": "USPS COLLECTION BOX - PO LOBBY", "address": {"city": "GRACEVILLE", "state": "FL", "street": "5360 CLIFF ST", "postcode": "32440"}}},
{"geometry": {"type": "Point", "coordinates": [-85.0200634174, 30.7224685595]}, "type": "Feature", "properties": {"collection_times": [{"days": "Mon-Fri", "time": "3:45pm"}, {"days": "Sat", "time": "11:00am"}, {"days": "Sun", "time": "Closed"}], "id": "3244200001", "name": "USPS COLLECTION BOX - PO LOBBY", "address": {"city": "GRAND RIDGE", "state": "FL", "street": "2064 PORTER AVE", "postcode": "32442"}}},
{"geometry": {"type": "Point", "coordinates": [-85.0200634174, 30.7224685595]}, "type": "Feature", "properties": {"collection_times": [{"days": "Mon-Fri", "time": "3:30pm"}, {"days": "Sat", "time": "11:00am"}, {"days": "Sun", "time": "Closed"}], "id": "3244200002", "name": "USPS COLLECTION BOX - BLUE BOX", "address": {"city": "GRAND RIDGE", "state": "FL", "street": "2064 PORTER AVE", "postcode": "32442"}}},
{"geometry": {"type": "Point", "coordinates": [-85.1621992249, 30.8720180578]}, "type": "Feature", "properties": {"collection_times": [{"days": "Mon-Fri", "time": "4:15pm"}, {"days": "Sat", "time": "11:30am"}, {"days": "Sun", "time": "Closed"}], "id": "3244300001", "name": "USPS COLLECTION BOX - PO LOBBY", "address": {"city": "GREENWOOD", "state": "FL", "street": "4233 BRYAN ST", "postcode": "32443"}}},
{"geometry": {"type": "Point", "coordinates": [-85.1621992249, 30.8720180578]}, "type": "Feature", "properties": {"collection_times": [{"days": "Mon-Fri", "time": "4:15pm"}, {"days": "Sat", "time": "11:30am"}, {"days": "Sun", "time": "Closed"}], "id": "3244300002", "name": "USPS COLLECTION BOX - BLUE BOX", "address": {"city": "GREENWOOD", "state": "FL", "street": "4233 BRYAN ST", "postcode": "32443"}}},
{"geometry": {"type": "Point", "coordinates": [-85.6491576579, 30.2239149215]}, "type": "Feature", "properties": {"collection_times": [{"days": "Mon-Fri", "time": "5:00pm"}, {"days": "Sat", "time": "3:00pm"}, {"days": "Sun", "time": "Closed"}], "id": "3244400011", "name": "USPS COLLECTION BOX - PO LOBBY", "address": {"city": "LYNN HAVEN", "state": "FL", "street": "2319 S HIGHWAY 77", "postcode": "32444"}}},
{"geometry": {"type": "Point", "coordinates": [-85.6491576579, 30.2239149215]}, "type": "Feature", "properties": {"collection_times": [{"days": "Mon-Fri", "time": "5:00pm"}, {"days": "Sat", "time": "3:00pm"}, {"days": "Sun", "time": "Closed"}], "id": "3244400012", "name": "USPS COLLECTION BOX - BLUE BOX", "address": {"city": "LYNN HAVEN", "state": "FL", "street": "2319 S HIGHWAY 77", "postcode": "32444"}}},
{"geometry": {"type": "Point", "coordinates": [-85.6491576579, 30.2239149215]}, "type": "Feature", "properties": {"collection_times": [{"days": "Mon-Fri", "time": "5:00pm"}, {"days": "Sat", "time": "3:00pm"}, {"days": "Sun", "time": "Closed"}], "id": "3244400013", "name": "USPS COLLECTION BOX - BLUE BOX", "address": {"city": "LYNN HAVEN", "state": "FL", "street": "2319 S HIGHWAY 77", "postcode": "32444"}}},
{"geometry": {"type": "Point", "coordinates": [-85.6491576579, 30.2239149215]}, "type": "Feature", "properties": {"collection_times": [{"days": "Mon-Fri", "time": "5:00pm"}, {"days": "Sat", "time": "3:00pm"}, {"days": "Sun", "time": "Closed"}], "id": "3244400014", "name": "USPS COLLECTION BOX - BLUE BOX", "address": {"city": "LYNN HAVEN", "state": "FL", "street": "2319 S HIGHWAY 77", "postcode": "32444"}}},
{"geometry": {"type": "Point", "coordinates": [-85.6465858105, 30.2367709476]}, "type": "Feature", "properties": {"collection_times": [{"days": "Mon-Fri", "time": "5:00pm"}, {"days": "Sat", "time": "3:00pm"}, {"days": "Sun", "time": "Closed"}], "id": "3244400015", "name": "USPS COLLECTION BOX - BLUE BOX", "address": {"city": "LYNN HAVEN", "state": "FL", "street": "2319 S HIGHWAY 77", "postcode": "32444"}}},
{"geometry": {"type": "Point", "coordinates": [-85.1628211629, 30.9591118068]}, "type": "Feature", "properties": {"collection_times": [{"days": "Mon-Fri", "time": "4:00pm"}, {"days": "Sat", "time": "11:00am"}, {"days": "Sun", "time": "Closed"}], "id": "3244500001", "name": "USPS COLLECTION BOX - PO LOBBY", "address": {"city": "MALONE", "state": "FL", "street": "5179 7TH AVE", "postcode": "32445"}}},
{"geometry": {"type": "Point", "coordinates": [-85.1628211629, 30.9591118068]}, "type": "Feature", "properties": {"collection_times": [{"days": "Mon-Fri", "time": "4:00pm"}, {"days": "Sat", "time": "11:00am"}, {"days": "Sun", "time": "Closed"}], "id": "3244500002", "name": "USPS COLLECTION BOX - BLUE BOX", "address": {"city": "MALONE", "state": "FL", "street": "5179 7TH AVE", "postcode": "32445"}}},
{"geometry": {"type": "Point", "coordinates": [-85.2278025639, 30.7743330608]}, "type": "Feature", "properties": {"collection_times": [{"days": "Mon-Fri", "time": "5:00pm"}, {"days": "Sat", "time": "4:00pm"}, {"days": "Sun", "time": "Closed"}], "id": "3244600001", "name": "USPS COLLECTION BOX - BLUE BOX", "address": {"city": "MARIANNA", "state": "FL", "street": "4396 LAFAYETTE ST", "postcode": "32446"}}},
{"geometry": {"type": "Point", "coordinates": [-85.2030714217, 30.766392962]}, "type": "Feature", "properties": {"collection_times": [{"days": "Mon-Sat", "time": "1:30pm"}, {"days": "Sun", "time": "Closed"}], "id": "3244600005", "name": "USPS COLLECTION BOX - BLUE BOX", "address": {"city": "MARIANNA", "state": "FL", "street": "4727 HIGHWAY 90", "postcode": "32446"}}},
{"geometry": {"type": "Point", "coordinates": [-85.2222409445, 30.7758849466]}, "type": "Feature", "properties": {"collection_times": [{"days": "Mon-Fri", "time": "3:00pm"}, {"days": "Sat-Sun", "time": "Closed"}], "id": "3244600012", "name": "USPS COLLECTION BOX - BLUE BOX", "address": {"city": "MARIANNA", "state": "FL", "street": "4481 CLINTON ST", "postcode": "32446"}}},
{"geometry": {"type": "Point", "coordinates": [-85.2498491089, 30.7841442982]}, "type": "Feature", "properties": {"collection_times": [{"days": "Mon-Fri", "time": "3:00pm"}, {"days": "Sat", "time": "9:45am"}, {"days": "Sun", "time": "Closed"}], "id": "3244600019", "name": "USPS COLLECTION BOX - BLUE BOX", "address": {"city": "MARIANNA", "state": "FL", "street": "4154 LAFAYETTE ST", "postcode": "32446"}}},
{"geometry": {"type": "Point", "coordinates": [-85.2377901433, 30.7854885338]}, "type": "Feature", "properties": {"collection_times": [{"days": "Mon-Fri", "time": "10:30am"}, {"days": "Sat-Sun", "time": "Closed"}], "id": "3244600020", "name": "USPS COLLECTION BOX - BLUE BOX", "address": {"city": "MARIANNA", "state": "FL", "street": "4294 3RD AVE", "postcode": "32446"}}},
{"geometry": {"type": "Point", "coordinates": [-85.2278025639, 30.7743330608]}, "type": "Feature", "properties": {"collection_times": [{"days": "Mon-Fri", "time": "5:00pm"}, {"days": "Sat", "time": "4:00pm"}, {"days": "Sun", "time": "Closed"}], "id": "3244600022", "name": "USPS COLLECTION BOX - BLUE BOX", "address": {"city": "MARIANNA", "state": "FL", "street": "4396 LAFAYETTE ST", "postcode": "32446"}}},
{"geometry": {"type": "Point", "coordinates": [-85.2278025639, 30.7743330608]}, "type": "Feature", "properties": {"collection_times": [{"days": "Mon-Fri", "time": "5:00pm"}, {"days": "Sat", "time": "4:00pm"}, {"days": "Sun", "time": "Closed"}], "id": "3244600023", "name": "USPS COLLECTION BOX - BLUE BOX", "address": {"city": "MARIANNA", "state": "FL", "street": "4396 LAFAYETTE ST", "postcode": "32446"}}},
{"geometry": {"type": "Point", "coordinates": [-85.2278025639, 30.7743330608]}, "type": "Feature", "properties": {"collection_times": [{"days": "Mon-Fri", "time": "5:00pm"}, {"days": "Sat", "time": "4:00pm"}, {"days": "Sun", "time": "Closed"}], "id": "3244600024", "name": "USPS COLLECTION BOX - BLUE BOX", "address": {"city": "MARIANNA", "state": "FL", "street": "4396 LAFAYETTE ST", "postcode": "32446"}}},
{"geometry": {"type": "Point", "coordinates": [-85.2330301377, 30.7891479531]}, "type": "Feature", "properties": {"collection_times": [{"days": "Mon-Fri", "time": "3:00pm"}, {"days": "Sat-Sun", "time": "Closed"}], "id": "3244600025", "name": "USPS COLLECTION BOX - BLUE BOX", "address": {"city": "MARIANNA", "state": "FL", "street": "3082 COLLEGE ST", "postcode": "32446"}}},
{"geometry": {"type": "Point", "coordinates": [-85.202557989, 30.7700953284]}, "type": "Feature", "properties": {"collection_times": [{"days": "Mon-Fri", "time": "11:00am"}, {"days": "Sat", "time": "10:00am"}, {"days": "Sun", "time": "Closed"}], "id": "3244600026", "name": "USPS COLLECTION BOX - BLUE BOX", "address": {"city": "MARIANNA", "state": "FL", "street": "2816 HIGHWAY 71", "postcode": "32446"}}},
{"geometry": {"type": "Point", "coordinates": [-85.2278025639, 30.7743330608]}, "type": "Feature", "properties": {"collection_times": [{"days": "Mon-Fri", "time": "5:00pm"}, {"days": "Sat", "time": "4:00pm"}, {"days": "Sun", "time": "Closed"}], "id": "3244600027", "name": "USPS COLLECTION BOX - PO LOBBY", "address": {"city": "MARIANNA", "state": "FL", "street": "4396 LAFAYETTE ST", "postcode": "32446"}}},
{"geometry": {"type": "Point", "coordinates": [-85.2278025639, 30.7743330608]}, "type": "Feature", "properties": {"collection_times": [{"days": "Mon-Fri", "time": "5:00pm"}, {"days": "Sat", "time": "4:00pm"}, {"days": "Sun", "time": "Closed"}], "id": "3244600033", "name": "USPS COLLECTION BOX - PO LOBBY", "address": {"city": "MARIANNA", "state": "FL", "street": "4396 LAFAYETTE ST", "postcode": "32446"}}},
{"geometry": {"type": "Point", "coordinates": [-85.2278025639, 30.7743330608]}, "type": "Feature", "properties": {"collection_times": [{"days": "Mon-Fri", "time": "5:00pm"}, {"days": "Sat", "time": "4:00pm"}, {"days": "Sun", "time": "Closed"}], "id": "3244600034", "name": "USPS COLLECTION BOX - PO LOBBY", "address": {"city": "MARIANNA", "state": "FL", "street": "4396 LAFAYETTE ST", "postcode": "32446"}}},
{"geometry": {"type": "Point", "coordinates": [-85.2278025639, 30.7743330608]}, "type": "Feature", "properties": {"collection_times": [{"days": "Mon-Fri", "time": "5:00pm"}, {"days": "Sat", "time": "4:00pm"}, {"days": "Sun", "time": "Closed"}], "id": "3244600035", "name": "USPS COLLECTION BOX - PO LOBBY", "address": {"city": "MARIANNA", "state": "FL", "street": "4396 LAFAYETTE ST", "postcode": "32446"}}},
{"geometry": {"type": "Point", "coordinates": [-85.2278025639, 30.7743330608]}, "type": "Feature", "properties": {"collection_times": [{"days": "Mon-Fri", "time": "5:00pm"}, {"days": "Sat", "time": "4:00pm"}, {"days": "Sun", "time": "Closed"}], "id": "3244600036", "name": "USPS COLLECTION BOX - PO LOBBY", "address": {"city": "MARIANNA", "state": "FL", "street": "4396 LAFAYETTE ST", "postcode": "32446"}}},
{"geometry": {"type": "Point", "coordinates": [-85.2278025639, 30.7743330608]}, "type": "Feature", "properties": {"collection_times": [{"days": "Mon-Fri", "time": "5:00pm"}, {"days": "Sat", "time": "4:00pm"}, {"days": "Sun", "time": "Closed"}], "id": "3244600037", "name": "USPS COLLECTION BOX - PO LOBBY", "address": {"city": "MARIANNA", "state": "FL", "street": "4396 LAFAYETTE ST", "postcode": "32446"}}},
{"geometry": {"type": "Point", "coordinates": [-85.2428361041, 30.7813373131]}, "type": "Feature", "properties": {"collection_times": [{"days": "Mon-Fri", "time": "3:00pm"}, {"days": "Sat-Sun", "time": "Closed"}], "id": "3244600038", "name": "USPS COLLECTION BOX - BLUE BOX", "address": {"city": "MARIANNA", "state": "FL", "street": "4230 LAFAYETTE ST", "postcode": "32446"}}},
{"geometry": {"type": "Point", "coordinates": [-85.2425149439, 30.7869480831]}, "type": "Feature", "properties": {"collection_times": [{"days": "Mon-Fri", "time": "10:30am"}, {"days": "Sat-Sun", "time": "Closed"}], "id": "3244600040", "name": "USPS COLLECTION BOX - BLUE BOX", "address": {"city": "MARIANNA", "state": "FL", "street": "4230 HOSPITAL DR", "postcode": "32446"}}},
{"geometry": {"type": "Point", "coordinates": [-85.2412594786, 30.7863362617]}, "type": "Feature", "properties": {"collection_times": [{"days": "Mon-Fri", "time": "10:30am"}, {"days": "Sat-Sun", "time": "Closed"}], "id": "3244600041", "name": "USPS COLLECTION BOX - BLUE BOX", "address": {"city": "MARIANNA", "state": "FL", "street": "4250 HOSPITAL DR", "postcode": "32446"}}},
{"geometry": {"type": "Point", "coordinates": [-85.1843209044, 30.7013100581]}, "type": "Feature", "properties": {"collection_times": [{"days": "Mon-Sat", "time": "9:30am"}, {"days": "Sun", "time": "Closed"}], "id": "3244800001", "name": "USPS COLLECTION BOX - BLUE BOX", "address": {"city": "MARIANNA", "state": "FL", "street": "2112 HIGHWAY 71", "postcode": "32448"}}},
{"geometry": {"type": "Point", "coordinates": [-85.2256754829, 30.7736771806]}, "type": "Feature", "properties": {"collection_times": [{"days": "Mon-Fri", "time": "3:00pm"}, {"days": "Sat-Sun", "time": "Closed"}], "id": "3244800002", "name": "USPS COLLECTION BOX - BLUE BOX", "address": {"city": "MARIANNA", "state": "FL", "street": "2869 MADISON ST", "postcode": "32448"}}},
{"geometry": {"type": "Point", "coordinates": [-85.2107662727, 30.6704128523]}, "type": "Feature", "properties": {"collection_times": [{"days": "Mon-Fri", "time": "3:00pm"}, {"days": "Sat-Sun", "time": "Closed"}], "id": "3244800003", "name": "USPS COLLECTION BOX - BLUE BOX", "address": {"city": "MARIANNA", "state": "FL", "street": "2916 OPTIMIST DR", "postcode": "32448"}}},
{"geometry": {"type": "Point", "coordinates": [-85.2546405937, 30.7665610909]}, "type": "Feature", "properties": {"collection_times": [{"days": "Mon-Fri", "time": "3:00pm"}, {"days": "Sat-Sun", "time": "Closed"}], "id": "3244800004", "name": "USPS COLLECTION BOX - BLUE BOX", "address": {"city": "MARIANNA", "state": "FL", "street": "2741 PENN AVE", "postcode": "32448"}}},
{"geometry": {"type": "Point", "coordinates": [-85.2276152707, 30.7575327395]}, "type": "Feature", "properties": {"collection_times": [{"days": "Mon-Sat", "time": "11:00am"}, {"days": "Sun", "time": "Closed"}], "id": "3244800005", "name": "USPS COLLECTION BOX - BLUE BOX", "address": {"city": "MARIANNA", "state": "FL", "street": "4445 ORCHARD POINTE DR", "postcode": "32448"}}},
{"geometry": {"type": "Point", "coordinates": [-85.1853316591, 30.7106266743]}, "type": "Feature", "properties": {"collection_times": [{"days": "Mon-Sat", "time": "9:30am"}, {"days": "Sun", "time": "Closed"}], "id": "3244800006", "name": "USPS COLLECTION BOX - BLUE BOX", "address": {"city": "MARIANNA", "state": "FL", "street": "2255 HIGHWAY 71", "postcode": "32448"}}},
{"geometry": {"type": "Point", "coordinates": [-85.2256754829, 30.7736771806]}, "type": "Feature", "properties": {"collection_times": [{"days": "Mon-Fri", "time": "3:00pm"}, {"days": "Sat-Sun", "time": "Closed"}], "id": "3244800007", "name": "USPS COLLECTION BOX - BLUE BOX", "address": {"city": "MARIANNA", "state": "FL", "street": "2869 MADISON ST", "postcode": "32448"}}},
{"geometry": {"type": "Point", "coordinates": [-85.2279966707, 30.7148605927]}, "type": "Feature", "properties": {"collection_times": [{"days": "Mon-Fri", "time": "3:00pm"}, {"days": "Sat", "time": "10:00am"}, {"days": "Sun", "time": "Closed"}], "id": "3244800008", "name": "USPS COLLECTION BOX - BLUE BOX", "address": {"city": "MARIANNA", "state": "FL", "street": "2958 PENNSYLVANIA AVE", "postcode": "32448"}}},
{"geometry": {"type": "Point", "coordinates": [-85.9365516844, 30.669361948]}, "type": "Feature", "properties": {"collection_times": [{"days": "Mon-Fri", "time": "4:30pm"}, {"days": "Sat", "time": "11:00am"}, {"days": "Sun", "time": "Closed"}], "id": "3245500001", "name": "USPS COLLECTION BOX - PO LOBBY", "address": {"city": "PONCE DE LEON", "state": "FL", "street": "2834 N HIGHWAY 81", "postcode": "32455"}}},
{"geometry": {"type": "Point", "coordinates": [-85.9365516844, 30.669361948]}, "type": "Feature", "properties": {"collection_times": [{"days": "Mon-Fri", "time": "4:30pm"}, {"days": "Sat", "time": "11:00am"}, {"days": "Sun", "time": "Closed"}], "id": "3245500004", "name": "USPS COLLECTION BOX - BLUE BOX", "address": {"city": "PONCE DE LEON", "state": "FL", "street": "2834 N HIGHWAY 81", "postcode": "32455"}}},
{"geometry": {"type": "Point", "coordinates": [-85.2948226841, 29.8142124549]}, "type": "Feature", "properties": {"collection_times": [{"days": "Mon-Fri", "time": "3:30pm"}, {"days": "Sat", "time": "2:30pm"}, {"days": "Sun", "time": "Closed"}], "id": "3245600014", "name": "USPS COLLECTION BOX - BLUE BOX", "address": {"city": "PORT ST JOE", "state": "FL", "street": "502 GARRISON AVE", "postcode": "32456"}}},
{"geometry": {"type": "Point", "coordinates": [-85.2948226841, 29.8142124549]}, "type": "Feature", "properties": {"collection_times": [{"days": "Mon-Fri", "time": "3:30pm"}, {"days": "Sat", "time": "2:30pm"}, {"days": "Sun", "time": "Closed"}], "id": "3245600015", "name": "USPS COLLECTION BOX - BLUE BOX", "address": {"city": "PORT ST JOE", "state": "FL", "street": "502 GARRISON AVE", "postcode": "32456"}}},
{"geometry": {"type": "Point", "coordinates": [-85.2948226841, 29.8142124549]}, "type": "Feature", "properties": {"collection_times": [{"days": "Mon-Fri", "time": "3:30pm"}, {"days": "Sat", "time": "2:30pm"}, {"days": "Sun", "time": "Closed"}], "id": "3245600016", "name": "USPS COLLECTION BOX - PO LOBBY", "address": {"city": "PORT ST JOE", "state": "FL", "street": "502 GARRISON AVE", "postcode": "32456"}}},
{"geometry": {"type": "Point", "coordinates": [-85.2948226841, 29.8142124549]}, "type": "Feature", "properties": {"collection_times": [{"days": "Mon-Fri", "time": "3:30pm"}, {"days": "Sat", "time": "2:30pm"}, {"days": "Sun", "time": "Closed"}], "id": "3245600017", "name": "USPS COLLECTION BOX - PO LOBBY", "address": {"city": "PORT ST JOE", "state": "FL", "street": "502 GARRISON AVE", "postcode": "32456"}}},
{"geometry": {"type": "Point", "coordinates": [-86.1120177764, 30.3123940417]}, "type": "Feature", "properties": {"collection_times": [{"days": "Mon-Sat", "time": "11:00am"}, {"days": "Sun", "time": "Closed"}], "id": "3245900002", "name": "USPS COLLECTION BOX - BLUE BOX", "address": {"city": "SANTA ROSA BEACH", "state": "FL", "street": "3723 E CNTY HIGHWAY 30A", "postcode": "32459"}}},
{"geometry": {"type": "Point", "coordinates": [-86.244006264, 30.3744046479]}, "type": "Feature", "properties": {"collection_times": [{"days": "Mon-Fri", "time": "4:30pm"}, {"days": "Sat", "time": "12:00pm"}, {"days": "Sun", "time": "Closed"}], "id": "3245900004", "name": "USPS COLLECTION BOX - BLUE BOX", "address": {"city": "SANTA ROSA BEACH", "state": "FL", "street": "3906 US HIGHWAY 98 W", "postcode": "32459"}}},
{"geometry": {"type": "Point", "coordinates": [-86.244006264, 30.3744046479]}, "type": "Feature", "properties": {"collection_times": [{"days": "Mon-Fri", "time": "4:30pm"}, {"days": "Sat", "time": "12:00pm"}, {"days": "Sun", "time": "Closed"}], "id": "3245900005", "name": "USPS COLLECTION BOX - BLUE BOX", "address": {"city": "SANTA ROSA BEACH", "state": "FL", "street": "3906 US HIGHWAY 98 W", "postcode": "32459"}}},
{"geometry": {"type": "Point", "coordinates": [-86.244006264, 30.3744046479]}, "type": "Feature", "properties": {"collection_times": [{"days": "Mon-Fri", "time": "4:30pm"}, {"days": "Sat", "time": "12:00pm"}, {"days": "Sun", "time": "Closed"}], "id": "3245900006", "name": "USPS COLLECTION BOX - PO LOBBY", "address": {"city": "SANTA ROSA BEACH", "state": "FL", "street": "3906 US HIGHWAY 98 W", "postcode": "32459"}}},
{"geometry": {"type": "Point", "coordinates": [-86.1607741713, 30.3568015557]}, "type": "Feature", "properties": {"collection_times": [{"days": "Mon-Sat", "time": "10:30am"}, {"days": "Sun", "time": "Closed"}], "id": "3245900008", "name": "USPS COLLECTION BOX - BLUE BOX", "address": {"city": "SANTA ROSA BEACH", "state": "FL", "street": "31 COASTAL CENTRE BLVD", "postcode": "32459"}}},
{"geometry": {"type": "Point", "coordinates": [-84.9267500645, 30.7102860629]}, "type": "Feature", "properties": {"collection_times": [{"days": "Mon-Fri", "time": "4:00pm"}, {"days": "Sat", "time": "1:30pm"}, {"days": "Sun", "time": "Closed"}], "id": "3246000001", "name": "USPS COLLECTION BOX - BLUE BOX", "address": {"city": "SNEADS", "state": "FL", "street": "2042 GREEN AVE", "postcode": "32460"}}},
{"geometry": {"type": "Point", "coordinates": [-84.9267500645, 30.7102860629]}, "type": "Feature", "properties": {"collection_times": [{"days": "Mon-Fri", "time": "4:00pm"}, {"days": "Sat", "time": "1:30pm"}, {"days": "Sun", "time": "Closed"}], "id": "3246000002", "name": "USPS COLLECTION BOX - PO LOBBY", "address": {"city": "SNEADS", "state": "FL", "street": "2042 GREEN AVE", "postcode": "32460"}}},
{"geometry": {"type": "Point", "coordinates": [-85.7123858423, 30.6211444286]}, "type": "Feature", "properties": {"collection_times": [{"days": "Mon-Fri", "time": "4:00pm"}, {"days": "Sat", "time": "11:00am"}, {"days": "Sun", "time": "Closed"}], "id": "3246200001", "name": "USPS COLLECTION BOX - BLUE BOX", "address": {"city": "VERNON", "state": "FL", "street": "3039 MAIN ST", "postcode": "32462"}}},
{"geometry": {"type": "Point", "coordinates": [-85.7123858423, 30.6211444286]}, "type": "Feature", "properties": {"collection_times": [{"days": "Mon-Fri", "time": "4:00pm"}, {"days": "Sat", "time": "11:00am"}, {"days": "Sun", "time": "Closed"}], "id": "3246200002", "name": "USPS COLLECTION BOX - PO LOBBY", "address": {"city": "VERNON", "state": "FL", "street": "3039 MAIN ST", "postcode": "32462"}}},
{"geometry": {"type": "Point", "coordinates": [-85.5895635082, 30.6307509013]}, "type": "Feature", "properties": {"collection_times": [{"days": "Mon-Fri", "time": "4:00pm"}, {"days": "Sat", "time": "11:30am"}, {"days": "Sun", "time": "Closed"}], "id": "3246300000", "name": "USPS COLLECTION BOX - PO LOBBY", "address": {"city": "WAUSAU", "state": "FL", "street": "3556 WASHINGTON ST", "postcode": "32463"}}},
{"geometry": {"type": "Point", "coordinates": [-85.5895635082, 30.6307509013]}, "type": "Feature", "properties": {"collection_times": [{"days": "Mon-Fri", "time": "4:00pm"}, {"days": "Sat", "time": "11:30am"}, {"days": "Sun", "time": "Closed"}], "id": "3246300001", "name": "USPS COLLECTION BOX - BLUE BOX", "address": {"city": "WAUSAU", "state": "FL", "street": "3556 WASHINGTON ST", "postcode": "32463"}}},
{"geometry": {"type": "Point", "coordinates": [-85.8505295296, 30.7746996921]}, "type": "Feature", "properties": {"collection_times": [{"days": "Mon-Fri", "time": "4:00pm"}, {"days": "Sat", "time": "9:30am"}, {"days": "Sun", "time": "Closed"}], "id": "3246400001", "name": "USPS COLLECTION BOX - PO LOBBY", "address": {"city": "WESTVILLE", "state": "FL", "street": "2527 N PINE ST", "postcode": "32464"}}},
{"geometry": {"type": "Point", "coordinates": [-85.8505295296, 30.7746996921]}, "type": "Feature", "properties": {"collection_times": [{"days": "Mon-Fri", "time": "4:00pm"}, {"days": "Sat", "time": "9:30am"}, {"days": "Sun", "time": "Closed"}], "id": "3246400002", "name": "USPS COLLECTION BOX - BLUE BOX", "address": {"city": "WESTVILLE", "state": "FL", "street": "2527 N PINE ST", "postcode": "32464"}}},
{"geometry": {"type": "Point", "coordinates": [-85.2030722929, 30.1138369254]}, "type": "Feature", "properties": {"collection_times": [{"days": "Mon-Fri", "time": "4:00pm"}, {"days": "Sat", "time": "12:00pm"}, {"days": "Sun", "time": "Closed"}], "id": "3246500003", "name": "USPS COLLECTION BOX - BLUE BOX", "address": {"city": "WEWAHITCHKA", "state": "FL", "street": "432 HIGHWAY 22", "postcode": "32465"}}},
{"geometry": {"type": "Point", "coordinates": [-85.2030722929, 30.1138369254]}, "type": "Feature", "properties": {"collection_times": [{"days": "Mon-Fri", "time": "4:00pm"}, {"days": "Sat", "time": "12:00pm"}, {"days": "Sun", "time": "Closed"}], "id": "3246500004", "name": "USPS COLLECTION BOX - PO LOBBY", "address": {"city": "WEWAHITCHKA", "state": "FL", "street": "432 HIGHWAY 22", "postcode": "32465"}}},
{"geometry": {"type": "Point", "coordinates": [-85.549644377, 30.3095132709]}, "type": "Feature", "properties": {"collection_times": [{"days": "Mon-Fri", "time": "4:15pm"}, {"days": "Sat", "time": "11:30am"}, {"days": "Sun", "time": "Closed"}], "id": "3246600001", "name": "USPS COLLECTION BOX - BLUE BOX", "address": {"city": "YOUNGSTOWN", "state": "FL", "street": "11805 HIGHWAY 231", "postcode": "32466"}}},
{"geometry": {"type": "Point", "coordinates": [-85.4403964392, 30.3467957278]}, "type": "Feature", "properties": {"collection_times": [{"days": "Mon-Fri", "time": "4:15pm"}, {"days": "Sat", "time": "11:30am"}, {"days": "Sun", "time": "Closed"}], "id": "3246600002", "name": "USPS COLLECTION BOX - BLUE BOX", "address": {"city": "YOUNGSTOWN", "state": "FL", "street": "11805 HIGHWAY 231", "postcode": "32466"}}},
{"geometry": {"type": "Point", "coordinates": [-85.4403964392, 30.3467957278]}, "type": "Feature", "properties": {"collection_times": [{"days": "Mon-Fri", "time": "4:15pm"}, {"days": "Sat", "time": "11:30am"}, {"days": "Sun", "time": "Closed"}], "id": "3246600003", "name": "USPS COLLECTION BOX - PO LOBBY", "address": {"city": "YOUNGSTOWN", "state": "FL", "street": "11805 HIGHWAY 231", "postcode": "32466"}}}
]}
