{"type": "FeatureCollection", "features": [
{"geometry": {"type": "Point", "coordinates": [-87.234918232, 30.4338534695]}, "type": "Feature", "properties": {"collection_times": [{"days": "Mon-Sat", "time": "6:00pm"}, {"days": "Sun", "time": "Closed"}], "id": "3250100000", "name": "USPS COLLECTION BOX - PO LOBBY", "address": {"city": "PENSACOLA", "state": "FL", "street": "1400 W JORDAN ST", "postcode": "32501"}}},
{"geometry": {"type": "Point", "coordinates": [-87.2348696755, 30.4338478446]}, "type": "Feature", "properties": {"collection_times": [{"days": "Mon-Sat", "time": "6:00pm"}, {"days": "Sun", "time": "Closed"}], "id": "3250100001", "name": "USPS COLLECTION BOX - BLUE BOX", "address": {"city": "PENSACOLA", "state": "FL", "street": "1400 W JORDAN ST", "postcode": "32501"}}},
{"geometry": {"type": "Point", "coordinates": [-87.234918232, 30.4338534695]}, "type": "Feature", "properties": {"collection_times": [{"days": "Mon-Sat", "time": "6:00pm"}, {"days": "Sun", "time": "Closed"}], "id": "3250100003", "name": "USPS COLLECTION BOX - BLUE BOX", "address": {"city": "PENSACOLA", "state": "FL", "street": "1400 W JORDAN ST", "postcode": "32501"}}},
{"geometry": {"type": "Point", "coordinates": [-87.234918232, 30.4338534695]}, "type": "Feature", "properties": {"collection_times": [{"days": "Mon-Sat", "time": "6:00pm"}, {"days": "Sun", "time": "Closed"}], "id": "3250100007", "name": "USPS COLLECTION BOX - PO LOBBY", "address": {"city": "PENSACOLA", "state": "FL", "street": "1400 W JORDAN ST", "postcode": "32501"}}},
{"geometry": {"type": "Point", "coordinates": [-87.234918232, 30.4338534695]}, "type": "Feature", "properties": {"collection_times": [{"days": "Mon-Sat", "time": "6:00pm"}, {"days": "Sun", "time": "Closed"}], "id": "3250100008", "name": "USPS COLLECTION BOX - PO LOBBY", "address": {"city": "PENSACOLA", "state": "FL", "street": "1400 W JORDAN ST", "postcode": "32501"}}},
{"geometry": {"type": "Point", "coordinates": [-87.2158318203, 30.4166246832]}, "type": "Feature", "properties": {"collection_times": [{"days": "Mon-Fri", "time": "2:00pm"}, {"days": "Sat-Sun", "time": "Closed"}], "id": "3250100078", "name": "USPS COLLECTION BOX - BLUE BOX", "address": {"city": "PENSACOLA", "state": "FL", "street": "25 E WRIGHT ST", "postcode": "32501"}}},
{"geometry": {"type": "Point", "coordinates": [-87.2203941239, 30.4336162888]}, "type": "Feature", "properties": {"collection_times": [{"days": "Mon-Fri", "time": "2:00pm"}, {"days": "Sat-Sun", "time": "Closed"}], "id": "3250100082", "name": "USPS COLLECTION BOX - BLUE BOX", "address": {"city": "PENSACOLA", "state": "FL", "street": "14 W JORDAN ST", "postcode": "32501"}}},
{"geometry": {"type": "Point", "coordinates": [-87.2295679268, 30.4297874628]}, "type": "Feature", "properties": {"collection_times": [{"days": "Mon-Fri", "time": "2:30pm"}, {"days": "Sat-Sun", "time": "Closed"}], "id": "3250100084", "name": "USPS COLLECTION BOX - BLUE BOX", "address": {"city": "PENSACOLA", "state": "FL", "street": "1717 N E ST", "postcode": "32501"}}},
{"geometry": {"type": "Point", "coordinates": [-87.2295679268, 30.4297874628]}, "type": "Feature", "properties": {"collection_times": [{"days": "Mon-Fri", "time": "2:30pm"}, {"days": "Sat-Sun", "time": "Closed"}], "id": "3250100085", "name": "USPS COLLECTION BOX - BLUE BOX", "address": {"city": "PENSACOLA", "state": "FL", "street": "1717 N E ST", "postcode": "32501"}}},
{"geometry": {"type": "Point", "coordinates": [-87.2295679268, 30.4297874628]}, "type": "Feature", "properties": {"collection_times": [{"days": "Mon-Fri", "time": "2:30pm"}, {"days": "Sat-Sun", "time": "Closed"}], "id": "3250100086", "name": "USPS COLLECTION BOX - BLUE BOX", "address": {"city": "PENSACOLA", "state": "FL", "street": "1717 N E ST", "postcode": "32501"}}},
{"geometry": {"type": "Point", "coordinates": [-87.2330167034, 30.4317473233]}, "type": "Feature", "properties": {"collection_times": [{"days": "Mon-Fri", "time": "2:30pm"}, {"days": "Sat-Sun", "time": "Closed"}], "id": "3250100087", "name": "USPS COLLECTION BOX - BLUE BOX", "address": {"city": "PENSACOLA", "state": "FL", "street": "1221 W LAKEVIEW AVE", "postcode": "32501"}}},
{"geometry": {"type": "Point", "coordinates": [-87.2332259879, 30.4449386491]}, "type": "Feature", "properties": {"collection_times": [{"days": "Mon-Fri", "time": "2:00pm"}, {"days": "Sat-Sun", "time": "Closed"}], "id": "3250100106", "name": "USPS COLLECTION BOX - BLUE BOX", "address": {"city": "PENSACOLA", "state": "FL", "street": "1295 W FAIRFIELD DR", "postcode": "32501"}}},
{"geometry": {"type": "Point", "coordinates": [-87.2150991762, 30.4113286755]}, "type": "Feature", "properties": {"collection_times": [{"days": "Mon-Fri", "time": "5:00pm"}, {"days": "Sat", "time": "10:00am"}, {"days": "Sun", "time": "Closed"}], "id": "3250200002", "name": "USPS COLLECTION BOX - PO LOBBY", "address": {"city": "PENSACOLA", "state": "FL", "street": "101 PALAFOX PL", "postcode": "32502"}}},
{"geometry": {"type": "Point", "coordinates": [-87.2150991762, 30.4113286755]}, "type": "Feature", "properties": {"collection_times": [{"days": "Mon-Fri", "time": "5:00pm"}, {"days": "Sat", "time": "10:00am"}, {"days": "Sun", "time": "Closed"}], "id": "3250200003", "name": "USPS COLLECTION BOX - PO LOBBY", "address": {"city": "PENSACOLA", "state": "FL", "street": "101 PALAFOX PL", "postcode": "32502"}}},
{"geometry": {"type": "Point", "coordinates": [-87.2172166799, 30.4088584722]}, "type": "Feature", "properties": {"collection_times": [{"days": "Mon-Fri", "time": "3:35pm"}, {"days": "Sat-Sun", "time": "Closed"}], "id": "3250200008", "name": "USPS COLLECTION BOX - BLUE BOX", "address": {"city": "PENSACOLA", "state": "FL", "street": "160 W GOVERNMENT ST", "postcode": "32502"}}},
{"geometry": {"type": "Point", "coordinates": [-87.216924304, 30.4128233522]}, "type": "Feature", "properties": {"collection_times": [{"days": "Mon-Fri", "time": "3:30pm"}, {"days": "Sat-Sun", "time": "Closed"}], "id": "3250200009", "name": "USPS COLLECTION BOX - BLUE BOX", "address": {"city": "PENSACOLA", "state": "FL", "street": "100 W GARDEN ST", "postcode": "32502"}}},
{"geometry": {"type": "Point", "coordinates": [-87.2147882114, 30.41005356]}, "type": "Feature", "properties": {"collection_times": [{"days": "Mon-Fri", "time": "4:15pm"}, {"days": "Sat-Sun", "time": "Closed"}], "id": "3250200013", "name": "USPS COLLECTION BOX - BLUE BOX", "address": {"city": "PENSACOLA", "state": "FL", "street": "223 PALAFOX PL", "postcode": "32502"}}},
{"geometry": {"type": "Point", "coordinates": [-87.2147882114, 30.41005356]}, "type": "Feature", "properties": {"collection_times": [{"days": "Mon-Fri", "time": "4:15pm"}, {"days": "Sat-Sun", "time": "Closed"}], "id": "3250200014", "name": "USPS COLLECTION BOX - BLUE BOX", "address": {"city": "PENSACOLA", "state": "FL", "street": "223 PALAFOX PL", "postcode": "32502"}}},
{"geometry": {"type": "Point", "coordinates": [-87.2147882114, 30.41005356]}, "type": "Feature", "properties": {"collection_times": [{"days": "Mon-Fri", "time": "4:15pm"}, {"days": "Sat-Sun", "time": "Closed"}], "id": "3250200015", "name": "USPS COLLECTION BOX - BLUE BOX", "address": {"city": "PENSACOLA", "state": "FL", "street": "223 PALAFOX PL", "postcode": "32502"}}},
{"geometry": {"type": "Point", "coordinates": [-87.2147882114, 30.41005356]}, "type": "Feature", "properties": {"collection_times": [{"days": "Mon-Fri", "time": "4:15pm"}, {"days": "Sat-Sun", "time": "Closed"}], "id": "3250200016", "name": "USPS COLLECTION BOX - BLUE BOX", "address": {"city": "PENSACOLA", "state": "FL", "street": "223 PALAFOX PL", "postcode": "32502"}}},
{"geometry": {"type": "Point", "coordinates": [-87.2127384358, 30.413538556]}, "type": "Feature", "properties": {"collection_times": [{"days": "Mon-Fri", "time": "4:00pm"}, {"days": "Sat", "time": "10:00am"}, {"days": "Sun", "time": "Closed"}], "id": "3250200017", "name": "USPS COLLECTION BOX - BLUE BOX", "address": {"city": "PENSACOLA", "state": "FL", "street": "200 E GARDEN ST", "postcode": "32502"}}},
{"geometry": {"type": "Point", "coordinates": [-87.2150468396, 30.4112795395]}, "type": "Feature", "properties": {"collection_times": [{"days": "Mon-Fri", "time": "5:00pm"}, {"days": "Sat", "time": "10:00am"}, {"days": "Sun", "time": "Closed"}], "id": "3250200019", "name": "USPS COLLECTION BOX - BLUE BOX", "address": {"city": "PENSACOLA", "state": "FL", "street": "101 PALAFOX PL", "postcode": "32502"}}},
{"geometry": {"type": "Point", "coordinates": [-87.2154679774, 30.4142994241]}, "type": "Feature", "properties": {"collection_times": [{"days": "Mon-Fri", "time": "3:45pm"}, {"days": "Sat", "time": "10:00am"}, {"days": "Sun", "time": "Closed"}], "id": "3250200020", "name": "USPS COLLECTION BOX - BLUE BOX", "address": {"city": "PENSACOLA", "state": "FL", "street": "100 N PALAFOX ST", "postcode": "32502"}}},
{"geometry": {"type": "Point", "coordinates": [-87.2150468396, 30.4112795395]}, "type": "Feature", "properties": {"collection_times": [{"days": "Mon-Fri", "time": "5:00pm"}, {"days": "Sat-Sun", "time": "Closed"}], "id": "3250200021", "name": "USPS COLLECTION BOX - BLUE BOX", "address": {"city": "PENSACOLA", "state": "FL", "street": "101 PALAFOX PL", "postcode": "32502"}}},
{"geometry": {"type": "Point", "coordinates": [-87.2150468396, 30.4112795395]}, "type": "Feature", "properties": {"collection_times": [{"days": "Mon-Fri", "time": "5:00pm"}, {"days": "Sat", "time": "10:00am"}, {"days": "Sun", "time": "Closed"}], "id": "3250200022", "name": "USPS COLLECTION BOX - BLUE BOX", "address": {"city": "PENSACOLA", "state": "FL", "street": "101 PALAFOX PL", "postcode": "32502"}}},
{"geometry": {"type": "Point", "coordinates": [-87.2149898353, 30.4434013709]}, "type": "Feature", "properties": {"collection_times": [{"days": "Mon-Fri", "time": "5:00pm"}, {"days": "Sat", "time": "4:00pm"}, {"days": "Sun", "time": "Closed"}], "id": "3250300003", "name": "USPS COLLECTION BOX - BLUE BOX", "address": {"city": "PENSACOLA", "state": "FL", "street": "3001 N DAVIS HWY", "postcode": "32503"}}},
{"geometry": {"type": "Point", "coordinates": [-87.2149898353, 30.4434013709]}, "type": "Feature", "properties": {"collection_times": [{"days": "Mon-Fri", "time": "5:00pm"}, {"days": "Sat", "time": "4:00pm"}, {"days": "Sun", "time": "Closed"}], "id": "3250300004", "name": "USPS COLLECTION BOX - BLUE BOX", "address": {"city": "PENSACOLA", "state": "FL", "street": "3001 N DAVIS HWY", "postcode": "32503"}}},
{"geometry": {"type": "Point", "coordinates": [-87.2149898353, 30.4434013709]}, "type": "Feature", "properties": {"collection_times": [{"days": "Mon-Fri", "time": "5:00pm"}, {"days": "Sat", "time": "4:00pm"}, {"days": "Sun", "time": "Closed"}], "id": "3250300007", "name": "USPS COLLECTION BOX - PO LOBBY", "address": {"city": "PENSACOLA", "state": "FL", "street": "3001 N DAVIS HWY", "postcode": "32503"}}},
{"geometry": {"type": "Point", "coordinates": [-87.2141284867, 30.4533345378]}, "type": "Feature", "properties": {"collection_times": [{"days": "Mon-Fri", "time": "10:00am"}, {"days": "Sat-Sun", "time": "Closed"}], "id": "3250300010", "name": "USPS COLLECTION BOX - BLUE BOX", "address": {"city": "PENSACOLA", "state": "FL", "street": "3881 N 9TH AVE", "postcode": "32503"}}},
{"geometry": {"type": "Point", "coordinates": [-87.1756393497, 30.4309156758]}, "type": "Feature", "properties": {"collection_times": [{"days": "Mon-Fri", "time": "10:00am"}, {"days": "Sat-Sun", "time": "Closed"}], "id": "3250300022", "name": "USPS COLLECTION BOX - BLUE BOX", "address": {"city": "PENSACOLA", "state": "FL", "street": "1021 SCENIC HWY", "postcode": "32503"}}},
{"geometry": {"type": "Point", "coordinates": [-87.2239992906, 30.4624554585]}, "type": "Feature", "properties": {"collection_times": [{"days": "Mon-Fri", "time": "3:00pm"}, {"days": "Sat-Sun", "time": "Closed"}], "id": "3250300027", "name": "USPS COLLECTION BOX - BLUE BOX", "address": {"city": "PENSACOLA", "state": "FL", "street": "4501 N DAVIS HWY", "postcode": "32503"}}},
{"geometry": {"type": "Point", "coordinates": [-87.2239992906, 30.4624554585]}, "type": "Feature", "properties": {"collection_times": [{"days": "Mon-Fri", "time": "3:00pm"}, {"days": "Sat-Sun", "time": "Closed"}], "id": "3250300028", "name": "USPS COLLECTION BOX - BLUE BOX", "address": {"city": "PENSACOLA", "state": "FL", "street": "4501 N DAVIS HWY", "postcode": "32503"}}},
{"geometry": {"type": "Point", "coordinates": [-87.2077025076, 30.4709226564]}, "type": "Feature", "properties": {"collection_times": [{"days": "Mon-Fri", "time": "2:25pm"}, {"days": "Sat-Sun", "time": "Closed"}], "id": "3250300041", "name": "USPS COLLECTION BOX - BLUE BOX", "address": {"city": "PENSACOLA", "state": "FL", "street": "4700 BAYOU BLVD", "postcode": "32503"}}},
{"geometry": {"type": "Point", "coordinates": [-87.1901016518, 30.4509233056]}, "type": "Feature", "properties": {"collection_times": [{"days": "Mon-Fri", "time": "10:00am"}, {"days": "Sat-Sun", "time": "Closed"}], "id": "3250300044", "name": "USPS COLLECTION BOX - BLUE BOX", "address": {"city": "PENSACOLA", "state": "FL", "street": "3400 FIRESTONE BLVD", "postcode": "32503"}}},
{"geometry": {"type": "Point", "coordinates": [-87.1787859601, 30.459340168]}, "type": "Feature", "properties": {"collection_times": [{"days": "Mon-Fri", "time": "10:00am"}, {"days": "Sat-Sun", "time": "Closed"}], "id": "3250300045", "name": "USPS COLLECTION BOX - BLUE BOX", "address": {"city": "PENSACOLA", "state": "FL", "street": "3331 SUMMIT BLVD", "postcode": "32503"}}},
{"geometry": {"type": "Point", "coordinates": [-87.2039867002, 30.4655826576]}, "type": "Feature", "properties": {"collection_times": [{"days": "Mon-Fri", "time": "2:30pm"}, {"days": "Sat-Sun", "time": "Closed"}], "id": "3250300051", "name": "USPS COLLECTION BOX - BLUE BOX", "address": {"city": "PENSACOLA", "state": "FL", "street": "4300 BAYOU BLVD", "postcode": "32503"}}},
{"geometry": {"type": "Point", "coordinates": [-87.2039867002, 30.4655826576]}, "type": "Feature", "properties": {"collection_times": [{"days": "Mon-Fri", "time": "2:30pm"}, {"days": "Sat-Sun", "time": "Closed"}], "id": "3250300052", "name": "USPS COLLECTION BOX - BLUE BOX", "address": {"city": "PENSACOLA", "state": "FL", "street": "4300 BAYOU BLVD", "postcode": "32503"}}},
{"geometry": {"type": "Point", "coordinates": [-87.2039867002, 30.4655826576]}, "type": "Feature", "properties": {"collection_times": [{"days": "Mon-Fri", "time": "2:30pm"}, {"days": "Sat-Sun", "time": "Closed"}], "id": "3250300053", "name": "USPS COLLECTION BOX - BLUE BOX", "address": {"city": "PENSACOLA", "state": "FL", "street": "4300 BAYOU BLVD", "postcode": "32503"}}},
{"geometry": {"type": "Point", "coordinates": [-87.2080670178, 30.4709405038]}, "type": "Feature", "properties": {"collection_times": [{"days": "Mon-Fri", "time": "2:15pm"}, {"days": "Sat-Sun", "time": "Closed"}], "id": "3250300055", "name": "USPS COLLECTION BOX - BLUE BOX", "address": {"city": "PENSACOLA", "state": "FL", "street": "4751 BAYOU BLVD", "postcode": "32503"}}},
{"geometry": {"type": "Point", "coordinates": [-87.1795032004, 30.4595019532]}, "type": "Feature", "properties": {"collection_times": [{"days": "Mon-Fri", "time": "2:00pm"}, {"days": "Sat-Sun", "time": "Closed"}], "id": "3250300059", "name": "USPS COLLECTION BOX - BLUE BOX", "address": {"city": "PENSACOLA", "state": "FL", "street": "3298 SUMMIT BLVD", "postcode": "32503"}}},
{"geometry": {"type": "Point", "coordinates": [-87.2149898353, 30.4434013709]}, "type": "Feature", "properties": {"collection_times": [{"days": "Mon-Fri", "time": "4:00pm"}, {"days": "Sat-Sun", "time": "Closed"}], "id": "3250300062", "name": "USPS COLLECTION BOX - PO LOBBY", "address": {"city": "PENSACOLA", "state": "FL", "street": "3001 N DAVIS HWY", "postcode": "32503"}}},
{"geometry": {"type": "Point", "coordinates": [-87.2318851111, 30.467097313]}, "type": "Feature", "properties": {"collection_times": [{"days": "Mon-Fri", "time": "10:00am"}, {"days": "Sat-Sun", "time": "Closed"}], "id": "3250300065", "name": "USPS COLLECTION BOX - BLUE BOX", "address": {"city": "PENSACOLA", "state": "FL", "street": "5625 DIXIE DR", "postcode": "32503"}}},
{"geometry": {"type": "Point", "coordinates": [-87.2120330251, 30.4733796238]}, "type": "Feature", "properties": {"collection_times": [{"days": "Mon-Fri", "time": "2:45pm"}, {"days": "Sat-Sun", "time": "Closed"}], "id": "3250300071", "name": "USPS COLLECTION BOX - BLUE BOX", "address": {"city": "PENSACOLA", "state": "FL", "street": "5192 BAYOU BLVD", "postcode": "32503"}}},
{"geometry": {"type": "Point", "coordinates": [-87.2120330251, 30.4733796238]}, "type": "Feature", "properties": {"collection_times": [{"days": "Mon-Fri", "time": "2:45pm"}, {"days": "Sat-Sun", "time": "Closed"}], "id": "3250300072", "name": "USPS COLLECTION BOX - BLUE BOX", "address": {"city": "PENSACOLA", "state": "FL", "street": "5192 BAYOU BLVD", "postcode": "32503"}}},
{"geometry": {"type": "Point", "coordinates": [-87.2050756784, 30.4671508695]}, "type": "Feature", "properties": {"collection_times": [{"days": "Mon-Fri", "time": "2:15pm"}, {"days": "Sat-Sun", "time": "Closed"}], "id": "3250300076", "name": "USPS COLLECTION BOX - BLUE BOX", "address": {"city": "PENSACOLA", "state": "FL", "street": "4400 BAYOU BLVD", "postcode": "32503"}}},
{"geometry": {"type": "Point", "coordinates": [-87.2172295997, 30.4801518531]}, "type": "Feature", "properties": {"collection_times": [{"days": "Mon-Fri", "time": "9:00am"}, {"days": "Sat-Sun", "time": "Closed"}], "id": "3250400001", "name": "USPS COLLECTION BOX - BLUE BOX", "address": {"city": "PENSACOLA", "state": "FL", "street": "1250 AIRPORT BLVD", "postcode": "32504"}}},
{"geometry": {"type": "Point", "coordinates": [-87.1980193647, 30.4745745264]}, "type": "Feature", "properties": {"collection_times": [{"days": "Mon-Fri", "time": "10:00am"}, {"days": "Sat-Sun", "time": "Closed"}], "id": "3250400005", "name": "USPS COLLECTION BOX - BLUE BOX", "address": {"city": "PENSACOLA", "state": "FL", "street": "2430 AIRPORT BLVD", "postcode": "32504"}}},
{"geometry": {"type": "Point", "coordinates": [-87.2014966257, 30.4759812609]}, "type": "Feature", "properties": {"collection_times": [{"days": "Mon-Fri", "time": "1:45pm"}, {"days": "Sat-Sun", "time": "Closed"}], "id": "3250400010", "name": "USPS COLLECTION BOX - BLUE BOX", "address": {"city": "PENSACOLA", "state": "FL", "street": "2114 AIRPORT BLVD", "postcode": "32504"}}},
{"geometry": {"type": "Point", "coordinates": [-87.1807618039, 30.498866206]}, "type": "Feature", "properties": {"collection_times": [{"days": "Mon-Fri", "time": "1:00pm"}, {"days": "Sat-Sun", "time": "Closed"}], "id": "3250400017", "name": "USPS COLLECTION BOX - BLUE BOX", "address": {"city": "PENSACOLA", "state": "FL", "street": "3351 CREIGHTON RD", "postcode": "32504"}}},
{"geometry": {"type": "Point", "coordinates": [-87.2225862914, 30.4860426255]}, "type": "Feature", "properties": {"collection_times": [{"days": "Mon-Fri", "time": "1:45pm"}, {"days": "Sat-Sun", "time": "Closed"}], "id": "3250400030", "name": "USPS COLLECTION BOX - BLUE BOX", "address": {"city": "PENSACOLA", "state": "FL", "street": "6160 N DAVIS HWY", "postcode": "32504"}}},
{"geometry": {"type": "Point", "coordinates": [-87.1964387729, 30.4985196623]}, "type": "Feature", "properties": {"collection_times": [{"days": "Mon-Fri", "time": "5:00pm"}, {"days": "Sat", "time": "4:00pm"}, {"days": "Sun", "time": "Closed"}], "id": "3250400035", "name": "USPS COLLECTION BOX - BLUE BOX", "address": {"city": "PENSACOLA", "state": "FL", "street": "7150 TIPPIN AVE", "postcode": "32504"}}},
{"geometry": {"type": "Point", "coordinates": [-87.1964079028, 30.4985721876]}, "type": "Feature", "properties": {"collection_times": [{"days": "Mon-Fri", "time": "5:00pm"}, {"days": "Sat", "time": "4:00pm"}, {"days": "Sun", "time": "Closed"}], "id": "3250400036", "name": "USPS COLLECTION BOX - PO LOBBY", "address": {"city": "PENSACOLA", "state": "FL", "street": "7150 TIPPIN AVE", "postcode": "32504"}}},
{"geometry": {"type": "Point", "coordinates": [-87.2115771154, 30.4747016604]}, "type": "Feature", "properties": {"collection_times": [{"days": "Mon-Fri", "time": "12:45pm"}, {"days": "Sat-Sun", "time": "Closed"}], "id": "3250400041", "name": "USPS COLLECTION BOX - BLUE BOX", "address": {"city": "PENSACOLA", "state": "FL", "street": "5151 N 9TH AVE", "postcode": "32504"}}},
{"geometry": {"type": "Point", "coordinates": [-87.2255616665, 30.5014832584]}, "type": "Feature", "properties": {"collection_times": [{"days": "Mon-Fri", "time": "1:45pm"}, {"days": "Sat-Sun", "time": "Closed"}], "id": "3250400051", "name": "USPS COLLECTION BOX - BLUE BOX", "address": {"city": "PENSACOLA", "state": "FL", "street": "600 UNIVERSITY OFFICE BLVD", "postcode": "32504"}}},
{"geometry": {"type": "Point", "coordinates": [-87.2255616665, 30.5014832584]}, "type": "Feature", "properties": {"collection_times": [{"days": "Mon-Fri", "time": "1:45pm"}, {"days": "Sat-Sun", "time": "Closed"}], "id": "3250400052", "name": "USPS COLLECTION BOX - BLUE BOX", "address": {"city": "PENSACOLA", "state": "FL", "street": "600 UNIVERSITY OFFICE BLVD", "postcode": "32504"}}},
{"geometry": {"type": "Point", "coordinates": [-87.1913433812, 30.493322997]}, "type": "Feature", "properties": {"collection_times": [{"days": "Mon-Fri", "time": "11:00am"}, {"days": "Sat-Sun", "time": "Closed"}], "id": "3250400069", "name": "USPS COLLECTION BOX - BLUE BOX", "address": {"city": "PENSACOLA", "state": "FL", "street": "6706 N 9TH AVE", "postcode": "32504"}}},
{"geometry": {"type": "Point", "coordinates": [-87.2225862914, 30.4860426255]}, "type": "Feature", "properties": {"collection_times": [{"days": "Mon-Fri", "time": "1:45pm"}, {"days": "Sat-Sun", "time": "Closed"}], "id": "3250400074", "name": "USPS COLLECTION BOX - BLUE BOX", "address": {"city": "PENSACOLA", "state": "FL", "street": "6160 N DAVIS HWY", "postcode": "32504"}}},
{"geometry": {"type": "Point", "coordinates": [-87.2116094222, 30.4746468615]}, "type": "Feature", "properties": {"collection_times": [{"days": "Mon-Fri", "time": "12:45pm"}, {"days": "Sat-Sun", "time": "Closed"}], "id": "3250400075", "name": "USPS COLLECTION BOX - BLUE BOX", "address": {"city": "PENSACOLA", "state": "FL", "street": "5147 N 9TH AVE", "postcode": "32504"}}},
{"geometry": {"type": "Point", "coordinates": [-87.1757764481, 30.4672007817]}, "type": "Feature", "properties": {"collection_times": [{"days": "Mon-Fri", "time": "1:30pm"}, {"days": "Sat-Sun", "time": "Closed"}], "id": "3250400076", "name": "USPS COLLECTION BOX - BLUE BOX", "address": {"city": "PENSACOLA", "state": "FL", "street": "4595 SPANISH TRL", "postcode": "32504"}}},
{"geometry": {"type": "Point", "coordinates": [-87.1964079028, 30.4985721876]}, "type": "Feature", "properties": {"collection_times": [{"days": "Mon-Fri", "time": "5:00pm"}, {"days": "Sat-Sun", "time": "Closed"}], "id": "3250400077", "name": "USPS COLLECTION BOX - APC", "address": {"city": "PENSACOLA", "state": "FL", "street": "7150 TIPPIN AVE", "postcode": "32504"}}},
{"geometry": {"type": "Point", "coordinates": [-87.245309969, 30.4713277858]}, "type": "Feature", "properties": {"collection_times": [{"days": "Mon-Fri", "time": "1:00pm"}, {"days": "Sat-Sun", "time": "Closed"}], "id": "3250500005", "name": "USPS COLLECTION BOX - BLUE BOX", "address": {"city": "PENSACOLA", "state": "FL", "street": "5650 PENSACOLA BLVD", "postcode": "32505"}}},
{"geometry": {"type": "Point", "coordinates": [-87.2557939986, 30.4821918817]}, "type": "Feature", "properties": {"collection_times": [{"days": "Mon-Fri", "time": "1:30pm"}, {"days": "Sat-Sun", "time": "Closed"}], "id": "3250500006", "name": "USPS COLLECTION BOX - BLUE BOX", "address": {"city": "PENSACOLA", "state": "FL", "street": "6425 PENSACOLA BLVD", "postcode": "32505"}}},
{"geometry": {"type": "Point", "coordinates": [-87.2397226287, 30.4466005086]}, "type": "Feature", "properties": {"collection_times": [{"days": "Mon-Fri", "time": "1:45pm"}, {"days": "Sat-Sun", "time": "Closed"}], "id": "3250500011", "name": "USPS COLLECTION BOX - BLUE BOX", "address": {"city": "PENSACOLA", "state": "FL", "street": "3300 N PACE BLVD", "postcode": "32505"}}},
{"geometry": {"type": "Point", "coordinates": [-87.2557939986, 30.4821918817]}, "type": "Feature", "properties": {"collection_times": [{"days": "Mon-Fri", "time": "1:30pm"}, {"days": "Sat-Sun", "time": "Closed"}], "id": "3250500019", "name": "USPS COLLECTION BOX - BLUE BOX", "address": {"city": "PENSACOLA", "state": "FL", "street": "6425 PENSACOLA BLVD", "postcode": "32505"}}},
{"geometry": {"type": "Point", "coordinates": [-87.256028968, 30.4754708929]}, "type": "Feature", "properties": {"collection_times": [{"days": "Mon-Fri", "time": "1:35pm"}, {"days": "Sat-Sun", "time": "Closed"}], "id": "3250500023", "name": "USPS COLLECTION BOX - BLUE BOX", "address": {"city": "PENSACOLA", "state": "FL", "street": "6200 N W ST", "postcode": "32505"}}},
{"geometry": {"type": "Point", "coordinates": [-87.256028968, 30.4754708929]}, "type": "Feature", "properties": {"collection_times": [{"days": "Mon-Fri", "time": "1:35pm"}, {"days": "Sat-Sun", "time": "Closed"}], "id": "3250500024", "name": "USPS COLLECTION BOX - BLUE BOX", "address": {"city": "PENSACOLA", "state": "FL", "street": "6200 N W ST", "postcode": "32505"}}},
{"geometry": {"type": "Point", "coordinates": [-87.2356284007, 30.4485306355]}, "type": "Feature", "properties": {"collection_times": [{"days": "Mon-Fri", "time": "1:45pm"}, {"days": "Sat-Sun", "time": "Closed"}], "id": "3250500033", "name": "USPS COLLECTION BOX - BLUE BOX", "address": {"city": "PENSACOLA", "state": "FL", "street": "3670 N L ST", "postcode": "32505"}}},
{"geometry": {"type": "Point", "coordinates": [-87.3245878296, 30.4068127378]}, "type": "Feature", "properties": {"collection_times": [{"days": "Mon-Fri", "time": "5:00pm"}, {"days": "Sat", "time": "4:20pm"}, {"days": "Sun", "time": "Closed"}], "id": "3250600001", "name": "USPS COLLECTION BOX - BLUE BOX", "address": {"city": "PENSACOLA", "state": "FL", "street": "5200 LILLIAN HWY", "postcode": "32506"}}},
{"geometry": {"type": "Point", "coordinates": [-87.287499691, 30.4261823435]}, "type": "Feature", "properties": {"collection_times": [{"days": "Mon-Fri", "time": "5:00pm"}, {"days": "Sat", "time": "4:20pm"}, {"days": "Sun", "time": "Closed"}], "id": "3250600002", "name": "USPS COLLECTION BOX - BLUE BOX", "address": {"city": "PENSACOLA", "state": "FL", "street": "5200 LILLIAN HWY", "postcode": "32506"}}},
{"geometry": {"type": "Point", "coordinates": [-87.2758126727, 30.4186540683]}, "type": "Feature", "properties": {"collection_times": [{"days": "Mon-Fri", "time": "10:00am"}, {"days": "Sat-Sun", "time": "Closed"}], "id": "3250600004", "name": "USPS COLLECTION BOX - BLUE BOX", "address": {"city": "PENSACOLA", "state": "FL", "street": "611 N NEW WARRINGTON RD", "postcode": "32506"}}},
{"geometry": {"type": "Point", "coordinates": [-87.2792323746, 30.4102649714]}, "type": "Feature", "properties": {"collection_times": [{"days": "Mon-Fri", "time": "10:00am"}, {"days": "Sat-Sun", "time": "Closed"}], "id": "3250600005", "name": "USPS COLLECTION BOX - BLUE BOX", "address": {"city": "PENSACOLA", "state": "FL", "street": "4600 FORRESTAL ST", "postcode": "32506"}}},
{"geometry": {"type": "Point", "coordinates": [-87.2778683279, 30.4362098097]}, "type": "Feature", "properties": {"collection_times": [{"days": "Mon-Fri", "time": "10:00am"}, {"days": "Sat-Sun", "time": "Closed"}], "id": "3250600026", "name": "USPS COLLECTION BOX - BLUE BOX", "address": {"city": "PENSACOLA", "state": "FL", "street": "4600 MOBILE HWY", "postcode": "32506"}}},
{"geometry": {"type": "Point", "coordinates": [-87.3251772098, 30.4032139701]}, "type": "Feature", "properties": {"collection_times": [{"days": "Mon-Fri", "time": "10:00am"}, {"days": "Sat-Sun", "time": "Closed"}], "id": "3250600029", "name": "USPS COLLECTION BOX - BLUE BOX", "address": {"city": "PENSACOLA", "state": "FL", "street": "8200 W HIGHWAY 98", "postcode": "32506"}}},
{"geometry": {"type": "Point", "coordinates": [-87.2762091639, 30.4342495342]}, "type": "Feature", "properties": {"collection_times": [{"days": "Mon-Fri", "time": "10:00am"}, {"days": "Sat-Sun", "time": "Closed"}], "id": "3250600035", "name": "USPS COLLECTION BOX - BLUE BOX", "address": {"city": "PENSACOLA", "state": "FL", "street": "4400 W FAIRFIELD DR", "postcode": "32506"}}},
{"geometry": {"type": "Point", "coordinates": [-87.287499691, 30.4261823435]}, "type": "Feature", "properties": {"collection_times": [{"days": "Mon-Fri", "time": "5:00pm"}, {"days": "Sat", "time": "4:20pm"}, {"days": "Sun", "time": "Closed"}], "id": "3250600036", "name": "USPS COLLECTION BOX - BLUE BOX", "address": {"city": "PENSACOLA", "state": "FL", "street": "5200 LILLIAN HWY", "postcode": "32506"}}},
{"geometry": {"type": "Point", "coordinates": [-87.287499691, 30.4261823435]}, "type": "Feature", "properties": {"collection_times": [{"days": "Mon-Fri", "time": "5:00pm"}, {"days": "Sat", "time": "4:20pm"}, {"days": "Sun", "time": "Closed"}], "id": "3250600037", "name": "USPS COLLECTION BOX - BLUE BOX", "address": {"city": "PENSACOLA", "state": "FL", "street": "5200 LILLIAN HWY", "postcode": "32506"}}},
{"geometry": {"type": "Point", "coordinates": [-87.287499691, 30.4261823435]}, "type": "Feature", "properties": {"collection_times": [{"days": "Mon-Fri", "time": "5:00pm"}, {"days": "Sat", "time": "4:20pm"}, {"days": "Sun", "time": "Closed"}], "id": "3250600038", "name": "USPS COLLECTION BOX - PO LOBBY", "address": {"city": "PENSACOLA", "state": "FL", "street": "5200 LILLIAN HWY", "postcode": "32506"}}},
{"geometry": {"type": "Point", "coordinates": [-87.287499691, 30.4261823435]}, "type": "Feature", "properties": {"collection_times": [{"days": "Mon-Fri", "time": "5:00pm"}, {"days": "Sat", "time": "4:20pm"}, {"days": "Sun", "time": "Closed"}], "id": "3250600046", "name": "USPS COLLECTION BOX - PO LOBBY", "address": {"city": "PENSACOLA", "state": "FL", "street": "5200 LILLIAN HWY", "postcode": "32506"}}},
{"geometry": {"type": "Point", "coordinates": [-87.342444048, 30.402494736]}, "type": "Feature", "properties": {"collection_times": [{"days": "Mon-Fri", "time": "10:00am"}, {"days": "Sat-Sun", "time": "Closed"}], "id": "3250600048", "name": "USPS COLLECTION BOX - BLUE BOX", "address": {"city": "PENSACOLA", "state": "FL", "street": "38 S BLUE ANGEL PKWY", "postcode": "32506"}}},
{"geometry": {"type": "Point", "coordinates": [-87.2733568359, 30.3947227301]}, "type": "Feature", "properties": {"collection_times": [{"days": "Mon-Sat", "time": "4:30pm"}, {"days": "Sun", "time": "Closed"}], "id": "3250700001", "name": "USPS COLLECTION BOX - PO LOBBY", "address": {"city": "PENSACOLA", "state": "FL", "street": "901 S OLD CORRY FIELD RD", "postcode": "32507"}}},
{"geometry": {"type": "Point", "coordinates": [-87.2733568359, 30.3947227301]}, "type": "Feature", "properties": {"collection_times": [{"days": "Mon-Sat", "time": "5:00pm"}, {"days": "Sun", "time": "Closed"}], "id": "3250700002", "name": "USPS COLLECTION BOX - BLUE BOX", "address": {"city": "PENSACOLA", "state": "FL", "street": "901 S OLD CORRY FIELD RD", "postcode": "32507"}}},
{"geometry": {"type": "Point", "coordinates": [-87.2942330214, 30.3969030668]}, "type": "Feature", "properties": {"collection_times": [{"days": "Mon-Fri", "time": "9:00am"}, {"days": "Sat-Sun", "time": "Closed"}], "id": "3250700011", "name": "USPS COLLECTION BOX - BLUE BOX", "address": {"city": "PENSACOLA", "state": "FL", "street": "5600 W HIGHWAY 98", "postcode": "32507"}}},
{"geometry": {"type": "Point", "coordinates": [-87.3691319335, 30.3404724736]}, "type": "Feature", "properties": {"collection_times": [{"days": "Mon-Fri", "time": "12:00pm"}, {"days": "Sat-Sun", "time": "Closed"}], "id": "3250700016", "name": "USPS COLLECTION BOX - BLUE BOX", "address": {"city": "PENSACOLA", "state": "FL", "street": "3777 CHIEF'S WAY", "postcode": "32507"}}},
{"geometry": {"type": "Point", "coordinates": [-87.2749216444, 30.4122865402]}, "type": "Feature", "properties": {"collection_times": [{"days": "Mon-Fri", "time": "10:00am"}, {"days": "Sat-Sun", "time": "Closed"}], "id": "3250700018", "name": "USPS COLLECTION BOX - BLUE BOX", "address": {"city": "PENSACOLA", "state": "FL", "street": "190 N OLD CORRY FIELD RD", "postcode": "32507"}}},
{"geometry": {"type": "Point", "coordinates": [-87.273873445, 30.3884430824]}, "type": "Feature", "properties": {"collection_times": [{"days": "Mon-Fri", "time": "10:00am"}, {"days": "Sat-Sun", "time": "Closed"}], "id": "3250700029", "name": "USPS COLLECTION BOX - BLUE BOX", "address": {"city": "PENSACOLA", "state": "FL", "street": "4051 BARRANCAS AVE", "postcode": "32507"}}},
{"geometry": {"type": "Point", "coordinates": [-87.2733568359, 30.3947227301]}, "type": "Feature", "properties": {"collection_times": [{"days": "Mon-Sat", "time": "4:30pm"}, {"days": "Sun", "time": "Closed"}], "id": "3250700038", "name": "USPS COLLECTION BOX - PO LOBBY", "address": {"city": "PENSACOLA", "state": "FL", "street": "901 S OLD CORRY FIELD RD", "postcode": "32507"}}},
{"geometry": {"type": "Point", "coordinates": [-87.2841331362, 30.4077754495]}, "type": "Feature", "properties": {"collection_times": [{"days": "Mon-Fri", "time": "12:00pm"}, {"days": "Sat-Sun", "time": "Closed"}], "id": "3250700042", "name": "USPS COLLECTION BOX - BLUE BOX", "address": {"city": "PENSACOLA", "state": "FL", "street": "440 ROBERTS AVE", "postcode": "32507"}}},
{"geometry": {"type": "Point", "coordinates": [-87.2740855167, 30.3491109494]}, "type": "Feature", "properties": {"collection_times": [{"days": "Mon-Fri", "time": "12:00pm"}, {"days": "Sat-Sun", "time": "Closed"}], "id": "3250800001", "name": "USPS COLLECTION BOX - BLUE BOX", "address": {"city": "PENSACOLA", "state": "FL", "street": "181 CHAMBERS AVE", "postcode": "32508"}}},
{"geometry": {"type": "Point", "coordinates": [-87.2712496803, 30.3476567029]}, "type": "Feature", "properties": {"collection_times": [{"days": "Mon-Fri", "time": "12:00pm"}, {"days": "Sat-Sun", "time": "Closed"}], "id": "3250800006", "name": "USPS COLLECTION BOX - BLUE BOX", "address": {"city": "PENSACOLA", "state": "FL", "street": "210 WEST AVE", "postcode": "32508"}}},
{"geometry": {"type": "Point", "coordinates": [-87.2956314398, 30.3469144289]}, "type": "Feature", "properties": {"collection_times": [{"days": "Mon-Fri", "time": "12:00pm"}, {"days": "Sat-Sun", "time": "Closed"}], "id": "3250800008", "name": "USPS COLLECTION BOX - BLUE BOX", "address": {"city": "PENSACOLA", "state": "FL", "street": "1750 RADFORD BLVD", "postcode": "32508"}}},
{"geometry": {"type": "Point", "coordinates": [-87.2710554475, 30.3500582245]}, "type": "Feature", "properties": {"collection_times": [{"days": "Mon-Fri", "time": "12:00pm"}, {"days": "Sat-Sun", "time": "Closed"}], "id": "3250800010", "name": "USPS COLLECTION BOX - BLUE BOX", "address": {"city": "PENSACOLA", "state": "FL", "street": "250 SAUFLEY ST", "postcode": "32508"}}},
{"geometry": {"type": "Point", "coordinates": [-87.3254470567, 30.3484274489]}, "type": "Feature", "properties": {"collection_times": [{"days": "Mon-Fri", "time": "12:00pm"}, {"days": "Sat-Sun", "time": "Closed"}], "id": "3250800014", "name": "USPS COLLECTION BOX - BLUE BOX", "address": {"city": "PENSACOLA", "state": "FL", "street": "2 TAYLOR RD", "postcode": "32508"}}},
{"geometry": {"type": "Point", "coordinates": [-87.3254470567, 30.3484274489]}, "type": "Feature", "properties": {"collection_times": [{"days": "Mon-Fri", "time": "12:00pm"}, {"days": "Sat-Sun", "time": "Closed"}], "id": "3250800015", "name": "USPS COLLECTION BOX - BLUE BOX", "address": {"city": "PENSACOLA", "state": "FL", "street": "707 EAST AVE", "postcode": "32508"}}},
{"geometry": {"type": "Point", "coordinates": [-87.2712496803, 30.3476567029]}, "type": "Feature", "properties": {"collection_times": [{"days": "Mon-Fri", "time": "4:00pm"}, {"days": "Sat-Sun", "time": "Closed"}], "id": "3250800016", "name": "USPS COLLECTION BOX - PO LOBBY", "address": {"city": "PENSACOLA", "state": "FL", "street": "210 WEST AVE", "postcode": "32508"}}},
{"geometry": {"type": "Point", "coordinates": [-87.2172709559, 30.5148215852]}, "type": "Feature", "properties": {"collection_times": [{"days": "Mon-Fri", "time": "3:00pm"}, {"days": "Sat-Sun", "time": "Closed"}], "id": "3251400006", "name": "USPS COLLECTION BOX - BLUE BOX", "address": {"city": "PENSACOLA", "state": "FL", "street": "8383 N DAVIS HWY", "postcode": "32514"}}},
{"geometry": {"type": "Point", "coordinates": [-87.2015281489, 30.5278332067]}, "type": "Feature", "properties": {"collection_times": [{"days": "Mon-Fri", "time": "3:00pm"}, {"days": "Sat-Sun", "time": "Closed"}], "id": "3251400007", "name": "USPS COLLECTION BOX - BLUE BOX", "address": {"city": "PENSACOLA", "state": "FL", "street": "3000 COPTER RD", "postcode": "32514"}}},
{"geometry": {"type": "Point", "coordinates": [-87.2602521938, 30.5330178104]}, "type": "Feature", "properties": {"collection_times": [{"days": "Mon-Fri", "time": "10:30am"}, {"days": "Sat-Sun", "time": "Closed"}], "id": "3251400019", "name": "USPS COLLECTION BOX - BLUE BOX", "address": {"city": "PENSACOLA", "state": "FL", "street": "312 E NINE MILE RD", "postcode": "32514"}}},
{"geometry": {"type": "Point", "coordinates": [-87.2015281489, 30.5278332067]}, "type": "Feature", "properties": {"collection_times": [{"days": "Mon-Fri", "time": "3:00pm"}, {"days": "Sat-Sun", "time": "Closed"}], "id": "3251400031", "name": "USPS COLLECTION BOX - BLUE BOX", "address": {"city": "PENSACOLA", "state": "FL", "street": "3000 COPTER RD", "postcode": "32514"}}},
{"geometry": {"type": "Point", "coordinates": [-87.2015281489, 30.5278332067]}, "type": "Feature", "properties": {"collection_times": [{"days": "Mon-Fri", "time": "3:00pm"}, {"days": "Sat-Sun", "time": "Closed"}], "id": "3251400032", "name": "USPS COLLECTION BOX - BLUE BOX", "address": {"city": "PENSACOLA", "state": "FL", "street": "3000 COPTER RD", "postcode": "32514"}}},
{"geometry": {"type": "Point", "coordinates": [-87.2206465, 30.5099586789]}, "type": "Feature", "properties": {"collection_times": [{"days": "Mon-Fri", "time": "2:45pm"}, {"days": "Sat-Sun", "time": "Closed"}], "id": "3251400033", "name": "USPS COLLECTION BOX - BLUE BOX", "address": {"city": "PENSACOLA", "state": "FL", "street": "8084 N DAVIS HWY", "postcode": "32514"}}},
{"geometry": {"type": "Point", "coordinates": [-87.2206465, 30.5099586789]}, "type": "Feature", "properties": {"collection_times": [{"days": "Mon-Fri", "time": "2:45pm"}, {"days": "Sat-Sun", "time": "Closed"}], "id": "3251400037", "name": "USPS COLLECTION BOX - BLUE BOX", "address": {"city": "PENSACOLA", "state": "FL", "street": "8084 N DAVIS HWY", "postcode": "32514"}}},
{"geometry": {"type": "Point", "coordinates": [-87.2015281489, 30.5278332067]}, "type": "Feature", "properties": {"collection_times": [{"days": "Mon-Fri", "time": "3:00pm"}, {"days": "Sat-Sun", "time": "Closed"}], "id": "3251400043", "name": "USPS COLLECTION BOX - BLUE BOX", "address": {"city": "PENSACOLA", "state": "FL", "street": "3000 COPTER RD", "postcode": "32514"}}},
{"geometry": {"type": "Point", "coordinates": [-87.2015281489, 30.5278332067]}, "type": "Feature", "properties": {"collection_times": [{"days": "Mon-Fri", "time": "3:00pm"}, {"days": "Sat-Sun", "time": "Closed"}], "id": "3251400045", "name": "USPS COLLECTION BOX - BLUE BOX", "address": {"city": "PENSACOLA", "state": "FL", "street": "3000 COPTER RD", "postcode": "32514"}}},
{"geometry": {"type": "Point", "coordinates": [-87.2175856281, 30.51445766]}, "type": "Feature", "properties": {"collection_times": [{"days": "Mon-Fri", "time": "3:00pm"}, {"days": "Sat-Sun", "time": "Closed"}], "id": "3251400048", "name": "USPS COLLECTION BOX - BLUE BOX", "address": {"city": "PENSACOLA", "state": "FL", "street": "8333 N DAVIS HWY", "postcode": "32514"}}},
{"geometry": {"type": "Point", "coordinates": [-87.2211065538, 30.5322357816]}, "type": "Feature", "properties": {"collection_times": [{"days": "Mon-Fri", "time": "2:45pm"}, {"days": "Sat-Sun", "time": "Closed"}], "id": "3251400050", "name": "USPS COLLECTION BOX - BLUE BOX", "address": {"city": "PENSACOLA", "state": "FL", "street": "9400 UNIVERSITY PKWY", "postcode": "32514"}}},
{"geometry": {"type": "Point", "coordinates": [-87.2901921638, 30.4607759576]}, "type": "Feature", "properties": {"collection_times": [{"days": "Mon-Fri", "time": "10:00am"}, {"days": "Sat-Sun", "time": "Closed"}], "id": "3252600001", "name": "USPS COLLECTION BOX - BLUE BOX", "address": {"city": "PENSACOLA", "state": "FL", "street": "2869 W MICHIGAN AVE", "postcode": "32526"}}},
{"geometry": {"type": "Point", "coordinates": [-87.3006776885, 30.4602565498]}, "type": "Feature", "properties": {"collection_times": [{"days": "Mon-Fri", "time": "10:00am"}, {"days": "Sat-Sun", "time": "Closed"}], "id": "3252600002", "name": "USPS COLLECTION BOX - BLUE BOX", "address": {"city": "PENSACOLA", "state": "FL", "street": "5975 MOBILE HWY", "postcode": "32526"}}},
{"geometry": {"type": "Point", "coordinates": [-87.0338586475, 30.603054759]}, "type": "Feature", "properties": {"collection_times": [{"days": "Mon-Fri", "time": "4:00pm"}, {"days": "Sat", "time": "11:30am"}, {"days": "Sun", "time": "Closed"}], "id": "3253000000", "name": "USPS COLLECTION BOX - BLUE BOX", "address": {"city": "BAGDAD", "state": "FL", "street": "4629 FORSYTH ST", "postcode": "32530"}}},
{"geometry": {"type": "Point", "coordinates": [-87.0338586475, 30.603054759]}, "type": "Feature", "properties": {"collection_times": [{"days": "Mon-Fri", "time": "4:00pm"}, {"days": "Sat", "time": "11:30am"}, {"days": "Sun", "time": "Closed"}], "id": "3253000001", "name": "USPS COLLECTION BOX - PO LOBBY", "address": {"city": "BAGDAD", "state": "FL", "street": "4629 FORSYTH ST", "postcode": "32530"}}},
{"geometry": {"type": "Point", "coordinates": [-86.7149451935, 30.8166383571]}, "type": "Feature", "properties": {"collection_times": [{"days": "Mon-Fri", "time": "3:00pm"}, {"days": "Sat", "time": "12:00pm"}, {"days": "Sun", "time": "Closed"}], "id": "3253100000", "name": "USPS COLLECTION BOX - BLUE BOX", "address": {"city": "BAKER", "state": "FL", "street": "5690 HIGHWAY 4", "postcode": "32531"}}},
{"geometry": {"type": "Point", "coordinates": [-86.7149451935, 30.8166383571]}, "type": "Feature", "properties": {"collection_times": [{"days": "Mon-Fri", "time": "3:00pm"}, {"days": "Sat", "time": "12:00pm"}, {"days": "Sun", "time": "Closed"}], "id": "3253100001", "name": "USPS COLLECTION BOX - PO LOBBY", "address": {"city": "BAKER", "state": "FL", "street": "5690 HIGHWAY 4", "postcode": "32531"}}},
{"geometry": {"type": "Point", "coordinates": [-86.7149451935, 30.8166383571]}, "type": "Feature", "properties": {"collection_times": [{"days": "Mon-Fri", "time": "3:00pm"}, {"days": "Sat", "time": "12:00pm"}, {"days": "Sun", "time": "Closed"}], "id": "3253100002", "name": "USPS COLLECTION BOX - PO LOBBY", "address": {"city": "BAKER", "state": "FL", "street": "5690 HIGHWAY 4", "postcode": "32531"}}},
{"geometry": {"type": "Point", "coordinates": [-87.3091451202, 30.5913424829]}, "type": "Feature", "properties": {"collection_times": [{"days": "Mon-Fri", "time": "4:45pm"}, {"days": "Sat", "time": "2:30pm"}, {"days": "Sun", "time": "Closed"}], "id": "3253300001", "name": "USPS COLLECTION BOX - PO LOBBY", "address": {"city": "CANTONMENT", "state": "FL", "street": "1430 S HIGHWAY 29", "postcode": "32533"}}},
{"geometry": {"type": "Point", "coordinates": [-87.3091451202, 30.5913424829]}, "type": "Feature", "properties": {"collection_times": [{"days": "Mon-Fri", "time": "4:45pm"}, {"days": "Sat", "time": "2:30pm"}, {"days": "Sun", "time": "Closed"}], "id": "3253300002", "name": "USPS COLLECTION BOX - PO LOBBY", "address": {"city": "CANTONMENT", "state": "FL", "street": "1430 S HIGHWAY 29", "postcode": "32533"}}},
{"geometry": {"type": "Point", "coordinates": [-87.328965365, 30.6254390779]}, "type": "Feature", "properties": {"collection_times": [{"days": "Mon-Sat", "time": "9:00am"}, {"days": "Sun", "time": "Closed"}], "id": "3253300003", "name": "USPS COLLECTION BOX - BLUE BOX", "address": {"city": "CANTONMENT", "state": "FL", "street": "730 N HIGHWAY 29", "postcode": "32533"}}},
{"geometry": {"type": "Point", "coordinates": [-87.3072745636, 30.5895335676]}, "type": "Feature", "properties": {"collection_times": [{"days": "Mon-Sat", "time": "10:00am"}, {"days": "Sun", "time": "Closed"}], "id": "3253300005", "name": "USPS COLLECTION BOX - BLUE BOX", "address": {"city": "CANTONMENT", "state": "FL", "street": "1550 S HIGHWAY 29", "postcode": "32533"}}},
{"geometry": {"type": "Point", "coordinates": [-87.3091451202, 30.5913424829]}, "type": "Feature", "properties": {"collection_times": [{"days": "Mon-Fri", "time": "4:45pm"}, {"days": "Sat", "time": "2:30pm"}, {"days": "Sun", "time": "Closed"}], "id": "3253300007", "name": "USPS COLLECTION BOX - BLUE BOX", "address": {"city": "CANTONMENT", "state": "FL", "street": "1430 S HIGHWAY 29", "postcode": "32533"}}},
{"geometry": {"type": "Point", "coordinates": [-87.3091451202, 30.5913424829]}, "type": "Feature", "properties": {"collection_times": [{"days": "Mon-Fri", "time": "4:45pm"}, {"days": "Sat", "time": "2:30pm"}, {"days": "Sun", "time": "Closed"}], "id": "3253300008", "name": "USPS COLLECTION BOX - BLUE BOX", "address": {"city": "CANTONMENT", "state": "FL", "street": "1430 S HIGHWAY 29", "postcode": "32533"}}},
{"geometry": {"type": "Point", "coordinates": [-87.3117408084, 30.5341726867]}, "type": "Feature", "properties": {"collection_times": [{"days": "Mon-Fri", "time": "11:30am"}, {"days": "Sat-Sun", "time": "Closed"}], "id": "3253400004", "name": "USPS COLLECTION BOX - BLUE BOX", "address": {"city": "PENSACOLA", "state": "FL", "street": "2115 W NINE MILE RD", "postcode": "32534"}}},
{"geometry": {"type": "Point", "coordinates": [-87.2741929522, 30.5333664541]}, "type": "Feature", "properties": {"collection_times": [{"days": "Mon-Fri", "time": "11:30am"}, {"days": "Sat-Sun", "time": "Closed"}], "id": "3253400005", "name": "USPS COLLECTION BOX - BLUE BOX", "address": {"city": "PENSACOLA", "state": "FL", "street": "40 W NINE MILE RD", "postcode": "32534"}}},
{"geometry": {"type": "Point", "coordinates": [-87.2667832337, 30.9699946489]}, "type": "Feature", "properties": {"collection_times": [{"days": "Mon-Sat", "time": "9:00am"}, {"days": "Sun", "time": "Closed"}], "id": "3253500004", "name": "USPS COLLECTION BOX - BLUE BOX", "address": {"city": "CENTURY", "state": "FL", "street": "7500 N CENTURY BLVD", "postcode": "32535"}}},
{"geometry": {"type": "Point", "coordinates": [-87.2572793333, 30.9823871983]}, "type": "Feature", "properties": {"collection_times": [{"days": "Mon-Fri", "time": "4:00pm"}, {"days": "Sat", "time": "12:00pm"}, {"days": "Sun", "time": "Closed"}], "id": "3253500005", "name": "USPS COLLECTION BOX - PO LOBBY", "address": {"city": "CENTURY", "state": "FL", "street": "8450 N CENTURY BLVD", "postcode": "32535"}}},
{"geometry": {"type": "Point", "coordinates": [-87.2572793333, 30.9823871983]}, "type": "Feature", "properties": {"collection_times": [{"days": "Mon-Fri", "time": "4:00pm"}, {"days": "Sat", "time": "12:00pm"}, {"days": "Sun", "time": "Closed"}], "id": "3253500007", "name": "USPS COLLECTION BOX - BLUE BOX", "address": {"city": "CENTURY", "state": "FL", "street": "8450 N CENTURY BLVD", "postcode": "32535"}}},
{"geometry": {"type": "Point", "coordinates": [-87.2572793333, 30.9823871983]}, "type": "Feature", "properties": {"collection_times": [{"days": "Mon-Fri", "time": "4:00pm"}, {"days": "Sat", "time": "12:00pm"}, {"days": "Sun", "time": "Closed"}], "id": "3253500009", "name": "USPS COLLECTION BOX - PO LOBBY", "address": {"city": "CENTURY", "state": "FL", "street": "8450 N CENTURY BLVD", "postcode": "32535"}}},
{"geometry": {"type": "Point", "coordinates": [-86.5489846434, 30.7598780398]}, "type": "Feature", "properties": {"collection_times": [{"days": "Mon-Sat", "time": "1:30pm"}, {"days": "Sun", "time": "Closed"}], "id": "3253900000", "name": "USPS COLLECTION BOX - BLUE BOX", "address": {"city": "CRESTVIEW", "state": "FL", "street": "1602 E JAMES LEE BLVD", "postcode": "32539"}}},
{"geometry": {"type": "Point", "coordinates": [-86.5643686065, 30.7739607383]}, "type": "Feature", "properties": {"collection_times": [{"days": "Mon-Sat", "time": "1:00pm"}, {"days": "Sun", "time": "Closed"}], "id": "3253900001", "name": "USPS COLLECTION BOX - BLUE BOX", "address": {"city": "CRESTVIEW", "state": "FL", "street": "795 N FERDON BLVD", "postcode": "32539"}}},
{"geometry": {"type": "Point", "coordinates": [-86.5662268073, 30.7331495516]}, "type": "Feature", "properties": {"collection_times": [{"days": "Mon-Fri", "time": "12:30pm"}, {"days": "Sat", "time": "11:30am"}, {"days": "Sun", "time": "Closed"}], "id": "3253900003", "name": "USPS COLLECTION BOX - BLUE BOX", "address": {"city": "CRESTVIEW", "state": "FL", "street": "2523 S FERDON BLVD", "postcode": "32539"}}},
{"geometry": {"type": "Point", "coordinates": [-86.5680877923, 30.7272677903]}, "type": "Feature", "properties": {"collection_times": [{"days": "Mon-Fri", "time": "12:00pm"}, {"days": "Sat", "time": "11:30am"}, {"days": "Sun", "time": "Closed"}], "id": "3253900004", "name": "USPS COLLECTION BOX - BLUE BOX", "address": {"city": "CRESTVIEW", "state": "FL", "street": "3351 S FERDON BLVD", "postcode": "32539"}}},
{"geometry": {"type": "Point", "coordinates": [-86.5724169392, 30.7606843848]}, "type": "Feature", "properties": {"collection_times": [{"days": "Mon-Fri", "time": "12:00pm"}, {"days": "Sat", "time": "11:00am"}, {"days": "Sun", "time": "Closed"}], "id": "3253900005", "name": "USPS COLLECTION BOX - BLUE BOX", "address": {"city": "CRESTVIEW", "state": "FL", "street": "500 N MAIN ST", "postcode": "32539"}}},
{"geometry": {"type": "Point", "coordinates": [-86.5579236025, 30.7906851327]}, "type": "Feature", "properties": {"collection_times": [{"days": "Mon-Sat", "time": "5:00pm"}, {"days": "Sun", "time": "Closed"}], "id": "3253900006", "name": "USPS COLLECTION BOX - BLUE BOX", "address": {"city": "CRESTVIEW", "state": "FL", "street": "1325 COMMERCE DR", "postcode": "32539"}}},
{"geometry": {"type": "Point", "coordinates": [-86.5579236025, 30.7906851327]}, "type": "Feature", "properties": {"collection_times": [{"days": "Mon-Sat", "time": "5:00pm"}, {"days": "Sun", "time": "Closed"}], "id": "3253900007", "name": "USPS COLLECTION BOX - BLUE BOX", "address": {"city": "CRESTVIEW", "state": "FL", "street": "1325 COMMERCE DR", "postcode": "32539"}}},
{"geometry": {"type": "Point", "coordinates": [-86.5579236025, 30.7906851327]}, "type": "Feature", "properties": {"collection_times": [{"days": "Mon-Sat", "time": "5:00pm"}, {"days": "Sun", "time": "Closed"}], "id": "3253900008", "name": "USPS COLLECTION BOX - PO LOBBY", "address": {"city": "CRESTVIEW", "state": "FL", "street": "1325 COMMERCE DR", "postcode": "32539"}}},
{"geometry": {"type": "Point", "coordinates": [-86.5579236025, 30.7906851327]}, "type": "Feature", "properties": {"collection_times": [{"days": "Mon-Sat", "time": "5:00pm"}, {"days": "Sun", "time": "Closed"}], "id": "3253900009", "name": "USPS COLLECTION BOX - PO LOBBY", "address": {"city": "CRESTVIEW", "state": "FL", "street": "1325 COMMERCE DR", "postcode": "32539"}}},
{"geometry": {"type": "Point", "coordinates": [-86.5579236025, 30.7906851327]}, "type": "Feature", "properties": {"collection_times": [{"days": "Mon-Sat", "time": "5:00pm"}, {"days": "Sun", "time": "Closed"}], "id": "3253900011", "name": "USPS COLLECTION BOX - PO LOBBY", "address": {"city": "CRESTVIEW", "state": "FL", "street": "1325 COMMERCE DR", "postcode": "32539"}}},
{"geometry": {"type": "Point", "coordinates": [-86.5651298105, 30.7366613167]}, "type": "Feature", "properties": {"collection_times": [{"days": "Mon-Fri", "time": "1:00pm"}, {"days": "Sat", "time": "12:00pm"}, {"days": "Sun", "time": "Closed"}], "id": "3253900012", "name": "USPS COLLECTION BOX - BLUE BOX", "address": {"city": "CRESTVIEW", "state": "FL", "street": "2227 S FERDON BLVD", "postcode": "32539"}}},
{"geometry": {"type": "Point", "coordinates": [-86.5709784043, 30.7579170346]}, "type": "Feature", "properties": {"collection_times": [{"days": "Mon-Fri", "time": "12:30pm"}, {"days": "Sat", "time": "11:30am"}, {"days": "Sun", "time": "Closed"}], "id": "3253900013", "name": "USPS COLLECTION BOX - BLUE BOX", "address": {"city": "CRESTVIEW", "state": "FL", "street": "198 N WILSON ST", "postcode": "32539"}}},
{"geometry": {"type": "Point", "coordinates": [-86.5655039363, 30.7364271976]}, "type": "Feature", "properties": {"collection_times": [{"days": "Mon-Sat", "time": "10:00am"}, {"days": "Sun", "time": "Closed"}], "id": "3253900016", "name": "USPS COLLECTION BOX - BLUE BOX", "address": {"city": "CRESTVIEW", "state": "FL", "street": "2250 S FERDON BLVD", "postcode": "32539"}}},
{"geometry": {"type": "Point", "coordinates": [-86.4823029287, 30.3893817668]}, "type": "Feature", "properties": {"collection_times": [{"days": "Mon-Fri", "time": "3:00pm"}, {"days": "Sat", "time": "11:00am"}, {"days": "Sun", "time": "Closed"}], "id": "3254100007", "name": "USPS COLLECTION BOX - BLUE BOX", "address": {"city": "DESTIN", "state": "FL", "street": "841 HIGHWAY 98 E", "postcode": "32541"}}},
{"geometry": {"type": "Point", "coordinates": [-86.4644185264, 30.388749059]}, "type": "Feature", "properties": {"collection_times": [{"days": "Mon-Fri", "time": "3:00pm"}, {"days": "Sat", "time": "12:00pm"}, {"days": "Sun", "time": "Closed"}], "id": "3254100012", "name": "USPS COLLECTION BOX - BLUE BOX", "address": {"city": "DESTIN", "state": "FL", "street": "1234 AIRPORT RD", "postcode": "32541"}}},
{"geometry": {"type": "Point", "coordinates": [-86.4650401828, 30.3857643075]}, "type": "Feature", "properties": {"collection_times": [{"days": "Mon-Fri", "time": "3:00pm"}, {"days": "Sat", "time": "12:00pm"}, {"days": "Sun", "time": "Closed"}], "id": "3254100013", "name": "USPS COLLECTION BOX - BLUE BOX", "address": {"city": "DESTIN", "state": "FL", "street": "14091 EMERALD COAST PKWY", "postcode": "32541"}}},
{"geometry": {"type": "Point", "coordinates": [-86.4834945631, 30.3923562031]}, "type": "Feature", "properties": {"collection_times": [{"days": "Mon-Fri", "time": "4:30pm"}, {"days": "Sat", "time": "12:00pm"}, {"days": "Sun", "time": "Closed"}], "id": "3254100016", "name": "USPS COLLECTION BOX - PO LOBBY", "address": {"city": "DESTIN", "state": "FL", "street": "175 MAIN ST", "postcode": "32541"}}},
{"geometry": {"type": "Point", "coordinates": [-86.4834945631, 30.3923562031]}, "type": "Feature", "properties": {"collection_times": [{"days": "Mon-Fri", "time": "4:30pm"}, {"days": "Sat", "time": "12:00pm"}, {"days": "Sun", "time": "Closed"}], "id": "3254100017", "name": "USPS COLLECTION BOX - PO LOBBY", "address": {"city": "DESTIN", "state": "FL", "street": "175 MAIN ST", "postcode": "32541"}}},
{"geometry": {"type": "Point", "coordinates": [-86.419888477, 30.3886458881]}, "type": "Feature", "properties": {"collection_times": [{"days": "Mon-Fri", "time": "3:00pm"}, {"days": "Sat", "time": "11:00am"}, {"days": "Sun", "time": "Closed"}], "id": "3254100020", "name": "USPS COLLECTION BOX - BLUE BOX", "address": {"city": "DESTIN", "state": "FL", "street": "151 REGIONS WAY", "postcode": "32541"}}},
{"geometry": {"type": "Point", "coordinates": [-86.4834945631, 30.3923562031]}, "type": "Feature", "properties": {"collection_times": [{"days": "Mon-Fri", "time": "5:00pm"}, {"days": "Sat", "time": "12:00pm"}, {"days": "Sun", "time": "Closed"}], "id": "3254100021", "name": "USPS COLLECTION BOX - BLUE BOX", "address": {"city": "DESTIN", "state": "FL", "street": "175 MAIN ST", "postcode": "32541"}}},
{"geometry": {"type": "Point", "coordinates": [-86.4203002331, 30.3907395586]}, "type": "Feature", "properties": {"collection_times": [{"days": "Mon-Fri", "time": "3:00pm"}, {"days": "Sat", "time": "12:00pm"}, {"days": "Sun", "time": "Closed"}], "id": "3254100032", "name": "USPS COLLECTION BOX - BLUE BOX", "address": {"city": "DESTIN", "state": "FL", "street": "4460 LEGENDARY DR", "postcode": "32541"}}},
{"geometry": {"type": "Point", "coordinates": [-86.4255833397, 30.3936169915]}, "type": "Feature", "properties": {"collection_times": [{"days": "Mon-Fri", "time": "3:00pm"}, {"days": "Sat", "time": "10:00am"}, {"days": "Sun", "time": "Closed"}], "id": "3254100033", "name": "USPS COLLECTION BOX - BLUE BOX", "address": {"city": "DESTIN", "state": "FL", "street": "4100 LEGENDARY DR", "postcode": "32541"}}},
{"geometry": {"type": "Point", "coordinates": [-86.5521908301, 30.4975087242]}, "type": "Feature", "properties": {"collection_times": [{"days": "Mon-Sat", "time": "10:00am"}, {"days": "Sun", "time": "Closed"}], "id": "3254200002", "name": "USPS COLLECTION BOX - BLUE BOX", "address": {"city": "EGLIN AFB", "state": "FL", "street": "1701 HWY 85 N", "postcode": "32542"}}},
{"geometry": {"type": "Point", "coordinates": [-86.5020688312, 30.4842520149]}, "type": "Feature", "properties": {"collection_times": [{"days": "Mon-Fri", "time": "4:00pm"}, {"days": "Sat", "time": "12:00pm"}, {"days": "Sun", "time": "Closed"}], "id": "3254200004", "name": "USPS COLLECTION BOX - PO LOBBY", "address": {"city": "EGLIN AFB", "state": "FL", "street": "307 W VAN MATRE AVE", "postcode": "32542"}}},
{"geometry": {"type": "Point", "coordinates": [-86.5020688312, 30.4842520149]}, "type": "Feature", "properties": {"collection_times": [{"days": "Mon-Fri", "time": "4:00pm"}, {"days": "Sat", "time": "12:00pm"}, {"days": "Sun", "time": "Closed"}], "id": "3254200017", "name": "USPS COLLECTION BOX - BLUE BOX", "address": {"city": "EGLIN AFB", "state": "FL", "street": "307 W VAN MATRE AVE", "postcode": "32542"}}},
{"geometry": {"type": "Point", "coordinates": [-86.4973277194, 30.4854772069]}, "type": "Feature", "properties": {"collection_times": [{"days": "Mon-Sat", "time": "3:00pm"}, {"days": "Sun", "time": "Closed"}], "id": "3254200021", "name": "USPS COLLECTION BOX - BLUE BOX", "address": {"city": "EGLIN AFB", "state": "FL", "street": "101 W D AVE", "postcode": "32542"}}},
{"geometry": {"type": "Point", "coordinates": [-86.4958951167, 30.479334126]}, "type": "Feature", "properties": {"collection_times": [{"days": "Mon-Sat", "time": "3:00pm"}, {"days": "Sun", "time": "Closed"}], "id": "3254200024", "name": "USPS COLLECTION BOX - BLUE BOX", "address": {"city": "EGLIN AFB", "state": "FL", "street": "99 N 7TH ST", "postcode": "32542"}}},
{"geometry": {"type": "Point", "coordinates": [-86.553905836, 30.4605550019]}, "type": "Feature", "properties": {"collection_times": [{"days": "Mon-Sat", "time": "11:00am"}, {"days": "Sun", "time": "Closed"}], "id": "3254200028", "name": "USPS COLLECTION BOX - BLUE BOX", "address": {"city": "EGLIN AFB", "state": "FL", "street": "307 BOATNER RD", "postcode": "32542"}}},
{"geometry": {"type": "Point", "coordinates": [-86.7062867782, 30.4227939479]}, "type": "Feature", "properties": {"collection_times": [{"days": "Mon-Sat", "time": "11:00am"}, {"days": "Sun", "time": "Closed"}], "id": "3254400001", "name": "USPS COLLECTION BOX - BLUE BOX", "address": {"city": "HURLBURT FIELD", "state": "FL", "street": "301 TULLY ST", "postcode": "32544"}}},
{"geometry": {"type": "Point", "coordinates": [-86.696235867, 30.413809932]}, "type": "Feature", "properties": {"collection_times": [{"days": "Mon-Sat", "time": "11:00am"}, {"days": "Sun", "time": "Closed"}], "id": "3254400002", "name": "USPS COLLECTION BOX - BLUE BOX", "address": {"city": "HURLBURT FIELD", "state": "FL", "street": "315 INDEPENDENCE RD", "postcode": "32544"}}},
{"geometry": {"type": "Point", "coordinates": [-86.6240538457, 30.4630639517]}, "type": "Feature", "properties": {"collection_times": [{"days": "Mon-Sat", "time": "2:45pm"}, {"days": "Sun", "time": "Closed"}], "id": "3254700003", "name": "USPS COLLECTION BOX - BLUE BOX", "address": {"city": "FT WALTON BCH", "state": "FL", "street": "1804 LEWIS TURNER BLVD", "postcode": "32547"}}},
{"geometry": {"type": "Point", "coordinates": [-86.626096694, 30.4491735617]}, "type": "Feature", "properties": {"collection_times": [{"days": "Mon-Sat", "time": "2:30pm"}, {"days": "Sun", "time": "Closed"}], "id": "3254700010", "name": "USPS COLLECTION BOX - BLUE BOX", "address": {"city": "FT WALTON BCH", "state": "FL", "street": "339 RACETRACK RD NW", "postcode": "32547"}}},
{"geometry": {"type": "Point", "coordinates": [-86.6457619769, 30.4624383422]}, "type": "Feature", "properties": {"collection_times": [{"days": "Mon-Sat", "time": "3:00pm"}, {"days": "Sun", "time": "Closed"}], "id": "3254700014", "name": "USPS COLLECTION BOX - BLUE BOX", "address": {"city": "FT WALTON BCH", "state": "FL", "street": "1 BUEGE BLVD", "postcode": "32547"}}},
{"geometry": {"type": "Point", "coordinates": [-86.6335612964, 30.455571419]}, "type": "Feature", "properties": {"collection_times": [{"days": "Mon-Sat", "time": "2:45pm"}, {"days": "Sun", "time": "Closed"}], "id": "3254700015", "name": "USPS COLLECTION BOX - BLUE BOX", "address": {"city": "FT WALTON BCH", "state": "FL", "street": "1005 MAR WALT DR", "postcode": "32547"}}},
{"geometry": {"type": "Point", "coordinates": [-86.633234986, 30.4554607561]}, "type": "Feature", "properties": {"collection_times": [{"days": "Mon-Sat", "time": "2:45pm"}, {"days": "Sun", "time": "Closed"}], "id": "3254700017", "name": "USPS COLLECTION BOX - BLUE BOX", "address": {"city": "FT WALTON BCH", "state": "FL", "street": "1000 MAR WALT DR", "postcode": "32547"}}},
{"geometry": {"type": "Point", "coordinates": [-86.6172638212, 30.4492414578]}, "type": "Feature", "properties": {"collection_times": [{"days": "Mon-Sat", "time": "2:30pm"}, {"days": "Sun", "time": "Closed"}], "id": "3254700019", "name": "USPS COLLECTION BOX - BLUE BOX", "address": {"city": "FT WALTON BCH", "state": "FL", "street": "11 RACETRACK RD NE", "postcode": "32547"}}},
{"geometry": {"type": "Point", "coordinates": [-86.6332345263, 30.455570401]}, "type": "Feature", "properties": {"collection_times": [{"days": "Mon-Sat", "time": "2:45pm"}, {"days": "Sun", "time": "Closed"}], "id": "3254700025", "name": "USPS COLLECTION BOX - BLUE BOX", "address": {"city": "FT WALTON BCH", "state": "FL", "street": "1001 MAR WALT DR", "postcode": "32547"}}},
{"geometry": {"type": "Point", "coordinates": [-86.6236471978, 30.4523709706]}, "type": "Feature", "properties": {"collection_times": [{"days": "Mon-Sat", "time": "2:45pm"}, {"days": "Sun", "time": "Closed"}], "id": "3254700026", "name": "USPS COLLECTION BOX - BLUE BOX", "address": {"city": "FT WALTON BCH", "state": "FL", "street": "937 DENTON BLVD NW", "postcode": "32547"}}},
{"geometry": {"type": "Point", "coordinates": [-86.6276023198, 30.4491946072]}, "type": "Feature", "properties": {"collection_times": [{"days": "Mon-Sat", "time": "2:30pm"}, {"days": "Sun", "time": "Closed"}], "id": "3254700028", "name": "USPS COLLECTION BOX - BLUE BOX", "address": {"city": "FT WALTON BCH", "state": "FL", "street": "419 RACETRACK RD NW", "postcode": "32547"}}},
{"geometry": {"type": "Point", "coordinates": [-86.6373519907, 30.4396758684]}, "type": "Feature", "properties": {"collection_times": [{"days": "Mon-Sat", "time": "2:30pm"}, {"days": "Sun", "time": "Closed"}], "id": "3254700034", "name": "USPS COLLECTION BOX - BLUE BOX", "address": {"city": "FT WALTON BCH", "state": "FL", "street": "105 LEWIS ST", "postcode": "32547"}}},
{"geometry": {"type": "Point", "coordinates": [-86.6388310755, 30.4405249057]}, "type": "Feature", "properties": {"collection_times": [{"days": "Mon-Sat", "time": "3:00pm"}, {"days": "Sun", "time": "Closed"}], "id": "3254700036", "name": "USPS COLLECTION BOX - BLUE BOX", "address": {"city": "FT WALTON BCH", "state": "FL", "street": "748 BEAL PKWY NW", "postcode": "32547"}}},
{"geometry": {"type": "Point", "coordinates": [-86.6182910874, 30.4492654598]}, "type": "Feature", "properties": {"collection_times": [{"days": "Mon-Fri", "time": "2:30pm"}, {"days": "Sat", "time": "10:30am"}, {"days": "Sun", "time": "Closed"}], "id": "3254700037", "name": "USPS COLLECTION BOX - BLUE BOX", "address": {"city": "FT WALTON BCH", "state": "FL", "street": "24 RACETRACK RD NW", "postcode": "32547"}}},
{"geometry": {"type": "Point", "coordinates": [-86.618732329, 30.4490133364]}, "type": "Feature", "properties": {"collection_times": [{"days": "Mon-Sat", "time": "2:30pm"}, {"days": "Sun", "time": "Closed"}], "id": "3254700038", "name": "USPS COLLECTION BOX - BLUE BOX", "address": {"city": "FT WALTON BCH", "state": "FL", "street": "99 RACETRACK RD NW", "postcode": "32547"}}},
{"geometry": {"type": "Point", "coordinates": [-86.6383799633, 30.4499007325]}, "type": "Feature", "properties": {"collection_times": [{"days": "Mon-Sat", "time": "2:45pm"}, {"days": "Sun", "time": "Closed"}], "id": "3254700039", "name": "USPS COLLECTION BOX - BLUE BOX", "address": {"city": "FT WALTON BCH", "state": "FL", "street": "913 BEAL PKWY NW", "postcode": "32547"}}},
{"geometry": {"type": "Point", "coordinates": [-86.6387089859, 30.4473585857]}, "type": "Feature", "properties": {"collection_times": [{"days": "Mon-Sat", "time": "3:00pm"}, {"days": "Sun", "time": "Closed"}], "id": "3254700040", "name": "USPS COLLECTION BOX - BLUE BOX", "address": {"city": "FT WALTON BCH", "state": "FL", "street": "798 BEAL PKWY NW", "postcode": "32547"}}},
{"geometry": {"type": "Point", "coordinates": [-86.611674866, 30.4039046341]}, "type": "Feature", "properties": {"collection_times": [{"days": "Mon-Sat", "time": "3:15pm"}, {"days": "Sun", "time": "Closed"}], "id": "3254800004", "name": "USPS COLLECTION BOX - BLUE BOX", "address": {"city": "FT WALTON BCH", "state": "FL", "street": "34 MIRACLE STRIP PKWY SE", "postcode": "32548"}}},
{"geometry": {"type": "Point", "coordinates": [-86.6391597193, 30.4101775711]}, "type": "Feature", "properties": {"collection_times": [{"days": "Mon-Sat", "time": "3:15pm"}, {"days": "Sun", "time": "Closed"}], "id": "3254800005", "name": "USPS COLLECTION BOX - BLUE BOX", "address": {"city": "FT WALTON BCH", "state": "FL", "street": "105 WRIGHT PKWY SW", "postcode": "32548"}}},
{"geometry": {"type": "Point", "coordinates": [-86.6107565266, 30.4163851203]}, "type": "Feature", "properties": {"collection_times": [{"days": "Mon-Fri", "time": "5:00pm"}, {"days": "Sat", "time": "4:00pm"}, {"days": "Sun", "time": "Closed"}], "id": "3254800010", "name": "USPS COLLECTION BOX - BLUE BOX", "address": {"city": "FT WALTON BCH", "state": "FL", "street": "21 WALTER MARTIN RD NE", "postcode": "32548"}}},
{"geometry": {"type": "Point", "coordinates": [-86.6107565266, 30.4163851203]}, "type": "Feature", "properties": {"collection_times": [{"days": "Mon-Fri", "time": "5:00pm"}, {"days": "Sat", "time": "4:00pm"}, {"days": "Sun", "time": "Closed"}], "id": "3254800012", "name": "USPS COLLECTION BOX - BLUE BOX", "address": {"city": "FT WALTON BCH", "state": "FL", "street": "21 WALTER MARTIN RD NE", "postcode": "32548"}}},
{"geometry": {"type": "Point", "coordinates": [-86.6107565266, 30.4163851203]}, "type": "Feature", "properties": {"collection_times": [{"days": "Mon-Fri", "time": "4:30pm"}, {"days": "Sat", "time": "4:00pm"}, {"days": "Sun", "time": "Closed"}], "id": "3254800022", "name": "USPS COLLECTION BOX - PO LOBBY", "address": {"city": "FT WALTON BCH", "state": "FL", "street": "21 WALTER MARTIN RD NE", "postcode": "32548"}}},
{"geometry": {"type": "Point", "coordinates": [-86.6371251477, 30.4070926126]}, "type": "Feature", "properties": {"collection_times": [{"days": "Mon-Sat", "time": "3:15pm"}, {"days": "Sun", "time": "Closed"}], "id": "3254800032", "name": "USPS COLLECTION BOX - BLUE BOX", "address": {"city": "FT WALTON BCH", "state": "FL", "street": "348 MIRACLE STRIP PKWY SW", "postcode": "32548"}}},
{"geometry": {"type": "Point", "coordinates": [-86.6107565266, 30.4163851203]}, "type": "Feature", "properties": {"collection_times": [{"days": "Mon-Fri", "time": "4:30pm"}, {"days": "Sat", "time": "4:00pm"}, {"days": "Sun", "time": "Closed"}], "id": "3254800036", "name": "USPS COLLECTION BOX - APC", "address": {"city": "FT WALTON BCH", "state": "FL", "street": "21 WALTER MARTIN RD NE", "postcode": "32548"}}},
{"geometry": {"type": "Point", "coordinates": [-86.3463880434, 30.3762501274]}, "type": "Feature", "properties": {"collection_times": [{"days": "Mon-Fri", "time": "2:00pm"}, {"days": "Sat", "time": "10:00am"}, {"days": "Sun", "time": "Closed"}], "id": "3255000003", "name": "USPS COLLECTION BOX - BLUE BOX", "address": {"city": "DESTIN", "state": "FL", "street": "10221 EMERALD COAST PKWY W", "postcode": "32550"}}},
{"geometry": {"type": "Point", "coordinates": [-86.3884192419, 30.3850882786]}, "type": "Feature", "properties": {"collection_times": [{"days": "Mon-Fri", "time": "2:00pm"}, {"days": "Sat", "time": "11:00am"}, {"days": "Sun", "time": "Closed"}], "id": "3255000004", "name": "USPS COLLECTION BOX - BLUE BOX", "address": {"city": "DESTIN", "state": "FL", "street": "12889 EMERALD COAST PKWY W", "postcode": "32550"}}},
{"geometry": {"type": "Point", "coordinates": [-86.3507872379, 30.3760217528]}, "type": "Feature", "properties": {"collection_times": [{"days": "Mon-Fri", "time": "2:00pm"}, {"days": "Sat", "time": "11:00am"}, {"days": "Sun", "time": "Closed"}], "id": "3255000006", "name": "USPS COLLECTION BOX - BLUE BOX", "address": {"city": "DESTIN", "state": "FL", "street": "130 SCENIC GULF DR", "postcode": "32550"}}},
{"geometry": {"type": "Point", "coordinates": [-86.3586006819, 30.3772804212]}, "type": "Feature", "properties": {"collection_times": [{"days": "Mon-Fri", "time": "4:30pm"}, {"days": "Sat", "time": "1:00pm"}, {"days": "Sun", "time": "Closed"}], "id": "3255000008", "name": "USPS COLLECTION BOX - BLUE BOX", "address": {"city": "DESTIN", "state": "FL", "street": "322 MIRAMAR BEACH DR", "postcode": "32550"}}},
{"geometry": {"type": "Point", "coordinates": [-86.3586006819, 30.3772804212]}, "type": "Feature", "properties": {"collection_times": [{"days": "Mon-Fri", "time": "4:30pm"}, {"days": "Sat", "time": "1:00pm"}, {"days": "Sun", "time": "Closed"}], "id": "3255000009", "name": "USPS COLLECTION BOX - BLUE BOX", "address": {"city": "DESTIN", "state": "FL", "street": "322 MIRAMAR BEACH DR", "postcode": "32550"}}},
{"geometry": {"type": "Point", "coordinates": [-86.3586006819, 30.3772804212]}, "type": "Feature", "properties": {"collection_times": [{"days": "Mon-Fri", "time": "4:30pm"}, {"days": "Sat", "time": "1:00pm"}, {"days": "Sun", "time": "Closed"}], "id": "3255000010", "name": "USPS COLLECTION BOX - PO LOBBY", "address": {"city": "DESTIN", "state": "FL", "street": "322 MIRAMAR BEACH DR", "postcode": "32550"}}},
{"geometry": {"type": "Point", "coordinates": [-86.3810059247, 30.3776495044]}, "type": "Feature", "properties": {"collection_times": [{"days": "Mon-Fri", "time": "2:00pm"}, {"days": "Sat", "time": "12:00pm"}, {"days": "Sun", "time": "Closed"}], "id": "3255000012", "name": "USPS COLLECTION BOX - BLUE BOX", "address": {"city": "DESTIN", "state": "FL", "street": "1976 SCENIC GULF DR", "postcode": "32550"}}},
{"geometry": {"type": "Point", "coordinates": [-87.2900244507, 30.5821453372]}, "type": "Feature", "properties": {"collection_times": [{"days": "Mon-Fri", "time": "4:45pm"}, {"days": "Sat", "time": "12:00pm"}, {"days": "Sun", "time": "Closed"}], "id": "3256000001", "name": "USPS COLLECTION BOX - BLUE BOX", "address": {"city": "GONZALEZ", "state": "FL", "street": "1450 OLD CHEMSTRAND RD", "postcode": "32560"}}},
{"geometry": {"type": "Point", "coordinates": [-87.2900244507, 30.5821453372]}, "type": "Feature", "properties": {"collection_times": [{"days": "Mon-Fri", "time": "4:45pm"}, {"days": "Sat", "time": "12:00pm"}, {"days": "Sun", "time": "Closed"}], "id": "3256000002", "name": "USPS COLLECTION BOX - BLUE BOX", "address": {"city": "GONZALEZ", "state": "FL", "street": "1450 OLD CHEMSTRAND RD", "postcode": "32560"}}},
{"geometry": {"type": "Point", "coordinates": [-87.2900244507, 30.5821453372]}, "type": "Feature", "properties": {"collection_times": [{"days": "Mon-Fri", "time": "4:45pm"}, {"days": "Sat", "time": "12:00pm"}, {"days": "Sun", "time": "Closed"}], "id": "3256000003", "name": "USPS COLLECTION BOX - PO LOBBY", "address": {"city": "GONZALEZ", "state": "FL", "street": "1450 OLD CHEMSTRAND RD", "postcode": "32560"}}},
{"geometry": {"type": "Point", "coordinates": [-87.2900244507, 30.5821453372]}, "type": "Feature", "properties": {"collection_times": [{"days": "Mon-Fri", "time": "4:45pm"}, {"days": "Sat", "time": "12:00pm"}, {"days": "Sun", "time": "Closed"}], "id": "3256000004", "name": "USPS COLLECTION BOX - PO LOBBY", "address": {"city": "GONZALEZ", "state": "FL", "street": "1450 OLD CHEMSTRAND RD", "postcode": "32560"}}},
{"geometry": {"type": "Point", "coordinates": [-87.1708676256, 30.3555944174]}, "type": "Feature", "properties": {"collection_times": [{"days": "Mon-Fri", "time": "3:30pm"}, {"days": "Sat-Sun", "time": "Closed"}], "id": "3256100003", "name": "USPS COLLECTION BOX - BLUE BOX", "address": {"city": "GULF BREEZE", "state": "FL", "street": "1070 SHORELINE DR", "postcode": "32561"}}},
{"geometry": {"type": "Point", "coordinates": [-87.1545012484, 30.3590196337]}, "type": "Feature", "properties": {"collection_times": [{"days": "Mon-Fri", "time": "3:30pm"}, {"days": "Sat-Sun", "time": "Closed"}], "id": "3256100006", "name": "USPS COLLECTION BOX - BLUE BOX", "address": {"city": "GULF BREEZE", "state": "FL", "street": "1101 GULF BREEZE PKWY", "postcode": "32561"}}},
{"geometry": {"type": "Point", "coordinates": [-87.1545012484, 30.3590196337]}, "type": "Feature", "properties": {"collection_times": [{"days": "Mon-Fri", "time": "3:30pm"}, {"days": "Sat-Sun", "time": "Closed"}], "id": "3256100015", "name": "USPS COLLECTION BOX - BLUE BOX", "address": {"city": "GULF BREEZE", "state": "FL", "street": "1101 GULF BREEZE PKWY", "postcode": "32561"}}},
{"geometry": {"type": "Point", "coordinates": [-87.1688696079, 30.3663132086]}, "type": "Feature", "properties": {"collection_times": [{"days": "Mon-Fri", "time": "5:00pm"}, {"days": "Sat", "time": "3:00pm"}, {"days": "Sun", "time": "Closed"}], "id": "3256100019", "name": "USPS COLLECTION BOX - BLUE BOX", "address": {"city": "GULF BREEZE", "state": "FL", "street": "100 NORTHCLIFF DR", "postcode": "32561"}}},
{"geometry": {"type": "Point", "coordinates": [-87.1579521644, 30.3581188605]}, "type": "Feature", "properties": {"collection_times": [{"days": "Mon-Fri", "time": "3:30pm"}, {"days": "Sat-Sun", "time": "Closed"}], "id": "3256100022", "name": "USPS COLLECTION BOX - BLUE BOX", "address": {"city": "GULF BREEZE", "state": "FL", "street": "913 GULF BREEZE PKWY", "postcode": "32561"}}},
{"geometry": {"type": "Point", "coordinates": [-87.1726217439, 30.368233844]}, "type": "Feature", "properties": {"collection_times": [{"days": "Mon-Fri", "time": "3:30pm"}, {"days": "Sat-Sun", "time": "Closed"}], "id": "3256100023", "name": "USPS COLLECTION BOX - BLUE BOX", "address": {"city": "GULF BREEZE", "state": "FL", "street": "91 BAY BRIDGE DR", "postcode": "32561"}}},
{"geometry": {"type": "Point", "coordinates": [-87.1688696079, 30.3663132086]}, "type": "Feature", "properties": {"collection_times": [{"days": "Mon-Fri", "time": "5:00pm"}, {"days": "Sat", "time": "3:00pm"}, {"days": "Sun", "time": "Closed"}], "id": "3256100036", "name": "USPS COLLECTION BOX - PO LOBBY", "address": {"city": "GULF BREEZE", "state": "FL", "street": "100 NORTHCLIFF DR", "postcode": "32561"}}},
{"geometry": {"type": "Point", "coordinates": [-87.1688696079, 30.3663132086]}, "type": "Feature", "properties": {"collection_times": [{"days": "Mon-Fri", "time": "5:00pm"}, {"days": "Sat", "time": "3:00pm"}, {"days": "Sun", "time": "Closed"}], "id": "3256100040", "name": "USPS COLLECTION BOX - PO LOBBY", "address": {"city": "GULF BREEZE", "state": "FL", "street": "100 NORTHCLIFF DR", "postcode": "32561"}}},
{"geometry": {"type": "Point", "coordinates": [-87.064070021, 30.3900962215]}, "type": "Feature", "properties": {"collection_times": [{"days": "Mon-Sat", "time": "10:00am"}, {"days": "Sun", "time": "Closed"}], "id": "3256300001", "name": "USPS COLLECTION BOX - BLUE BOX", "address": {"city": "GULF BREEZE", "state": "FL", "street": "3767 GULF BREEZE PKWY", "postcode": "32563"}}},
{"geometry": {"type": "Point", "coordinates": [-87.0851693464, 30.3869818676]}, "type": "Feature", "properties": {"collection_times": [{"days": "Mon-Sat", "time": "10:00am"}, {"days": "Sun", "time": "Closed"}], "id": "3256300002", "name": "USPS COLLECTION BOX - BLUE BOX", "address": {"city": "GULF BREEZE", "state": "FL", "street": "3327 GULF BREEZE PKWY", "postcode": "32563"}}},
{"geometry": {"type": "Point", "coordinates": [-87.0974645636, 30.3853717955]}, "type": "Feature", "properties": {"collection_times": [{"days": "Mon-Sat", "time": "12:00pm"}, {"days": "Sun", "time": "Closed"}], "id": "3256300003", "name": "USPS COLLECTION BOX - BLUE BOX", "address": {"city": "GULF BREEZE", "state": "FL", "street": "3020 GULF BREEZE PKWY", "postcode": "32563"}}},
{"geometry": {"type": "Point", "coordinates": [-86.7771897472, 30.7047175148]}, "type": "Feature", "properties": {"collection_times": [{"days": "Mon-Fri", "time": "3:30pm"}, {"days": "Sat", "time": "12:00pm"}, {"days": "Sun", "time": "Closed"}], "id": "3256400001", "name": "USPS COLLECTION BOX - BLUE BOX", "address": {"city": "HOLT", "state": "FL", "street": "563 HIGHWAY 90 W", "postcode": "32564"}}},
{"geometry": {"type": "Point", "coordinates": [-86.7771897472, 30.7047175148]}, "type": "Feature", "properties": {"collection_times": [{"days": "Mon-Fri", "time": "3:30pm"}, {"days": "Sat", "time": "12:00pm"}, {"days": "Sun", "time": "Closed"}], "id": "3256400002", "name": "USPS COLLECTION BOX - PO LOBBY", "address": {"city": "HOLT", "state": "FL", "street": "563 HIGHWAY 90 W", "postcode": "32564"}}},
{"geometry": {"type": "Point", "coordinates": [-87.1335527707, 30.9524577209]}, "type": "Feature", "properties": {"collection_times": [{"days": "Mon-Fri", "time": "4:00pm"}, {"days": "Sat", "time": "12:00pm"}, {"days": "Sun", "time": "Closed"}], "id": "3256500001", "name": "USPS COLLECTION BOX - BLUE BOX", "address": {"city": "JAY", "state": "FL", "street": "3719 HIGHWAY 4", "postcode": "32565"}}},
{"geometry": {"type": "Point", "coordinates": [-87.1335527707, 30.9524577209]}, "type": "Feature", "properties": {"collection_times": [{"days": "Mon-Fri", "time": "4:00pm"}, {"days": "Sat", "time": "12:00pm"}, {"days": "Sun", "time": "Closed"}], "id": "3256500002", "name": "USPS COLLECTION BOX - PO LOBBY", "address": {"city": "JAY", "state": "FL", "street": "3719 HIGHWAY 4", "postcode": "32565"}}},
{"geometry": {"type": "Point", "coordinates": [-87.1335527707, 30.9524577209]}, "type": "Feature", "properties": {"collection_times": [{"days": "Mon-Fri", "time": "4:00pm"}, {"days": "Sat", "time": "12:00pm"}, {"days": "Sun", "time": "Closed"}], "id": "3256500003", "name": "USPS COLLECTION BOX - BLUE BOX", "address": {"city": "JAY", "state": "FL", "street": "3719 HIGHWAY 4", "postcode": "32565"}}},
{"geometry": {"type": "Point", "coordinates": [-87.1335527707, 30.9524577209]}, "type": "Feature", "properties": {"collection_times": [{"days": "Mon-Fri", "time": "4:00pm"}, {"days": "Sat", "time": "12:00pm"}, {"days": "Sun", "time": "Closed"}], "id": "3256500004", "name": "USPS COLLECTION BOX - PO LOBBY", "address": {"city": "JAY", "state": "FL", "street": "3719 HIGHWAY 4", "postcode": "32565"}}},
{"geometry": {"type": "Point", "coordinates": [-86.8626185474, 30.4016395879]}, "type": "Feature", "properties": {"collection_times": [{"days": "Mon-Sat", "time": "11:00am"}, {"days": "Sun", "time": "Closed"}], "id": "3256600002", "name": "USPS COLLECTION BOX - BLUE BOX", "address": {"city": "NAVARRE", "state": "FL", "street": "8668 NAVARRE PKWY", "postcode": "32566"}}},
{"geometry": {"type": "Point", "coordinates": [-86.8682703051, 30.4016769565]}, "type": "Feature", "properties": {"collection_times": [{"days": "Mon-Sat", "time": "1:10pm"}, {"days": "Sun", "time": "Closed"}], "id": "3256600003", "name": "USPS COLLECTION BOX - BLUE BOX", "address": {"city": "NAVARRE", "state": "FL", "street": "8540 NAVARRE PKWY", "postcode": "32566"}}},
{"geometry": {"type": "Point", "coordinates": [-86.8880434304, 30.402568535]}, "type": "Feature", "properties": {"collection_times": [{"days": "Mon-Fri", "time": "5:00pm"}, {"days": "Sat", "time": "3:00pm"}, {"days": "Sun", "time": "Closed"}], "id": "3256600006", "name": "USPS COLLECTION BOX - PO LOBBY", "address": {"city": "NAVARRE", "state": "FL", "street": "1910 NAVARRE SCHOOL RD", "postcode": "32566"}}},
{"geometry": {"type": "Point", "coordinates": [-86.8880434304, 30.402568535]}, "type": "Feature", "properties": {"collection_times": [{"days": "Mon-Fri", "time": "5:00pm"}, {"days": "Sat", "time": "3:00pm"}, {"days": "Sun", "time": "Closed"}], "id": "3256600009", "name": "USPS COLLECTION BOX - PO LOBBY", "address": {"city": "NAVARRE", "state": "FL", "street": "1910 NAVARRE SCHOOL RD", "postcode": "32566"}}},
{"geometry": {"type": "Point", "coordinates": [-86.9153141497, 30.4021526643]}, "type": "Feature", "properties": {"collection_times": [{"days": "Mon-Fri", "time": "1:00pm"}, {"days": "Sat", "time": "10:00am"}, {"days": "Sun", "time": "Closed"}], "id": "3256600010", "name": "USPS COLLECTION BOX - BLUE BOX", "address": {"city": "NAVARRE", "state": "FL", "street": "7552 NAVARRE PKWY", "postcode": "32566"}}},
{"geometry": {"type": "Point", "coordinates": [-86.8880434304, 30.402568535]}, "type": "Feature", "properties": {"collection_times": [{"days": "Mon-Fri", "time": "5:00pm"}, {"days": "Sat", "time": "3:00pm"}, {"days": "Sun", "time": "Closed"}], "id": "3256600012", "name": "USPS COLLECTION BOX - BLUE BOX", "address": {"city": "NAVARRE", "state": "FL", "street": "1910 NAVARRE SCHOOL RD", "postcode": "32566"}}},
{"geometry": {"type": "Point", "coordinates": [-86.8880434304, 30.402568535]}, "type": "Feature", "properties": {"collection_times": [{"days": "Mon-Fri", "time": "5:00pm"}, {"days": "Sat", "time": "3:00pm"}, {"days": "Sun", "time": "Closed"}], "id": "3256600014", "name": "USPS COLLECTION BOX - APC", "address": {"city": "NAVARRE", "state": "FL", "street": "1910 NAVARRE SCHOOL RD", "postcode": "32566"}}},
{"geometry": {"type": "Point", "coordinates": [-86.4521211851, 30.964687976]}, "type": "Feature", "properties": {"collection_times": [{"days": "Mon-Fri", "time": "4:00pm"}, {"days": "Sat", "time": "11:00am"}, {"days": "Sun", "time": "Closed"}], "id": "3256700001", "name": "USPS COLLECTION BOX - PO LOBBY", "address": {"city": "LAUREL HILL", "state": "FL", "street": "3957 2ND AVE", "postcode": "32567"}}},
{"geometry": {"type": "Point", "coordinates": [-86.4521211851, 30.964687976]}, "type": "Feature", "properties": {"collection_times": [{"days": "Mon-Fri", "time": "4:00pm"}, {"days": "Sat", "time": "11:00am"}, {"days": "Sun", "time": "Closed"}], "id": "3256700002", "name": "USPS COLLECTION BOX - BLUE BOX", "address": {"city": "LAUREL HILL", "state": "FL", "street": "3957 2ND AVE", "postcode": "32567"}}},
{"geometry": {"type": "Point", "coordinates": [-87.323012836, 30.8663813587]}, "type": "Feature", "properties": {"collection_times": [{"days": "Mon-Fri", "time": "3:45pm"}, {"days": "Sat", "time": "10:00am"}, {"days": "Sun", "time": "Closed"}], "id": "3256800001", "name": "USPS COLLECTION BOX - BLUE BOX", "address": {"city": "MCDAVID", "state": "FL", "street": "7 MAIN ST", "postcode": "32568"}}},
{"geometry": {"type": "Point", "coordinates": [-87.4747055444, 30.8976434138]}, "type": "Feature", "properties": {"collection_times": [{"days": "Mon-Sat", "time": "10:00am"}, {"days": "Sun", "time": "Closed"}], "id": "3256800002", "name": "USPS COLLECTION BOX - PO LOBBY", "address": {"city": "MCDAVID", "state": "FL", "street": "4950 HIGHWAY 99A", "postcode": "32568"}}},
{"geometry": {"type": "Point", "coordinates": [-87.323012836, 30.8663813587]}, "type": "Feature", "properties": {"collection_times": [{"days": "Mon-Fri", "time": "3:45pm"}, {"days": "Sat", "time": "10:00am"}, {"days": "Sun", "time": "Closed"}], "id": "3256800003", "name": "USPS COLLECTION BOX - PO LOBBY", "address": {"city": "MCDAVID", "state": "FL", "street": "7 MAIN ST", "postcode": "32568"}}},
{"geometry": {"type": "Point", "coordinates": [-86.6539537153, 30.4152048419]}, "type": "Feature", "properties": {"collection_times": [{"days": "Mon-Sat", "time": "11:00am"}, {"days": "Sun", "time": "Closed"}], "id": "3256900003", "name": "USPS COLLECTION BOX - BLUE BOX", "address": {"city": "MARY ESTHER", "state": "FL", "street": "300 MARY ESTHER BLVD", "postcode": "32569"}}},
{"geometry": {"type": "Point", "coordinates": [-86.6525068539, 30.4134650336]}, "type": "Feature", "properties": {"collection_times": [{"days": "Mon-Sat", "time": "2:00pm"}, {"days": "Sun", "time": "Closed"}], "id": "3256900009", "name": "USPS COLLECTION BOX - BLUE BOX", "address": {"city": "MARY ESTHER", "state": "FL", "street": "321 E HOLLYWOOD BLVD", "postcode": "32569"}}},
{"geometry": {"type": "Point", "coordinates": [-86.6585701979, 30.4134028421]}, "type": "Feature", "properties": {"collection_times": [{"days": "Mon-Fri", "time": "5:00pm"}, {"days": "Sat", "time": "3:00pm"}, {"days": "Sun", "time": "Closed"}], "id": "3256900010", "name": "USPS COLLECTION BOX - PO LOBBY", "address": {"city": "MARY ESTHER", "state": "FL", "street": "210 W HOLLYWOOD BLVD", "postcode": "32569"}}},
{"geometry": {"type": "Point", "coordinates": [-86.6550815942, 30.4122987871]}, "type": "Feature", "properties": {"collection_times": [{"days": "Mon-Sat", "time": "9:45am"}, {"days": "Sun", "time": "Closed"}], "id": "3256900019", "name": "USPS COLLECTION BOX - BLUE BOX", "address": {"city": "MARY ESTHER", "state": "FL", "street": "151 MARY ESTHER BLVD", "postcode": "32569"}}},
{"geometry": {"type": "Point", "coordinates": [-86.6585701979, 30.4134028421]}, "type": "Feature", "properties": {"collection_times": [{"days": "Mon-Fri", "time": "5:00pm"}, {"days": "Sat", "time": "3:00pm"}, {"days": "Sun", "time": "Closed"}], "id": "3256900027", "name": "USPS COLLECTION BOX - PO LOBBY", "address": {"city": "MARY ESTHER", "state": "FL", "street": "210 W HOLLYWOOD BLVD", "postcode": "32569"}}},
{"geometry": {"type": "Point", "coordinates": [-86.6585701979, 30.4134028421]}, "type": "Feature", "properties": {"collection_times": [{"days": "Mon-Fri", "time": "5:00pm"}, {"days": "Sat", "time": "3:00pm"}, {"days": "Sun", "time": "Closed"}], "id": "3256900029", "name": "USPS COLLECTION BOX - APC", "address": {"city": "MARY ESTHER", "state": "FL", "street": "210 W HOLLYWOOD BLVD", "postcode": "32569"}}},
{"geometry": {"type": "Point", "coordinates": [-86.6585701979, 30.4134028421]}, "type": "Feature", "properties": {"collection_times": [{"days": "Mon-Fri", "time": "5:00pm"}, {"days": "Sat", "time": "3:00pm"}, {"days": "Sun", "time": "Closed"}], "id": "3256900030", "name": "USPS COLLECTION BOX - BLUE BOX", "address": {"city": "MARY ESTHER", "state": "FL", "street": "210 W HOLLYWOOD BLVD", "postcode": "32569"}}},
{"geometry": {"type": "Point", "coordinates": [-87.0555607498, 30.6197229067]}, "type": "Feature", "properties": {"collection_times": [{"days": "Mon-Fri", "time": "5:00pm"}, {"days": "Sat", "time": "3:00pm"}, {"days": "Sun", "time": "Closed"}], "id": "3257000001", "name": "USPS COLLECTION BOX - PO LOBBY", "address": {"city": "MILTON", "state": "FL", "street": "5111 DOGWOOD DR", "postcode": "32570"}}},
{"geometry": {"type": "Point", "coordinates": [-87.0641962538, 30.6060443276]}, "type": "Feature", "properties": {"collection_times": [{"days": "Mon-Sat", "time": "11:00am"}, {"days": "Sun", "time": "Closed"}], "id": "3257000003", "name": "USPS COLLECTION BOX - BLUE BOX", "address": {"city": "MILTON", "state": "FL", "street": "6201 HIGHWAY 90", "postcode": "32570"}}},
{"geometry": {"type": "Point", "coordinates": [-86.9703317883, 30.8085344673]}, "type": "Feature", "properties": {"collection_times": [{"days": "Mon-Sat", "time": "1:00pm"}, {"days": "Sun", "time": "Closed"}], "id": "3257000010", "name": "USPS COLLECTION BOX - BLUE BOX", "address": {"city": "MILTON", "state": "FL", "street": "260 DIXON ST", "postcode": "32570"}}},
{"geometry": {"type": "Point", "coordinates": [-87.0600782146, 30.6268530425]}, "type": "Feature", "properties": {"collection_times": [{"days": "Mon-Sat", "time": "11:00am"}, {"days": "Sun", "time": "Closed"}], "id": "3257000015", "name": "USPS COLLECTION BOX - BLUE BOX", "address": {"city": "MILTON", "state": "FL", "street": "200 WHITING ST", "postcode": "32570"}}},
{"geometry": {"type": "Point", "coordinates": [-87.0555607498, 30.6197229067]}, "type": "Feature", "properties": {"collection_times": [{"days": "Mon-Fri", "time": "5:00pm"}, {"days": "Sat", "time": "3:00pm"}, {"days": "Sun", "time": "Closed"}], "id": "3257000018", "name": "USPS COLLECTION BOX - BLUE BOX", "address": {"city": "MILTON", "state": "FL", "street": "5111 DOGWOOD DR", "postcode": "32570"}}},
{"geometry": {"type": "Point", "coordinates": [-87.0555607498, 30.6197229067]}, "type": "Feature", "properties": {"collection_times": [{"days": "Mon-Fri", "time": "5:00pm"}, {"days": "Sat", "time": "3:00pm"}, {"days": "Sun", "time": "Closed"}], "id": "3257000019", "name": "USPS COLLECTION BOX - BLUE BOX", "address": {"city": "MILTON", "state": "FL", "street": "5111 DOGWOOD DR", "postcode": "32570"}}},
{"geometry": {"type": "Point", "coordinates": [-87.0365568307, 30.6229112036]}, "type": "Feature", "properties": {"collection_times": [{"days": "Mon-Fri", "time": "3:00pm"}, {"days": "Sat", "time": "11:00am"}, {"days": "Sun", "time": "Closed"}], "id": "3257000021", "name": "USPS COLLECTION BOX - BLUE BOX", "address": {"city": "MILTON", "state": "FL", "street": "6865 CAROLINE ST", "postcode": "32570"}}},
{"geometry": {"type": "Point", "coordinates": [-87.0365568307, 30.6229112036]}, "type": "Feature", "properties": {"collection_times": [{"days": "Mon-Fri", "time": "3:00pm"}, {"days": "Sat", "time": "11:00am"}, {"days": "Sun", "time": "Closed"}], "id": "3257000022", "name": "USPS COLLECTION BOX - BLUE BOX", "address": {"city": "MILTON", "state": "FL", "street": "6865 CAROLINE ST", "postcode": "32570"}}},
{"geometry": {"type": "Point", "coordinates": [-87.051969603, 30.6164380522]}, "type": "Feature", "properties": {"collection_times": [{"days": "Mon-Fri", "time": "3:00pm"}, {"days": "Sat", "time": "11:00am"}, {"days": "Sun", "time": "Closed"}], "id": "3257000029", "name": "USPS COLLECTION BOX - BLUE BOX", "address": {"city": "MILTON", "state": "FL", "street": "6495 CAROLINE ST", "postcode": "32570"}}},
{"geometry": {"type": "Point", "coordinates": [-87.051969603, 30.6164380522]}, "type": "Feature", "properties": {"collection_times": [{"days": "Mon-Fri", "time": "3:00pm"}, {"days": "Sat", "time": "11:00am"}, {"days": "Sun", "time": "Closed"}], "id": "3257000030", "name": "USPS COLLECTION BOX - BLUE BOX", "address": {"city": "MILTON", "state": "FL", "street": "6495 CAROLINE ST", "postcode": "32570"}}},
{"geometry": {"type": "Point", "coordinates": [-87.0694735439, 30.6332877674]}, "type": "Feature", "properties": {"collection_times": [{"days": "Mon-Sat", "time": "11:00am"}, {"days": "Sun", "time": "Closed"}], "id": "3257000036", "name": "USPS COLLECTION BOX - BLUE BOX", "address": {"city": "MILTON", "state": "FL", "street": "5992 BERRYHILL RD", "postcode": "32570"}}},
{"geometry": {"type": "Point", "coordinates": [-87.0234935746, 30.7084613569]}, "type": "Feature", "properties": {"collection_times": [{"days": "Mon-Fri", "time": "9:00am"}, {"days": "Sat-Sun", "time": "Closed"}], "id": "3257000037", "name": "USPS COLLECTION BOX - BLUE BOX", "address": {"city": "MILTON", "state": "FL", "street": "7183 LANGLEY ST", "postcode": "32570"}}},
{"geometry": {"type": "Point", "coordinates": [-87.1560037462, 30.601510293]}, "type": "Feature", "properties": {"collection_times": [{"days": "Mon-Sat", "time": "11:00am"}, {"days": "Sun", "time": "Closed"}], "id": "3257100003", "name": "USPS COLLECTION BOX - BLUE BOX", "address": {"city": "PACE", "state": "FL", "street": "4029 HIGHWAY 90", "postcode": "32571"}}},
{"geometry": {"type": "Point", "coordinates": [-87.1472250078, 30.6037803912]}, "type": "Feature", "properties": {"collection_times": [{"days": "Mon-Sat", "time": "2:00pm"}, {"days": "Sun", "time": "Closed"}], "id": "3257100005", "name": "USPS COLLECTION BOX - BLUE BOX", "address": {"city": "PACE", "state": "FL", "street": "4224 HIGHWAY 90", "postcode": "32571"}}},
{"geometry": {"type": "Point", "coordinates": [-87.1613115785, 30.6067222019]}, "type": "Feature", "properties": {"collection_times": [{"days": "Mon-Sat", "time": "4:00pm"}, {"days": "Sun", "time": "Closed"}], "id": "3257100006", "name": "USPS COLLECTION BOX - BLUE BOX", "address": {"city": "PACE", "state": "FL", "street": "4584 CHUMUCKLA HWY", "postcode": "32571"}}},
{"geometry": {"type": "Point", "coordinates": [-87.1167626312, 30.6032527913]}, "type": "Feature", "properties": {"collection_times": [{"days": "Mon-Sat", "time": "11:00am"}, {"days": "Sun", "time": "Closed"}], "id": "3257100007", "name": "USPS COLLECTION BOX - BLUE BOX", "address": {"city": "PACE", "state": "FL", "street": "4965 HIGHWAY 90", "postcode": "32571"}}},
{"geometry": {"type": "Point", "coordinates": [-87.3212244053, 30.7225845042]}, "type": "Feature", "properties": {"collection_times": [{"days": "Mon-Fri", "time": "4:00pm"}, {"days": "Sat", "time": "10:30am"}, {"days": "Sun", "time": "Closed"}], "id": "3257700001", "name": "USPS COLLECTION BOX - BLUE BOX", "address": {"city": "MOLINO", "state": "FL", "street": "550 MOLINO RD", "postcode": "32577"}}},
{"geometry": {"type": "Point", "coordinates": [-87.3212244053, 30.7225845042]}, "type": "Feature", "properties": {"collection_times": [{"days": "Mon-Fri", "time": "4:00pm"}, {"days": "Sat", "time": "10:30am"}, {"days": "Sun", "time": "Closed"}], "id": "3257700002", "name": "USPS COLLECTION BOX - PO LOBBY", "address": {"city": "MOLINO", "state": "FL", "street": "550 MOLINO RD", "postcode": "32577"}}},
{"geometry": {"type": "Point", "coordinates": [-86.4736403841, 30.5222771171]}, "type": "Feature", "properties": {"collection_times": [{"days": "Mon-Sat", "time": "5:00pm"}, {"days": "Sun", "time": "Closed"}], "id": "3257800001", "name": "USPS COLLECTION BOX - BLUE BOX", "address": {"city": "NICEVILLE", "state": "FL", "street": "90 PALM BLVD N", "postcode": "32578"}}},
{"geometry": {"type": "Point", "coordinates": [-86.5015874884, 30.5206234936]}, "type": "Feature", "properties": {"collection_times": [{"days": "Mon-Sat", "time": "12:00pm"}, {"days": "Sun", "time": "Closed"}], "id": "3257800002", "name": "USPS COLLECTION BOX - BLUE BOX", "address": {"city": "NICEVILLE", "state": "FL", "street": "597 JOHN SIMS PKWY W", "postcode": "32578"}}},
{"geometry": {"type": "Point", "coordinates": [-86.471716887, 30.5171635813]}, "type": "Feature", "properties": {"collection_times": [{"days": "Mon-Sat", "time": "11:00am"}, {"days": "Sun", "time": "Closed"}], "id": "3257800007", "name": "USPS COLLECTION BOX - BLUE BOX", "address": {"city": "NICEVILLE", "state": "FL", "street": "1023 JOHN SIMS PKWY E", "postcode": "32578"}}},
{"geometry": {"type": "Point", "coordinates": [-86.4741624206, 30.5010344871]}, "type": "Feature", "properties": {"collection_times": [{"days": "Mon-Sat", "time": "1:45pm"}, {"days": "Sun", "time": "Closed"}], "id": "3257800011", "name": "USPS COLLECTION BOX - BLUE BOX", "address": {"city": "NICEVILLE", "state": "FL", "street": "1001 VALPARAISO BLVD", "postcode": "32578"}}},
{"geometry": {"type": "Point", "coordinates": [-86.399501939, 30.4711048537]}, "type": "Feature", "properties": {"collection_times": [{"days": "Mon-Sat", "time": "12:00pm"}, {"days": "Sun", "time": "Closed"}], "id": "3257800013", "name": "USPS COLLECTION BOX - BLUE BOX", "address": {"city": "NICEVILLE", "state": "FL", "street": "4400 E HIGHWAY 20 STE 314", "postcode": "32578"}}},
{"geometry": {"type": "Point", "coordinates": [-86.4736403841, 30.5222771171]}, "type": "Feature", "properties": {"collection_times": [{"days": "Mon-Sat", "time": "5:00pm"}, {"days": "Sun", "time": "Closed"}], "id": "3257800014", "name": "USPS COLLECTION BOX - BLUE BOX", "address": {"city": "NICEVILLE", "state": "FL", "street": "90 PALM BLVD N", "postcode": "32578"}}},
{"geometry": {"type": "Point", "coordinates": [-86.4736403841, 30.5222771171]}, "type": "Feature", "properties": {"collection_times": [{"days": "Mon-Sat", "time": "4:45pm"}, {"days": "Sun", "time": "Closed"}], "id": "3257800015", "name": "USPS COLLECTION BOX - PO LOBBY", "address": {"city": "NICEVILLE", "state": "FL", "street": "90 PALM BLVD N", "postcode": "32578"}}},
{"geometry": {"type": "Point", "coordinates": [-86.4736403841, 30.5222771171]}, "type": "Feature", "properties": {"collection_times": [{"days": "Mon-Sat", "time": "4:45pm"}, {"days": "Sun", "time": "Closed"}], "id": "3257800018", "name": "USPS COLLECTION BOX - PO LOBBY", "address": {"city": "NICEVILLE", "state": "FL", "street": "90 PALM BLVD N", "postcode": "32578"}}},
{"geometry": {"type": "Point", "coordinates": [-86.4736403841, 30.5222771171]}, "type": "Feature", "properties": {"collection_times": [{"days": "Mon-Sat", "time": "4:45pm"}, {"days": "Sun", "time": "Closed"}], "id": "3257800019", "name": "USPS COLLECTION BOX - PO LOBBY", "address": {"city": "NICEVILLE", "state": "FL", "street": "90 PALM BLVD N", "postcode": "32578"}}},
{"geometry": {"type": "Point", "coordinates": [-86.396809649, 30.469148395]}, "type": "Feature", "properties": {"collection_times": [{"days": "Mon-Sat", "time": "1:00pm"}, {"days": "Sun", "time": "Closed"}], "id": "3257800020", "name": "USPS COLLECTION BOX - BLUE BOX", "address": {"city": "NICEVILLE", "state": "FL", "street": "4562 E HIGHWAY 20", "postcode": "32578"}}},
{"geometry": {"type": "Point", "coordinates": [-86.584493387, 30.4394573758]}, "type": "Feature", "properties": {"collection_times": [{"days": "Mon-Fri", "time": "5:00pm"}, {"days": "Sat", "time": "2:00pm"}, {"days": "Sun", "time": "Closed"}], "id": "3257900002", "name": "USPS COLLECTION BOX - BLUE BOX", "address": {"city": "SHALIMAR", "state": "FL", "street": "1000 N EGLIN PKWY", "postcode": "32579"}}},
{"geometry": {"type": "Point", "coordinates": [-86.584493387, 30.4394573758]}, "type": "Feature", "properties": {"collection_times": [{"days": "Mon-Fri", "time": "5:00pm"}, {"days": "Sat", "time": "12:00pm"}, {"days": "Sun", "time": "Closed"}], "id": "3257900011", "name": "USPS COLLECTION BOX - PO LOBBY", "address": {"city": "SHALIMAR", "state": "FL", "street": "1000 N EGLIN PKWY", "postcode": "32579"}}},
{"geometry": {"type": "Point", "coordinates": [-86.584493387, 30.4394573758]}, "type": "Feature", "properties": {"collection_times": [{"days": "Mon-Fri", "time": "5:00pm"}, {"days": "Sat", "time": "12:00pm"}, {"days": "Sun", "time": "Closed"}], "id": "3257900012", "name": "USPS COLLECTION BOX - PO LOBBY", "address": {"city": "SHALIMAR", "state": "FL", "street": "1000 N EGLIN PKWY", "postcode": "32579"}}},
{"geometry": {"type": "Point", "coordinates": [-86.4998682251, 30.5180243777]}, "type": "Feature", "properties": {"collection_times": [{"days": "Mon-Sat", "time": "10:00am"}, {"days": "Sun", "time": "Closed"}], "id": "3258000005", "name": "USPS COLLECTION BOX - BLUE BOX", "address": {"city": "VALPARAISO", "state": "FL", "street": "143 N JOHN SIMS PKWY", "postcode": "32580"}}},
{"geometry": {"type": "Point", "coordinates": [-86.5074158294, 30.5238071233]}, "type": "Feature", "properties": {"collection_times": [{"days": "Mon-Sat", "time": "10:30am"}, {"days": "Sun", "time": "Closed"}], "id": "3258000006", "name": "USPS COLLECTION BOX - BLUE BOX", "address": {"city": "VALPARAISO", "state": "FL", "street": "500 KELLY MILL RD", "postcode": "32580"}}},
{"geometry": {"type": "Point", "coordinates": [-86.4946874665, 30.512986153]}, "type": "Feature", "properties": {"collection_times": [{"days": "Mon-Fri", "time": "4:30pm"}, {"days": "Sat", "time": "12:00pm"}, {"days": "Sun", "time": "Closed"}], "id": "3258000007", "name": "USPS COLLECTION BOX - PO LOBBY", "address": {"city": "VALPARAISO", "state": "FL", "street": "306 EDGE AVE", "postcode": "32580"}}},
{"geometry": {"type": "Point", "coordinates": [-86.4941994965, 30.5136543926]}, "type": "Feature", "properties": {"collection_times": [{"days": "Mon-Fri", "time": "4:30pm"}, {"days": "Sat", "time": "12:00pm"}, {"days": "Sun", "time": "Closed"}], "id": "3258000009", "name": "USPS COLLECTION BOX - BLUE BOX", "address": {"city": "VALPARAISO", "state": "FL", "street": "17 N JOHN SIMS PKWY", "postcode": "32580"}}}
]}
