{"type": "FeatureCollection", "features": [
{"geometry": {"type": "Point", "coordinates": [-82.3248362845, 29.651099045]}, "type": "Feature", "properties": {"collection_times": [{"days": "Mon-Fri", "time": "4:00pm"}, {"days": "Sat", "time": "9:30am"}, {"days": "Sun", "time": "Closed"}], "id": "3260100002", "name": "USPS COLLECTION BOX - BLUE BOX", "address": {"city": "GAINESVILLE", "state": "FL", "street": "16 SE 1ST AVE", "postcode": "32601"}}},
{"geometry": {"type": "Point", "coordinates": [-82.3239132969, 29.6541600821]}, "type": "Feature", "properties": {"collection_times": [{"days": "Mon-Fri", "time": "4:00pm"}, {"days": "Sat", "time": "9:30am"}, {"days": "Sun", "time": "Closed"}], "id": "3260100004", "name": "USPS COLLECTION BOX - BLUE BOX", "address": {"city": "GAINESVILLE", "state": "FL", "street": "305 NE 1ST ST", "postcode": "32601"}}},
{"geometry": {"type": "Point", "coordinates": [-82.3240186655, 29.6502505948]}, "type": "Feature", "properties": {"collection_times": [{"days": "Mon-Fri", "time": "4:00pm"}, {"days": "Sat", "time": "9:30am"}, {"days": "Sun", "time": "Closed"}], "id": "3260100005", "name": "USPS COLLECTION BOX - BLUE BOX", "address": {"city": "GAINESVILLE", "state": "FL", "street": "200 SE 1ST ST", "postcode": "32601"}}},
{"geometry": {"type": "Point", "coordinates": [-82.325165457, 29.65328294]}, "type": "Feature", "properties": {"collection_times": [{"days": "Mon-Fri", "time": "4:00pm"}, {"days": "Sat", "time": "9:30am"}, {"days": "Sun", "time": "Closed"}], "id": "3260100006", "name": "USPS COLLECTION BOX - BLUE BOX", "address": {"city": "GAINESVILLE", "state": "FL", "street": "15 NW 2ND AVE", "postcode": "32601"}}},
{"geometry": {"type": "Point", "coordinates": [-82.3190832754, 29.6607692738]}, "type": "Feature", "properties": {"collection_times": [{"days": "Mon-Sat", "time": "9:30am"}, {"days": "Sun", "time": "Closed"}], "id": "3260100011", "name": "USPS COLLECTION BOX - BLUE BOX", "address": {"city": "GAINESVILLE", "state": "FL", "street": "544 NE 10TH AVE", "postcode": "32601"}}},
{"geometry": {"type": "Point", "coordinates": [-82.3360196989, 29.6365623845]}, "type": "Feature", "properties": {"collection_times": [{"days": "Mon-Sat", "time": "9:30am"}, {"days": "Sun", "time": "Closed"}], "id": "3260100026", "name": "USPS COLLECTION BOX - BLUE BOX", "address": {"city": "GAINESVILLE", "state": "FL", "street": "1000 SW 16TH AVE", "postcode": "32601"}}},
{"geometry": {"type": "Point", "coordinates": [-82.3213782158, 29.6510370704]}, "type": "Feature", "properties": {"collection_times": [{"days": "Mon-Fri", "time": "4:50pm"}, {"days": "Sat", "time": "4:00pm"}, {"days": "Sun", "time": "Closed"}], "id": "3260100037", "name": "USPS COLLECTION BOX - BLUE BOX", "address": {"city": "GAINESVILLE", "state": "FL", "street": "401 SE 1ST AVE", "postcode": "32601"}}},
{"geometry": {"type": "Point", "coordinates": [-82.3250767711, 29.6527413783]}, "type": "Feature", "properties": {"collection_times": [{"days": "Mon-Fri", "time": "4:30pm"}, {"days": "Sat", "time": "4:00pm"}, {"days": "Sun", "time": "Closed"}], "id": "3260100038", "name": "USPS COLLECTION BOX - BLUE BOX", "address": {"city": "GAINESVILLE", "state": "FL", "street": "401 SE 1ST AVE", "postcode": "32601"}}},
{"geometry": {"type": "Point", "coordinates": [-82.3309346011, 29.6648812829]}, "type": "Feature", "properties": {"collection_times": [{"days": "Mon-Sat", "time": "9:30am"}, {"days": "Sun", "time": "Closed"}], "id": "3260100046", "name": "USPS COLLECTION BOX - BLUE BOX", "address": {"city": "GAINESVILLE", "state": "FL", "street": "1406 NW 6TH ST", "postcode": "32601"}}},
{"geometry": {"type": "Point", "coordinates": [-82.3309324074, 29.6521060299]}, "type": "Feature", "properties": {"collection_times": [{"days": "Mon-Sat", "time": "9:30am"}, {"days": "Sun", "time": "Closed"}], "id": "3260100055", "name": "USPS COLLECTION BOX - BLUE BOX", "address": {"city": "GAINESVILLE", "state": "FL", "street": "610 W UNIVERSITY AVE", "postcode": "32601"}}},
{"geometry": {"type": "Point", "coordinates": [-82.3361822822, 29.6521277238]}, "type": "Feature", "properties": {"collection_times": [{"days": "Mon-Sat", "time": "9:30am"}, {"days": "Sun", "time": "Closed"}], "id": "3260100056", "name": "USPS COLLECTION BOX - BLUE BOX", "address": {"city": "GAINESVILLE", "state": "FL", "street": "1116 W UNIVERSITY AVE", "postcode": "32601"}}},
{"geometry": {"type": "Point", "coordinates": [-82.3258677821, 29.6527410618]}, "type": "Feature", "properties": {"collection_times": [{"days": "Mon-Fri", "time": "4:00pm"}, {"days": "Sat", "time": "9:30am"}, {"days": "Sun", "time": "Closed"}], "id": "3260100057", "name": "USPS COLLECTION BOX - BLUE BOX", "address": {"city": "GAINESVILLE", "state": "FL", "street": "100 NW 1ST AVE", "postcode": "32601"}}},
{"geometry": {"type": "Point", "coordinates": [-82.3239085651, 29.6566088071]}, "type": "Feature", "properties": {"collection_times": [{"days": "Mon-Fri", "time": "4:00pm"}, {"days": "Sat", "time": "9:30am"}, {"days": "Sun", "time": "Closed"}], "id": "3260100059", "name": "USPS COLLECTION BOX - BLUE BOX", "address": {"city": "GAINESVILLE", "state": "FL", "street": "537 NE 1ST ST", "postcode": "32601"}}},
{"geometry": {"type": "Point", "coordinates": [-82.3249991663, 29.6562811621]}, "type": "Feature", "properties": {"collection_times": [{"days": "Mon-Fri", "time": "4:00pm"}, {"days": "Sat", "time": "9:30am"}, {"days": "Sun", "time": "Closed"}], "id": "3260100060", "name": "USPS COLLECTION BOX - BLUE BOX", "address": {"city": "GAINESVILLE", "state": "FL", "street": "515 N MAIN ST", "postcode": "32601"}}},
{"geometry": {"type": "Point", "coordinates": [-82.3245939187, 29.662950353]}, "type": "Feature", "properties": {"collection_times": [{"days": "Mon-Sat", "time": "9:30am"}, {"days": "Sun", "time": "Closed"}], "id": "3260100061", "name": "USPS COLLECTION BOX - BLUE BOX", "address": {"city": "GAINESVILLE", "state": "FL", "street": "1200 N MAIN ST", "postcode": "32601"}}},
{"geometry": {"type": "Point", "coordinates": [-82.3241155829, 29.6303719602]}, "type": "Feature", "properties": {"collection_times": [{"days": "Mon-Sat", "time": "9:30am"}, {"days": "Sun", "time": "Closed"}], "id": "3260100062", "name": "USPS COLLECTION BOX - BLUE BOX", "address": {"city": "GAINESVILLE", "state": "FL", "street": "205 NE 16TH AVE", "postcode": "32601"}}},
{"geometry": {"type": "Point", "coordinates": [-82.3265145474, 29.6496058265]}, "type": "Feature", "properties": {"collection_times": [{"days": "Mon-Fri", "time": "4:00pm"}, {"days": "Sat", "time": "9:30am"}, {"days": "Sun", "time": "Closed"}], "id": "3260100078", "name": "USPS COLLECTION BOX - BLUE BOX", "address": {"city": "GAINESVILLE", "state": "FL", "street": "225 SW 2ND ST", "postcode": "32601"}}},
{"geometry": {"type": "Point", "coordinates": [-82.3189850898, 29.6519384851]}, "type": "Feature", "properties": {"collection_times": [{"days": "Mon-Fri", "time": "4:00pm"}, {"days": "Sat", "time": "10:00am"}, {"days": "Sun", "time": "Closed"}], "id": "3260100079", "name": "USPS COLLECTION BOX - BLUE BOX", "address": {"city": "GAINESVILLE", "state": "FL", "street": "620 E UNIVERSITY AVE", "postcode": "32601"}}},
{"geometry": {"type": "Point", "coordinates": [-82.3244493655, 29.6648338823]}, "type": "Feature", "properties": {"collection_times": [{"days": "Mon-Fri", "time": "5:00pm"}, {"days": "Sat", "time": "4:00pm"}, {"days": "Sun", "time": "Closed"}], "id": "3260100080", "name": "USPS COLLECTION BOX - BLUE BOX", "address": {"city": "GAINESVILLE", "state": "FL", "street": "1401 N MAIN ST", "postcode": "32601"}}},
{"geometry": {"type": "Point", "coordinates": [-82.3244493655, 29.6648338823]}, "type": "Feature", "properties": {"collection_times": [{"days": "Mon-Fri", "time": "5:00pm"}, {"days": "Sat", "time": "4:00pm"}, {"days": "Sun", "time": "Closed"}], "id": "3260100081", "name": "USPS COLLECTION BOX - BLUE BOX", "address": {"city": "GAINESVILLE", "state": "FL", "street": "1401 N MAIN ST", "postcode": "32601"}}},
{"geometry": {"type": "Point", "coordinates": [-82.3244493655, 29.6648338823]}, "type": "Feature", "properties": {"collection_times": [{"days": "Mon-Fri", "time": "5:00pm"}, {"days": "Sat", "time": "4:00pm"}, {"days": "Sun", "time": "Closed"}], "id": "3260100082", "name": "USPS COLLECTION BOX - PO LOBBY", "address": {"city": "GAINESVILLE", "state": "FL", "street": "1401 N MAIN ST", "postcode": "32601"}}},
{"geometry": {"type": "Point", "coordinates": [-82.3453288417, 29.6546531807]}, "type": "Feature", "properties": {"collection_times": [{"days": "Mon-Fri", "time": "5:00pm"}, {"days": "Sat", "time": "2:45pm"}, {"days": "Sun", "time": "Closed"}], "id": "3260300001", "name": "USPS COLLECTION BOX - BLUE BOX", "address": {"city": "GAINESVILLE", "state": "FL", "street": "1630 NW 1ST AVE", "postcode": "32603"}}},
{"geometry": {"type": "Point", "coordinates": [-82.3417972705, 29.6525997592]}, "type": "Feature", "properties": {"collection_times": [{"days": "Mon-Sat", "time": "10:00am"}, {"days": "Sun", "time": "Closed"}], "id": "3260300003", "name": "USPS COLLECTION BOX - BLUE BOX", "address": {"city": "GAINESVILLE", "state": "FL", "street": "15 NW 15TH ST", "postcode": "32603"}}},
{"geometry": {"type": "Point", "coordinates": [-82.3508587362, 29.6538489639]}, "type": "Feature", "properties": {"collection_times": [{"days": "Mon-Sat", "time": "10:00am"}, {"days": "Sun", "time": "Closed"}], "id": "3260300004", "name": "USPS COLLECTION BOX - BLUE BOX", "address": {"city": "GAINESVILLE", "state": "FL", "street": "214 NW 20TH DR", "postcode": "32603"}}},
{"geometry": {"type": "Point", "coordinates": [-82.3475193308, 29.656259352]}, "type": "Feature", "properties": {"collection_times": [{"days": "Mon-Sat", "time": "10:00am"}, {"days": "Sun", "time": "Closed"}], "id": "3260300006", "name": "USPS COLLECTION BOX - BLUE BOX", "address": {"city": "GAINESVILLE", "state": "FL", "street": "285 VILLAGE DR", "postcode": "32603"}}},
{"geometry": {"type": "Point", "coordinates": [-82.349343416, 29.6521521768]}, "type": "Feature", "properties": {"collection_times": [{"days": "Mon-Sat", "time": "10:00am"}, {"days": "Sun", "time": "Closed"}], "id": "3260300017", "name": "USPS COLLECTION BOX - BLUE BOX", "address": {"city": "GAINESVILLE", "state": "FL", "street": "2000 W UNIVERSITY AVE", "postcode": "32603"}}},
{"geometry": {"type": "Point", "coordinates": [-82.3478539599, 29.6558976889]}, "type": "Feature", "properties": {"collection_times": [{"days": "Mon-Sat", "time": "10:00am"}, {"days": "Sun", "time": "Closed"}], "id": "3260300018", "name": "USPS COLLECTION BOX - BLUE BOX", "address": {"city": "GAINESVILLE", "state": "FL", "street": "1900 NW 5TH AVE", "postcode": "32603"}}},
{"geometry": {"type": "Point", "coordinates": [-82.3442365319, 29.6528032281]}, "type": "Feature", "properties": {"collection_times": [{"days": "Mon-Fri", "time": "5:00pm"}, {"days": "Sat", "time": "2:45pm"}, {"days": "Sun", "time": "Closed"}], "id": "3260300019", "name": "USPS COLLECTION BOX - PO LOBBY", "address": {"city": "GAINESVILLE", "state": "FL", "street": "1630 NW 1ST AVE", "postcode": "32603"}}},
{"geometry": {"type": "Point", "coordinates": [-82.3442365319, 29.6528032281]}, "type": "Feature", "properties": {"collection_times": [{"days": "Mon-Fri", "time": "5:00pm"}, {"days": "Sat", "time": "2:45pm"}, {"days": "Sun", "time": "Closed"}], "id": "3260300020", "name": "USPS COLLECTION BOX - PO LOBBY", "address": {"city": "GAINESVILLE", "state": "FL", "street": "1630 NW 1ST AVE", "postcode": "32603"}}},
{"geometry": {"type": "Point", "coordinates": [-82.3501979685, 29.6796343664]}, "type": "Feature", "properties": {"collection_times": [{"days": "Mon-Sat", "time": "10:00am"}, {"days": "Sun", "time": "Closed"}], "id": "3260500006", "name": "USPS COLLECTION BOX - BLUE BOX", "address": {"city": "GAINESVILLE", "state": "FL", "street": "2601 NW 23RD BLVD", "postcode": "32605"}}},
{"geometry": {"type": "Point", "coordinates": [-82.350600861, 29.6801867976]}, "type": "Feature", "properties": {"collection_times": [{"days": "Mon-Sat", "time": "10:00am"}, {"days": "Sun", "time": "Closed"}], "id": "3260500007", "name": "USPS COLLECTION BOX - BLUE BOX", "address": {"city": "GAINESVILLE", "state": "FL", "street": "2701 NW 23RD BLVD", "postcode": "32605"}}},
{"geometry": {"type": "Point", "coordinates": [-82.3461269003, 29.6744076077]}, "type": "Feature", "properties": {"collection_times": [{"days": "Mon-Sat", "time": "10:00am"}, {"days": "Sun", "time": "Closed"}], "id": "3260500008", "name": "USPS COLLECTION BOX - BLUE BOX", "address": {"city": "GAINESVILLE", "state": "FL", "street": "1810 NW 23RD BLVD", "postcode": "32605"}}},
{"geometry": {"type": "Point", "coordinates": [-82.3584667591, 29.688555528]}, "type": "Feature", "properties": {"collection_times": [{"days": "Mon-Sat", "time": "11:00am"}, {"days": "Sun", "time": "Closed"}], "id": "3260500009", "name": "USPS COLLECTION BOX - BLUE BOX", "address": {"city": "GAINESVILLE", "state": "FL", "street": "3900 NW 24TH BLVD", "postcode": "32605"}}},
{"geometry": {"type": "Point", "coordinates": [-82.4040481201, 29.661022427]}, "type": "Feature", "properties": {"collection_times": [{"days": "Mon-Fri", "time": "3:30pm"}, {"days": "Sat-Sun", "time": "Closed"}], "id": "3260500010", "name": "USPS COLLECTION BOX - BLUE BOX", "address": {"city": "GAINESVILLE", "state": "FL", "street": "908 NW 57TH ST", "postcode": "32605"}}},
{"geometry": {"type": "Point", "coordinates": [-82.3698665209, 29.700547452]}, "type": "Feature", "properties": {"collection_times": [{"days": "Mon-Fri", "time": "4:00pm"}, {"days": "Sat", "time": "10:30am"}, {"days": "Sun", "time": "Closed"}], "id": "3260500011", "name": "USPS COLLECTION BOX - BLUE BOX", "address": {"city": "GAINESVILLE", "state": "FL", "street": "5001 NW 34TH ST", "postcode": "32605"}}},
{"geometry": {"type": "Point", "coordinates": [-82.4126002643, 29.6601848294]}, "type": "Feature", "properties": {"collection_times": [{"days": "Mon-Fri", "time": "3:45pm"}, {"days": "Sat", "time": "3:00pm"}, {"days": "Sun", "time": "Closed"}], "id": "3260500012", "name": "USPS COLLECTION BOX - BLUE BOX", "address": {"city": "GAINESVILLE", "state": "FL", "street": "916 NW 66TH ST", "postcode": "32605"}}},
{"geometry": {"type": "Point", "coordinates": [-82.4126002643, 29.6601848294]}, "type": "Feature", "properties": {"collection_times": [{"days": "Mon-Fri", "time": "3:45pm"}, {"days": "Sat", "time": "3:00pm"}, {"days": "Sun", "time": "Closed"}], "id": "3260500013", "name": "USPS COLLECTION BOX - BLUE BOX", "address": {"city": "GAINESVILLE", "state": "FL", "street": "916 NW 66TH ST", "postcode": "32605"}}},
{"geometry": {"type": "Point", "coordinates": [-82.3712294195, 29.6778337851]}, "type": "Feature", "properties": {"collection_times": [{"days": "Mon-Fri", "time": "3:45pm"}, {"days": "Sat", "time": "3:00pm"}, {"days": "Sun", "time": "Closed"}], "id": "3260500014", "name": "USPS COLLECTION BOX - BLUE BOX", "address": {"city": "GAINESVILLE", "state": "FL", "street": "916 NW 66TH ST", "postcode": "32605"}}},
{"geometry": {"type": "Point", "coordinates": [-82.4115620646, 29.6595180031]}, "type": "Feature", "properties": {"collection_times": [{"days": "Mon-Fri", "time": "4:00pm"}, {"days": "Sat", "time": "3:00pm"}, {"days": "Sun", "time": "Closed"}], "id": "3260500018", "name": "USPS COLLECTION BOX - BLUE BOX", "address": {"city": "GAINESVILLE", "state": "FL", "street": "6403 W NEWBERRY RD", "postcode": "32605"}}},
{"geometry": {"type": "Point", "coordinates": [-82.4115620646, 29.6595180031]}, "type": "Feature", "properties": {"collection_times": [{"days": "Mon-Fri", "time": "4:00pm"}, {"days": "Sat", "time": "3:00pm"}, {"days": "Sun", "time": "Closed"}], "id": "3260500019", "name": "USPS COLLECTION BOX - BLUE BOX", "address": {"city": "GAINESVILLE", "state": "FL", "street": "6403 W NEWBERRY RD", "postcode": "32605"}}},
{"geometry": {"type": "Point", "coordinates": [-82.3846097269, 29.6729627173]}, "type": "Feature", "properties": {"collection_times": [{"days": "Mon-Fri", "time": "4:30pm"}, {"days": "Sat", "time": "10:00am"}, {"days": "Sun", "time": "Closed"}], "id": "3260500079", "name": "USPS COLLECTION BOX - BLUE BOX", "address": {"city": "GAINESVILLE", "state": "FL", "street": "2200 NW 40TH TER", "postcode": "32605"}}},
{"geometry": {"type": "Point", "coordinates": [-82.3873327491, 29.6734920821]}, "type": "Feature", "properties": {"collection_times": [{"days": "Mon-Fri", "time": "4:45pm"}, {"days": "Sat", "time": "4:00pm"}, {"days": "Sun", "time": "Closed"}], "id": "3260500086", "name": "USPS COLLECTION BOX - BLUE BOX", "address": {"city": "GAINESVILLE", "state": "FL", "street": "4130 NW 16TH BLVD", "postcode": "32605"}}},
{"geometry": {"type": "Point", "coordinates": [-82.3712294195, 29.6778337851]}, "type": "Feature", "properties": {"collection_times": [{"days": "Mon-Fri", "time": "4:00pm"}, {"days": "Sat", "time": "3:00pm"}, {"days": "Sun", "time": "Closed"}], "id": "3260500091", "name": "USPS COLLECTION BOX - BLUE BOX", "address": {"city": "GAINESVILLE", "state": "FL", "street": "6403 W NEWBERRY RD", "postcode": "32605"}}},
{"geometry": {"type": "Point", "coordinates": [-82.4118580152, 29.6596986959]}, "type": "Feature", "properties": {"collection_times": [{"days": "Mon-Fri", "time": "3:45pm"}, {"days": "Sat", "time": "10:00am"}, {"days": "Sun", "time": "Closed"}], "id": "3260500101", "name": "USPS COLLECTION BOX - BLUE BOX", "address": {"city": "GAINESVILLE", "state": "FL", "street": "6400 W NEWBERRY RD", "postcode": "32605"}}},
{"geometry": {"type": "Point", "coordinates": [-82.3846097269, 29.6729627173]}, "type": "Feature", "properties": {"collection_times": [{"days": "Mon-Fri", "time": "4:30pm"}, {"days": "Sat", "time": "10:00am"}, {"days": "Sun", "time": "Closed"}], "id": "3260500113", "name": "USPS COLLECTION BOX - BLUE BOX", "address": {"city": "GAINESVILLE", "state": "FL", "street": "2200 NW 40TH TER", "postcode": "32605"}}},
{"geometry": {"type": "Point", "coordinates": [-82.3445618456, 29.6913132743]}, "type": "Feature", "properties": {"collection_times": [{"days": "Mon-Fri", "time": "5:00pm"}, {"days": "Sat", "time": "2:00pm"}, {"days": "Sun", "time": "Closed"}], "id": "3260500116", "name": "USPS COLLECTION BOX - APC", "address": {"city": "GAINESVILLE", "state": "FL", "street": "4111 NW 16TH BLVD", "postcode": "32605"}}},
{"geometry": {"type": "Point", "coordinates": [-82.3445618456, 29.6913132743]}, "type": "Feature", "properties": {"collection_times": [{"days": "Mon-Fri", "time": "5:00pm"}, {"days": "Sat", "time": "2:00pm"}, {"days": "Sun", "time": "Closed"}], "id": "3260500117", "name": "USPS COLLECTION BOX - PO LOBBY", "address": {"city": "GAINESVILLE", "state": "FL", "street": "4111 NW 16TH BLVD", "postcode": "32605"}}},
{"geometry": {"type": "Point", "coordinates": [-82.3445618456, 29.6913132743]}, "type": "Feature", "properties": {"collection_times": [{"days": "Mon-Fri", "time": "5:00pm"}, {"days": "Sat", "time": "2:00pm"}, {"days": "Sun", "time": "Closed"}], "id": "3260500118", "name": "USPS COLLECTION BOX - PO LOBBY", "address": {"city": "GAINESVILLE", "state": "FL", "street": "4111 NW 16TH BLVD", "postcode": "32605"}}},
{"geometry": {"type": "Point", "coordinates": [-82.424615102, 29.6596054413]}, "type": "Feature", "properties": {"collection_times": [{"days": "Mon-Sat", "time": "10:00am"}, {"days": "Sun", "time": "Closed"}], "id": "3260600001", "name": "USPS COLLECTION BOX - BLUE BOX", "address": {"city": "GAINESVILLE", "state": "FL", "street": "7731 W NEWBERRY RD", "postcode": "32606"}}},
{"geometry": {"type": "Point", "coordinates": [-82.4288654163, 29.6671726307]}, "type": "Feature", "properties": {"collection_times": [{"days": "Mon-Sat", "time": "10:00am"}, {"days": "Sun", "time": "Closed"}], "id": "3260600002", "name": "USPS COLLECTION BOX - BLUE BOX", "address": {"city": "GAINESVILLE", "state": "FL", "street": "8100 NW 15TH PL", "postcode": "32606"}}},
{"geometry": {"type": "Point", "coordinates": [-82.3884268613, 29.6767860022]}, "type": "Feature", "properties": {"collection_times": [{"days": "Mon-Sat", "time": "9:15am"}, {"days": "Sun", "time": "Closed"}], "id": "3260600003", "name": "USPS COLLECTION BOX - BLUE BOX", "address": {"city": "GAINESVILLE", "state": "FL", "street": "4400 NW 25TH PL", "postcode": "32606"}}},
{"geometry": {"type": "Point", "coordinates": [-82.3865863738, 29.6795032125]}, "type": "Feature", "properties": {"collection_times": [{"days": "Mon-Fri", "time": "4:15pm"}, {"days": "Sat", "time": "4:00pm"}, {"days": "Sun", "time": "Closed"}], "id": "3260600006", "name": "USPS COLLECTION BOX - BLUE BOX", "address": {"city": "GAINESVILLE", "state": "FL", "street": "4101 NW 28TH LN", "postcode": "32606"}}},
{"geometry": {"type": "Point", "coordinates": [-82.3865863738, 29.6795032125]}, "type": "Feature", "properties": {"collection_times": [{"days": "Mon-Fri", "time": "4:15pm"}, {"days": "Sat", "time": "4:00pm"}, {"days": "Sun", "time": "Closed"}], "id": "3260600007", "name": "USPS COLLECTION BOX - BLUE BOX", "address": {"city": "GAINESVILLE", "state": "FL", "street": "4101 NW 28TH LN", "postcode": "32606"}}},
{"geometry": {"type": "Point", "coordinates": [-82.3865863738, 29.6795032125]}, "type": "Feature", "properties": {"collection_times": [{"days": "Mon-Fri", "time": "4:15pm"}, {"days": "Sat", "time": "4:00pm"}, {"days": "Sun", "time": "Closed"}], "id": "3260600008", "name": "USPS COLLECTION BOX - BLUE BOX", "address": {"city": "GAINESVILLE", "state": "FL", "street": "4101 NW 28TH LN", "postcode": "32606"}}},
{"geometry": {"type": "Point", "coordinates": [-82.4275493808, 29.6803538882]}, "type": "Feature", "properties": {"collection_times": [{"days": "Mon-Fri", "time": "4:15pm"}, {"days": "Sat", "time": "4:00pm"}, {"days": "Sun", "time": "Closed"}], "id": "3260600010", "name": "USPS COLLECTION BOX - BLUE BOX", "address": {"city": "GAINESVILLE", "state": "FL", "street": "4101 NW 28TH LN", "postcode": "32606"}}},
{"geometry": {"type": "Point", "coordinates": [-82.4443543541, 29.6845812804]}, "type": "Feature", "properties": {"collection_times": [{"days": "Mon-Sat", "time": "10:00am"}, {"days": "Sun", "time": "Closed"}], "id": "3260600011", "name": "USPS COLLECTION BOX - BLUE BOX", "address": {"city": "GAINESVILLE", "state": "FL", "street": "10401 NW 37TH PL", "postcode": "32606"}}},
{"geometry": {"type": "Point", "coordinates": [-82.3979286734, 29.6886149449]}, "type": "Feature", "properties": {"collection_times": [{"days": "Mon-Sat", "time": "10:30am"}, {"days": "Sun", "time": "Closed"}], "id": "3260600012", "name": "USPS COLLECTION BOX - BLUE BOX", "address": {"city": "GAINESVILLE", "state": "FL", "street": "5109 NW 39TH AVE", "postcode": "32606"}}},
{"geometry": {"type": "Point", "coordinates": [-82.3890619031, 29.6874927734]}, "type": "Feature", "properties": {"collection_times": [{"days": "Mon-Fri", "time": "4:15pm"}, {"days": "Sat", "time": "10:00am"}, {"days": "Sun", "time": "Closed"}], "id": "3260600013", "name": "USPS COLLECTION BOX - BLUE BOX", "address": {"city": "GAINESVILLE", "state": "FL", "street": "3720 NW 43RD ST", "postcode": "32606"}}},
{"geometry": {"type": "Point", "coordinates": [-82.3890637077, 29.6917001234]}, "type": "Feature", "properties": {"collection_times": [{"days": "Mon-Sat", "time": "10:00am"}, {"days": "Sun", "time": "Closed"}], "id": "3260600014", "name": "USPS COLLECTION BOX - BLUE BOX", "address": {"city": "GAINESVILLE", "state": "FL", "street": "4100 NW 43RD ST", "postcode": "32606"}}},
{"geometry": {"type": "Point", "coordinates": [-82.3889594785, 29.7012927161]}, "type": "Feature", "properties": {"collection_times": [{"days": "Mon-Fri", "time": "4:15pm"}, {"days": "Sat", "time": "3:45pm"}, {"days": "Sun", "time": "Closed"}], "id": "3260600015", "name": "USPS COLLECTION BOX - BLUE BOX", "address": {"city": "GAINESVILLE", "state": "FL", "street": "5200 NW 43RD ST", "postcode": "32606"}}},
{"geometry": {"type": "Point", "coordinates": [-82.4303631899, 29.6805836098]}, "type": "Feature", "properties": {"collection_times": [{"days": "Mon-Fri", "time": "9:45am"}, {"days": "Sat-Sun", "time": "Closed"}], "id": "3260600016", "name": "USPS COLLECTION BOX - BLUE BOX", "address": {"city": "GAINESVILLE", "state": "FL", "street": "3000 NW 83RD ST", "postcode": "32606"}}},
{"geometry": {"type": "Point", "coordinates": [-82.4389939109, 29.6844580271]}, "type": "Feature", "properties": {"collection_times": [{"days": "Mon-Sat", "time": "9:30am"}, {"days": "Sun", "time": "Closed"}], "id": "3260600017", "name": "USPS COLLECTION BOX - BLUE BOX", "address": {"city": "GAINESVILLE", "state": "FL", "street": "3410 NW 91ST ST", "postcode": "32606"}}},
{"geometry": {"type": "Point", "coordinates": [-82.4390460506, 29.6842518506]}, "type": "Feature", "properties": {"collection_times": [{"days": "Mon-Sat", "time": "10:30am"}, {"days": "Sun", "time": "Closed"}], "id": "3260600018", "name": "USPS COLLECTION BOX - BLUE BOX", "address": {"city": "GAINESVILLE", "state": "FL", "street": "3600 NW 91ST ST", "postcode": "32606"}}},
{"geometry": {"type": "Point", "coordinates": [-82.4390460506, 29.6842518506]}, "type": "Feature", "properties": {"collection_times": [{"days": "Mon-Sat", "time": "10:30am"}, {"days": "Sun", "time": "Closed"}], "id": "3260600019", "name": "USPS COLLECTION BOX - BLUE BOX", "address": {"city": "GAINESVILLE", "state": "FL", "street": "3600 NW 91ST ST", "postcode": "32606"}}},
{"geometry": {"type": "Point", "coordinates": [-82.448966255, 29.6858480039]}, "type": "Feature", "properties": {"collection_times": [{"days": "Mon-Sat", "time": "10:30am"}, {"days": "Sun", "time": "Closed"}], "id": "3260600020", "name": "USPS COLLECTION BOX - BLUE BOX", "address": {"city": "GAINESVILLE", "state": "FL", "street": "3538 NW 97TH BLVD", "postcode": "32606"}}},
{"geometry": {"type": "Point", "coordinates": [-82.3890853167, 29.6750647694]}, "type": "Feature", "properties": {"collection_times": [{"days": "Mon-Sat", "time": "9:15am"}, {"days": "Sun", "time": "Closed"}], "id": "3260600021", "name": "USPS COLLECTION BOX - BLUE BOX", "address": {"city": "GAINESVILLE", "state": "FL", "street": "2632 NW 43RD ST", "postcode": "32606"}}},
{"geometry": {"type": "Point", "coordinates": [-82.3865580718, 29.6774135064]}, "type": "Feature", "properties": {"collection_times": [{"days": "Mon-Sat", "time": "11:00am"}, {"days": "Sun", "time": "Closed"}], "id": "3260600022", "name": "USPS COLLECTION BOX - BLUE BOX", "address": {"city": "GAINESVILLE", "state": "FL", "street": "2630 NW 41ST ST", "postcode": "32606"}}},
{"geometry": {"type": "Point", "coordinates": [-82.4240531392, 29.6612649336]}, "type": "Feature", "properties": {"collection_times": [{"days": "Mon-Sat", "time": "10:00am"}, {"days": "Sun", "time": "Closed"}], "id": "3260600023", "name": "USPS COLLECTION BOX - BLUE BOX", "address": {"city": "GAINESVILLE", "state": "FL", "street": "900 NW 76TH BLVD", "postcode": "32606"}}},
{"geometry": {"type": "Point", "coordinates": [-82.4240531392, 29.6612649336]}, "type": "Feature", "properties": {"collection_times": [{"days": "Mon-Sat", "time": "10:00am"}, {"days": "Sun", "time": "Closed"}], "id": "3260600024", "name": "USPS COLLECTION BOX - BLUE BOX", "address": {"city": "GAINESVILLE", "state": "FL", "street": "900 NW 76TH BLVD", "postcode": "32606"}}},
{"geometry": {"type": "Point", "coordinates": [-82.3848463302, 29.6537377657]}, "type": "Feature", "properties": {"collection_times": [{"days": "Mon-Fri", "time": "4:30pm"}, {"days": "Sat", "time": "10:00am"}, {"days": "Sun", "time": "Closed"}], "id": "3260700001", "name": "USPS COLLECTION BOX - BLUE BOX", "address": {"city": "GAINESVILLE", "state": "FL", "street": "4001 W NEWBERRY RD", "postcode": "32607"}}},
{"geometry": {"type": "Point", "coordinates": [-82.3848463302, 29.6537377657]}, "type": "Feature", "properties": {"collection_times": [{"days": "Mon-Fri", "time": "4:30pm"}, {"days": "Sat", "time": "10:00am"}, {"days": "Sun", "time": "Closed"}], "id": "3260700002", "name": "USPS COLLECTION BOX - BLUE BOX", "address": {"city": "GAINESVILLE", "state": "FL", "street": "4001 W NEWBERRY RD", "postcode": "32607"}}},
{"geometry": {"type": "Point", "coordinates": [-82.3984752005, 29.6588162086]}, "type": "Feature", "properties": {"collection_times": [{"days": "Mon-Fri", "time": "4:00pm"}, {"days": "Sat", "time": "10:00am"}, {"days": "Sun", "time": "Closed"}], "id": "3260700003", "name": "USPS COLLECTION BOX - BLUE BOX", "address": {"city": "GAINESVILLE", "state": "FL", "street": "5200 W NEWBERRY RD", "postcode": "32607"}}},
{"geometry": {"type": "Point", "coordinates": [-82.4068497746, 29.6440426773]}, "type": "Feature", "properties": {"collection_times": [{"days": "Mon-Fri", "time": "4:00pm"}, {"days": "Sat", "time": "10:00am"}, {"days": "Sun", "time": "Closed"}], "id": "3260700004", "name": "USPS COLLECTION BOX - BLUE BOX", "address": {"city": "GAINESVILLE", "state": "FL", "street": "5200 W NEWBERRY RD", "postcode": "32607"}}},
{"geometry": {"type": "Point", "coordinates": [-82.3734255715, 29.6519702439]}, "type": "Feature", "properties": {"collection_times": [{"days": "Mon-Fri", "time": "11:00am"}, {"days": "Sat", "time": "10:00am"}, {"days": "Sun", "time": "Closed"}], "id": "3260700005", "name": "USPS COLLECTION BOX - BLUE BOX", "address": {"city": "GAINESVILLE", "state": "FL", "street": "3421 W UNIVERSITY AVE", "postcode": "32607"}}},
{"geometry": {"type": "Point", "coordinates": [-82.4228081494, 29.6458663096]}, "type": "Feature", "properties": {"collection_times": [{"days": "Mon-Sat", "time": "10:00am"}, {"days": "Sun", "time": "Closed"}], "id": "3260700006", "name": "USPS COLLECTION BOX - BLUE BOX", "address": {"city": "GAINESVILLE", "state": "FL", "street": "3450 HULL RD", "postcode": "32607"}}},
{"geometry": {"type": "Point", "coordinates": [-82.3766448234, 29.6508349963]}, "type": "Feature", "properties": {"collection_times": [{"days": "Mon-Sat", "time": "10:00am"}, {"days": "Sun", "time": "Closed"}], "id": "3260700007", "name": "USPS COLLECTION BOX - BLUE BOX", "address": {"city": "GAINESVILLE", "state": "FL", "street": "3601 SW 2ND AVE", "postcode": "32607"}}},
{"geometry": {"type": "Point", "coordinates": [-82.3558262204, 29.6504400131]}, "type": "Feature", "properties": {"collection_times": [{"days": "Mon-Sat", "time": "10:00am"}, {"days": "Sun", "time": "Closed"}], "id": "3260700008", "name": "USPS COLLECTION BOX - BLUE BOX", "address": {"city": "GAINESVILLE", "state": "FL", "street": "2300 SW 2ND AVE", "postcode": "32607"}}},
{"geometry": {"type": "Point", "coordinates": [-82.3759516618, 29.6507436966]}, "type": "Feature", "properties": {"collection_times": [{"days": "Mon-Fri", "time": "4:30pm"}, {"days": "Sat", "time": "10:00am"}, {"days": "Sun", "time": "Closed"}], "id": "3260700009", "name": "USPS COLLECTION BOX - BLUE BOX", "address": {"city": "GAINESVILLE", "state": "FL", "street": "3501 SW 2ND AVE", "postcode": "32607"}}},
{"geometry": {"type": "Point", "coordinates": [-82.3759516618, 29.6507436966]}, "type": "Feature", "properties": {"collection_times": [{"days": "Mon-Fri", "time": "4:30pm"}, {"days": "Sat", "time": "10:00am"}, {"days": "Sun", "time": "Closed"}], "id": "3260700010", "name": "USPS COLLECTION BOX - BLUE BOX", "address": {"city": "GAINESVILLE", "state": "FL", "street": "3501 SW 2ND AVE", "postcode": "32607"}}},
{"geometry": {"type": "Point", "coordinates": [-82.4136448833, 29.6360732465]}, "type": "Feature", "properties": {"collection_times": [{"days": "Mon-Sat", "time": "10:00am"}, {"days": "Sun", "time": "Closed"}], "id": "3260700011", "name": "USPS COLLECTION BOX - BLUE BOX", "address": {"city": "GAINESVILLE", "state": "FL", "street": "6400 SW 20TH AVE", "postcode": "32607"}}},
{"geometry": {"type": "Point", "coordinates": [-82.388352551, 29.6356632388]}, "type": "Feature", "properties": {"collection_times": [{"days": "Mon-Sat", "time": "10:00am"}, {"days": "Sun", "time": "Closed"}], "id": "3260700012", "name": "USPS COLLECTION BOX - BLUE BOX", "address": {"city": "GAINESVILLE", "state": "FL", "street": "4117 SW 20TH AVE", "postcode": "32607"}}},
{"geometry": {"type": "Point", "coordinates": [-82.3893794005, 29.6364161553]}, "type": "Feature", "properties": {"collection_times": [{"days": "Mon-Sat", "time": "9:45am"}, {"days": "Sun", "time": "Closed"}], "id": "3260700013", "name": "USPS COLLECTION BOX - BLUE BOX", "address": {"city": "GAINESVILLE", "state": "FL", "street": "4234 SW 20TH AVE", "postcode": "32607"}}},
{"geometry": {"type": "Point", "coordinates": [-82.3734255715, 29.6519702439]}, "type": "Feature", "properties": {"collection_times": [{"days": "Mon-Fri", "time": "11:00am"}, {"days": "Sat", "time": "10:00am"}, {"days": "Sun", "time": "Closed"}], "id": "3260700014", "name": "USPS COLLECTION BOX - BLUE BOX", "address": {"city": "GAINESVILLE", "state": "FL", "street": "3421 W UNIVERSITY AVE", "postcode": "32607"}}},
{"geometry": {"type": "Point", "coordinates": [-82.3722261721, 29.6513785062]}, "type": "Feature", "properties": {"collection_times": [{"days": "Mon-Sat", "time": "10:00am"}, {"days": "Sun", "time": "Closed"}], "id": "3260700017", "name": "USPS COLLECTION BOX - BLUE BOX", "address": {"city": "GAINESVILLE", "state": "FL", "street": "87 SW 34TH ST", "postcode": "32607"}}},
{"geometry": {"type": "Point", "coordinates": [-82.3722261721, 29.6513785062]}, "type": "Feature", "properties": {"collection_times": [{"days": "Mon-Sat", "time": "10:00am"}, {"days": "Sun", "time": "Closed"}], "id": "3260700018", "name": "USPS COLLECTION BOX - BLUE BOX", "address": {"city": "GAINESVILLE", "state": "FL", "street": "87 SW 34TH ST", "postcode": "32607"}}},
{"geometry": {"type": "Point", "coordinates": [-82.3832452268, 29.633934688]}, "type": "Feature", "properties": {"collection_times": [{"days": "Mon-Sat", "time": "10:00am"}, {"days": "Sun", "time": "Closed"}], "id": "3260700019", "name": "USPS COLLECTION BOX - BLUE BOX", "address": {"city": "GAINESVILLE", "state": "FL", "street": "2023 SW 39TH WAY", "postcode": "32607"}}},
{"geometry": {"type": "Point", "coordinates": [-82.4199317102, 29.6561569168]}, "type": "Feature", "properties": {"collection_times": [{"days": "Mon-Fri", "time": "4:00pm"}, {"days": "Sat", "time": "1:45pm"}, {"days": "Sun", "time": "Closed"}], "id": "3260700020", "name": "USPS COLLECTION BOX - BLUE BOX", "address": {"city": "GAINESVILLE", "state": "FL", "street": "7257 NW 4TH BLVD", "postcode": "32607"}}},
{"geometry": {"type": "Point", "coordinates": [-82.3846097384, 29.6349582922]}, "type": "Feature", "properties": {"collection_times": [{"days": "Mon-Sat", "time": "10:00am"}, {"days": "Sun", "time": "Closed"}], "id": "3260700021", "name": "USPS COLLECTION BOX - BLUE BOX", "address": {"city": "GAINESVILLE", "state": "FL", "street": "1901 SW 40TH TER", "postcode": "32607"}}},
{"geometry": {"type": "Point", "coordinates": [-82.3887202168, 29.634514876]}, "type": "Feature", "properties": {"collection_times": [{"days": "Mon-Sat", "time": "10:00am"}, {"days": "Sun", "time": "Closed"}], "id": "3260700022", "name": "USPS COLLECTION BOX - BLUE BOX", "address": {"city": "GAINESVILLE", "state": "FL", "street": "1902 SW 42ND WAY", "postcode": "32607"}}},
{"geometry": {"type": "Point", "coordinates": [-82.4072286938, 29.6498985432]}, "type": "Feature", "properties": {"collection_times": [{"days": "Mon-Sat", "time": "10:00am"}, {"days": "Sun", "time": "Closed"}], "id": "3260700023", "name": "USPS COLLECTION BOX - BLUE BOX", "address": {"city": "GAINESVILLE", "state": "FL", "street": "316 SW 62ND BLVD", "postcode": "32607"}}},
{"geometry": {"type": "Point", "coordinates": [-82.4145796523, 29.635418942]}, "type": "Feature", "properties": {"collection_times": [{"days": "Mon-Sat", "time": "10:00am"}, {"days": "Sun", "time": "Closed"}], "id": "3260700024", "name": "USPS COLLECTION BOX - BLUE BOX", "address": {"city": "GAINESVILLE", "state": "FL", "street": "1825 SW 67TH TER", "postcode": "32607"}}},
{"geometry": {"type": "Point", "coordinates": [-82.4226714431, 29.6540843727]}, "type": "Feature", "properties": {"collection_times": [{"days": "Mon-Fri", "time": "4:00pm"}, {"days": "Sat", "time": "2:00pm"}, {"days": "Sun", "time": "Closed"}], "id": "3260700025", "name": "USPS COLLECTION BOX - BLUE BOX", "address": {"city": "GAINESVILLE", "state": "FL", "street": "140 NW 75TH DR", "postcode": "32607"}}},
{"geometry": {"type": "Point", "coordinates": [-82.4068497746, 29.6440426773]}, "type": "Feature", "properties": {"collection_times": [{"days": "Mon-Fri", "time": "4:00pm"}, {"days": "Sat", "time": "2:00pm"}, {"days": "Sun", "time": "Closed"}], "id": "3260700026", "name": "USPS COLLECTION BOX - BLUE BOX", "address": {"city": "GAINESVILLE", "state": "FL", "street": "140 NW 75TH DR", "postcode": "32607"}}},
{"geometry": {"type": "Point", "coordinates": [-82.4226714431, 29.6540843727]}, "type": "Feature", "properties": {"collection_times": [{"days": "Mon-Fri", "time": "4:00pm"}, {"days": "Sat", "time": "2:00pm"}, {"days": "Sun", "time": "Closed"}], "id": "3260700027", "name": "USPS COLLECTION BOX - BLUE BOX", "address": {"city": "GAINESVILLE", "state": "FL", "street": "140 NW 75TH DR", "postcode": "32607"}}},
{"geometry": {"type": "Point", "coordinates": [-82.4224632424, 29.6340722559]}, "type": "Feature", "properties": {"collection_times": [{"days": "Mon-Sat", "time": "10:00am"}, {"days": "Sun", "time": "Closed"}], "id": "3260700028", "name": "USPS COLLECTION BOX - BLUE BOX", "address": {"city": "GAINESVILLE", "state": "FL", "street": "2015 SW 75TH ST", "postcode": "32607"}}},
{"geometry": {"type": "Point", "coordinates": [-82.4224064603, 29.652086355]}, "type": "Feature", "properties": {"collection_times": [{"days": "Mon-Sat", "time": "10:00am"}, {"days": "Sun", "time": "Closed"}], "id": "3260700029", "name": "USPS COLLECTION BOX - BLUE BOX", "address": {"city": "GAINESVILLE", "state": "FL", "street": "75 SW 75TH ST", "postcode": "32607"}}},
{"geometry": {"type": "Point", "coordinates": [-82.3394967564, 29.6319538799]}, "type": "Feature", "properties": {"collection_times": [{"days": "Mon-Sat", "time": "10:00am"}, {"days": "Sun", "time": "Closed"}], "id": "3260800001", "name": "USPS COLLECTION BOX - BLUE BOX", "address": {"city": "GAINESVILLE", "state": "FL", "street": "2306 SW 13TH ST", "postcode": "32608"}}},
{"geometry": {"type": "Point", "coordinates": [-82.3561360728, 29.6235204315]}, "type": "Feature", "properties": {"collection_times": [{"days": "Mon-Sat", "time": "10:00am"}, {"days": "Sun", "time": "Closed"}], "id": "3260800004", "name": "USPS COLLECTION BOX - BLUE BOX", "address": {"city": "GAINESVILLE", "state": "FL", "street": "3100 SW 23RD ST", "postcode": "32608"}}},
{"geometry": {"type": "Point", "coordinates": [-82.3726251812, 29.6315383578]}, "type": "Feature", "properties": {"collection_times": [{"days": "Mon-Sat", "time": "10:00am"}, {"days": "Sun", "time": "Closed"}], "id": "3260800009", "name": "USPS COLLECTION BOX - BLUE BOX", "address": {"city": "GAINESVILLE", "state": "FL", "street": "2220 SW 34TH ST", "postcode": "32608"}}},
{"geometry": {"type": "Point", "coordinates": [-82.4079581044, 29.5918082814]}, "type": "Feature", "properties": {"collection_times": [{"days": "Mon-Sat", "time": "10:00am"}, {"days": "Sun", "time": "Closed"}], "id": "3260800010", "name": "USPS COLLECTION BOX - BLUE BOX", "address": {"city": "GAINESVILLE", "state": "FL", "street": "3700 WINDMEADOWS BLVD", "postcode": "32608"}}},
{"geometry": {"type": "Point", "coordinates": [-82.3661260046, 29.5983279678]}, "type": "Feature", "properties": {"collection_times": [{"days": "Mon-Fri", "time": "4:45pm"}, {"days": "Sat-Sun", "time": "Closed"}], "id": "3260800012", "name": "USPS COLLECTION BOX - BLUE BOX", "address": {"city": "GAINESVILLE", "state": "FL", "street": "5700 SW 34TH ST", "postcode": "32608"}}},
{"geometry": {"type": "Point", "coordinates": [-82.3780076444, 29.6248570055]}, "type": "Feature", "properties": {"collection_times": [{"days": "Mon-Sat", "time": "3:30pm"}, {"days": "Sun", "time": "Closed"}], "id": "3260800013", "name": "USPS COLLECTION BOX - BLUE BOX", "address": {"city": "GAINESVILLE", "state": "FL", "street": "3230 SW 35TH BLVD", "postcode": "32608"}}},
{"geometry": {"type": "Point", "coordinates": [-82.3598879719, 29.6136552274]}, "type": "Feature", "properties": {"collection_times": [{"days": "Mon-Sat", "time": "10:00am"}, {"days": "Sun", "time": "Closed"}], "id": "3260800016", "name": "USPS COLLECTION BOX - BLUE BOX", "address": {"city": "GAINESVILLE", "state": "FL", "street": "4018 SW 26TH TER", "postcode": "32608"}}},
{"geometry": {"type": "Point", "coordinates": [-82.3724669228, 29.6142068158]}, "type": "Feature", "properties": {"collection_times": [{"days": "Mon-Sat", "time": "10:00am"}, {"days": "Sun", "time": "Closed"}], "id": "3260800017", "name": "USPS COLLECTION BOX - BLUE BOX", "address": {"city": "GAINESVILLE", "state": "FL", "street": "3435 SW 42ND AVE", "postcode": "32608"}}},
{"geometry": {"type": "Point", "coordinates": [-82.3726145345, 29.6333459191]}, "type": "Feature", "properties": {"collection_times": [{"days": "Mon-Sat", "time": "3:30pm"}, {"days": "Sun", "time": "Closed"}], "id": "3260800041", "name": "USPS COLLECTION BOX - BLUE BOX", "address": {"city": "GAINESVILLE", "state": "FL", "street": "2018 SW 34TH ST", "postcode": "32608"}}},
{"geometry": {"type": "Point", "coordinates": [-82.3642729872, 29.6309021757]}, "type": "Feature", "properties": {"collection_times": [{"days": "Mon-Sat", "time": "10:00am"}, {"days": "Sun", "time": "Closed"}], "id": "3260800064", "name": "USPS COLLECTION BOX - BLUE BOX", "address": {"city": "GAINESVILLE", "state": "FL", "street": "2777 SW ARCHER RD", "postcode": "32608"}}},
{"geometry": {"type": "Point", "coordinates": [-82.3392011629, 29.6301229529]}, "type": "Feature", "properties": {"collection_times": [{"days": "Mon-Sat", "time": "10:00am"}, {"days": "Sun", "time": "Closed"}], "id": "3260800065", "name": "USPS COLLECTION BOX - BLUE BOX", "address": {"city": "GAINESVILLE", "state": "FL", "street": "2325 SW 13TH ST", "postcode": "32608"}}},
{"geometry": {"type": "Point", "coordinates": [-82.3989071045, 29.6085526724]}, "type": "Feature", "properties": {"collection_times": [{"days": "Mon-Sat", "time": "10:00am"}, {"days": "Sun", "time": "Closed"}], "id": "3260800068", "name": "USPS COLLECTION BOX - BLUE BOX", "address": {"city": "GAINESVILLE", "state": "FL", "street": "3611 SW 34TH ST", "postcode": "32608"}}},
{"geometry": {"type": "Point", "coordinates": [-82.3727222733, 29.6189647277]}, "type": "Feature", "properties": {"collection_times": [{"days": "Mon-Sat", "time": "10:00am"}, {"days": "Sun", "time": "Closed"}], "id": "3260800069", "name": "USPS COLLECTION BOX - BLUE BOX", "address": {"city": "GAINESVILLE", "state": "FL", "street": "3800 SW 34TH ST", "postcode": "32608"}}},
{"geometry": {"type": "Point", "coordinates": [-82.3657619124, 29.6302006025]}, "type": "Feature", "properties": {"collection_times": [{"days": "Mon-Sat", "time": "10:00am"}, {"days": "Sun", "time": "Closed"}], "id": "3260800071", "name": "USPS COLLECTION BOX - BLUE BOX", "address": {"city": "GAINESVILLE", "state": "FL", "street": "2811 SW ARCHER RD", "postcode": "32608"}}},
{"geometry": {"type": "Point", "coordinates": [-82.3709047937, 29.6281200981]}, "type": "Feature", "properties": {"collection_times": [{"days": "Mon-Sat", "time": "10:00am"}, {"days": "Sun", "time": "Closed"}], "id": "3260800072", "name": "USPS COLLECTION BOX - BLUE BOX", "address": {"city": "GAINESVILLE", "state": "FL", "street": "3230 SW ARCHER RD", "postcode": "32608"}}},
{"geometry": {"type": "Point", "coordinates": [-82.3661260046, 29.5983279678]}, "type": "Feature", "properties": {"collection_times": [{"days": "Mon-Fri", "time": "4:45pm"}, {"days": "Sat-Sun", "time": "Closed"}], "id": "3260800076", "name": "USPS COLLECTION BOX - BLUE BOX", "address": {"city": "GAINESVILLE", "state": "FL", "street": "5700 SW 34TH ST", "postcode": "32608"}}},
{"geometry": {"type": "Point", "coordinates": [-82.3780076444, 29.6248570055]}, "type": "Feature", "properties": {"collection_times": [{"days": "Mon-Sat", "time": "3:30pm"}, {"days": "Sun", "time": "Closed"}], "id": "3260800077", "name": "USPS COLLECTION BOX - BLUE BOX", "address": {"city": "GAINESVILLE", "state": "FL", "street": "3230 SW 35TH BLVD", "postcode": "32608"}}},
{"geometry": {"type": "Point", "coordinates": [-82.4223532272, 29.6018046842]}, "type": "Feature", "properties": {"collection_times": [{"days": "Mon-Fri", "time": "4:00pm"}, {"days": "Sat", "time": "3:00pm"}, {"days": "Sun", "time": "Closed"}], "id": "3260800084", "name": "USPS COLLECTION BOX - BLUE BOX", "address": {"city": "GAINESVILLE", "state": "FL", "street": "5701 SW 75TH ST", "postcode": "32608"}}},
{"geometry": {"type": "Point", "coordinates": [-82.3430020074, 29.6382670603]}, "type": "Feature", "properties": {"collection_times": [{"days": "Mon-Fri", "time": "4:00pm"}, {"days": "Sat-Sun", "time": "Closed"}], "id": "3260800087", "name": "USPS COLLECTION BOX - BLUE BOX", "address": {"city": "GAINESVILLE", "state": "FL", "street": "1329 SW 16TH ST", "postcode": "32608"}}},
{"geometry": {"type": "Point", "coordinates": [-82.3588567218, 29.6855581789]}, "type": "Feature", "properties": {"collection_times": [{"days": "Mon-Sat", "time": "10:00am"}, {"days": "Sun", "time": "Closed"}], "id": "3260800102", "name": "USPS COLLECTION BOX - BLUE BOX", "address": {"city": "GAINESVILLE", "state": "FL", "street": "2511 SW 35TH PL", "postcode": "32608"}}},
{"geometry": {"type": "Point", "coordinates": [-82.416896175, 29.61624149]}, "type": "Feature", "properties": {"collection_times": [{"days": "Mon-Sat", "time": "10:00am"}, {"days": "Sun", "time": "Closed"}], "id": "3260800112", "name": "USPS COLLECTION BOX - BLUE BOX", "address": {"city": "GAINESVILLE", "state": "FL", "street": "4200 SW 69TH TER", "postcode": "32608"}}},
{"geometry": {"type": "Point", "coordinates": [-82.3666431994, 29.6254144119]}, "type": "Feature", "properties": {"collection_times": [{"days": "Mon-Sat", "time": "10:00am"}, {"days": "Sun", "time": "Closed"}], "id": "3260800122", "name": "USPS COLLECTION BOX - BLUE BOX", "address": {"city": "GAINESVILLE", "state": "FL", "street": "3310 SW 32ND TER", "postcode": "32608"}}},
{"geometry": {"type": "Point", "coordinates": [-82.3394910883, 29.6251981453]}, "type": "Feature", "properties": {"collection_times": [{"days": "Mon-Sat", "time": "10:00am"}, {"days": "Sun", "time": "Closed"}], "id": "3260800123", "name": "USPS COLLECTION BOX - BLUE BOX", "address": {"city": "GAINESVILLE", "state": "FL", "street": "2901 SW 13TH ST", "postcode": "32608"}}},
{"geometry": {"type": "Point", "coordinates": [-82.3693368199, 29.6189019194]}, "type": "Feature", "properties": {"collection_times": [{"days": "Mon-Sat", "time": "10:00am"}, {"days": "Sun", "time": "Closed"}], "id": "3260800129", "name": "USPS COLLECTION BOX - BLUE BOX", "address": {"city": "GAINESVILLE", "state": "FL", "street": "3406 SW 31ST DR", "postcode": "32608"}}},
{"geometry": {"type": "Point", "coordinates": [-82.4375081145, 29.6280379822]}, "type": "Feature", "properties": {"collection_times": [{"days": "Mon-Sat", "time": "10:00am"}, {"days": "Sun", "time": "Closed"}], "id": "3260800131", "name": "USPS COLLECTION BOX - BLUE BOX", "address": {"city": "GAINESVILLE", "state": "FL", "street": "2755 SW 91ST ST", "postcode": "32608"}}},
{"geometry": {"type": "Point", "coordinates": [-82.3827593365, 29.6192220889]}, "type": "Feature", "properties": {"collection_times": [{"days": "Mon-Sat", "time": "10:00am"}, {"days": "Sun", "time": "Closed"}], "id": "3260800132", "name": "USPS COLLECTION BOX - BLUE BOX", "address": {"city": "GAINESVILLE", "state": "FL", "street": "3926 SW ARCHER RD", "postcode": "32608"}}},
{"geometry": {"type": "Point", "coordinates": [-82.2797069335, 29.6993527308]}, "type": "Feature", "properties": {"collection_times": [{"days": "Mon-Sat", "time": "10:30am"}, {"days": "Sun", "time": "Closed"}], "id": "3260900001", "name": "USPS COLLECTION BOX - BLUE BOX", "address": {"city": "GAINESVILLE", "state": "FL", "street": "5010 NE WALDO RD", "postcode": "32609"}}},
{"geometry": {"type": "Point", "coordinates": [-82.3390977582, 29.6866240249]}, "type": "Feature", "properties": {"collection_times": [{"days": "Mon-Fri", "time": "4:15pm"}, {"days": "Sat", "time": "10:30am"}, {"days": "Sun", "time": "Closed"}], "id": "3260900002", "name": "USPS COLLECTION BOX - BLUE BOX", "address": {"city": "GAINESVILLE", "state": "FL", "street": "3720 NW 13TH ST", "postcode": "32609"}}},
{"geometry": {"type": "Point", "coordinates": [-82.3391462595, 29.6692995909]}, "type": "Feature", "properties": {"collection_times": [{"days": "Mon-Sat", "time": "10:15am"}, {"days": "Sun", "time": "Closed"}], "id": "3260900003", "name": "USPS COLLECTION BOX - BLUE BOX", "address": {"city": "GAINESVILLE", "state": "FL", "street": "1831 NW 13TH ST", "postcode": "32609"}}},
{"geometry": {"type": "Point", "coordinates": [-82.3391427106, 29.6700519528]}, "type": "Feature", "properties": {"collection_times": [{"days": "Mon-Fri", "time": "3:30pm"}, {"days": "Sat", "time": "10:00am"}, {"days": "Sun", "time": "Closed"}], "id": "3260900004", "name": "USPS COLLECTION BOX - BLUE BOX", "address": {"city": "GAINESVILLE", "state": "FL", "street": "1927 NW 13TH ST", "postcode": "32609"}}},
{"geometry": {"type": "Point", "coordinates": [-82.3080182795, 29.703030472]}, "type": "Feature", "properties": {"collection_times": [{"days": "Mon-Fri", "time": "3:30pm"}, {"days": "Sat", "time": "4:00pm"}, {"days": "Sun", "time": "Closed"}], "id": "3260900005", "name": "USPS COLLECTION BOX - BLUE BOX", "address": {"city": "GAINESVILLE", "state": "FL", "street": "2603 NW 13TH ST", "postcode": "32609"}}},
{"geometry": {"type": "Point", "coordinates": [-82.3389656833, 29.6769602959]}, "type": "Feature", "properties": {"collection_times": [{"days": "Mon-Fri", "time": "3:30pm"}, {"days": "Sat", "time": "4:00pm"}, {"days": "Sun", "time": "Closed"}], "id": "3260900006", "name": "USPS COLLECTION BOX - BLUE BOX", "address": {"city": "GAINESVILLE", "state": "FL", "street": "2603 NW 13TH ST", "postcode": "32609"}}},
{"geometry": {"type": "Point", "coordinates": [-82.3389656833, 29.6769602959]}, "type": "Feature", "properties": {"collection_times": [{"days": "Mon-Fri", "time": "3:30pm"}, {"days": "Sat", "time": "4:00pm"}, {"days": "Sun", "time": "Closed"}], "id": "3260900007", "name": "USPS COLLECTION BOX - BLUE BOX", "address": {"city": "GAINESVILLE", "state": "FL", "street": "2603 NW 13TH ST", "postcode": "32609"}}},
{"geometry": {"type": "Point", "coordinates": [-82.3390291466, 29.6784982798]}, "type": "Feature", "properties": {"collection_times": [{"days": "Mon-Sat", "time": "10:00am"}, {"days": "Sun", "time": "Closed"}], "id": "3260900008", "name": "USPS COLLECTION BOX - BLUE BOX", "address": {"city": "GAINESVILLE", "state": "FL", "street": "2815 NW 13TH ST", "postcode": "32609"}}},
{"geometry": {"type": "Point", "coordinates": [-82.3391821386, 29.680420849]}, "type": "Feature", "properties": {"collection_times": [{"days": "Mon-Fri", "time": "4:15pm"}, {"days": "Sat", "time": "10:00am"}, {"days": "Sun", "time": "Closed"}], "id": "3260900009", "name": "USPS COLLECTION BOX - BLUE BOX", "address": {"city": "GAINESVILLE", "state": "FL", "street": "3008 NW 13TH ST", "postcode": "32609"}}},
{"geometry": {"type": "Point", "coordinates": [-82.3391553733, 29.694854353]}, "type": "Feature", "properties": {"collection_times": [{"days": "Mon-Fri", "time": "3:45pm"}, {"days": "Sat", "time": "10:00am"}, {"days": "Sun", "time": "Closed"}], "id": "3260900010", "name": "USPS COLLECTION BOX - BLUE BOX", "address": {"city": "GAINESVILLE", "state": "FL", "street": "4424 NW 13TH ST", "postcode": "32609"}}},
{"geometry": {"type": "Point", "coordinates": [-82.3391553733, 29.694854353]}, "type": "Feature", "properties": {"collection_times": [{"days": "Mon-Fri", "time": "3:45pm"}, {"days": "Sat", "time": "10:00am"}, {"days": "Sun", "time": "Closed"}], "id": "3260900011", "name": "USPS COLLECTION BOX - BLUE BOX", "address": {"city": "GAINESVILLE", "state": "FL", "street": "4424 NW 13TH ST", "postcode": "32609"}}},
{"geometry": {"type": "Point", "coordinates": [-82.2996862973, 29.6754580753]}, "type": "Feature", "properties": {"collection_times": [{"days": "Mon-Fri", "time": "11:00am"}, {"days": "Sat", "time": "10:30am"}, {"days": "Sun", "time": "Closed"}], "id": "3260900012", "name": "USPS COLLECTION BOX - BLUE BOX", "address": {"city": "GAINESVILLE", "state": "FL", "street": "2420 NE 19TH DR", "postcode": "32609"}}},
{"geometry": {"type": "Point", "coordinates": [-82.2996862973, 29.6754580753]}, "type": "Feature", "properties": {"collection_times": [{"days": "Mon-Fri", "time": "11:00am"}, {"days": "Sat", "time": "10:30am"}, {"days": "Sun", "time": "Closed"}], "id": "3260900013", "name": "USPS COLLECTION BOX - BLUE BOX", "address": {"city": "GAINESVILLE", "state": "FL", "street": "2420 NE 19TH DR", "postcode": "32609"}}},
{"geometry": {"type": "Point", "coordinates": [-82.3266329196, 29.6696544786]}, "type": "Feature", "properties": {"collection_times": [{"days": "Mon-Sat", "time": "10:00am"}, {"days": "Sun", "time": "Closed"}], "id": "3260900014", "name": "USPS COLLECTION BOX - BLUE BOX", "address": {"city": "GAINESVILLE", "state": "FL", "street": "1901 NW 2ND ST", "postcode": "32609"}}},
{"geometry": {"type": "Point", "coordinates": [-82.3352028386, 29.6722043159]}, "type": "Feature", "properties": {"collection_times": [{"days": "Mon-Sat", "time": "11:00am"}, {"days": "Sun", "time": "Closed"}], "id": "3260900015", "name": "USPS COLLECTION BOX - BLUE BOX", "address": {"city": "GAINESVILLE", "state": "FL", "street": "1015 NW 21ST AVE", "postcode": "32609"}}},
{"geometry": {"type": "Point", "coordinates": [-82.3284738471, 29.6738710953]}, "type": "Feature", "properties": {"collection_times": [{"days": "Mon-Sat", "time": "10:00am"}, {"days": "Sun", "time": "Closed"}], "id": "3260900016", "name": "USPS COLLECTION BOX - BLUE BOX", "address": {"city": "GAINESVILLE", "state": "FL", "street": "325 NE 23RD AVE", "postcode": "32609"}}},
{"geometry": {"type": "Point", "coordinates": [-82.3318637947, 29.6739888242]}, "type": "Feature", "properties": {"collection_times": [{"days": "Mon-Sat", "time": "10:00am"}, {"days": "Sun", "time": "Closed"}], "id": "3260900017", "name": "USPS COLLECTION BOX - BLUE BOX", "address": {"city": "GAINESVILLE", "state": "FL", "street": "704 NW 23RD AVE", "postcode": "32609"}}},
{"geometry": {"type": "Point", "coordinates": [-82.3363456682, 29.6739122398]}, "type": "Feature", "properties": {"collection_times": [{"days": "Mon-Sat", "time": "11:00am"}, {"days": "Sun", "time": "Closed"}], "id": "3260900018", "name": "USPS COLLECTION BOX - BLUE BOX", "address": {"city": "GAINESVILLE", "state": "FL", "street": "1135 NW 23RD AVE", "postcode": "32609"}}},
{"geometry": {"type": "Point", "coordinates": [-82.3357890219, 29.6972777534]}, "type": "Feature", "properties": {"collection_times": [{"days": "Mon-Fri", "time": "3:45pm"}, {"days": "Sat", "time": "9:30am"}, {"days": "Sun", "time": "Closed"}], "id": "3260900021", "name": "USPS COLLECTION BOX - BLUE BOX", "address": {"city": "GAINESVILLE", "state": "FL", "street": "4655 NW 6TH ST", "postcode": "32609"}}},
{"geometry": {"type": "Point", "coordinates": [-82.3433553441, 29.6392709286]}, "type": "Feature", "properties": {"collection_times": [{"days": "Mon-Fri", "time": "4:00pm"}, {"days": "Sat", "time": "2:00pm"}, {"days": "Sun", "time": "Closed"}], "id": "3261000002", "name": "USPS COLLECTION BOX - BLUE BOX", "address": {"city": "GAINESVILLE", "state": "FL", "street": "1600 SW ARCHER RD", "postcode": "32610"}}},
{"geometry": {"type": "Point", "coordinates": [-82.3422143008, 29.6394330429]}, "type": "Feature", "properties": {"collection_times": [{"days": "Mon-Fri", "time": "4:00pm"}, {"days": "Sat", "time": "2:00pm"}, {"days": "Sun", "time": "Closed"}], "id": "3261000003", "name": "USPS COLLECTION BOX - BLUE BOX", "address": {"city": "GAINESVILLE", "state": "FL", "street": "1515 SW ARCHER RD", "postcode": "32610"}}},
{"geometry": {"type": "Point", "coordinates": [-82.3543220494, 29.6413553172]}, "type": "Feature", "properties": {"collection_times": [{"days": "Mon-Sat", "time": "10:00am"}, {"days": "Sun", "time": "Closed"}], "id": "3261100001", "name": "USPS COLLECTION BOX - BLUE BOX", "address": {"city": "GAINESVILLE", "state": "FL", "street": "272 NEWELL DR", "postcode": "32611"}}},
{"geometry": {"type": "Point", "coordinates": [-82.3543220494, 29.6413553172]}, "type": "Feature", "properties": {"collection_times": [{"days": "Mon-Sat", "time": "10:00am"}, {"days": "Sun", "time": "Closed"}], "id": "3261100002", "name": "USPS COLLECTION BOX - BLUE BOX", "address": {"city": "GAINESVILLE", "state": "FL", "street": "31 UNION RD", "postcode": "32611"}}},
{"geometry": {"type": "Point", "coordinates": [-82.3713918935, 29.6059887786]}, "type": "Feature", "properties": {"collection_times": [{"days": "Mon-Sat", "time": "7:00pm"}, {"days": "Sun", "time": "Closed"}], "id": "3261400001", "name": "USPS COLLECTION BOX - BLUE BOX", "address": {"city": "GAINESVILLE", "state": "FL", "street": "4600 SW 34TH ST", "postcode": "32614"}}},
{"geometry": {"type": "Point", "coordinates": [-82.3713918935, 29.6059887786]}, "type": "Feature", "properties": {"collection_times": [{"days": "Mon-Sat", "time": "7:00pm"}, {"days": "Sun", "time": "Closed"}], "id": "3261400002", "name": "USPS COLLECTION BOX - BLUE BOX", "address": {"city": "GAINESVILLE", "state": "FL", "street": "4600 SW 34TH ST", "postcode": "32614"}}},
{"geometry": {"type": "Point", "coordinates": [-82.3716682651, 29.6102341895]}, "type": "Feature", "properties": {"collection_times": [{"days": "Mon-Sat", "time": "5:00pm"}, {"days": "Sun", "time": "Closed"}], "id": "3261400003", "name": "USPS COLLECTION BOX - BLUE BOX", "address": {"city": "GAINESVILLE", "state": "FL", "street": "4600 SW 34TH ST", "postcode": "32614"}}},
{"geometry": {"type": "Point", "coordinates": [-82.3713918935, 29.6059887786]}, "type": "Feature", "properties": {"collection_times": [{"days": "Mon-Sat", "time": "7:00pm"}, {"days": "Sun", "time": "Closed"}], "id": "3261400004", "name": "USPS COLLECTION BOX - PO LOBBY", "address": {"city": "GAINESVILLE", "state": "FL", "street": "4600 SW 34TH ST", "postcode": "32614"}}},
{"geometry": {"type": "Point", "coordinates": [-82.3713918935, 29.6059887786]}, "type": "Feature", "properties": {"collection_times": [{"days": "Mon-Sat", "time": "7:00pm"}, {"days": "Sun", "time": "Closed"}], "id": "3261400005", "name": "USPS COLLECTION BOX - PO LOBBY", "address": {"city": "GAINESVILLE", "state": "FL", "street": "4600 SW 34TH ST", "postcode": "32614"}}},
{"geometry": {"type": "Point", "coordinates": [-82.3713918935, 29.6059887786]}, "type": "Feature", "properties": {"collection_times": [{"days": "Mon-Sat", "time": "7:00pm"}, {"days": "Sun", "time": "Closed"}], "id": "3261400006", "name": "USPS COLLECTION BOX - APC", "address": {"city": "GAINESVILLE", "state": "FL", "street": "4600 SW 34TH ST", "postcode": "32614"}}},
{"geometry": {"type": "Point", "coordinates": [-82.4971448224, 29.7931387207]}, "type": "Feature", "properties": {"collection_times": [{"days": "Mon-Fri", "time": "5:15pm"}, {"days": "Sat", "time": "11:00am"}, {"days": "Sun", "time": "Closed"}], "id": "3261500000", "name": "USPS COLLECTION BOX - BLUE BOX", "address": {"city": "ALACHUA", "state": "FL", "street": "15200 NW 142ND TER", "postcode": "32615"}}},
{"geometry": {"type": "Point", "coordinates": [-82.4971448224, 29.7931387207]}, "type": "Feature", "properties": {"collection_times": [{"days": "Mon-Fri", "time": "5:15pm"}, {"days": "Sat", "time": "11:00am"}, {"days": "Sun", "time": "Closed"}], "id": "3261500001", "name": "USPS COLLECTION BOX - BLUE BOX", "address": {"city": "ALACHUA", "state": "FL", "street": "15200 NW 142ND TER", "postcode": "32615"}}},
{"geometry": {"type": "Point", "coordinates": [-82.4971448224, 29.7931387207]}, "type": "Feature", "properties": {"collection_times": [{"days": "Mon-Fri", "time": "5:15pm"}, {"days": "Sat", "time": "11:00am"}, {"days": "Sun", "time": "Closed"}], "id": "3261500002", "name": "USPS COLLECTION BOX - BLUE BOX", "address": {"city": "ALACHUA", "state": "FL", "street": "15200 NW 142ND TER", "postcode": "32615"}}},
{"geometry": {"type": "Point", "coordinates": [-82.4971448224, 29.7931387207]}, "type": "Feature", "properties": {"collection_times": [{"days": "Mon-Fri", "time": "5:15pm"}, {"days": "Sat", "time": "11:00am"}, {"days": "Sun", "time": "Closed"}], "id": "3261500003", "name": "USPS COLLECTION BOX - PO LOBBY", "address": {"city": "ALACHUA", "state": "FL", "street": "15200 NW 142ND TER", "postcode": "32615"}}},
{"geometry": {"type": "Point", "coordinates": [-82.4971448224, 29.7931387207]}, "type": "Feature", "properties": {"collection_times": [{"days": "Mon-Fri", "time": "5:15pm"}, {"days": "Sat", "time": "11:00am"}, {"days": "Sun", "time": "Closed"}], "id": "3261500004", "name": "USPS COLLECTION BOX - PO LOBBY", "address": {"city": "ALACHUA", "state": "FL", "street": "15200 NW 142ND TER", "postcode": "32615"}}},
{"geometry": {"type": "Point", "coordinates": [-82.4971448224, 29.7931387207]}, "type": "Feature", "properties": {"collection_times": [{"days": "Mon-Fri", "time": "5:15pm"}, {"days": "Sat", "time": "11:00am"}, {"days": "Sun", "time": "Closed"}], "id": "3261500005", "name": "USPS COLLECTION BOX - PO LOBBY", "address": {"city": "ALACHUA", "state": "FL", "street": "15200 NW 142ND TER", "postcode": "32615"}}},
{"geometry": {"type": "Point", "coordinates": [-82.4900666911, 29.8185783565]}, "type": "Feature", "properties": {"collection_times": [{"days": "Mon-Sat", "time": "10:00am"}, {"days": "Sun", "time": "Closed"}], "id": "3261500006", "name": "USPS COLLECTION BOX - BLUE BOX", "address": {"city": "ALACHUA", "state": "FL", "street": "11821 PALMETTO BLVD", "postcode": "32615"}}},
{"geometry": {"type": "Point", "coordinates": [-82.1116041026, 29.2821431468]}, "type": "Feature", "properties": {"collection_times": [{"days": "Mon-Fri", "time": "4:00pm"}, {"days": "Sat", "time": "11:00am"}, {"days": "Sun", "time": "Closed"}], "id": "3261700000", "name": "USPS COLLECTION BOX - BLUE BOX", "address": {"city": "ANTHONY", "state": "FL", "street": "9081 NE JACKSONVILLE RD", "postcode": "32617"}}},
{"geometry": {"type": "Point", "coordinates": [-82.1116041026, 29.2821431468]}, "type": "Feature", "properties": {"collection_times": [{"days": "Mon-Fri", "time": "4:00pm"}, {"days": "Sat", "time": "11:00am"}, {"days": "Sun", "time": "Closed"}], "id": "3261700001", "name": "USPS COLLECTION BOX - PO LOBBY", "address": {"city": "ANTHONY", "state": "FL", "street": "9081 NE JACKSONVILLE RD", "postcode": "32617"}}},
{"geometry": {"type": "Point", "coordinates": [-82.1116041026, 29.2821431468]}, "type": "Feature", "properties": {"collection_times": [{"days": "Mon-Fri", "time": "4:00pm"}, {"days": "Sat", "time": "11:00am"}, {"days": "Sun", "time": "Closed"}], "id": "3261700002", "name": "USPS COLLECTION BOX - PO LOBBY", "address": {"city": "ANTHONY", "state": "FL", "street": "9081 NE JACKSONVILLE RD", "postcode": "32617"}}},
{"geometry": {"type": "Point", "coordinates": [-82.5875410677, 29.5039852975]}, "type": "Feature", "properties": {"collection_times": [{"days": "Mon-Fri", "time": "4:00pm"}, {"days": "Sat", "time": "11:00am"}, {"days": "Sun", "time": "Closed"}], "id": "3261800000", "name": "USPS COLLECTION BOX - BLUE BOX", "address": {"city": "ARCHER", "state": "FL", "street": "13553 SW SR 45", "postcode": "32618"}}},
{"geometry": {"type": "Point", "coordinates": [-82.5875410677, 29.5039852975]}, "type": "Feature", "properties": {"collection_times": [{"days": "Mon-Fri", "time": "4:00pm"}, {"days": "Sat", "time": "11:00am"}, {"days": "Sun", "time": "Closed"}], "id": "3261800001", "name": "USPS COLLECTION BOX - PO LOBBY", "address": {"city": "ARCHER", "state": "FL", "street": "13553 SW SR 45", "postcode": "32618"}}},
{"geometry": {"type": "Point", "coordinates": [-82.5875410677, 29.5039852975]}, "type": "Feature", "properties": {"collection_times": [{"days": "Mon-Fri", "time": "4:00pm"}, {"days": "Sat", "time": "11:00am"}, {"days": "Sun", "time": "Closed"}], "id": "3261800002", "name": "USPS COLLECTION BOX - PO LOBBY", "address": {"city": "ARCHER", "state": "FL", "street": "13553 SW SR 45", "postcode": "32618"}}},
{"geometry": {"type": "Point", "coordinates": [-82.8660068679, 29.7623108556]}, "type": "Feature", "properties": {"collection_times": [{"days": "Mon-Fri", "time": "4:30pm"}, {"days": "Sat", "time": "11:30am"}, {"days": "Sun", "time": "Closed"}], "id": "3261900000", "name": "USPS COLLECTION BOX - BLUE BOX", "address": {"city": "BELL", "state": "FL", "street": "1900 N US HIGHWAY 129", "postcode": "32619"}}},
{"geometry": {"type": "Point", "coordinates": [-82.8660068679, 29.7623108556]}, "type": "Feature", "properties": {"collection_times": [{"days": "Mon-Fri", "time": "4:30pm"}, {"days": "Sat", "time": "11:30am"}, {"days": "Sun", "time": "Closed"}], "id": "3261900001", "name": "USPS COLLECTION BOX - PO LOBBY", "address": {"city": "BELL", "state": "FL", "street": "1900 N US HIGHWAY 129", "postcode": "32619"}}},
{"geometry": {"type": "Point", "coordinates": [-82.8660068679, 29.7623108556]}, "type": "Feature", "properties": {"collection_times": [{"days": "Mon-Fri", "time": "4:30pm"}, {"days": "Sat", "time": "11:30am"}, {"days": "Sun", "time": "Closed"}], "id": "3261900002", "name": "USPS COLLECTION BOX - PO LOBBY", "address": {"city": "BELL", "state": "FL", "street": "1900 N US HIGHWAY 129", "postcode": "32619"}}},
{"geometry": {"type": "Point", "coordinates": [-82.8660068679, 29.7623108556]}, "type": "Feature", "properties": {"collection_times": [{"days": "Mon-Fri", "time": "4:30pm"}, {"days": "Sat", "time": "11:30am"}, {"days": "Sun", "time": "Closed"}], "id": "3261900003", "name": "USPS COLLECTION BOX - BLUE BOX", "address": {"city": "BELL", "state": "FL", "street": "1900 N US HIGHWAY 129", "postcode": "32619"}}},
{"geometry": {"type": "Point", "coordinates": [-82.8660068679, 29.7623108556]}, "type": "Feature", "properties": {"collection_times": [{"days": "Mon-Fri", "time": "4:30pm"}, {"days": "Sat", "time": "11:30am"}, {"days": "Sun", "time": "Closed"}], "id": "3261900004", "name": "USPS COLLECTION BOX - PO LOBBY", "address": {"city": "BELL", "state": "FL", "street": "1900 N US HIGHWAY 129", "postcode": "32619"}}},
{"geometry": {"type": "Point", "coordinates": [-82.8660068679, 29.7623108556]}, "type": "Feature", "properties": {"collection_times": [{"days": "Mon-Fri", "time": "4:30pm"}, {"days": "Sat", "time": "11:30am"}, {"days": "Sun", "time": "Closed"}], "id": "3261900005", "name": "USPS COLLECTION BOX - PO LOBBY", "address": {"city": "BELL", "state": "FL", "street": "1900 N US HIGHWAY 129", "postcode": "32619"}}},
{"geometry": {"type": "Point", "coordinates": [-82.6290016087, 29.4417259652]}, "type": "Feature", "properties": {"collection_times": [{"days": "Mon-Fri", "time": "4:00pm"}, {"days": "Sat", "time": "11:30am"}, {"days": "Sun", "time": "Closed"}], "id": "3262100000", "name": "USPS COLLECTION BOX - BLUE BOX", "address": {"city": "BRONSON", "state": "FL", "street": "747 E HATHAWAY AVE", "postcode": "32621"}}},
{"geometry": {"type": "Point", "coordinates": [-82.6290016087, 29.4417259652]}, "type": "Feature", "properties": {"collection_times": [{"days": "Mon-Fri", "time": "4:00pm"}, {"days": "Sat", "time": "11:30am"}, {"days": "Sun", "time": "Closed"}], "id": "3262100001", "name": "USPS COLLECTION BOX - PO LOBBY", "address": {"city": "BRONSON", "state": "FL", "street": "747 E HATHAWAY AVE", "postcode": "32621"}}},
{"geometry": {"type": "Point", "coordinates": [-82.3336398198, 29.8889900618]}, "type": "Feature", "properties": {"collection_times": [{"days": "Mon-Fri", "time": "12:30pm"}, {"days": "Sat", "time": "9:00am"}, {"days": "Sun", "time": "Closed"}], "id": "3262200000", "name": "USPS COLLECTION BOX - BLUE BOX", "address": {"city": "BROOKER", "state": "FL", "street": "18796 CHARLOTTE AVE", "postcode": "32622"}}},
{"geometry": {"type": "Point", "coordinates": [-82.3336398198, 29.8889900618]}, "type": "Feature", "properties": {"collection_times": [{"days": "Mon-Fri", "time": "12:30pm"}, {"days": "Sat", "time": "9:00am"}, {"days": "Sun", "time": "Closed"}], "id": "3262200001", "name": "USPS COLLECTION BOX - PO LOBBY", "address": {"city": "BROOKER", "state": "FL", "street": "18796 CHARLOTTE AVE", "postcode": "32622"}}},
{"geometry": {"type": "Point", "coordinates": [-83.0324717654, 29.1363985548]}, "type": "Feature", "properties": {"collection_times": [{"days": "Mon-Fri", "time": "4:00pm"}, {"days": "Sat", "time": "12:00pm"}, {"days": "Sun", "time": "Closed"}], "id": "3262500000", "name": "USPS COLLECTION BOX - BLUE BOX", "address": {"city": "CEDAR KEY", "state": "FL", "street": "518 2ND ST", "postcode": "32625"}}},
{"geometry": {"type": "Point", "coordinates": [-83.0324717654, 29.1363985548]}, "type": "Feature", "properties": {"collection_times": [{"days": "Mon-Fri", "time": "4:00pm"}, {"days": "Sat", "time": "12:00pm"}, {"days": "Sun", "time": "Closed"}], "id": "3262500002", "name": "USPS COLLECTION BOX - PO LOBBY", "address": {"city": "CEDAR KEY", "state": "FL", "street": "518 2ND ST", "postcode": "32625"}}},
{"geometry": {"type": "Point", "coordinates": [-83.0324717654, 29.1363985548]}, "type": "Feature", "properties": {"collection_times": [{"days": "Mon-Fri", "time": "4:00pm"}, {"days": "Sat", "time": "12:00pm"}, {"days": "Sun", "time": "Closed"}], "id": "3262500003", "name": "USPS COLLECTION BOX - PO LOBBY", "address": {"city": "CEDAR KEY", "state": "FL", "street": "518 2ND ST", "postcode": "32625"}}},
{"geometry": {"type": "Point", "coordinates": [-82.8615673953, 29.4787492738]}, "type": "Feature", "properties": {"collection_times": [{"days": "Mon-Fri", "time": "4:30pm"}, {"days": "Sat", "time": "12:00pm"}, {"days": "Sun", "time": "Closed"}], "id": "3262600000", "name": "USPS COLLECTION BOX - BLUE BOX", "address": {"city": "CHIEFLAND", "state": "FL", "street": "222 W PARK AVE", "postcode": "32626"}}},
{"geometry": {"type": "Point", "coordinates": [-82.8704016341, 29.5001745978]}, "type": "Feature", "properties": {"collection_times": [{"days": "Mon-Sat", "time": "10:00am"}, {"days": "Sun", "time": "Closed"}], "id": "3262600001", "name": "USPS COLLECTION BOX - BLUE BOX", "address": {"city": "CHIEFLAND", "state": "FL", "street": "2202 N YOUNG BLVD", "postcode": "32626"}}},
{"geometry": {"type": "Point", "coordinates": [-82.8615673953, 29.4787492738]}, "type": "Feature", "properties": {"collection_times": [{"days": "Mon-Fri", "time": "4:30pm"}, {"days": "Sat", "time": "12:00pm"}, {"days": "Sun", "time": "Closed"}], "id": "3262600002", "name": "USPS COLLECTION BOX - BLUE BOX", "address": {"city": "CHIEFLAND", "state": "FL", "street": "222 W PARK AVE", "postcode": "32626"}}},
{"geometry": {"type": "Point", "coordinates": [-82.8615673953, 29.4787492738]}, "type": "Feature", "properties": {"collection_times": [{"days": "Mon-Fri", "time": "4:30pm"}, {"days": "Sat", "time": "12:00pm"}, {"days": "Sun", "time": "Closed"}], "id": "3262600003", "name": "USPS COLLECTION BOX - PO LOBBY", "address": {"city": "CHIEFLAND", "state": "FL", "street": "222 W PARK AVE", "postcode": "32626"}}},
{"geometry": {"type": "Point", "coordinates": [-82.8700851781, 29.5002057505]}, "type": "Feature", "properties": {"collection_times": [{"days": "Mon-Sat", "time": "10:00am"}, {"days": "Sun", "time": "Closed"}], "id": "3262600004", "name": "USPS COLLECTION BOX - BLUE BOX", "address": {"city": "CHIEFLAND", "state": "FL", "street": "2201 N YOUNG BLVD", "postcode": "32626"}}},
{"geometry": {"type": "Point", "coordinates": [-82.8615673953, 29.4787492738]}, "type": "Feature", "properties": {"collection_times": [{"days": "Mon-Fri", "time": "4:30pm"}, {"days": "Sat", "time": "12:00pm"}, {"days": "Sun", "time": "Closed"}], "id": "3262600005", "name": "USPS COLLECTION BOX - PO LOBBY", "address": {"city": "CHIEFLAND", "state": "FL", "street": "222 W PARK AVE", "postcode": "32626"}}},
{"geometry": {"type": "Point", "coordinates": [-83.1232635627, 29.6350612192]}, "type": "Feature", "properties": {"collection_times": [{"days": "Mon-Fri", "time": "4:00pm"}, {"days": "Sat", "time": "12:00pm"}, {"days": "Sun", "time": "Closed"}], "id": "3262800000", "name": "USPS COLLECTION BOX - BLUE BOX", "address": {"city": "CROSS CITY", "state": "FL", "street": "151 SW CEDAR ST", "postcode": "32628"}}},
{"geometry": {"type": "Point", "coordinates": [-83.1232635627, 29.6350612192]}, "type": "Feature", "properties": {"collection_times": [{"days": "Mon-Fri", "time": "4:00pm"}, {"days": "Sat", "time": "12:00pm"}, {"days": "Sun", "time": "Closed"}], "id": "3262800001", "name": "USPS COLLECTION BOX - BLUE BOX", "address": {"city": "CROSS CITY", "state": "FL", "street": "151 SW CEDAR ST", "postcode": "32628"}}},
{"geometry": {"type": "Point", "coordinates": [-83.1232635627, 29.6350612192]}, "type": "Feature", "properties": {"collection_times": [{"days": "Mon-Fri", "time": "4:00pm"}, {"days": "Sat", "time": "12:00pm"}, {"days": "Sun", "time": "Closed"}], "id": "3262800002", "name": "USPS COLLECTION BOX - PO LOBBY", "address": {"city": "CROSS CITY", "state": "FL", "street": "151 SW CEDAR ST", "postcode": "32628"}}},
{"geometry": {"type": "Point", "coordinates": [-82.1031370318, 29.747118565]}, "type": "Feature", "properties": {"collection_times": [{"days": "Mon-Fri", "time": "12:30pm"}, {"days": "Sat", "time": "11:00am"}, {"days": "Sun", "time": "Closed"}], "id": "3263100000", "name": "USPS COLLECTION BOX - BLUE BOX", "address": {"city": "EARLETON", "state": "FL", "street": "10012 NE COUNTY ROAD 1469", "postcode": "32631"}}},
{"geometry": {"type": "Point", "coordinates": [-82.1031370318, 29.747118565]}, "type": "Feature", "properties": {"collection_times": [{"days": "Mon-Fri", "time": "12:30pm"}, {"days": "Sat", "time": "11:00am"}, {"days": "Sun", "time": "Closed"}], "id": "3263100001", "name": "USPS COLLECTION BOX - PO LOBBY", "address": {"city": "EARLETON", "state": "FL", "street": "10012 NE COUNTY ROAD 1469", "postcode": "32631"}}},
{"geometry": {"type": "Point", "coordinates": [-82.2254483241, 29.4851584753]}, "type": "Feature", "properties": {"collection_times": [{"days": "Mon-Fri", "time": "5:00pm"}, {"days": "Sat", "time": "9:45am"}, {"days": "Sun", "time": "Closed"}], "id": "3263300000", "name": "USPS COLLECTION BOX - PO LOBBY", "address": {"city": "EVINSTON", "state": "FL", "street": "18320 SE COUNTY ROAD 225", "postcode": "32633"}}},
{"geometry": {"type": "Point", "coordinates": [-82.2254483241, 29.4851584753]}, "type": "Feature", "properties": {"collection_times": [{"days": "Mon-Fri", "time": "5:00pm"}, {"days": "Sat", "time": "9:45am"}, {"days": "Sun", "time": "Closed"}], "id": "3263300001", "name": "USPS COLLECTION BOX - PO LOBBY", "address": {"city": "EVINSTON", "state": "FL", "street": "18320 SE COUNTY ROAD 225", "postcode": "32633"}}},
{"geometry": {"type": "Point", "coordinates": [-82.2554624075, 29.3515876347]}, "type": "Feature", "properties": {"collection_times": [{"days": "Mon-Fri", "time": "4:30pm"}, {"days": "Sat", "time": "12:00pm"}, {"days": "Sun", "time": "Closed"}], "id": "3263400000", "name": "USPS COLLECTION BOX - BLUE BOX", "address": {"city": "FAIRFIELD", "state": "FL", "street": "14990 N HIGHWAY 225", "postcode": "32634"}}},
{"geometry": {"type": "Point", "coordinates": [-82.2554624075, 29.3515876347]}, "type": "Feature", "properties": {"collection_times": [{"days": "Mon-Fri", "time": "4:30pm"}, {"days": "Sat", "time": "12:00pm"}, {"days": "Sun", "time": "Closed"}], "id": "3263400001", "name": "USPS COLLECTION BOX - PO LOBBY", "address": {"city": "FAIRFIELD", "state": "FL", "street": "14990 N HIGHWAY 225", "postcode": "32634"}}},
{"geometry": {"type": "Point", "coordinates": [-82.7235599208, 29.2530263576]}, "type": "Feature", "properties": {"collection_times": [{"days": "Mon-Fri", "time": "12:00pm"}, {"days": "Sat", "time": "10:00am"}, {"days": "Sun", "time": "Closed"}], "id": "3263900001", "name": "USPS COLLECTION BOX - PO LOBBY", "address": {"city": "GULF HAMMOCK", "state": "FL", "street": "5350 SE HIGHWAY 19", "postcode": "32639"}}},
{"geometry": {"type": "Point", "coordinates": [-82.7235599208, 29.2530263576]}, "type": "Feature", "properties": {"collection_times": [{"days": "Mon-Fri", "time": "12:00pm"}, {"days": "Sat", "time": "10:00am"}, {"days": "Sun", "time": "Closed"}], "id": "3263900002", "name": "USPS COLLECTION BOX - PO LOBBY", "address": {"city": "GULF HAMMOCK", "state": "FL", "street": "5350 SE HIGHWAY 19", "postcode": "32639"}}},
{"geometry": {"type": "Point", "coordinates": [-82.7235599208, 29.2530263576]}, "type": "Feature", "properties": {"collection_times": [{"days": "Mon-Fri", "time": "12:00pm"}, {"days": "Sat", "time": "10:00am"}, {"days": "Sun", "time": "Closed"}], "id": "3263900003", "name": "USPS COLLECTION BOX - BLUE BOX", "address": {"city": "GULF HAMMOCK", "state": "FL", "street": "5350 SE HIGHWAY 19", "postcode": "32639"}}},
{"geometry": {"type": "Point", "coordinates": [-82.0868234782, 29.5956047963]}, "type": "Feature", "properties": {"collection_times": [{"days": "Mon-Fri", "time": "4:30pm"}, {"days": "Sat", "time": "12:00pm"}, {"days": "Sun", "time": "Closed"}], "id": "3264000000", "name": "USPS COLLECTION BOX - BLUE BOX", "address": {"city": "HAWTHORNE", "state": "FL", "street": "6300 SE 221ST ST", "postcode": "32640"}}},
{"geometry": {"type": "Point", "coordinates": [-82.0868234782, 29.5956047963]}, "type": "Feature", "properties": {"collection_times": [{"days": "Mon-Fri", "time": "4:30pm"}, {"days": "Sat", "time": "12:00pm"}, {"days": "Sun", "time": "Closed"}], "id": "3264000005", "name": "USPS COLLECTION BOX - PO LOBBY", "address": {"city": "HAWTHORNE", "state": "FL", "street": "6300 SE 221ST ST", "postcode": "32640"}}},
{"geometry": {"type": "Point", "coordinates": [-82.0868234782, 29.5956047963]}, "type": "Feature", "properties": {"collection_times": [{"days": "Mon-Fri", "time": "4:30pm"}, {"days": "Sat", "time": "12:00pm"}, {"days": "Sun", "time": "Closed"}], "id": "3264000006", "name": "USPS COLLECTION BOX - PO LOBBY", "address": {"city": "HAWTHORNE", "state": "FL", "street": "6300 SE 221ST ST", "postcode": "32640"}}},
{"geometry": {"type": "Point", "coordinates": [-82.5956716911, 29.8296756903]}, "type": "Feature", "properties": {"collection_times": [{"days": "Mon-Fri", "time": "4:30pm"}, {"days": "Sat", "time": "1:00pm"}, {"days": "Sun", "time": "Closed"}], "id": "3264300001", "name": "USPS COLLECTION BOX - BLUE BOX", "address": {"city": "HIGH SPRINGS", "state": "FL", "street": "25 NW 4TH AVE", "postcode": "32643"}}},
{"geometry": {"type": "Point", "coordinates": [-82.5956716911, 29.8296756903]}, "type": "Feature", "properties": {"collection_times": [{"days": "Mon-Fri", "time": "4:30pm"}, {"days": "Sat", "time": "1:00pm"}, {"days": "Sun", "time": "Closed"}], "id": "3264300002", "name": "USPS COLLECTION BOX - BLUE BOX", "address": {"city": "HIGH SPRINGS", "state": "FL", "street": "25 NW 4TH AVE", "postcode": "32643"}}},
{"geometry": {"type": "Point", "coordinates": [-82.6095323904, 29.9060201393]}, "type": "Feature", "properties": {"collection_times": [{"days": "Mon-Sat", "time": "9:30am"}, {"days": "Sun", "time": "Closed"}], "id": "3264300004", "name": "USPS COLLECTION BOX - BLUE BOX", "address": {"city": "HIGH SPRINGS", "state": "FL", "street": "20303 N US HIGHWAY 441 UNIT 160 UNIT 160", "postcode": "32643"}}},
{"geometry": {"type": "Point", "coordinates": [-82.5901836076, 29.824767556]}, "type": "Feature", "properties": {"collection_times": [{"days": "Mon-Sat", "time": "10:30am"}, {"days": "Sun", "time": "Closed"}], "id": "3264300005", "name": "USPS COLLECTION BOX - BLUE BOX", "address": {"city": "HIGH SPRINGS", "state": "FL", "street": "620 NE SANTA FE BLVD", "postcode": "32643"}}},
{"geometry": {"type": "Point", "coordinates": [-82.5956716911, 29.8296756903]}, "type": "Feature", "properties": {"collection_times": [{"days": "Mon-Fri", "time": "5:00pm"}, {"days": "Sat", "time": "1:00pm"}, {"days": "Sun", "time": "Closed"}], "id": "3264300006", "name": "USPS COLLECTION BOX - PO LOBBY", "address": {"city": "HIGH SPRINGS", "state": "FL", "street": "25 NW 4TH AVE", "postcode": "32643"}}},
{"geometry": {"type": "Point", "coordinates": [-82.5956716911, 29.8296756903]}, "type": "Feature", "properties": {"collection_times": [{"days": "Mon-Fri", "time": "5:00pm"}, {"days": "Sat", "time": "1:00pm"}, {"days": "Sun", "time": "Closed"}], "id": "3264300007", "name": "USPS COLLECTION BOX - PO LOBBY", "address": {"city": "HIGH SPRINGS", "state": "FL", "street": "25 NW 4TH AVE", "postcode": "32643"}}},
{"geometry": {"type": "Point", "coordinates": [-82.5956716911, 29.8296756903]}, "type": "Feature", "properties": {"collection_times": [{"days": "Mon-Fri", "time": "5:00pm"}, {"days": "Sat", "time": "1:00pm"}, {"days": "Sun", "time": "Closed"}], "id": "3264300008", "name": "USPS COLLECTION BOX - PO LOBBY", "address": {"city": "HIGH SPRINGS", "state": "FL", "street": "25 NW 4TH AVE", "postcode": "32643"}}},
{"geometry": {"type": "Point", "coordinates": [-82.5978771295, 29.8254241492]}, "type": "Feature", "properties": {"collection_times": [{"days": "Mon-Sat", "time": "1:00pm"}, {"days": "Sun", "time": "Closed"}], "id": "3264300009", "name": "USPS COLLECTION BOX - BLUE BOX", "address": {"city": "HIGH SPRINGS", "state": "FL", "street": "25 S MAIN ST", "postcode": "32643"}}},
{"geometry": {"type": "Point", "coordinates": [-83.2589571787, 29.4956325024]}, "type": "Feature", "properties": {"collection_times": [{"days": "Mon-Fri", "time": "12:00pm"}, {"days": "Sat", "time": "10:00am"}, {"days": "Sun", "time": "Closed"}], "id": "3264800000", "name": "USPS COLLECTION BOX - PO LOBBY", "address": {"city": "HORSESHOE BEACH", "state": "FL", "street": "77 5TH AVE E", "postcode": "32648"}}},
{"geometry": {"type": "Point", "coordinates": [-82.3664145136, 29.7228222103]}, "type": "Feature", "properties": {"collection_times": [{"days": "Mon-Sat", "time": "10:00am"}, {"days": "Sun", "time": "Closed"}], "id": "3265300001", "name": "USPS COLLECTION BOX - BLUE BOX", "address": {"city": "GAINESVILLE", "state": "FL", "street": "8401 NW 13TH ST", "postcode": "32653"}}},
{"geometry": {"type": "Point", "coordinates": [-82.3465430796, 29.7161730493]}, "type": "Feature", "properties": {"collection_times": [{"days": "Mon-Fri", "time": "3:30pm"}, {"days": "Sat", "time": "9:30am"}, {"days": "Sun", "time": "Closed"}], "id": "3265300002", "name": "USPS COLLECTION BOX - BLUE BOX", "address": {"city": "GAINESVILLE", "state": "FL", "street": "6700 NW 18TH DR", "postcode": "32653"}}},
{"geometry": {"type": "Point", "coordinates": [-82.3557609182, 29.7126680495]}, "type": "Feature", "properties": {"collection_times": [{"days": "Mon-Sat", "time": "10:00am"}, {"days": "Sun", "time": "Closed"}], "id": "3265300003", "name": "USPS COLLECTION BOX - BLUE BOX", "address": {"city": "GAINESVILLE", "state": "FL", "street": "6241 NW 23RD ST", "postcode": "32653"}}},
{"geometry": {"type": "Point", "coordinates": [-82.3562092596, 29.7124397384]}, "type": "Feature", "properties": {"collection_times": [{"days": "Mon-Fri", "time": "3:30pm"}, {"days": "Sat", "time": "10:00am"}, {"days": "Sun", "time": "Closed"}], "id": "3265300004", "name": "USPS COLLECTION BOX - BLUE BOX", "address": {"city": "GAINESVILLE", "state": "FL", "street": "6250 NW 23RD ST", "postcode": "32653"}}},
{"geometry": {"type": "Point", "coordinates": [-82.3561074979, 29.7070015916]}, "type": "Feature", "properties": {"collection_times": [{"days": "Mon-Sat", "time": "10:00am"}, {"days": "Sun", "time": "Closed"}], "id": "3265300005", "name": "USPS COLLECTION BOX - BLUE BOX", "address": {"city": "GAINESVILLE", "state": "FL", "street": "5706 NW 34TH ST", "postcode": "32653"}}},
{"geometry": {"type": "Point", "coordinates": [-82.3876506223, 29.7122669336]}, "type": "Feature", "properties": {"collection_times": [{"days": "Mon-Sat", "time": "10:00am"}, {"days": "Sun", "time": "Closed"}], "id": "3265300006", "name": "USPS COLLECTION BOX - BLUE BOX", "address": {"city": "GAINESVILLE", "state": "FL", "street": "6208 NW 43RD ST", "postcode": "32653"}}},
{"geometry": {"type": "Point", "coordinates": [-82.3889990821, 29.7064273744]}, "type": "Feature", "properties": {"collection_times": [{"days": "Mon-Sat", "time": "10:00am"}, {"days": "Sun", "time": "Closed"}], "id": "3265300007", "name": "USPS COLLECTION BOX - BLUE BOX", "address": {"city": "GAINESVILLE", "state": "FL", "street": "5600 NW 43RD ST", "postcode": "32653"}}},
{"geometry": {"type": "Point", "coordinates": [-82.3889990821, 29.7064273744]}, "type": "Feature", "properties": {"collection_times": [{"days": "Mon-Sat", "time": "10:00am"}, {"days": "Sun", "time": "Closed"}], "id": "3265300008", "name": "USPS COLLECTION BOX - BLUE BOX", "address": {"city": "GAINESVILLE", "state": "FL", "street": "5600 NW 43RD ST", "postcode": "32653"}}},
{"geometry": {"type": "Point", "coordinates": [-82.3863380128, 29.7032622373]}, "type": "Feature", "properties": {"collection_times": [{"days": "Mon-Sat", "time": "10:30am"}, {"days": "Sun", "time": "Closed"}], "id": "3265300009", "name": "USPS COLLECTION BOX - BLUE BOX", "address": {"city": "GAINESVILLE", "state": "FL", "street": "4611 NW 53RD AVE", "postcode": "32653"}}},
{"geometry": {"type": "Point", "coordinates": [-82.353711924, 29.7152462146]}, "type": "Feature", "properties": {"collection_times": [{"days": "Mon-Fri", "time": "3:30pm"}, {"days": "Sat", "time": "9:30am"}, {"days": "Sun", "time": "Closed"}], "id": "3265300010", "name": "USPS COLLECTION BOX - BLUE BOX", "address": {"city": "GAINESVILLE", "state": "FL", "street": "2200 NW 66TH CT", "postcode": "32653"}}},
{"geometry": {"type": "Point", "coordinates": [-82.1065968595, 29.4533012808]}, "type": "Feature", "properties": {"collection_times": [{"days": "Mon-Fri", "time": "10:00am"}, {"days": "Sat", "time": "9:00am"}, {"days": "Sun", "time": "Closed"}], "id": "3265400000", "name": "USPS COLLECTION BOX - BLUE BOX", "address": {"city": "ISLAND GROVE", "state": "FL", "street": "21905 SE US HIGHWAY 301", "postcode": "32654"}}},
{"geometry": {"type": "Point", "coordinates": [-82.1065968595, 29.4533012808]}, "type": "Feature", "properties": {"collection_times": [{"days": "Mon-Fri", "time": "10:00am"}, {"days": "Sat", "time": "9:00am"}, {"days": "Sun", "time": "Closed"}], "id": "3265400001", "name": "USPS COLLECTION BOX - PO LOBBY", "address": {"city": "ISLAND GROVE", "state": "FL", "street": "21905 SE US HIGHWAY 301", "postcode": "32654"}}},
{"geometry": {"type": "Point", "coordinates": [-82.0290371157, 29.7867189148]}, "type": "Feature", "properties": {"collection_times": [{"days": "Mon-Fri", "time": "4:45pm"}, {"days": "Sat", "time": "12:00pm"}, {"days": "Sun", "time": "Closed"}], "id": "3265600000", "name": "USPS COLLECTION BOX - BLUE BOX", "address": {"city": "KEYSTONE HGTS", "state": "FL", "street": "110 NE COMMERCIAL CIR", "postcode": "32656"}}},
{"geometry": {"type": "Point", "coordinates": [-82.0290371157, 29.7867189148]}, "type": "Feature", "properties": {"collection_times": [{"days": "Mon-Fri", "time": "4:45pm"}, {"days": "Sat", "time": "12:00pm"}, {"days": "Sun", "time": "Closed"}], "id": "3265600001", "name": "USPS COLLECTION BOX - BLUE BOX", "address": {"city": "KEYSTONE HGTS", "state": "FL", "street": "110 NE COMMERCIAL CIR", "postcode": "32656"}}},
{"geometry": {"type": "Point", "coordinates": [-82.0310848177, 29.7840667208]}, "type": "Feature", "properties": {"collection_times": [{"days": "Mon-Fri", "time": "3:00pm"}, {"days": "Sat", "time": "12:00pm"}, {"days": "Sun", "time": "Closed"}], "id": "3265600002", "name": "USPS COLLECTION BOX - BLUE BOX", "address": {"city": "KEYSTONE HGTS", "state": "FL", "street": "200 S LAWRENCE BLVD", "postcode": "32656"}}},
{"geometry": {"type": "Point", "coordinates": [-81.9474816819, 29.8430044924]}, "type": "Feature", "properties": {"collection_times": [{"days": "Mon-Fri", "time": "3:00pm"}, {"days": "Sat", "time": "12:00pm"}, {"days": "Sun", "time": "Closed"}], "id": "3265600003", "name": "USPS COLLECTION BOX - BLUE BOX", "address": {"city": "KEYSTONE HGTS", "state": "FL", "street": "7380 STATE ROAD 100", "postcode": "32656"}}},
{"geometry": {"type": "Point", "coordinates": [-82.0290371157, 29.7867189148]}, "type": "Feature", "properties": {"collection_times": [{"days": "Mon-Fri", "time": "4:45pm"}, {"days": "Sat", "time": "12:00pm"}, {"days": "Sun", "time": "Closed"}], "id": "3265600004", "name": "USPS COLLECTION BOX - BLUE BOX", "address": {"city": "KEYSTONE HGTS", "state": "FL", "street": "110 NE COMMERCIAL CIR", "postcode": "32656"}}},
{"geometry": {"type": "Point", "coordinates": [-82.0290371157, 29.7867189148]}, "type": "Feature", "properties": {"collection_times": [{"days": "Mon-Fri", "time": "5:00pm"}, {"days": "Sat", "time": "12:00pm"}, {"days": "Sun", "time": "Closed"}], "id": "3265600005", "name": "USPS COLLECTION BOX - PO LOBBY", "address": {"city": "KEYSTONE HGTS", "state": "FL", "street": "110 NE COMMERCIAL CIR", "postcode": "32656"}}},
{"geometry": {"type": "Point", "coordinates": [-82.0290371157, 29.7867189148]}, "type": "Feature", "properties": {"collection_times": [{"days": "Mon-Fri", "time": "5:00pm"}, {"days": "Sat", "time": "12:00pm"}, {"days": "Sun", "time": "Closed"}], "id": "3265600006", "name": "USPS COLLECTION BOX - PO LOBBY", "address": {"city": "KEYSTONE HGTS", "state": "FL", "street": "110 NE COMMERCIAL CIR", "postcode": "32656"}}},
{"geometry": {"type": "Point", "coordinates": [-82.4050071336, 29.8452649613]}, "type": "Feature", "properties": {"collection_times": [{"days": "Mon-Fri", "time": "4:50pm"}, {"days": "Sat", "time": "11:30am"}, {"days": "Sun", "time": "Closed"}], "id": "3265800000", "name": "USPS COLLECTION BOX - BLUE BOX", "address": {"city": "LA CROSSE", "state": "FL", "street": "20300 N STATE ROAD 121", "postcode": "32658"}}},
{"geometry": {"type": "Point", "coordinates": [-82.4049988022, 29.8430004791]}, "type": "Feature", "properties": {"collection_times": [{"days": "Mon-Fri", "time": "4:50pm"}, {"days": "Sat", "time": "11:30am"}, {"days": "Sun", "time": "Closed"}], "id": "3265800001", "name": "USPS COLLECTION BOX - PO LOBBY", "address": {"city": "LA CROSSE", "state": "FL", "street": "20300 N STATE ROAD 121", "postcode": "32658"}}},
{"geometry": {"type": "Point", "coordinates": [-82.0991192247, 29.505660403]}, "type": "Feature", "properties": {"collection_times": [{"days": "Mon-Fri", "time": "11:00am"}, {"days": "Sat", "time": "8:30am"}, {"days": "Sun", "time": "Closed"}], "id": "3266200000", "name": "USPS COLLECTION BOX - BLUE BOX", "address": {"city": "LOCHLOOSA", "state": "FL", "street": "20720 SE 162ND AVE", "postcode": "32662"}}},
{"geometry": {"type": "Point", "coordinates": [-82.0991192247, 29.505660403]}, "type": "Feature", "properties": {"collection_times": [{"days": "Mon-Fri", "time": "11:00am"}, {"days": "Sat", "time": "8:30am"}, {"days": "Sun", "time": "Closed"}], "id": "3266200001", "name": "USPS COLLECTION BOX - PO LOBBY", "address": {"city": "LOCHLOOSA", "state": "FL", "street": "20720 SE 162ND AVE", "postcode": "32662"}}},
{"geometry": {"type": "Point", "coordinates": [-82.0991192247, 29.505660403]}, "type": "Feature", "properties": {"collection_times": [{"days": "Mon-Fri", "time": "11:00am"}, {"days": "Sat", "time": "8:30am"}, {"days": "Sun", "time": "Closed"}], "id": "3266200002", "name": "USPS COLLECTION BOX - PO LOBBY", "address": {"city": "LOCHLOOSA", "state": "FL", "street": "20720 SE 162ND AVE", "postcode": "32662"}}},
{"geometry": {"type": "Point", "coordinates": [-82.1972130635, 29.3280153905]}, "type": "Feature", "properties": {"collection_times": [{"days": "Mon-Fri", "time": "4:30pm"}, {"days": "Sat", "time": "12:00pm"}, {"days": "Sun", "time": "Closed"}], "id": "3266300000", "name": "USPS COLLECTION BOX - BLUE BOX", "address": {"city": "LOWELL", "state": "FL", "street": "12521 N GAINESVILLE RD", "postcode": "32663"}}},
{"geometry": {"type": "Point", "coordinates": [-82.1972130635, 29.3280153905]}, "type": "Feature", "properties": {"collection_times": [{"days": "Mon-Fri", "time": "4:30pm"}, {"days": "Sat", "time": "12:00pm"}, {"days": "Sun", "time": "Closed"}], "id": "3266300002", "name": "USPS COLLECTION BOX - PO LOBBY", "address": {"city": "LOWELL", "state": "FL", "street": "12521 N GAINESVILLE RD", "postcode": "32663"}}},
{"geometry": {"type": "Point", "coordinates": [-82.2169751702, 29.4487384324]}, "type": "Feature", "properties": {"collection_times": [{"days": "Mon-Fri", "time": "4:30pm"}, {"days": "Sat", "time": "11:30am"}, {"days": "Sun", "time": "Closed"}], "id": "3266400000", "name": "USPS COLLECTION BOX - BLUE BOX", "address": {"city": "MCINTOSH", "state": "FL", "street": "5650 AVENUE G", "postcode": "32664"}}},
{"geometry": {"type": "Point", "coordinates": [-82.2169751702, 29.4487384324]}, "type": "Feature", "properties": {"collection_times": [{"days": "Mon-Fri", "time": "4:30pm"}, {"days": "Sat", "time": "11:30am"}, {"days": "Sun", "time": "Closed"}], "id": "3266400001", "name": "USPS COLLECTION BOX - PO LOBBY", "address": {"city": "MCINTOSH", "state": "FL", "street": "5650 AVENUE G", "postcode": "32664"}}},
{"geometry": {"type": "Point", "coordinates": [-81.9745695224, 29.722000766]}, "type": "Feature", "properties": {"collection_times": [{"days": "Mon-Fri", "time": "4:30pm"}, {"days": "Sat", "time": "12:00pm"}, {"days": "Sun", "time": "Closed"}], "id": "3266600000", "name": "USPS COLLECTION BOX - BLUE BOX", "address": {"city": "MELROSE", "state": "FL", "street": "859 N STATE ROAD 21", "postcode": "32666"}}},
{"geometry": {"type": "Point", "coordinates": [-81.9745695224, 29.722000766]}, "type": "Feature", "properties": {"collection_times": [{"days": "Mon-Fri", "time": "4:30pm"}, {"days": "Sat", "time": "12:00pm"}, {"days": "Sun", "time": "Closed"}], "id": "3266600002", "name": "USPS COLLECTION BOX - PO LOBBY", "address": {"city": "MELROSE", "state": "FL", "street": "859 N STATE ROAD 21", "postcode": "32666"}}},
{"geometry": {"type": "Point", "coordinates": [-82.3111713878, 29.5401868996]}, "type": "Feature", "properties": {"collection_times": [{"days": "Mon-Fri", "time": "4:30pm"}, {"days": "Sat", "time": "10:30am"}, {"days": "Sun", "time": "Closed"}], "id": "3266700001", "name": "USPS COLLECTION BOX - PO LOBBY", "address": {"city": "MICANOPY", "state": "FL", "street": "202 NE EARLY AVE", "postcode": "32667"}}},
{"geometry": {"type": "Point", "coordinates": [-82.3111713878, 29.5401868996]}, "type": "Feature", "properties": {"collection_times": [{"days": "Mon-Fri", "time": "4:30pm"}, {"days": "Sat", "time": "10:30am"}, {"days": "Sun", "time": "Closed"}], "id": "3266700002", "name": "USPS COLLECTION BOX - PO LOBBY", "address": {"city": "MICANOPY", "state": "FL", "street": "202 NE EARLY AVE", "postcode": "32667"}}},
{"geometry": {"type": "Point", "coordinates": [-82.3111713878, 29.5401868996]}, "type": "Feature", "properties": {"collection_times": [{"days": "Mon-Fri", "time": "4:30pm"}, {"days": "Sat", "time": "10:30am"}, {"days": "Sun", "time": "Closed"}], "id": "3266700003", "name": "USPS COLLECTION BOX - BLUE BOX", "address": {"city": "MICANOPY", "state": "FL", "street": "202 NE EARLY AVE", "postcode": "32667"}}},
{"geometry": {"type": "Point", "coordinates": [-82.4451573702, 29.2829670777]}, "type": "Feature", "properties": {"collection_times": [{"days": "Mon-Fri", "time": "4:15pm"}, {"days": "Sat", "time": "11:30am"}, {"days": "Sun", "time": "Closed"}], "id": "3266800000", "name": "USPS COLLECTION BOX - BLUE BOX", "address": {"city": "MORRISTON", "state": "FL", "street": "3350 SE US HIGHWAY 41", "postcode": "32668"}}},
{"geometry": {"type": "Point", "coordinates": [-82.4451573702, 29.2829670777]}, "type": "Feature", "properties": {"collection_times": [{"days": "Mon-Fri", "time": "4:15pm"}, {"days": "Sat", "time": "11:30am"}, {"days": "Sun", "time": "Closed"}], "id": "3266800001", "name": "USPS COLLECTION BOX - PO LOBBY", "address": {"city": "MORRISTON", "state": "FL", "street": "3350 SE US HIGHWAY 41", "postcode": "32668"}}},
{"geometry": {"type": "Point", "coordinates": [-82.6066779688, 29.6446904772]}, "type": "Feature", "properties": {"collection_times": [{"days": "Mon-Fri", "time": "4:30pm"}, {"days": "Sat", "time": "12:00pm"}, {"days": "Sun", "time": "Closed"}], "id": "3266900000", "name": "USPS COLLECTION BOX - BLUE BOX", "address": {"city": "NEWBERRY", "state": "FL", "street": "252 N MAIN ST", "postcode": "32669"}}},
{"geometry": {"type": "Point", "coordinates": [-82.6066779688, 29.6446904772]}, "type": "Feature", "properties": {"collection_times": [{"days": "Mon-Fri", "time": "4:30pm"}, {"days": "Sat", "time": "12:00pm"}, {"days": "Sun", "time": "Closed"}], "id": "3266900001", "name": "USPS COLLECTION BOX - PO LOBBY", "address": {"city": "NEWBERRY", "state": "FL", "street": "252 N MAIN ST", "postcode": "32669"}}},
{"geometry": {"type": "Point", "coordinates": [-82.9769250096, 29.5998496306]}, "type": "Feature", "properties": {"collection_times": [{"days": "Mon-Fri", "time": "4:15pm"}, {"days": "Sat", "time": "12:00pm"}, {"days": "Sun", "time": "Closed"}], "id": "3268000000", "name": "USPS COLLECTION BOX - BLUE BOX", "address": {"city": "OLD TOWN", "state": "FL", "street": "26164 SE HIGHWAY 19", "postcode": "32680"}}},
{"geometry": {"type": "Point", "coordinates": [-82.9769250096, 29.5998496306]}, "type": "Feature", "properties": {"collection_times": [{"days": "Mon-Fri", "time": "4:15pm"}, {"days": "Sat", "time": "12:00pm"}, {"days": "Sun", "time": "Closed"}], "id": "3268000002", "name": "USPS COLLECTION BOX - PO LOBBY", "address": {"city": "OLD TOWN", "state": "FL", "street": "26164 SE HIGHWAY 19", "postcode": "32680"}}},
{"geometry": {"type": "Point", "coordinates": [-82.2224675171, 29.4429483733]}, "type": "Feature", "properties": {"collection_times": [{"days": "Mon-Fri", "time": "4:30pm"}, {"days": "Sat", "time": "11:30am"}, {"days": "Sun", "time": "Closed"}], "id": "3268100000", "name": "USPS COLLECTION BOX - BLUE BOX", "address": {"city": "ORANGE LAKE", "state": "FL", "street": "19250 N US HIGHWAY 441", "postcode": "32681"}}},
{"geometry": {"type": "Point", "coordinates": [-82.2224675171, 29.4429483733]}, "type": "Feature", "properties": {"collection_times": [{"days": "Mon-Fri", "time": "4:15pm"}, {"days": "Sat", "time": "11:30am"}, {"days": "Sun", "time": "Closed"}], "id": "3268100001", "name": "USPS COLLECTION BOX - PO LOBBY", "address": {"city": "ORANGE LAKE", "state": "FL", "street": "19250 N US HIGHWAY 441", "postcode": "32681"}}},
{"geometry": {"type": "Point", "coordinates": [-82.2224675171, 29.4429483733]}, "type": "Feature", "properties": {"collection_times": [{"days": "Mon-Fri", "time": "4:15pm"}, {"days": "Sat", "time": "11:30am"}, {"days": "Sun", "time": "Closed"}], "id": "3268100002", "name": "USPS COLLECTION BOX - PO LOBBY", "address": {"city": "ORANGE LAKE", "state": "FL", "street": "19250 N US HIGHWAY 441", "postcode": "32681"}}},
{"geometry": {"type": "Point", "coordinates": [-82.7684036457, 29.3268776225]}, "type": "Feature", "properties": {"collection_times": [{"days": "Mon-Fri", "time": "4:30pm"}, {"days": "Sat", "time": "9:30am"}, {"days": "Sun", "time": "Closed"}], "id": "3268300000", "name": "USPS COLLECTION BOX - BLUE BOX", "address": {"city": "OTTER CREEK", "state": "FL", "street": "210 SE US HIGHWAY 19", "postcode": "32683"}}},
{"geometry": {"type": "Point", "coordinates": [-82.7684036457, 29.3268776225]}, "type": "Feature", "properties": {"collection_times": [{"days": "Mon-Fri", "time": "4:30pm"}, {"days": "Sat", "time": "9:30am"}, {"days": "Sun", "time": "Closed"}], "id": "3268300001", "name": "USPS COLLECTION BOX - PO LOBBY", "address": {"city": "OTTER CREEK", "state": "FL", "street": "210 SE US HIGHWAY 19", "postcode": "32683"}}},
{"geometry": {"type": "Point", "coordinates": [-82.7684036457, 29.3268776225]}, "type": "Feature", "properties": {"collection_times": [{"days": "Mon-Fri", "time": "4:30pm"}, {"days": "Sat", "time": "9:30am"}, {"days": "Sun", "time": "Closed"}], "id": "3268300002", "name": "USPS COLLECTION BOX - PO LOBBY", "address": {"city": "OTTER CREEK", "state": "FL", "street": "210 SE US HIGHWAY 19", "postcode": "32683"}}},
{"geometry": {"type": "Point", "coordinates": [-82.1978653519, 29.3727523964]}, "type": "Feature", "properties": {"collection_times": [{"days": "Mon-Fri", "time": "4:00pm"}, {"days": "Sat", "time": "12:00pm"}, {"days": "Sun", "time": "Closed"}], "id": "3268600000", "name": "USPS COLLECTION BOX - BLUE BOX", "address": {"city": "REDDICK", "state": "FL", "street": "15373 NW GAINESVILLE RD", "postcode": "32686"}}},
{"geometry": {"type": "Point", "coordinates": [-82.2457906868, 29.4082950737]}, "type": "Feature", "properties": {"collection_times": [{"days": "Mon-Sat", "time": "10:00am"}, {"days": "Sun", "time": "Closed"}], "id": "3268600001", "name": "USPS COLLECTION BOX - BLUE BOX", "address": {"city": "REDDICK", "state": "FL", "street": "7401 W HIGHWAY 318", "postcode": "32686"}}},
{"geometry": {"type": "Point", "coordinates": [-82.1978653519, 29.3727523964]}, "type": "Feature", "properties": {"collection_times": [{"days": "Mon-Fri", "time": "4:00pm"}, {"days": "Sat", "time": "12:00pm"}, {"days": "Sun", "time": "Closed"}], "id": "3268600003", "name": "USPS COLLECTION BOX - PO LOBBY", "address": {"city": "REDDICK", "state": "FL", "street": "15373 NW GAINESVILLE RD", "postcode": "32686"}}},
{"geometry": {"type": "Point", "coordinates": [-83.1445143667, 29.3294532249]}, "type": "Feature", "properties": {"collection_times": [{"days": "Mon-Sat", "time": "10:30am"}, {"days": "Sun", "time": "Closed"}], "id": "3269200000", "name": "USPS COLLECTION BOX - PO LOBBY", "address": {"city": "SUWANNEE", "state": "FL", "street": "23252 SE HIGHWAY 349", "postcode": "32692"}}},
{"geometry": {"type": "Point", "coordinates": [-83.1445143667, 29.3294532249]}, "type": "Feature", "properties": {"collection_times": [{"days": "Mon-Sat", "time": "10:30am"}, {"days": "Sun", "time": "Closed"}], "id": "3269200001", "name": "USPS COLLECTION BOX - PO LOBBY", "address": {"city": "SUWANNEE", "state": "FL", "street": "23252 SE HIGHWAY 349", "postcode": "32692"}}},
{"geometry": {"type": "Point", "coordinates": [-83.1445143667, 29.3294532249]}, "type": "Feature", "properties": {"collection_times": [{"days": "Mon-Sat", "time": "10:30am"}, {"days": "Sun", "time": "Closed"}], "id": "3269200002", "name": "USPS COLLECTION BOX - BLUE BOX", "address": {"city": "SUWANNEE", "state": "FL", "street": "23252 SE HIGHWAY 349", "postcode": "32692"}}},
{"geometry": {"type": "Point", "coordinates": [-82.7950309781, 29.6153990574]}, "type": "Feature", "properties": {"collection_times": [{"days": "Mon-Fri", "time": "4:00pm"}, {"days": "Sat", "time": "12:00pm"}, {"days": "Sun", "time": "Closed"}], "id": "3269300000", "name": "USPS COLLECTION BOX - BLUE BOX", "address": {"city": "TRENTON", "state": "FL", "street": "1831 E WADE ST", "postcode": "32693"}}},
{"geometry": {"type": "Point", "coordinates": [-82.7950309781, 29.6153990574]}, "type": "Feature", "properties": {"collection_times": [{"days": "Mon-Fri", "time": "4:00pm"}, {"days": "Sat", "time": "12:00pm"}, {"days": "Sun", "time": "Closed"}], "id": "3269300001", "name": "USPS COLLECTION BOX - BLUE BOX", "address": {"city": "TRENTON", "state": "FL", "street": "1831 E WADE ST", "postcode": "32693"}}},
{"geometry": {"type": "Point", "coordinates": [-82.7950309781, 29.6153990574]}, "type": "Feature", "properties": {"collection_times": [{"days": "Mon-Fri", "time": "4:00pm"}, {"days": "Sat", "time": "12:00pm"}, {"days": "Sun", "time": "Closed"}], "id": "3269300002", "name": "USPS COLLECTION BOX - PO LOBBY", "address": {"city": "TRENTON", "state": "FL", "street": "1831 E WADE ST", "postcode": "32693"}}},
{"geometry": {"type": "Point", "coordinates": [-82.7950309781, 29.6153990574]}, "type": "Feature", "properties": {"collection_times": [{"days": "Mon-Fri", "time": "4:00pm"}, {"days": "Sat", "time": "12:00pm"}, {"days": "Sun", "time": "Closed"}], "id": "3269300003", "name": "USPS COLLECTION BOX - PO LOBBY", "address": {"city": "TRENTON", "state": "FL", "street": "1831 E WADE ST", "postcode": "32693"}}},
{"geometry": {"type": "Point", "coordinates": [-82.8182828124, 29.6162613624]}, "type": "Feature", "properties": {"collection_times": [{"days": "Mon-Sat", "time": "12:00pm"}, {"days": "Sun", "time": "Closed"}], "id": "3269300004", "name": "USPS COLLECTION BOX - BLUE BOX", "address": {"city": "TRENTON", "state": "FL", "street": "408 N MAIN ST", "postcode": "32693"}}},
{"geometry": {"type": "Point", "coordinates": [-82.9349362837, 29.5910445569]}, "type": "Feature", "properties": {"collection_times": [{"days": "Mon-Sat", "time": "10:00am"}, {"days": "Sun", "time": "Closed"}], "id": "3269300005", "name": "USPS COLLECTION BOX - BLUE BOX", "address": {"city": "TRENTON", "state": "FL", "street": "17976 NW HWY 19", "postcode": "32693"}}},
{"geometry": {"type": "Point", "coordinates": [-82.1472326884, 29.785498219]}, "type": "Feature", "properties": {"collection_times": [{"days": "Mon-Fri", "time": "4:00pm"}, {"days": "Sat", "time": "12:00pm"}, {"days": "Sun", "time": "Closed"}], "id": "3269400000", "name": "USPS COLLECTION BOX - BLUE BOX", "address": {"city": "WALDO", "state": "FL", "street": "15075 NE US HIGHWAY 301", "postcode": "32694"}}},
{"geometry": {"type": "Point", "coordinates": [-82.1472326884, 29.785498219]}, "type": "Feature", "properties": {"collection_times": [{"days": "Mon-Fri", "time": "4:00pm"}, {"days": "Sat", "time": "12:00pm"}, {"days": "Sun", "time": "Closed"}], "id": "3269400002", "name": "USPS COLLECTION BOX - PO LOBBY", "address": {"city": "WALDO", "state": "FL", "street": "15075 NE US HIGHWAY 301", "postcode": "32694"}}},
{"geometry": {"type": "Point", "coordinates": [-82.1472326884, 29.785498219]}, "type": "Feature", "properties": {"collection_times": [{"days": "Mon-Fri", "time": "4:00pm"}, {"days": "Sat", "time": "12:00pm"}, {"days": "Sun", "time": "Closed"}], "id": "3269400003", "name": "USPS COLLECTION BOX - PO LOBBY", "address": {"city": "WALDO", "state": "FL", "street": "15075 NE US HIGHWAY 301", "postcode": "32694"}}},
{"geometry": {"type": "Point", "coordinates": [-82.4477017664, 29.3884089436]}, "type": "Feature", "properties": {"collection_times": [{"days": "Mon-Fri", "time": "5:00pm"}, {"days": "Sat", "time": "12:00pm"}, {"days": "Sun", "time": "Closed"}], "id": "3269600000", "name": "USPS COLLECTION BOX - BLUE BOX", "address": {"city": "WILLISTON", "state": "FL", "street": "29 NW 1ST AVE", "postcode": "32696"}}},
{"geometry": {"type": "Point", "coordinates": [-82.4430955584, 29.3879876464]}, "type": "Feature", "properties": {"collection_times": [{"days": "Mon-Fri", "time": "2:30pm"}, {"days": "Sat", "time": "12:00pm"}, {"days": "Sun", "time": "Closed"}], "id": "3269600001", "name": "USPS COLLECTION BOX - BLUE BOX", "address": {"city": "WILLISTON", "state": "FL", "street": "434 E NOBLE AVE", "postcode": "32696"}}},
{"geometry": {"type": "Point", "coordinates": [-82.4553607272, 29.3861461284]}, "type": "Feature", "properties": {"collection_times": [{"days": "Mon-Fri", "time": "2:30pm"}, {"days": "Sat", "time": "12:00pm"}, {"days": "Sun", "time": "Closed"}], "id": "3269600002", "name": "USPS COLLECTION BOX - BLUE BOX", "address": {"city": "WILLISTON", "state": "FL", "street": "727 W NOBLE AVE", "postcode": "32696"}}},
{"geometry": {"type": "Point", "coordinates": [-82.4477017664, 29.3884089436]}, "type": "Feature", "properties": {"collection_times": [{"days": "Mon-Fri", "time": "5:00pm"}, {"days": "Sat", "time": "12:00pm"}, {"days": "Sun", "time": "Closed"}], "id": "3269600003", "name": "USPS COLLECTION BOX - PO LOBBY", "address": {"city": "WILLISTON", "state": "FL", "street": "29 NW 1ST AVE", "postcode": "32696"}}},
{"geometry": {"type": "Point", "coordinates": [-82.4238691611, 29.9291706282]}, "type": "Feature", "properties": {"collection_times": [{"days": "Mon-Fri", "time": "12:00pm"}, {"days": "Sat", "time": "9:30am"}, {"days": "Sun", "time": "Closed"}], "id": "3269700000", "name": "USPS COLLECTION BOX - BLUE BOX", "address": {"city": "WORTHINGTON SPGS", "state": "FL", "street": "PO BOX 9998", "postcode": "32697"}}},
{"geometry": {"type": "Point", "coordinates": [-82.4238691611, 29.9291706282]}, "type": "Feature", "properties": {"collection_times": [{"days": "Mon-Fri", "time": "10:00am"}, {"days": "Sat", "time": "9:30am"}, {"days": "Sun", "time": "Closed"}], "id": "3269700001", "name": "USPS COLLECTION BOX - PO LOBBY", "address": {"city": "WORTHINGTON SPGS", "state": "FL", "street": "P.O. BO X 9998", "postcode": "32697"}}}
]}
