{"type": "FeatureCollection", "features": [
{"geometry": {"type": "Point", "coordinates": [-81.3751340716, 28.6637099442]}, "type": "Feature", "properties": {"collection_times": [{"days": "Mon-Fri", "time": "2:30pm"}, {"days": "Sat", "time": "11:30am"}, {"days": "Sun", "time": "Closed"}], "id": "3270100001", "name": "USPS COLLECTION BOX - BLUE BOX", "address": {"city": "ALTAMONTE SPG", "state": "FL", "street": "478 ALTAMONTE DR #108", "postcode": "32701"}}},
{"geometry": {"type": "Point", "coordinates": [-81.368145346, 28.6639750256]}, "type": "Feature", "properties": {"collection_times": [{"days": "Mon-Fri", "time": "3:00pm"}, {"days": "Sat", "time": "11:00am"}, {"days": "Sun", "time": "Closed"}], "id": "3270100007", "name": "USPS COLLECTION BOX - BLUE BOX", "address": {"city": "ALTAMONTE SPG", "state": "FL", "street": "661 E ALTAMONTE DR", "postcode": "32701"}}},
{"geometry": {"type": "Point", "coordinates": [-81.3769215226, 28.663918145]}, "type": "Feature", "properties": {"collection_times": [{"days": "Mon-Fri", "time": "2:30pm"}, {"days": "Sat", "time": "11:00am"}, {"days": "Sun", "time": "Closed"}], "id": "3270100012", "name": "USPS COLLECTION BOX - BLUE BOX", "address": {"city": "ALTAMONTE SPG", "state": "FL", "street": "451 E ALTAMONTE DR", "postcode": "32701"}}},
{"geometry": {"type": "Point", "coordinates": [-81.3711214748, 28.6626251709]}, "type": "Feature", "properties": {"collection_times": [{"days": "Mon-Fri", "time": "2:30pm"}, {"days": "Sat", "time": "11:30am"}, {"days": "Sun", "time": "Closed"}], "id": "3270100017", "name": "USPS COLLECTION BOX - BLUE BOX", "address": {"city": "ALTAMONTE SPG", "state": "FL", "street": "106 BOSTON AVE", "postcode": "32701"}}},
{"geometry": {"type": "Point", "coordinates": [-81.3840238018, 28.6692384457]}, "type": "Feature", "properties": {"collection_times": [{"days": "Mon-Fri", "time": "2:30pm"}, {"days": "Sat", "time": "11:15am"}, {"days": "Sun", "time": "Closed"}], "id": "3270100018", "name": "USPS COLLECTION BOX - BLUE BOX", "address": {"city": "ALTAMONTE SPG", "state": "FL", "street": "300 CENTERPOINTE CIR", "postcode": "32701"}}},
{"geometry": {"type": "Point", "coordinates": [-81.3658161182, 28.6591106651]}, "type": "Feature", "properties": {"collection_times": [{"days": "Mon-Fri", "time": "2:30pm"}, {"days": "Sat", "time": "11:45am"}, {"days": "Sun", "time": "Closed"}], "id": "3270100027", "name": "USPS COLLECTION BOX - BLUE BOX", "address": {"city": "ALTAMONTE SPG", "state": "FL", "street": "251 MAITLAND AVE", "postcode": "32701"}}},
{"geometry": {"type": "Point", "coordinates": [-81.3830218561, 28.6662832928]}, "type": "Feature", "properties": {"collection_times": [{"days": "Mon-Fri", "time": "2:30pm"}, {"days": "Sat", "time": "11:15am"}, {"days": "Sun", "time": "Closed"}], "id": "3270100030", "name": "USPS COLLECTION BOX - BLUE BOX", "address": {"city": "ALTAMONTE SPG", "state": "FL", "street": "283 CRANES ROOST BLVD", "postcode": "32701"}}},
{"geometry": {"type": "Point", "coordinates": [-81.3863142167, 28.6562584857]}, "type": "Feature", "properties": {"collection_times": [{"days": "Mon-Fri", "time": "2:30pm"}, {"days": "Sat", "time": "11:30am"}, {"days": "Sun", "time": "Closed"}], "id": "3270100031", "name": "USPS COLLECTION BOX - BLUE BOX", "address": {"city": "ALTAMONTE SPG", "state": "FL", "street": "317 S NORTH LAKE BLVD", "postcode": "32701"}}},
{"geometry": {"type": "Point", "coordinates": [-81.3863310256, 28.6498682297]}, "type": "Feature", "properties": {"collection_times": [{"days": "Mon-Fri", "time": "2:30pm"}, {"days": "Sat", "time": "11:15am"}, {"days": "Sun", "time": "Closed"}], "id": "3270100034", "name": "USPS COLLECTION BOX - BLUE BOX", "address": {"city": "ALTAMONTE SPG", "state": "FL", "street": "650 S NORTH LAKE BLVD", "postcode": "32701"}}},
{"geometry": {"type": "Point", "coordinates": [-81.3525620316, 28.6630439383]}, "type": "Feature", "properties": {"collection_times": [{"days": "Mon-Fri", "time": "5:00pm"}, {"days": "Sat", "time": "12:00pm"}, {"days": "Sun", "time": "Closed"}], "id": "3270100045", "name": "USPS COLLECTION BOX - PO LOBBY", "address": {"city": "ALTAMONTE SPG", "state": "FL", "street": "1140 E ALTAMONTE DR", "postcode": "32701"}}},
{"geometry": {"type": "Point", "coordinates": [-81.6505978962, 28.9617517236]}, "type": "Feature", "properties": {"collection_times": [{"days": "Mon-Fri", "time": "4:30pm"}, {"days": "Sat", "time": "12:00pm"}, {"days": "Sun", "time": "Closed"}], "id": "3270200001", "name": "USPS COLLECTION BOX - BLUE BOX", "address": {"city": "ALTOONA", "state": "FL", "street": "42038 STATE ROAD 19", "postcode": "32702"}}},
{"geometry": {"type": "Point", "coordinates": [-81.6505978962, 28.9617517236]}, "type": "Feature", "properties": {"collection_times": [{"days": "Mon-Fri", "time": "4:30pm"}, {"days": "Sat", "time": "12:00pm"}, {"days": "Sun", "time": "Closed"}], "id": "3270200003", "name": "USPS COLLECTION BOX - PO LOBBY", "address": {"city": "ALTOONA", "state": "FL", "street": "42038 STATE ROAD 19", "postcode": "32702"}}},
{"geometry": {"type": "Point", "coordinates": [-81.449986983, 28.6707130613]}, "type": "Feature", "properties": {"collection_times": [{"days": "Mon-Fri", "time": "3:00pm"}, {"days": "Sat", "time": "2:45pm"}, {"days": "Sun", "time": "Closed"}], "id": "3270300001", "name": "USPS COLLECTION BOX - BLUE BOX", "address": {"city": "APOPKA", "state": "FL", "street": "550 S HUNT CLUB BLVD", "postcode": "32703"}}},
{"geometry": {"type": "Point", "coordinates": [-81.4902631869, 28.6687197755]}, "type": "Feature", "properties": {"collection_times": [{"days": "Mon-Sat", "time": "2:30pm"}, {"days": "Sun", "time": "Closed"}], "id": "3270300008", "name": "USPS COLLECTION BOX - BLUE BOX", "address": {"city": "APOPKA", "state": "FL", "street": "775 S ORANGE BLOSSOM TRL", "postcode": "32703"}}},
{"geometry": {"type": "Point", "coordinates": [-81.4851043029, 28.6653412447]}, "type": "Feature", "properties": {"collection_times": [{"days": "Mon-Sat", "time": "2:15pm"}, {"days": "Sun", "time": "Closed"}], "id": "3270300009", "name": "USPS COLLECTION BOX - BLUE BOX", "address": {"city": "APOPKA", "state": "FL", "street": "1022 S ORANGE BLOSSOM TRL", "postcode": "32703"}}},
{"geometry": {"type": "Point", "coordinates": [-81.4694655772, 28.6730763815]}, "type": "Feature", "properties": {"collection_times": [{"days": "Mon-Fri", "time": "3:00pm"}, {"days": "Sat", "time": "2:45pm"}, {"days": "Sun", "time": "Closed"}], "id": "3270300011", "name": "USPS COLLECTION BOX - BLUE BOX", "address": {"city": "APOPKA", "state": "FL", "street": "2179 E SEMORAN BLVD", "postcode": "32703"}}},
{"geometry": {"type": "Point", "coordinates": [-81.4668394165, 28.6728009839]}, "type": "Feature", "properties": {"collection_times": [{"days": "Mon-Fri", "time": "3:00pm"}, {"days": "Sat", "time": "2:30pm"}, {"days": "Sun", "time": "Closed"}], "id": "3270300014", "name": "USPS COLLECTION BOX - BLUE BOX", "address": {"city": "APOPKA", "state": "FL", "street": "2400 E SEMORAN BLVD", "postcode": "32703"}}},
{"geometry": {"type": "Point", "coordinates": [-81.4791315431, 28.6741566549]}, "type": "Feature", "properties": {"collection_times": [{"days": "Mon-Fri", "time": "3:00pm"}, {"days": "Sat", "time": "2:45pm"}, {"days": "Sun", "time": "Closed"}], "id": "3270300015", "name": "USPS COLLECTION BOX - BLUE BOX", "address": {"city": "APOPKA", "state": "FL", "street": "380 SEMORAN COMMERCE PL", "postcode": "32703"}}},
{"geometry": {"type": "Point", "coordinates": [-81.4919997707, 28.6508074108]}, "type": "Feature", "properties": {"collection_times": [{"days": "Mon-Sat", "time": "2:15pm"}, {"days": "Sun", "time": "Closed"}], "id": "3270300017", "name": "USPS COLLECTION BOX - BLUE BOX", "address": {"city": "APOPKA", "state": "FL", "street": "914 SHEELER OAKS DR", "postcode": "32703"}}},
{"geometry": {"type": "Point", "coordinates": [-81.488674473, 28.683520958]}, "type": "Feature", "properties": {"collection_times": [{"days": "Mon-Sat", "time": "1:00pm"}, {"days": "Sun", "time": "Closed"}], "id": "3270300018", "name": "USPS COLLECTION BOX - BLUE BOX", "address": {"city": "APOPKA", "state": "FL", "street": "347 N THOMPSON RD", "postcode": "32703"}}},
{"geometry": {"type": "Point", "coordinates": [-81.5079698382, 28.6719348102]}, "type": "Feature", "properties": {"collection_times": [{"days": "Mon-Fri", "time": "3:00pm"}, {"days": "Sat", "time": "1:00pm"}, {"days": "Sun", "time": "Closed"}], "id": "3270300021", "name": "USPS COLLECTION BOX - BLUE BOX", "address": {"city": "APOPKA", "state": "FL", "street": "175 E 5TH ST", "postcode": "32703"}}},
{"geometry": {"type": "Point", "coordinates": [-81.2368305928, 28.966827687]}, "type": "Feature", "properties": {"collection_times": [{"days": "Mon-Fri", "time": "1:00pm"}, {"days": "Sat", "time": "10:30am"}, {"days": "Sun", "time": "Closed"}], "id": "3270600001", "name": "USPS COLLECTION BOX - BLUE BOX", "address": {"city": "CASSADAGA", "state": "FL", "street": "1087 STEVENS ST", "postcode": "32706"}}},
{"geometry": {"type": "Point", "coordinates": [-81.2368305928, 28.966827687]}, "type": "Feature", "properties": {"collection_times": [{"days": "Mon-Fri", "time": "1:00pm"}, {"days": "Sat", "time": "10:30am"}, {"days": "Sun", "time": "Closed"}], "id": "3270600002", "name": "USPS COLLECTION BOX - PO LOBBY", "address": {"city": "CASSADAGA", "state": "FL", "street": "1087 STEVENS ST", "postcode": "32706"}}},
{"geometry": {"type": "Point", "coordinates": [-81.3097874183, 28.6533164668]}, "type": "Feature", "properties": {"collection_times": [{"days": "Mon-Fri", "time": "2:30pm"}, {"days": "Sat-Sun", "time": "Closed"}], "id": "3270700004", "name": "USPS COLLECTION BOX - BLUE BOX", "address": {"city": "CASSELBERRY", "state": "FL", "street": "220 EAGLE CIR", "postcode": "32707"}}},
{"geometry": {"type": "Point", "coordinates": [-81.3404899353, 28.655384279]}, "type": "Feature", "properties": {"collection_times": [{"days": "Mon-Fri", "time": "2:15pm"}, {"days": "Sat", "time": "12:00pm"}, {"days": "Sun", "time": "Closed"}], "id": "3270700009", "name": "USPS COLLECTION BOX - BLUE BOX", "address": {"city": "CASSELBERRY", "state": "FL", "street": "215 N OXFORD RD", "postcode": "32707"}}},
{"geometry": {"type": "Point", "coordinates": [-81.3370333292, 28.6710785956]}, "type": "Feature", "properties": {"collection_times": [{"days": "Mon-Fri", "time": "3:15pm"}, {"days": "Sat-Sun", "time": "Closed"}], "id": "3270700010", "name": "USPS COLLECTION BOX - BLUE BOX", "address": {"city": "CASSELBERRY", "state": "FL", "street": "95 TRIPLET LAKE DR", "postcode": "32707"}}},
{"geometry": {"type": "Point", "coordinates": [-81.3408495548, 28.6639524508]}, "type": "Feature", "properties": {"collection_times": [{"days": "Mon-Fri", "time": "5:00pm"}, {"days": "Sat", "time": "3:30pm"}, {"days": "Sun", "time": "Closed"}], "id": "3270700012", "name": "USPS COLLECTION BOX - BLUE BOX", "address": {"city": "CASSELBERRY", "state": "FL", "street": "109 LIVE OAKS BLVD", "postcode": "32707"}}},
{"geometry": {"type": "Point", "coordinates": [-81.3244241696, 28.6890974266]}, "type": "Feature", "properties": {"collection_times": [{"days": "Mon-Sat", "time": "12:00pm"}, {"days": "Sun", "time": "Closed"}], "id": "3270700014", "name": "USPS COLLECTION BOX - BLUE BOX", "address": {"city": "CASSELBERRY", "state": "FL", "street": "999 MANGO DR", "postcode": "32707"}}},
{"geometry": {"type": "Point", "coordinates": [-81.3444044494, 28.6627316628]}, "type": "Feature", "properties": {"collection_times": [{"days": "Mon-Fri", "time": "4:00pm"}, {"days": "Sat-Sun", "time": "Closed"}], "id": "3270700016", "name": "USPS COLLECTION BOX - BLUE BOX", "address": {"city": "CASSELBERRY", "state": "FL", "street": "1455 SEMORAN BLVD", "postcode": "32707"}}},
{"geometry": {"type": "Point", "coordinates": [-81.3250961336, 28.6490506031]}, "type": "Feature", "properties": {"collection_times": [{"days": "Mon-Fri", "time": "3:15pm"}, {"days": "Sat-Sun", "time": "Closed"}], "id": "3270700017", "name": "USPS COLLECTION BOX - BLUE BOX", "address": {"city": "CASSELBERRY", "state": "FL", "street": "916 SEMORAN BLVD", "postcode": "32707"}}},
{"geometry": {"type": "Point", "coordinates": [-81.3180033901, 28.6295469675]}, "type": "Feature", "properties": {"collection_times": [{"days": "Mon-Fri", "time": "4:00pm"}, {"days": "Sat-Sun", "time": "Closed"}], "id": "3270700019", "name": "USPS COLLECTION BOX - BLUE BOX", "address": {"city": "CASSELBERRY", "state": "FL", "street": "1391 SEMORAN BLVD", "postcode": "32707"}}},
{"geometry": {"type": "Point", "coordinates": [-81.3222686446, 28.6455970242]}, "type": "Feature", "properties": {"collection_times": [{"days": "Mon-Fri", "time": "2:15pm"}, {"days": "Sat-Sun", "time": "Closed"}], "id": "3270700021", "name": "USPS COLLECTION BOX - BLUE BOX", "address": {"city": "CASSELBERRY", "state": "FL", "street": "1014 SEMORAN BLVD", "postcode": "32707"}}},
{"geometry": {"type": "Point", "coordinates": [-81.3318748167, 28.6544537993]}, "type": "Feature", "properties": {"collection_times": [{"days": "Mon-Fri", "time": "3:15pm"}, {"days": "Sat-Sun", "time": "Closed"}], "id": "3270700022", "name": "USPS COLLECTION BOX - BLUE BOX", "address": {"city": "CASSELBERRY", "state": "FL", "street": "430 SEMORAN BLVD", "postcode": "32707"}}},
{"geometry": {"type": "Point", "coordinates": [-81.3335731205, 28.6554462219]}, "type": "Feature", "properties": {"collection_times": [{"days": "Mon-Fri", "time": "4:00pm"}, {"days": "Sat-Sun", "time": "Closed"}], "id": "3270700028", "name": "USPS COLLECTION BOX - BLUE BOX", "address": {"city": "CASSELBERRY", "state": "FL", "street": "495 SEMORAN BLVD", "postcode": "32707"}}},
{"geometry": {"type": "Point", "coordinates": [-81.3308010584, 28.6536018195]}, "type": "Feature", "properties": {"collection_times": [{"days": "Mon-Fri", "time": "3:15pm"}, {"days": "Sat-Sun", "time": "Closed"}], "id": "3270700029", "name": "USPS COLLECTION BOX - BLUE BOX", "address": {"city": "CASSELBERRY", "state": "FL", "street": "500 SEMORAN BLVD", "postcode": "32707"}}},
{"geometry": {"type": "Point", "coordinates": [-81.3224143781, 28.6441138682]}, "type": "Feature", "properties": {"collection_times": [{"days": "Mon-Fri", "time": "4:00pm"}, {"days": "Sat-Sun", "time": "Closed"}], "id": "3270700030", "name": "USPS COLLECTION BOX - BLUE BOX", "address": {"city": "CASSELBERRY", "state": "FL", "street": "1033 SEMORAN BLVD", "postcode": "32707"}}},
{"geometry": {"type": "Point", "coordinates": [-81.3406910383, 28.6656428992]}, "type": "Feature", "properties": {"collection_times": [{"days": "Mon-Fri", "time": "3:15pm"}, {"days": "Sat-Sun", "time": "Closed"}], "id": "3270700033", "name": "USPS COLLECTION BOX - BLUE BOX", "address": {"city": "CASSELBERRY", "state": "FL", "street": "101 SUNNYTOWN RD", "postcode": "32707"}}},
{"geometry": {"type": "Point", "coordinates": [-81.3344711348, 28.6695426728]}, "type": "Feature", "properties": {"collection_times": [{"days": "Mon-Fri", "time": "2:15pm"}, {"days": "Sat", "time": "12:00pm"}, {"days": "Sun", "time": "Closed"}], "id": "3270700034", "name": "USPS COLLECTION BOX - BLUE BOX", "address": {"city": "CASSELBERRY", "state": "FL", "street": "181 LAKE TRIPLET DR S", "postcode": "32707"}}},
{"geometry": {"type": "Point", "coordinates": [-81.3301900222, 28.6496620429]}, "type": "Feature", "properties": {"collection_times": [{"days": "Mon-Fri", "time": "4:00pm"}, {"days": "Sat-Sun", "time": "Closed"}], "id": "3270700036", "name": "USPS COLLECTION BOX - BLUE BOX", "address": {"city": "CASSELBERRY", "state": "FL", "street": "384 WILSHIRE BLVD", "postcode": "32707"}}},
{"geometry": {"type": "Point", "coordinates": [-81.322508959, 28.6479209909]}, "type": "Feature", "properties": {"collection_times": [{"days": "Mon-Fri", "time": "3:15pm"}, {"days": "Sat-Sun", "time": "Closed"}], "id": "3270700038", "name": "USPS COLLECTION BOX - BLUE BOX", "address": {"city": "CASSELBERRY", "state": "FL", "street": "950 S WINTER PARK DR", "postcode": "32707"}}},
{"geometry": {"type": "Point", "coordinates": [-81.3408495548, 28.6639524508]}, "type": "Feature", "properties": {"collection_times": [{"days": "Mon-Fri", "time": "5:00pm"}, {"days": "Sat", "time": "3:30pm"}, {"days": "Sun", "time": "Closed"}], "id": "3270700040", "name": "USPS COLLECTION BOX - PO LOBBY", "address": {"city": "CASSELBERRY", "state": "FL", "street": "109 LIVE OAKS BLVD", "postcode": "32707"}}},
{"geometry": {"type": "Point", "coordinates": [-81.3335731205, 28.6554462219]}, "type": "Feature", "properties": {"collection_times": [{"days": "Mon-Fri", "time": "4:00pm"}, {"days": "Sat-Sun", "time": "Closed"}], "id": "3270700041", "name": "USPS COLLECTION BOX - BLUE BOX", "address": {"city": "CASSELBERRY", "state": "FL", "street": "495 SEMORAN BLVD", "postcode": "32707"}}},
{"geometry": {"type": "Point", "coordinates": [-81.3408495548, 28.6639524508]}, "type": "Feature", "properties": {"collection_times": [{"days": "Mon-Fri", "time": "5:00pm"}, {"days": "Sat", "time": "3:30pm"}, {"days": "Sun", "time": "Closed"}], "id": "3270700042", "name": "USPS COLLECTION BOX - APC", "address": {"city": "CASSELBERRY", "state": "FL", "street": "109 LIVE OAKS BLVD", "postcode": "32707"}}},
{"geometry": {"type": "Point", "coordinates": [-81.3095620426, 28.6982854733]}, "type": "Feature", "properties": {"collection_times": [{"days": "Mon-Fri", "time": "2:30pm"}, {"days": "Sat-Sun", "time": "Closed"}], "id": "3270800001", "name": "USPS COLLECTION BOX - BLUE BOX", "address": {"city": "CASSELBERRY", "state": "FL", "street": "401 W SR 434", "postcode": "32708"}}},
{"geometry": {"type": "Point", "coordinates": [-81.2619121726, 28.6777783679]}, "type": "Feature", "properties": {"collection_times": [{"days": "Mon-Fri", "time": "2:00pm"}, {"days": "Sat-Sun", "time": "Closed"}], "id": "3270800004", "name": "USPS COLLECTION BOX - BLUE BOX", "address": {"city": "CASSELBERRY", "state": "FL", "street": "890 NORTHERN WAY", "postcode": "32708"}}},
{"geometry": {"type": "Point", "coordinates": [-81.2700672052, 28.6475826647]}, "type": "Feature", "properties": {"collection_times": [{"days": "Mon-Fri", "time": "1:30pm"}, {"days": "Sat", "time": "12:30pm"}, {"days": "Sun", "time": "Closed"}], "id": "3270800005", "name": "USPS COLLECTION BOX - BLUE BOX", "address": {"city": "CASSELBERRY", "state": "FL", "street": "5637 RED BUG LAKE RD", "postcode": "32708"}}},
{"geometry": {"type": "Point", "coordinates": [-81.2677888262, 28.6477660233]}, "type": "Feature", "properties": {"collection_times": [{"days": "Mon-Fri", "time": "1:30pm"}, {"days": "Sat", "time": "12:30pm"}, {"days": "Sun", "time": "Closed"}], "id": "3270800008", "name": "USPS COLLECTION BOX - BLUE BOX", "address": {"city": "CASSELBERRY", "state": "FL", "street": "5840 RED BUG LAKE RD", "postcode": "32708"}}},
{"geometry": {"type": "Point", "coordinates": [-81.2679993278, 28.7024142194]}, "type": "Feature", "properties": {"collection_times": [{"days": "Mon-Fri", "time": "5:00pm"}, {"days": "Sat", "time": "3:30pm"}, {"days": "Sun", "time": "Closed"}], "id": "3270800010", "name": "USPS COLLECTION BOX - BLUE BOX", "address": {"city": "CASSELBERRY", "state": "FL", "street": "1065 E SR 434", "postcode": "32708"}}},
{"geometry": {"type": "Point", "coordinates": [-81.3067862514, 28.6985871234]}, "type": "Feature", "properties": {"collection_times": [{"days": "Mon-Fri", "time": "2:30pm"}, {"days": "Sat-Sun", "time": "Closed"}], "id": "3270800013", "name": "USPS COLLECTION BOX - BLUE BOX", "address": {"city": "CASSELBERRY", "state": "FL", "street": "148 W SR 434", "postcode": "32708"}}},
{"geometry": {"type": "Point", "coordinates": [-81.2666780277, 28.6458898504]}, "type": "Feature", "properties": {"collection_times": [{"days": "Mon-Fri", "time": "1:30pm"}, {"days": "Sat", "time": "12:30pm"}, {"days": "Sun", "time": "Closed"}], "id": "3270800014", "name": "USPS COLLECTION BOX - BLUE BOX", "address": {"city": "CASSELBERRY", "state": "FL", "street": "1425 TUSKAWILLA RD", "postcode": "32708"}}},
{"geometry": {"type": "Point", "coordinates": [-81.3025477095, 28.7056079849]}, "type": "Feature", "properties": {"collection_times": [{"days": "Mon-Fri", "time": "10:30am"}, {"days": "Sat-Sun", "time": "Closed"}], "id": "3270800015", "name": "USPS COLLECTION BOX - BLUE BOX", "address": {"city": "CASSELBERRY", "state": "FL", "street": "3625 STATE ROAD 419", "postcode": "32708"}}},
{"geometry": {"type": "Point", "coordinates": [-81.2679993278, 28.7024142194]}, "type": "Feature", "properties": {"collection_times": [{"days": "Mon-Fri", "time": "5:00pm"}, {"days": "Sat", "time": "3:30pm"}, {"days": "Sun", "time": "Closed"}], "id": "3270800016", "name": "USPS COLLECTION BOX - PO LOBBY", "address": {"city": "CASSELBERRY", "state": "FL", "street": "1065 E SR 434", "postcode": "32708"}}},
{"geometry": {"type": "Point", "coordinates": [-81.2679993278, 28.7024142194]}, "type": "Feature", "properties": {"collection_times": [{"days": "Mon-Fri", "time": "5:00pm"}, {"days": "Sat", "time": "3:30pm"}, {"days": "Sun", "time": "Closed"}], "id": "3270800017", "name": "USPS COLLECTION BOX - PO LOBBY", "address": {"city": "CASSELBERRY", "state": "FL", "street": "1065 E SR 434", "postcode": "32708"}}},
{"geometry": {"type": "Point", "coordinates": [-81.0198713841, 28.5364140959]}, "type": "Feature", "properties": {"collection_times": [{"days": "Mon-Fri", "time": "5:00pm"}, {"days": "Sat", "time": "12:00pm"}, {"days": "Sun", "time": "Closed"}], "id": "3270900001", "name": "USPS COLLECTION BOX - BLUE BOX", "address": {"city": "CHRISTMAS", "state": "FL", "street": "23580 E COLONIAL DR", "postcode": "32709"}}},
{"geometry": {"type": "Point", "coordinates": [-81.0198713841, 28.5364140959]}, "type": "Feature", "properties": {"collection_times": [{"days": "Mon-Fri", "time": "5:00pm"}, {"days": "Sat", "time": "12:00pm"}, {"days": "Sun", "time": "Closed"}], "id": "3270900002", "name": "USPS COLLECTION BOX - PO LOBBY", "address": {"city": "CHRISTMAS", "state": "FL", "street": "23580 E COLONIAL DR", "postcode": "32709"}}},
{"geometry": {"type": "Point", "coordinates": [-81.0198713841, 28.5364140959]}, "type": "Feature", "properties": {"collection_times": [{"days": "Mon-Fri", "time": "5:00pm"}, {"days": "Sat", "time": "12:00pm"}, {"days": "Sun", "time": "Closed"}], "id": "3270900003", "name": "USPS COLLECTION BOX - PO LOBBY", "address": {"city": "CHRISTMAS", "state": "FL", "street": "23580 E COLONIAL DR", "postcode": "32709"}}},
{"geometry": {"type": "Point", "coordinates": [-81.4830483731, 28.6139629421]}, "type": "Feature", "properties": {"collection_times": [{"days": "Mon-Fri", "time": "4:30pm"}, {"days": "Sat", "time": "12:00pm"}, {"days": "Sun", "time": "Closed"}], "id": "3271000001", "name": "USPS COLLECTION BOX - BLUE BOX", "address": {"city": "CLARCONA", "state": "FL", "street": "7228 CLARCONA OCOEE RD", "postcode": "32710"}}},
{"geometry": {"type": "Point", "coordinates": [-81.4830483731, 28.6139629421]}, "type": "Feature", "properties": {"collection_times": [{"days": "Mon-Fri", "time": "4:30pm"}, {"days": "Sat", "time": "12:00pm"}, {"days": "Sun", "time": "Closed"}], "id": "3271000002", "name": "USPS COLLECTION BOX - PO LOBBY", "address": {"city": "CLARCONA", "state": "FL", "street": "7228 CLARCONA OCOEE RD", "postcode": "32710"}}},
{"geometry": {"type": "Point", "coordinates": [-81.5094188414, 28.6903501801]}, "type": "Feature", "properties": {"collection_times": [{"days": "Mon-Fri", "time": "5:00pm"}, {"days": "Sat", "time": "4:00pm"}, {"days": "Sun", "time": "Closed"}], "id": "3271200001", "name": "USPS COLLECTION BOX - BLUE BOX", "address": {"city": "APOPKA", "state": "FL", "street": "581 N PARK AVE", "postcode": "32712"}}},
{"geometry": {"type": "Point", "coordinates": [-81.5094188414, 28.6903501801]}, "type": "Feature", "properties": {"collection_times": [{"days": "Mon-Fri", "time": "5:00pm"}, {"days": "Sat", "time": "4:00pm"}, {"days": "Sun", "time": "Closed"}], "id": "3271200006", "name": "USPS COLLECTION BOX - BLUE BOX", "address": {"city": "APOPKA", "state": "FL", "street": "581 N PARK AVE", "postcode": "32712"}}},
{"geometry": {"type": "Point", "coordinates": [-81.5403520354, 28.6972290865]}, "type": "Feature", "properties": {"collection_times": [{"days": "Mon-Sat", "time": "1:00pm"}, {"days": "Sun", "time": "Closed"}], "id": "3271200021", "name": "USPS COLLECTION BOX - BLUE BOX", "address": {"city": "APOPKA", "state": "FL", "street": "858 ERROL PKWY", "postcode": "32712"}}},
{"geometry": {"type": "Point", "coordinates": [-81.5094188414, 28.6903501801]}, "type": "Feature", "properties": {"collection_times": [{"days": "Mon-Fri", "time": "5:00pm"}, {"days": "Sat", "time": "4:00pm"}, {"days": "Sun", "time": "Closed"}], "id": "3271200045", "name": "USPS COLLECTION BOX - PO LOBBY", "address": {"city": "APOPKA", "state": "FL", "street": "581 N PARK AVE", "postcode": "32712"}}},
{"geometry": {"type": "Point", "coordinates": [-81.5094188414, 28.6903501801]}, "type": "Feature", "properties": {"collection_times": [{"days": "Mon-Fri", "time": "5:00pm"}, {"days": "Sat", "time": "4:00pm"}, {"days": "Sun", "time": "Closed"}], "id": "3271200046", "name": "USPS COLLECTION BOX - APC", "address": {"city": "APOPKA", "state": "FL", "street": "581 N PARK AVE", "postcode": "32712"}}},
{"geometry": {"type": "Point", "coordinates": [-81.5094188414, 28.6903501801]}, "type": "Feature", "properties": {"collection_times": [{"days": "Mon-Fri", "time": "5:00pm"}, {"days": "Sat", "time": "4:00pm"}, {"days": "Sun", "time": "Closed"}], "id": "3271200047", "name": "USPS COLLECTION BOX - PO LOBBY", "address": {"city": "APOPKA", "state": "FL", "street": "581 N PARK AVE", "postcode": "32712"}}},
{"geometry": {"type": "Point", "coordinates": [-81.3066490282, 28.8911349882]}, "type": "Feature", "properties": {"collection_times": [{"days": "Mon-Sat", "time": "1:45pm"}, {"days": "Sun", "time": "Closed"}], "id": "3271300002", "name": "USPS COLLECTION BOX - BLUE BOX", "address": {"city": "DEBARY", "state": "FL", "street": "34 N HIGHWAY 17 92", "postcode": "32713"}}},
{"geometry": {"type": "Point", "coordinates": [-81.3540655724, 28.8902170121]}, "type": "Feature", "properties": {"collection_times": [{"days": "Mon-Sat", "time": "1:15pm"}, {"days": "Sun", "time": "Closed"}], "id": "3271300004", "name": "USPS COLLECTION BOX - BLUE BOX", "address": {"city": "DEBARY", "state": "FL", "street": "488 W HIGHBANKS RD", "postcode": "32713"}}},
{"geometry": {"type": "Point", "coordinates": [-81.2853115882, 28.8985842925]}, "type": "Feature", "properties": {"collection_times": [{"days": "Mon-Sat", "time": "1:45pm"}, {"days": "Sun", "time": "Closed"}], "id": "3271300015", "name": "USPS COLLECTION BOX - BLUE BOX", "address": {"city": "DEBARY", "state": "FL", "street": "400 SUMMERHAVEN DR", "postcode": "32713"}}},
{"geometry": {"type": "Point", "coordinates": [-81.3234743252, 28.8819045252]}, "type": "Feature", "properties": {"collection_times": [{"days": "Mon-Sat", "time": "9:00am"}, {"days": "Sun", "time": "Closed"}], "id": "3271300017", "name": "USPS COLLECTION BOX - BLUE BOX", "address": {"city": "DEBARY", "state": "FL", "street": "1515 LEISURE WORLD DR", "postcode": "32713"}}},
{"geometry": {"type": "Point", "coordinates": [-81.3903599364, 28.6691527384]}, "type": "Feature", "properties": {"collection_times": [{"days": "Mon-Sat", "time": "2:30pm"}, {"days": "Sun", "time": "Closed"}], "id": "3271400002", "name": "USPS COLLECTION BOX - BLUE BOX", "address": {"city": "ALTAMONTE SPG", "state": "FL", "street": "435 DOUGLAS AVE", "postcode": "32714"}}},
{"geometry": {"type": "Point", "coordinates": [-81.3902605679, 28.6777410205]}, "type": "Feature", "properties": {"collection_times": [{"days": "Mon-Sat", "time": "2:30pm"}, {"days": "Sun", "time": "Closed"}], "id": "3271400004", "name": "USPS COLLECTION BOX - BLUE BOX", "address": {"city": "ALTAMONTE SPG", "state": "FL", "street": "801 DOUGLAS AVE", "postcode": "32714"}}},
{"geometry": {"type": "Point", "coordinates": [-81.3902605679, 28.6787772926]}, "type": "Feature", "properties": {"collection_times": [{"days": "Mon-Sat", "time": "2:30pm"}, {"days": "Sun", "time": "Closed"}], "id": "3271400006", "name": "USPS COLLECTION BOX - BLUE BOX", "address": {"city": "ALTAMONTE SPG", "state": "FL", "street": "841 DOUGLAS AVE", "postcode": "32714"}}},
{"geometry": {"type": "Point", "coordinates": [-81.4025266694, 28.6666720735]}, "type": "Feature", "properties": {"collection_times": [{"days": "Mon-Fri", "time": "5:00pm"}, {"days": "Sat", "time": "3:00pm"}, {"days": "Sun", "time": "Closed"}], "id": "3271400013", "name": "USPS COLLECTION BOX - BLUE BOX", "address": {"city": "ALTAMONTE SPG", "state": "FL", "street": "321 MONTGOMERY RD", "postcode": "32714"}}},
{"geometry": {"type": "Point", "coordinates": [-81.3941643324, 28.6862323]}, "type": "Feature", "properties": {"collection_times": [{"days": "Mon-Fri", "time": "2:30pm"}, {"days": "Sat", "time": "2:15pm"}, {"days": "Sun", "time": "Closed"}], "id": "3271400016", "name": "USPS COLLECTION BOX - BLUE BOX", "address": {"city": "ALTAMONTE SPG", "state": "FL", "street": "1180 SPRING CENTRE SOUTH BLVD", "postcode": "32714"}}},
{"geometry": {"type": "Point", "coordinates": [-81.4191306814, 28.6613298308]}, "type": "Feature", "properties": {"collection_times": [{"days": "Mon-Fri", "time": "2:30pm"}, {"days": "Sat", "time": "2:15pm"}, {"days": "Sun", "time": "Closed"}], "id": "3271400020", "name": "USPS COLLECTION BOX - BLUE BOX", "address": {"city": "ALTAMONTE SPG", "state": "FL", "street": "150 S STATE ROAD 434", "postcode": "32714"}}},
{"geometry": {"type": "Point", "coordinates": [-81.392735318, 28.6665064592]}, "type": "Feature", "properties": {"collection_times": [{"days": "Mon-Sat", "time": "2:30pm"}, {"days": "Sun", "time": "Closed"}], "id": "3271400025", "name": "USPS COLLECTION BOX - BLUE BOX", "address": {"city": "ALTAMONTE SPG", "state": "FL", "street": "217 N WESTMONTE DR", "postcode": "32714"}}},
{"geometry": {"type": "Point", "coordinates": [-81.3932865769, 28.6593803144]}, "type": "Feature", "properties": {"collection_times": [{"days": "Mon-Sat", "time": "2:30pm"}, {"days": "Sun", "time": "Closed"}], "id": "3271400028", "name": "USPS COLLECTION BOX - BLUE BOX", "address": {"city": "ALTAMONTE SPG", "state": "FL", "street": "222 S WESTMONTE DR", "postcode": "32714"}}},
{"geometry": {"type": "Point", "coordinates": [-81.4025266694, 28.6666720735]}, "type": "Feature", "properties": {"collection_times": [{"days": "Mon-Fri", "time": "5:00pm"}, {"days": "Sat", "time": "3:00pm"}, {"days": "Sun", "time": "Closed"}], "id": "3271400038", "name": "USPS COLLECTION BOX - PO LOBBY", "address": {"city": "ALTAMONTE SPG", "state": "FL", "street": "321 MONTGOMERY RD", "postcode": "32714"}}},
{"geometry": {"type": "Point", "coordinates": [-81.3932853939, 28.6594299987]}, "type": "Feature", "properties": {"collection_times": [{"days": "Mon-Fri", "time": "2:30pm"}, {"days": "Sat-Sun", "time": "Closed"}], "id": "3271400043", "name": "USPS COLLECTION BOX - BLUE BOX", "address": {"city": "ALTAMONTE SPG", "state": "FL", "street": "237 S WESTMONTE DR", "postcode": "32714"}}},
{"geometry": {"type": "Point", "coordinates": [-81.3903220817, 28.6603609874]}, "type": "Feature", "properties": {"collection_times": [{"days": "Mon-Fri", "time": "2:30pm"}, {"days": "Sat-Sun", "time": "Closed"}], "id": "3271400044", "name": "USPS COLLECTION BOX - BLUE BOX", "address": {"city": "ALTAMONTE SPG", "state": "FL", "street": "151 WYMORE RD", "postcode": "32714"}}},
{"geometry": {"type": "Point", "coordinates": [-81.415278967, 28.665358989]}, "type": "Feature", "properties": {"collection_times": [{"days": "Mon-Fri", "time": "2:30pm"}, {"days": "Sat-Sun", "time": "Closed"}], "id": "3271400046", "name": "USPS COLLECTION BOX - BLUE BOX", "address": {"city": "ALTAMONTE SPG", "state": "FL", "street": "801 W STATE ROAD 436", "postcode": "32714"}}},
{"geometry": {"type": "Point", "coordinates": [-81.4025266694, 28.6666720735]}, "type": "Feature", "properties": {"collection_times": [{"days": "Mon-Fri", "time": "5:00pm"}, {"days": "Sat", "time": "3:00pm"}, {"days": "Sun", "time": "Closed"}], "id": "3271400048", "name": "USPS COLLECTION BOX - PO LOBBY", "address": {"city": "ALTAMONTE SPG", "state": "FL", "street": "321 MONTGOMERY RD", "postcode": "32714"}}},
{"geometry": {"type": "Point", "coordinates": [-81.4025266694, 28.6666720735]}, "type": "Feature", "properties": {"collection_times": [{"days": "Mon-Fri", "time": "5:00pm"}, {"days": "Sat", "time": "3:00pm"}, {"days": "Sun", "time": "Closed"}], "id": "3271400049", "name": "USPS COLLECTION BOX - APC", "address": {"city": "ALTAMONTE SPG", "state": "FL", "street": "321 MONTGOMERY RD", "postcode": "32714"}}},
{"geometry": {"type": "Point", "coordinates": [-81.3076065531, 29.0279982315]}, "type": "Feature", "properties": {"collection_times": [{"days": "Mon-Fri", "time": "5:00pm"}, {"days": "Sat", "time": "2:45pm"}, {"days": "Sun", "time": "Closed"}], "id": "3272000005", "name": "USPS COLLECTION BOX - BLUE BOX", "address": {"city": "DELAND", "state": "FL", "street": "100 S CLARA AVE", "postcode": "32720"}}},
{"geometry": {"type": "Point", "coordinates": [-81.3523396353, 29.0779656124]}, "type": "Feature", "properties": {"collection_times": [{"days": "Mon-Sat", "time": "12:00pm"}, {"days": "Sun", "time": "Closed"}], "id": "3272000012", "name": "USPS COLLECTION BOX - BLUE BOX", "address": {"city": "DELAND", "state": "FL", "street": "2827 GRAND AVE", "postcode": "32720"}}},
{"geometry": {"type": "Point", "coordinates": [-81.3198390207, 29.0279453755]}, "type": "Feature", "properties": {"collection_times": [{"days": "Mon-Sat", "time": "1:30pm"}, {"days": "Sun", "time": "Closed"}], "id": "3272000026", "name": "USPS COLLECTION BOX - BLUE BOX", "address": {"city": "DELAND", "state": "FL", "street": "865 W NEW YORK AVE", "postcode": "32720"}}},
{"geometry": {"type": "Point", "coordinates": [-81.3233677873, 29.0279193504]}, "type": "Feature", "properties": {"collection_times": [{"days": "Mon-Fri", "time": "2:30pm"}, {"days": "Sat", "time": "1:30pm"}, {"days": "Sun", "time": "Closed"}], "id": "3272000027", "name": "USPS COLLECTION BOX - BLUE BOX", "address": {"city": "DELAND", "state": "FL", "street": "1050 W NEW YORK AVE", "postcode": "32720"}}},
{"geometry": {"type": "Point", "coordinates": [-81.3178492837, 29.0426081519]}, "type": "Feature", "properties": {"collection_times": [{"days": "Mon-Sat", "time": "10:00am"}, {"days": "Sun", "time": "Closed"}], "id": "3272000030", "name": "USPS COLLECTION BOX - BLUE BOX", "address": {"city": "DELAND", "state": "FL", "street": "740 W PLYMOUTH AVE", "postcode": "32720"}}},
{"geometry": {"type": "Point", "coordinates": [-81.3049893368, 29.0289639032]}, "type": "Feature", "properties": {"collection_times": [{"days": "Mon-Sat", "time": "12:00pm"}, {"days": "Sun", "time": "Closed"}], "id": "3272000032", "name": "USPS COLLECTION BOX - BLUE BOX", "address": {"city": "DELAND", "state": "FL", "street": "123 W INDIANA AVE", "postcode": "32720"}}},
{"geometry": {"type": "Point", "coordinates": [-81.3038678604, 29.0289224674]}, "type": "Feature", "properties": {"collection_times": [{"days": "Mon-Sat", "time": "11:00am"}, {"days": "Sun", "time": "Closed"}], "id": "3272000037", "name": "USPS COLLECTION BOX - BLUE BOX", "address": {"city": "DELAND", "state": "FL", "street": "120 W INDIANA AVE", "postcode": "32720"}}},
{"geometry": {"type": "Point", "coordinates": [-81.3034621368, 29.0301243859]}, "type": "Feature", "properties": {"collection_times": [{"days": "Mon-Sat", "time": "12:30pm"}, {"days": "Sun", "time": "Closed"}], "id": "3272000038", "name": "USPS COLLECTION BOX - BLUE BOX", "address": {"city": "DELAND", "state": "FL", "street": "200 N WOODLAND BLVD", "postcode": "32720"}}},
{"geometry": {"type": "Point", "coordinates": [-81.3046018805, 29.0611490856]}, "type": "Feature", "properties": {"collection_times": [{"days": "Mon-Sat", "time": "11:00am"}, {"days": "Sun", "time": "Closed"}], "id": "3272000043", "name": "USPS COLLECTION BOX - BLUE BOX", "address": {"city": "DELAND", "state": "FL", "street": "1702 N WOODLAND BLVD", "postcode": "32720"}}},
{"geometry": {"type": "Point", "coordinates": [-81.3210030523, 29.0848740927]}, "type": "Feature", "properties": {"collection_times": [{"days": "Mon-Sat", "time": "11:00am"}, {"days": "Sun", "time": "Closed"}], "id": "3272000044", "name": "USPS COLLECTION BOX - BLUE BOX", "address": {"city": "DELAND", "state": "FL", "street": "3100 N WOODLAND BLVD", "postcode": "32720"}}},
{"geometry": {"type": "Point", "coordinates": [-81.2997760366, 28.9858769888]}, "type": "Feature", "properties": {"collection_times": [{"days": "Mon-Sat", "time": "12:00pm"}, {"days": "Sun", "time": "Closed"}], "id": "3272000050", "name": "USPS COLLECTION BOX - BLUE BOX", "address": {"city": "DELAND", "state": "FL", "street": "2410 S WOODLAND BLVD", "postcode": "32720"}}},
{"geometry": {"type": "Point", "coordinates": [-81.2993714647, 28.9828237717]}, "type": "Feature", "properties": {"collection_times": [{"days": "Mon-Sat", "time": "11:00am"}, {"days": "Sun", "time": "Closed"}], "id": "3272000051", "name": "USPS COLLECTION BOX - BLUE BOX", "address": {"city": "DELAND", "state": "FL", "street": "1742 S WOODLAND BLVD", "postcode": "32720"}}},
{"geometry": {"type": "Point", "coordinates": [-81.3028581631, 29.0051793737]}, "type": "Feature", "properties": {"collection_times": [{"days": "Mon-Sat", "time": "10:00am"}, {"days": "Sun", "time": "Closed"}], "id": "3272000052", "name": "USPS COLLECTION BOX - BLUE BOX", "address": {"city": "DELAND", "state": "FL", "street": "1348 S WOODLAND BLVD", "postcode": "32720"}}},
{"geometry": {"type": "Point", "coordinates": [-81.3035577839, 29.0346108925]}, "type": "Feature", "properties": {"collection_times": [{"days": "Mon-Fri", "time": "3:45pm"}, {"days": "Sat", "time": "2:00pm"}, {"days": "Sun", "time": "Closed"}], "id": "3272300000", "name": "USPS COLLECTION BOX - BLUE BOX", "address": {"city": "DELAND", "state": "FL", "street": "421 N WOODLAND BLVD", "postcode": "32723"}}},
{"geometry": {"type": "Point", "coordinates": [-81.3004988245, 29.0549546946]}, "type": "Feature", "properties": {"collection_times": [{"days": "Mon-Sat", "time": "12:30pm"}, {"days": "Sun", "time": "Closed"}], "id": "3272400001", "name": "USPS COLLECTION BOX - BLUE BOX", "address": {"city": "DELAND", "state": "FL", "street": "299 E INTERNATIONAL SPEEDWAY BLVD", "postcode": "32724"}}},
{"geometry": {"type": "Point", "coordinates": [-81.3030481011, 29.028074318]}, "type": "Feature", "properties": {"collection_times": [{"days": "Mon-Sat", "time": "10:00am"}, {"days": "Sun", "time": "Closed"}], "id": "3272400004", "name": "USPS COLLECTION BOX - BLUE BOX", "address": {"city": "DELAND", "state": "FL", "street": "100 E NEW YORK AVE", "postcode": "32724"}}},
{"geometry": {"type": "Point", "coordinates": [-81.2976691867, 29.0281003431]}, "type": "Feature", "properties": {"collection_times": [{"days": "Mon-Fri", "time": "5:00pm"}, {"days": "Sat", "time": "2:30pm"}, {"days": "Sun", "time": "Closed"}], "id": "3272400005", "name": "USPS COLLECTION BOX - BLUE BOX", "address": {"city": "DELAND", "state": "FL", "street": "336 E NEW YORK AVE", "postcode": "32724"}}},
{"geometry": {"type": "Point", "coordinates": [-81.2976691867, 29.0281003431]}, "type": "Feature", "properties": {"collection_times": [{"days": "Mon-Fri", "time": "5:00pm"}, {"days": "Sat", "time": "2:30pm"}, {"days": "Sun", "time": "Closed"}], "id": "3272400006", "name": "USPS COLLECTION BOX - BLUE BOX", "address": {"city": "DELAND", "state": "FL", "street": "336 E NEW YORK AVE", "postcode": "32724"}}},
{"geometry": {"type": "Point", "coordinates": [-81.2909050273, 29.0550812712]}, "type": "Feature", "properties": {"collection_times": [{"days": "Mon-Sat", "time": "10:00am"}, {"days": "Sun", "time": "Closed"}], "id": "3272400010", "name": "USPS COLLECTION BOX - BLUE BOX", "address": {"city": "DELAND", "state": "FL", "street": "761 E INTERNATIONAL SPEEDWAY BLVD", "postcode": "32724"}}},
{"geometry": {"type": "Point", "coordinates": [-81.2976691867, 29.0281003431]}, "type": "Feature", "properties": {"collection_times": [{"days": "Mon-Fri", "time": "4:30pm"}, {"days": "Sat", "time": "2:30pm"}, {"days": "Sun", "time": "Closed"}], "id": "3272400011", "name": "USPS COLLECTION BOX - APC", "address": {"city": "DELAND", "state": "FL", "street": "336 E NEW YORK AVE", "postcode": "32724"}}},
{"geometry": {"type": "Point", "coordinates": [-81.2976691867, 29.0281003431]}, "type": "Feature", "properties": {"collection_times": [{"days": "Mon-Fri", "time": "4:30pm"}, {"days": "Sat", "time": "2:30pm"}, {"days": "Sun", "time": "Closed"}], "id": "3272400012", "name": "USPS COLLECTION BOX - PO LOBBY", "address": {"city": "DELAND", "state": "FL", "street": "336 E NEW YORK AVE", "postcode": "32724"}}},
{"geometry": {"type": "Point", "coordinates": [-81.2976691867, 29.0281003431]}, "type": "Feature", "properties": {"collection_times": [{"days": "Mon-Fri", "time": "4:30pm"}, {"days": "Sat", "time": "2:30pm"}, {"days": "Sun", "time": "Closed"}], "id": "3272400013", "name": "USPS COLLECTION BOX - PO LOBBY", "address": {"city": "DELAND", "state": "FL", "street": "336 E NEW YORK AVE", "postcode": "32724"}}},
{"geometry": {"type": "Point", "coordinates": [-81.276058141, 28.88855369]}, "type": "Feature", "properties": {"collection_times": [{"days": "Mon-Fri", "time": "5:00pm"}, {"days": "Sat", "time": "4:00pm"}, {"days": "Sun", "time": "Closed"}], "id": "3272500001", "name": "USPS COLLECTION BOX - BLUE BOX", "address": {"city": "DELTONA", "state": "FL", "street": "944 DELTONA BLVD", "postcode": "32725"}}},
{"geometry": {"type": "Point", "coordinates": [-81.271041264, 28.896811254]}, "type": "Feature", "properties": {"collection_times": [{"days": "Mon-Sat", "time": "3:00pm"}, {"days": "Sun", "time": "Closed"}], "id": "3272500006", "name": "USPS COLLECTION BOX - BLUE BOX", "address": {"city": "DELTONA", "state": "FL", "street": "1200 DELTONA BLVD", "postcode": "32725"}}},
{"geometry": {"type": "Point", "coordinates": [-81.228060676, 28.902617503]}, "type": "Feature", "properties": {"collection_times": [{"days": "Mon-Sat", "time": "2:45pm"}, {"days": "Sun", "time": "Closed"}], "id": "3272500012", "name": "USPS COLLECTION BOX - BLUE BOX", "address": {"city": "DELTONA", "state": "FL", "street": "1640 PROVIDENCE BLVD", "postcode": "32725"}}},
{"geometry": {"type": "Point", "coordinates": [-81.245801034, 28.904670034]}, "type": "Feature", "properties": {"collection_times": [{"days": "Mon-Sat", "time": "2:45pm"}, {"days": "Sun", "time": "Closed"}], "id": "3272500014", "name": "USPS COLLECTION BOX - BLUE BOX", "address": {"city": "DELTONA", "state": "FL", "street": "1555 SAXON BLVD", "postcode": "32725"}}},
{"geometry": {"type": "Point", "coordinates": [-81.265179185, 28.91123446]}, "type": "Feature", "properties": {"collection_times": [{"days": "Mon-Sat", "time": "3:00pm"}, {"days": "Sun", "time": "Closed"}], "id": "3272500015", "name": "USPS COLLECTION BOX - BLUE BOX", "address": {"city": "DELTONA", "state": "FL", "street": "2000 SAXON BLVD", "postcode": "32725"}}},
{"geometry": {"type": "Point", "coordinates": [-81.264932317, 28.869337608]}, "type": "Feature", "properties": {"collection_times": [{"days": "Mon-Sat", "time": "2:30pm"}, {"days": "Sun", "time": "Closed"}], "id": "3272500018", "name": "USPS COLLECTION BOX - BLUE BOX", "address": {"city": "DELTONA", "state": "FL", "street": "710 JACOB BROCK AVE", "postcode": "32725"}}},
{"geometry": {"type": "Point", "coordinates": [-81.24067367, 28.882779117]}, "type": "Feature", "properties": {"collection_times": [{"days": "Mon-Sat", "time": "2:45pm"}, {"days": "Sun", "time": "Closed"}], "id": "3272500019", "name": "USPS COLLECTION BOX - BLUE BOX", "address": {"city": "DELTONA", "state": "FL", "street": "1235 PROVIDENCE BLVD", "postcode": "32725"}}},
{"geometry": {"type": "Point", "coordinates": [-81.276058141, 28.88855369]}, "type": "Feature", "properties": {"collection_times": [{"days": "Mon-Fri", "time": "5:00pm"}, {"days": "Sat", "time": "4:00pm"}, {"days": "Sun", "time": "Closed"}], "id": "3272500021", "name": "USPS COLLECTION BOX - PO LOBBY", "address": {"city": "DELTONA", "state": "FL", "street": "944 DELTONA BLVD", "postcode": "32725"}}},
{"geometry": {"type": "Point", "coordinates": [-81.6880075701, 28.8291843959]}, "type": "Feature", "properties": {"collection_times": [{"days": "Mon-Fri", "time": "3:00pm"}, {"days": "Sat-Sun", "time": "Closed"}], "id": "3272600001", "name": "USPS COLLECTION BOX - BLUE BOX", "address": {"city": "EUSTIS", "state": "FL", "street": "252 W ARDICE AVE", "postcode": "32726"}}},
{"geometry": {"type": "Point", "coordinates": [-81.6861079584, 28.8624718925]}, "type": "Feature", "properties": {"collection_times": [{"days": "Mon-Fri", "time": "3:00pm"}, {"days": "Sat-Sun", "time": "Closed"}], "id": "3272600006", "name": "USPS COLLECTION BOX - BLUE BOX", "address": {"city": "EUSTIS", "state": "FL", "street": "927 N BAY ST", "postcode": "32726"}}},
{"geometry": {"type": "Point", "coordinates": [-81.7020563718, 28.8246948539]}, "type": "Feature", "properties": {"collection_times": [{"days": "Mon-Fri", "time": "3:15pm"}, {"days": "Sat-Sun", "time": "Closed"}], "id": "3272600009", "name": "USPS COLLECTION BOX - BLUE BOX", "address": {"city": "EUSTIS", "state": "FL", "street": "2860 DAVID WALKER DR", "postcode": "32726"}}},
{"geometry": {"type": "Point", "coordinates": [-81.6838248476, 28.8554498481]}, "type": "Feature", "properties": {"collection_times": [{"days": "Mon-Fri", "time": "5:00pm"}, {"days": "Sat", "time": "4:00pm"}, {"days": "Sun", "time": "Closed"}], "id": "3272600010", "name": "USPS COLLECTION BOX - BLUE BOX", "address": {"city": "EUSTIS", "state": "FL", "street": "111 E CLIFFORD AVE", "postcode": "32726"}}},
{"geometry": {"type": "Point", "coordinates": [-81.6916576349, 28.8364224776]}, "type": "Feature", "properties": {"collection_times": [{"days": "Mon-Fri", "time": "3:15pm"}, {"days": "Sat-Sun", "time": "Closed"}], "id": "3272600015", "name": "USPS COLLECTION BOX - BLUE BOX", "address": {"city": "EUSTIS", "state": "FL", "street": "2001 KURT ST", "postcode": "32726"}}},
{"geometry": {"type": "Point", "coordinates": [-81.6844719261, 28.8536340061]}, "type": "Feature", "properties": {"collection_times": [{"days": "Mon-Fri", "time": "3:30pm"}, {"days": "Sat-Sun", "time": "Closed"}], "id": "3272600017", "name": "USPS COLLECTION BOX - BLUE BOX", "address": {"city": "EUSTIS", "state": "FL", "street": "100 E MAGNOLIA AVE", "postcode": "32726"}}},
{"geometry": {"type": "Point", "coordinates": [-81.6857861935, 28.8602976139]}, "type": "Feature", "properties": {"collection_times": [{"days": "Mon-Fri", "time": "3:00pm"}, {"days": "Sat-Sun", "time": "Closed"}], "id": "3272600018", "name": "USPS COLLECTION BOX - BLUE BOX", "address": {"city": "EUSTIS", "state": "FL", "street": "720 N BAY ST", "postcode": "32726"}}},
{"geometry": {"type": "Point", "coordinates": [-81.6896268755, 28.8236415336]}, "type": "Feature", "properties": {"collection_times": [{"days": "Mon-Fri", "time": "3:15pm"}, {"days": "Sat-Sun", "time": "Closed"}], "id": "3272600020", "name": "USPS COLLECTION BOX - BLUE BOX", "address": {"city": "EUSTIS", "state": "FL", "street": "401 PLAZA DR", "postcode": "32726"}}},
{"geometry": {"type": "Point", "coordinates": [-81.6880981809, 28.8742869817]}, "type": "Feature", "properties": {"collection_times": [{"days": "Mon-Fri", "time": "3:00pm"}, {"days": "Sat-Sun", "time": "Closed"}], "id": "3272600026", "name": "USPS COLLECTION BOX - BLUE BOX", "address": {"city": "EUSTIS", "state": "FL", "street": "1950 N HIGHWAY 19", "postcode": "32726"}}},
{"geometry": {"type": "Point", "coordinates": [-81.6838248476, 28.8554498481]}, "type": "Feature", "properties": {"collection_times": [{"days": "Mon-Fri", "time": "5:00pm"}, {"days": "Sat", "time": "4:00pm"}, {"days": "Sun", "time": "Closed"}], "id": "3272600029", "name": "USPS COLLECTION BOX - PO LOBBY", "address": {"city": "EUSTIS", "state": "FL", "street": "111 E CLIFFORD AVE", "postcode": "32726"}}},
{"geometry": {"type": "Point", "coordinates": [-81.6997971595, 28.8223187163]}, "type": "Feature", "properties": {"collection_times": [{"days": "Mon-Fri", "time": "3:15pm"}, {"days": "Sat-Sun", "time": "Closed"}], "id": "3272600030", "name": "USPS COLLECTION BOX - BLUE BOX", "address": {"city": "EUSTIS", "state": "FL", "street": "2420 E BURLEIGH BLVD", "postcode": "32726"}}},
{"geometry": {"type": "Point", "coordinates": [-81.3469772823, 28.6484604202]}, "type": "Feature", "properties": {"collection_times": [{"days": "Mon-Fri", "time": "2:15pm"}, {"days": "Sat", "time": "12:00pm"}, {"days": "Sun", "time": "Closed"}], "id": "3273000001", "name": "USPS COLLECTION BOX - BLUE BOX", "address": {"city": "CASSELBERRY", "state": "FL", "street": "300 CAROLWOOD PT", "postcode": "32730"}}},
{"geometry": {"type": "Point", "coordinates": [-81.3420242331, 28.657258086]}, "type": "Feature", "properties": {"collection_times": [{"days": "Mon-Fri", "time": "5:00pm"}, {"days": "Sat", "time": "3:15pm"}, {"days": "Sun", "time": "Closed"}], "id": "3273000002", "name": "USPS COLLECTION BOX - BLUE BOX", "address": {"city": "CASSELBERRY", "state": "FL", "street": "130 FERNWOOD BLVD", "postcode": "32730"}}},
{"geometry": {"type": "Point", "coordinates": [-81.3489551897, 28.6516875323]}, "type": "Feature", "properties": {"collection_times": [{"days": "Mon-Fri", "time": "2:30pm"}, {"days": "Sat-Sun", "time": "Closed"}], "id": "3273000009", "name": "USPS COLLECTION BOX - BLUE BOX", "address": {"city": "CASSELBERRY", "state": "FL", "street": "7800 S US HIGHWAY 17/92", "postcode": "32730"}}},
{"geometry": {"type": "Point", "coordinates": [-81.3420242331, 28.657258086]}, "type": "Feature", "properties": {"collection_times": [{"days": "Mon-Fri", "time": "4:45pm"}, {"days": "Sat-Sun", "time": "Closed"}], "id": "3273000011", "name": "USPS COLLECTION BOX - PO LOBBY", "address": {"city": "CASSELBERRY", "state": "FL", "street": "130 FERNWOOD BLVD", "postcode": "32730"}}},
{"geometry": {"type": "Point", "coordinates": [-81.1169296183, 28.7370758763]}, "type": "Feature", "properties": {"collection_times": [{"days": "Mon-Fri", "time": "4:30pm"}, {"days": "Sat", "time": "11:00am"}, {"days": "Sun", "time": "Closed"}], "id": "3273200001", "name": "USPS COLLECTION BOX - BLUE BOX", "address": {"city": "GENEVA", "state": "FL", "street": "199 PINE ST", "postcode": "32732"}}},
{"geometry": {"type": "Point", "coordinates": [-81.1169296183, 28.7370758763]}, "type": "Feature", "properties": {"collection_times": [{"days": "Mon-Fri", "time": "4:30pm"}, {"days": "Sat", "time": "11:00am"}, {"days": "Sun", "time": "Closed"}], "id": "3273200002", "name": "USPS COLLECTION BOX - PO LOBBY", "address": {"city": "GENEVA", "state": "FL", "street": "199 PINE ST", "postcode": "32732"}}},
{"geometry": {"type": "Point", "coordinates": [-81.2865423291, 28.61111085]}, "type": "Feature", "properties": {"collection_times": [{"days": "Mon-Fri", "time": "5:00pm"}, {"days": "Sat", "time": "12:00pm"}, {"days": "Sun", "time": "Closed"}], "id": "3273300001", "name": "USPS COLLECTION BOX - BLUE BOX", "address": {"city": "GOLDENROD", "state": "FL", "street": "7501 CITRUS AVE", "postcode": "32733"}}},
{"geometry": {"type": "Point", "coordinates": [-81.2865423291, 28.61111085]}, "type": "Feature", "properties": {"collection_times": [{"days": "Mon-Fri", "time": "5:00pm"}, {"days": "Sat", "time": "12:00pm"}, {"days": "Sun", "time": "Closed"}], "id": "3273300003", "name": "USPS COLLECTION BOX - PO LOBBY", "address": {"city": "GOLDENROD", "state": "FL", "street": "7501 CITRUS AVE", "postcode": "32733"}}},
{"geometry": {"type": "Point", "coordinates": [-81.2865423291, 28.61111085]}, "type": "Feature", "properties": {"collection_times": [{"days": "Mon-Fri", "time": "5:00pm"}, {"days": "Sat", "time": "12:00pm"}, {"days": "Sun", "time": "Closed"}], "id": "3273300004", "name": "USPS COLLECTION BOX - APC", "address": {"city": "GOLDENROD", "state": "FL", "street": "7501 CITRUS AVE", "postcode": "32733"}}},
{"geometry": {"type": "Point", "coordinates": [-81.7289014989, 28.8810396164]}, "type": "Feature", "properties": {"collection_times": [{"days": "Mon-Fri", "time": "4:45pm"}, {"days": "Sat", "time": "8:45am"}, {"days": "Sun", "time": "Closed"}], "id": "3273500001", "name": "USPS COLLECTION BOX - BLUE BOX", "address": {"city": "GRAND ISLAND", "state": "FL", "street": "36525 S FISH CAMP RD", "postcode": "32735"}}},
{"geometry": {"type": "Point", "coordinates": [-81.7289014989, 28.8810396164]}, "type": "Feature", "properties": {"collection_times": [{"days": "Mon-Fri", "time": "4:45pm"}, {"days": "Sat", "time": "8:45am"}, {"days": "Sun", "time": "Closed"}], "id": "3273500003", "name": "USPS COLLECTION BOX - PO LOBBY", "address": {"city": "GRAND ISLAND", "state": "FL", "street": "36525 S FISH CAMP RD", "postcode": "32735"}}},
{"geometry": {"type": "Point", "coordinates": [-81.185808587, 28.92141164]}, "type": "Feature", "properties": {"collection_times": [{"days": "Mon-Fri", "time": "5:00pm"}, {"days": "Sat", "time": "4:00pm"}, {"days": "Sun", "time": "Closed"}], "id": "3273800006", "name": "USPS COLLECTION BOX - BLUE BOX", "address": {"city": "DELTONA", "state": "FL", "street": "2048 HOWLAND BLVD", "postcode": "32738"}}},
{"geometry": {"type": "Point", "coordinates": [-81.185808587, 28.92141164]}, "type": "Feature", "properties": {"collection_times": [{"days": "Mon-Fri", "time": "5:00pm"}, {"days": "Sat", "time": "4:00pm"}, {"days": "Sun", "time": "Closed"}], "id": "3273800008", "name": "USPS COLLECTION BOX - PO LOBBY", "address": {"city": "DELTONA", "state": "FL", "street": "2048 HOWLAND BLVD", "postcode": "32738"}}},
{"geometry": {"type": "Point", "coordinates": [-81.185808587, 28.92141164]}, "type": "Feature", "properties": {"collection_times": [{"days": "Mon-Fri", "time": "5:00pm"}, {"days": "Sat", "time": "4:00pm"}, {"days": "Sun", "time": "Closed"}], "id": "3273800009", "name": "USPS COLLECTION BOX - PO LOBBY", "address": {"city": "DELTONA", "state": "FL", "street": "2048 HOWLAND BLVD", "postcode": "32738"}}},
{"geometry": {"type": "Point", "coordinates": [-81.185808587, 28.92141164]}, "type": "Feature", "properties": {"collection_times": [{"days": "Mon-Fri", "time": "5:00pm"}, {"days": "Sat", "time": "4:00pm"}, {"days": "Sun", "time": "Closed"}], "id": "3273800010", "name": "USPS COLLECTION BOX - PO LOBBY", "address": {"city": "DELTONA", "state": "FL", "street": "2048 HOWLAND BLVD", "postcode": "32738"}}},
{"geometry": {"type": "Point", "coordinates": [-81.2316409627, 28.9830211029]}, "type": "Feature", "properties": {"collection_times": [{"days": "Mon-Fri", "time": "5:00pm"}, {"days": "Sat", "time": "11:30am"}, {"days": "Sun", "time": "Closed"}], "id": "3274400001", "name": "USPS COLLECTION BOX - BLUE BOX", "address": {"city": "LAKE HELEN", "state": "FL", "street": "104 E MICHIGAN AVE", "postcode": "32744"}}},
{"geometry": {"type": "Point", "coordinates": [-81.240205772, 28.9885445612]}, "type": "Feature", "properties": {"collection_times": [{"days": "Mon-Fri", "time": "1:00pm"}, {"days": "Sat", "time": "11:30am"}, {"days": "Sun", "time": "Closed"}], "id": "3274400002", "name": "USPS COLLECTION BOX - BLUE BOX", "address": {"city": "LAKE HELEN", "state": "FL", "street": "303 N SUMMIT AVE", "postcode": "32744"}}},
{"geometry": {"type": "Point", "coordinates": [-81.2316409627, 28.9830211029]}, "type": "Feature", "properties": {"collection_times": [{"days": "Mon-Fri", "time": "4:30pm"}, {"days": "Sat", "time": "11:30am"}, {"days": "Sun", "time": "Closed"}], "id": "3274400004", "name": "USPS COLLECTION BOX - PO LOBBY", "address": {"city": "LAKE HELEN", "state": "FL", "street": "104 E MICHIGAN AVE", "postcode": "32744"}}},
{"geometry": {"type": "Point", "coordinates": [-81.3436591776, 28.7576775056]}, "type": "Feature", "properties": {"collection_times": [{"days": "Mon-Sat", "time": "11:00am"}, {"days": "Sun", "time": "Closed"}], "id": "3274600002", "name": "USPS COLLECTION BOX - BLUE BOX", "address": {"city": "LAKE MARY", "state": "FL", "street": "400 N FOREST BLVD", "postcode": "32746"}}},
{"geometry": {"type": "Point", "coordinates": [-81.3656916931, 28.7621273983]}, "type": "Feature", "properties": {"collection_times": [{"days": "Mon-Fri", "time": "2:00pm"}, {"days": "Sat-Sun", "time": "Closed"}], "id": "3274600006", "name": "USPS COLLECTION BOX - BLUE BOX", "address": {"city": "LAKE MARY", "state": "FL", "street": "250 INTERNATIONAL PKWY", "postcode": "32746"}}},
{"geometry": {"type": "Point", "coordinates": [-81.3678553251, 28.7575931166]}, "type": "Feature", "properties": {"collection_times": [{"days": "Mon-Fri", "time": "2:00pm"}, {"days": "Sat", "time": "9:30am"}, {"days": "Sun", "time": "Closed"}], "id": "3274600008", "name": "USPS COLLECTION BOX - BLUE BOX", "address": {"city": "LAKE MARY", "state": "FL", "street": "120 INTERNATIONAL PKWY", "postcode": "32746"}}},
{"geometry": {"type": "Point", "coordinates": [-81.3587311626, 28.7526566288]}, "type": "Feature", "properties": {"collection_times": [{"days": "Mon-Fri", "time": "2:15pm"}, {"days": "Sat", "time": "10:00am"}, {"days": "Sun", "time": "Closed"}], "id": "3274600009", "name": "USPS COLLECTION BOX - BLUE BOX", "address": {"city": "LAKE MARY", "state": "FL", "street": "3705 LAKE EMMA RD", "postcode": "32746"}}},
{"geometry": {"type": "Point", "coordinates": [-81.3578865299, 28.7550521207]}, "type": "Feature", "properties": {"collection_times": [{"days": "Mon-Fri", "time": "2:15pm"}, {"days": "Sat", "time": "10:00am"}, {"days": "Sun", "time": "Closed"}], "id": "3274600010", "name": "USPS COLLECTION BOX - BLUE BOX", "address": {"city": "LAKE MARY", "state": "FL", "street": "3813 LAKE EMMA RD", "postcode": "32746"}}},
{"geometry": {"type": "Point", "coordinates": [-81.3250594186, 28.7563557415]}, "type": "Feature", "properties": {"collection_times": [{"days": "Mon-Fri", "time": "3:00pm"}, {"days": "Sat-Sun", "time": "Closed"}], "id": "3274600014", "name": "USPS COLLECTION BOX - BLUE BOX", "address": {"city": "LAKE MARY", "state": "FL", "street": "2500 W LAKE MARY BLVD", "postcode": "32746"}}},
{"geometry": {"type": "Point", "coordinates": [-81.3472680433, 28.7592431373]}, "type": "Feature", "properties": {"collection_times": [{"days": "Mon-Fri", "time": "5:00pm"}, {"days": "Sat", "time": "3:00pm"}, {"days": "Sun", "time": "Closed"}], "id": "3274600015", "name": "USPS COLLECTION BOX - BLUE BOX", "address": {"city": "LAKE MARY", "state": "FL", "street": "3415 W LAKE MARY BLVD", "postcode": "32746"}}},
{"geometry": {"type": "Point", "coordinates": [-81.3412990792, 28.7561238815]}, "type": "Feature", "properties": {"collection_times": [{"days": "Mon-Fri", "time": "2:15pm"}, {"days": "Sat-Sun", "time": "Closed"}], "id": "3274600018", "name": "USPS COLLECTION BOX - BLUE BOX", "address": {"city": "LAKE MARY", "state": "FL", "street": "3551 W LAKE MARY BLVD", "postcode": "32746"}}},
{"geometry": {"type": "Point", "coordinates": [-81.3496306592, 28.7560659166]}, "type": "Feature", "properties": {"collection_times": [{"days": "Mon-Fri", "time": "2:15pm"}, {"days": "Sat", "time": "11:00am"}, {"days": "Sun", "time": "Closed"}], "id": "3274600019", "name": "USPS COLLECTION BOX - BLUE BOX", "address": {"city": "LAKE MARY", "state": "FL", "street": "4195 W LAKE MARY BLVD", "postcode": "32746"}}},
{"geometry": {"type": "Point", "coordinates": [-81.3681321375, 28.7365518255]}, "type": "Feature", "properties": {"collection_times": [{"days": "Mon-Fri", "time": "2:00pm"}, {"days": "Sat-Sun", "time": "Closed"}], "id": "3274600022", "name": "USPS COLLECTION BOX - BLUE BOX", "address": {"city": "LAKE MARY", "state": "FL", "street": "39 SKYLINE DR", "postcode": "32746"}}},
{"geometry": {"type": "Point", "coordinates": [-81.3623841398, 28.7363566372]}, "type": "Feature", "properties": {"collection_times": [{"days": "Mon-Fri", "time": "2:00pm"}, {"days": "Sat-Sun", "time": "Closed"}], "id": "3274600024", "name": "USPS COLLECTION BOX - BLUE BOX", "address": {"city": "LAKE MARY", "state": "FL", "street": "400 TECHNOLOGY PARK", "postcode": "32746"}}},
{"geometry": {"type": "Point", "coordinates": [-81.3472680433, 28.7592431373]}, "type": "Feature", "properties": {"collection_times": [{"days": "Mon-Fri", "time": "5:00pm"}, {"days": "Sat", "time": "3:00pm"}, {"days": "Sun", "time": "Closed"}], "id": "3274600028", "name": "USPS COLLECTION BOX - PO LOBBY", "address": {"city": "LAKE MARY", "state": "FL", "street": "3415 W LAKE MARY BLVD", "postcode": "32746"}}},
{"geometry": {"type": "Point", "coordinates": [-81.3579551415, 28.7840937633]}, "type": "Feature", "properties": {"collection_times": [{"days": "Mon-Fri", "time": "2:30pm"}, {"days": "Sat-Sun", "time": "Closed"}], "id": "3274600037", "name": "USPS COLLECTION BOX - BLUE BOX", "address": {"city": "LAKE MARY", "state": "FL", "street": "1515 INTERNATIONAL PKWY", "postcode": "32746"}}},
{"geometry": {"type": "Point", "coordinates": [-81.3620093377, 28.7644592407]}, "type": "Feature", "properties": {"collection_times": [{"days": "Mon-Fri", "time": "2:15pm"}, {"days": "Sat-Sun", "time": "Closed"}], "id": "3274600038", "name": "USPS COLLECTION BOX - BLUE BOX", "address": {"city": "LAKE MARY", "state": "FL", "street": "400 INTERNATIONAL PKWY", "postcode": "32746"}}},
{"geometry": {"type": "Point", "coordinates": [-81.3604440871, 28.7806915733]}, "type": "Feature", "properties": {"collection_times": [{"days": "Mon-Fri", "time": "2:30pm"}, {"days": "Sat-Sun", "time": "Closed"}], "id": "3274600039", "name": "USPS COLLECTION BOX - BLUE BOX", "address": {"city": "LAKE MARY", "state": "FL", "street": "1000 BUSINESS CENTER DR", "postcode": "32746"}}},
{"geometry": {"type": "Point", "coordinates": [-81.3581917333, 28.7609030358]}, "type": "Feature", "properties": {"collection_times": [{"days": "Mon-Fri", "time": "2:30pm"}, {"days": "Sat-Sun", "time": "Closed"}], "id": "3274600041", "name": "USPS COLLECTION BOX - BLUE BOX", "address": {"city": "LAKE MARY", "state": "FL", "street": "610 CRESCENT EXECUTIVE CT", "postcode": "32746"}}},
{"geometry": {"type": "Point", "coordinates": [-81.3574275418, 28.7784120114]}, "type": "Feature", "properties": {"collection_times": [{"days": "Mon-Fri", "time": "2:30pm"}, {"days": "Sat-Sun", "time": "Closed"}], "id": "3274600042", "name": "USPS COLLECTION BOX - BLUE BOX", "address": {"city": "LAKE MARY", "state": "FL", "street": "901 INTERNATIONAL PKWY", "postcode": "32746"}}},
{"geometry": {"type": "Point", "coordinates": [-81.3629830512, 28.7499373685]}, "type": "Feature", "properties": {"collection_times": [{"days": "Mon-Fri", "time": "1:45pm"}, {"days": "Sat-Sun", "time": "Closed"}], "id": "3274600043", "name": "USPS COLLECTION BOX - BLUE BOX", "address": {"city": "LAKE MARY", "state": "FL", "street": "1025 GREENWOOD BLVD", "postcode": "32746"}}},
{"geometry": {"type": "Point", "coordinates": [-81.3588195504, 28.7587874219]}, "type": "Feature", "properties": {"collection_times": [{"days": "Mon-Fri", "time": "2:30pm"}, {"days": "Sat-Sun", "time": "Closed"}], "id": "3274600044", "name": "USPS COLLECTION BOX - BLUE BOX", "address": {"city": "LAKE MARY", "state": "FL", "street": "300 PRIMERA BLVD", "postcode": "32746"}}},
{"geometry": {"type": "Point", "coordinates": [-81.3574145292, 28.7605871857]}, "type": "Feature", "properties": {"collection_times": [{"days": "Mon-Fri", "time": "2:45pm"}, {"days": "Sat-Sun", "time": "Closed"}], "id": "3274600045", "name": "USPS COLLECTION BOX - BLUE BOX", "address": {"city": "LAKE MARY", "state": "FL", "street": "255 PRIMERA BLVD", "postcode": "32746"}}},
{"geometry": {"type": "Point", "coordinates": [-81.3587287966, 28.7753493306]}, "type": "Feature", "properties": {"collection_times": [{"days": "Mon-Fri", "time": "2:15pm"}, {"days": "Sat-Sun", "time": "Closed"}], "id": "3274600046", "name": "USPS COLLECTION BOX - BLUE BOX", "address": {"city": "LAKE MARY", "state": "FL", "street": "701 INTERNATIONAL PKWY", "postcode": "32746"}}},
{"geometry": {"type": "Point", "coordinates": [-81.3472680433, 28.7592431373]}, "type": "Feature", "properties": {"collection_times": [{"days": "Mon-Fri", "time": "5:00pm"}, {"days": "Sat", "time": "3:00pm"}, {"days": "Sun", "time": "Closed"}], "id": "3274600048", "name": "USPS COLLECTION BOX - APC", "address": {"city": "LAKE MARY", "state": "FL", "street": "3415 W LAKE MARY BLVD", "postcode": "32746"}}},
{"geometry": {"type": "Point", "coordinates": [-81.3472680433, 28.7592431373]}, "type": "Feature", "properties": {"collection_times": [{"days": "Mon-Fri", "time": "5:00pm"}, {"days": "Sat", "time": "3:00pm"}, {"days": "Sun", "time": "Closed"}], "id": "3274600049", "name": "USPS COLLECTION BOX - APC", "address": {"city": "LAKE MARY", "state": "FL", "street": "3415 W LAKE MARY BLVD", "postcode": "32746"}}},
{"geometry": {"type": "Point", "coordinates": [-81.3645548379, 28.7630123933]}, "type": "Feature", "properties": {"collection_times": [{"days": "Mon-Fri", "time": "2:15pm"}, {"days": "Sat-Sun", "time": "Closed"}], "id": "3274600050", "name": "USPS COLLECTION BOX - BLUE BOX", "address": {"city": "LAKE MARY", "state": "FL", "street": "300 INTERNATIONAL PKWY", "postcode": "32746"}}},
{"geometry": {"type": "Point", "coordinates": [-81.3658348311, 28.7535651413]}, "type": "Feature", "properties": {"collection_times": [{"days": "Mon-Fri", "time": "2:00pm"}, {"days": "Sat-Sun", "time": "Closed"}], "id": "3274600051", "name": "USPS COLLECTION BOX - BLUE BOX", "address": {"city": "LAKE MARY", "state": "FL", "street": "1337 S INTERNATIONAL PKWY", "postcode": "32746"}}},
{"geometry": {"type": "Point", "coordinates": [-81.3220173667, 28.7564174989]}, "type": "Feature", "properties": {"collection_times": [{"days": "Mon-Fri", "time": "3:00pm"}, {"days": "Sat-Sun", "time": "Closed"}], "id": "3274600055", "name": "USPS COLLECTION BOX - BLUE BOX", "address": {"city": "LAKE MARY", "state": "FL", "street": "101 N COUNTRY CLB", "postcode": "32746"}}},
{"geometry": {"type": "Point", "coordinates": [-81.3639610241, 28.7469476689]}, "type": "Feature", "properties": {"collection_times": [{"days": "Mon-Fri", "time": "2:00pm"}, {"days": "Sat-Sun", "time": "Closed"}], "id": "3274600056", "name": "USPS COLLECTION BOX - BLUE BOX", "address": {"city": "LAKE MARY", "state": "FL", "street": "1064 GREENWOOD BLVD", "postcode": "32746"}}},
{"geometry": {"type": "Point", "coordinates": [-81.3472680433, 28.7592431373]}, "type": "Feature", "properties": {"collection_times": [{"days": "Mon-Fri", "time": "5:00pm"}, {"days": "Sat", "time": "3:00pm"}, {"days": "Sun", "time": "Closed"}], "id": "3274600057", "name": "USPS COLLECTION BOX - PO LOBBY", "address": {"city": "LAKE MARY", "state": "FL", "street": "3415 W LAKE MARY BLVD", "postcode": "32746"}}},
{"geometry": {"type": "Point", "coordinates": [-81.3145461121, 28.8165299444]}, "type": "Feature", "properties": {"collection_times": [{"days": "Mon-Fri", "time": "5:00pm"}, {"days": "Sat", "time": "12:00pm"}, {"days": "Sun", "time": "Closed"}], "id": "3274700001", "name": "USPS COLLECTION BOX - BLUE BOX", "address": {"city": "LAKE MONROE", "state": "FL", "street": "755 MONROE RD", "postcode": "32747"}}},
{"geometry": {"type": "Point", "coordinates": [-81.3145461121, 28.8165299444]}, "type": "Feature", "properties": {"collection_times": [{"days": "Mon-Fri", "time": "5:00pm"}, {"days": "Sat", "time": "12:00pm"}, {"days": "Sun", "time": "Closed"}], "id": "3274700002", "name": "USPS COLLECTION BOX - PO LOBBY", "address": {"city": "LAKE MONROE", "state": "FL", "street": "755 MONROE RD", "postcode": "32747"}}},
{"geometry": {"type": "Point", "coordinates": [-81.3539224344, 28.6978667014]}, "type": "Feature", "properties": {"collection_times": [{"days": "Mon-Fri", "time": "1:00pm"}, {"days": "Sat-Sun", "time": "Closed"}], "id": "3275000001", "name": "USPS COLLECTION BOX - BLUE BOX", "address": {"city": "LONGWOOD", "state": "FL", "street": "555 W STATE ROAD 434", "postcode": "32750"}}},
{"geometry": {"type": "Point", "coordinates": [-81.3569141376, 28.6978986413]}, "type": "Feature", "properties": {"collection_times": [{"days": "Mon-Fri", "time": "3:00pm"}, {"days": "Sat-Sun", "time": "Closed"}], "id": "3275000002", "name": "USPS COLLECTION BOX - BLUE BOX", "address": {"city": "LONGWOOD", "state": "FL", "street": "745 W STATE ROAD 434", "postcode": "32750"}}},
{"geometry": {"type": "Point", "coordinates": [-81.4021980293, 28.6895364596]}, "type": "Feature", "properties": {"collection_times": [{"days": "Mon-Fri", "time": "3:00pm"}, {"days": "Sat-Sun", "time": "Closed"}], "id": "3275000004", "name": "USPS COLLECTION BOX - BLUE BOX", "address": {"city": "LONGWOOD", "state": "FL", "street": "100 CROWN OAKS CTR", "postcode": "32750"}}},
{"geometry": {"type": "Point", "coordinates": [-81.3393665521, 28.7179336265]}, "type": "Feature", "properties": {"collection_times": [{"days": "Mon-Fri", "time": "1:00pm"}, {"days": "Sat-Sun", "time": "Closed"}], "id": "3275000010", "name": "USPS COLLECTION BOX - BLUE BOX", "address": {"city": "LONGWOOD", "state": "FL", "street": "1684 N HIGHWAY 427", "postcode": "32750"}}},
{"geometry": {"type": "Point", "coordinates": [-81.3344296365, 28.7254982569]}, "type": "Feature", "properties": {"collection_times": [{"days": "Mon-Fri", "time": "1:00pm"}, {"days": "Sat-Sun", "time": "Closed"}], "id": "3275000011", "name": "USPS COLLECTION BOX - BLUE BOX", "address": {"city": "LONGWOOD", "state": "FL", "street": "785 BIG TREE DR", "postcode": "32750"}}},
{"geometry": {"type": "Point", "coordinates": [-81.329981383, 28.708803245]}, "type": "Feature", "properties": {"collection_times": [{"days": "Mon-Fri", "time": "3:00pm"}, {"days": "Sat-Sun", "time": "Closed"}], "id": "3275000012", "name": "USPS COLLECTION BOX - BLUE BOX", "address": {"city": "LONGWOOD", "state": "FL", "street": "900 LONGDALE AVE", "postcode": "32750"}}},
{"geometry": {"type": "Point", "coordinates": [-81.3273386013, 28.6977914015]}, "type": "Feature", "properties": {"collection_times": [{"days": "Mon-Fri", "time": "2:00pm"}, {"days": "Sat-Sun", "time": "Closed"}], "id": "3275000013", "name": "USPS COLLECTION BOX - BLUE BOX", "address": {"city": "LONGWOOD", "state": "FL", "street": "100 S HIGHWAY 17 92", "postcode": "32750"}}},
{"geometry": {"type": "Point", "coordinates": [-81.3399138343, 28.6978442252]}, "type": "Feature", "properties": {"collection_times": [{"days": "Mon-Fri", "time": "3:00pm"}, {"days": "Sat-Sun", "time": "Closed"}], "id": "3275000014", "name": "USPS COLLECTION BOX - BLUE BOX", "address": {"city": "LONGWOOD", "state": "FL", "street": "400 E HIGHWAY 434", "postcode": "32750"}}},
{"geometry": {"type": "Point", "coordinates": [-81.3855263661, 28.6925859726]}, "type": "Feature", "properties": {"collection_times": [{"days": "Mon-Fri", "time": "3:00pm"}, {"days": "Sat-Sun", "time": "Closed"}], "id": "3275000019", "name": "USPS COLLECTION BOX - BLUE BOX", "address": {"city": "LONGWOOD", "state": "FL", "street": "1855 W STATE ROAD 434", "postcode": "32750"}}},
{"geometry": {"type": "Point", "coordinates": [-81.3690761387, 28.6977862602]}, "type": "Feature", "properties": {"collection_times": [{"days": "Mon-Fri", "time": "3:00pm"}, {"days": "Sat-Sun", "time": "Closed"}], "id": "3275000020", "name": "USPS COLLECTION BOX - BLUE BOX", "address": {"city": "LONGWOOD", "state": "FL", "street": "1200 W STATE ROAD 434 STE 100", "postcode": "32750"}}},
{"geometry": {"type": "Point", "coordinates": [-81.352837661, 28.6954108786]}, "type": "Feature", "properties": {"collection_times": [{"days": "Mon-Fri", "time": "5:00pm"}, {"days": "Sat", "time": "3:00pm"}, {"days": "Sun", "time": "Closed"}], "id": "3275000022", "name": "USPS COLLECTION BOX - BLUE BOX", "address": {"city": "LONGWOOD", "state": "FL", "street": "501 FLORIDA CENTRAL PKWY", "postcode": "32750"}}},
{"geometry": {"type": "Point", "coordinates": [-81.3086766199, 28.725409535]}, "type": "Feature", "properties": {"collection_times": [{"days": "Mon-Fri", "time": "11:15am"}, {"days": "Sat-Sun", "time": "Closed"}], "id": "3275000026", "name": "USPS COLLECTION BOX - BLUE BOX", "address": {"city": "LONGWOOD", "state": "FL", "street": "1897 HIGH ST", "postcode": "32750"}}},
{"geometry": {"type": "Point", "coordinates": [-81.352837661, 28.6954108786]}, "type": "Feature", "properties": {"collection_times": [{"days": "Mon-Fri", "time": "5:00pm"}, {"days": "Sat", "time": "3:00pm"}, {"days": "Sun", "time": "Closed"}], "id": "3275000027", "name": "USPS COLLECTION BOX - PO LOBBY", "address": {"city": "LONGWOOD", "state": "FL", "street": "501 FLORIDA CENTRAL PKWY", "postcode": "32750"}}},
{"geometry": {"type": "Point", "coordinates": [-81.3866111394, 28.6899373275]}, "type": "Feature", "properties": {"collection_times": [{"days": "Mon-Fri", "time": "1:00pm"}, {"days": "Sat-Sun", "time": "Closed"}], "id": "3275000030", "name": "USPS COLLECTION BOX - BLUE BOX", "address": {"city": "LONGWOOD", "state": "FL", "street": "1939 BOOTHE CIR", "postcode": "32750"}}},
{"geometry": {"type": "Point", "coordinates": [-81.3479094539, 28.7001486292]}, "type": "Feature", "properties": {"collection_times": [{"days": "Mon-Fri", "time": "3:00pm"}, {"days": "Sat-Sun", "time": "Closed"}], "id": "3275000032", "name": "USPS COLLECTION BOX - BLUE BOX", "address": {"city": "LONGWOOD", "state": "FL", "street": "155 W WARREN AVE", "postcode": "32750"}}},
{"geometry": {"type": "Point", "coordinates": [-81.352837661, 28.6954108786]}, "type": "Feature", "properties": {"collection_times": [{"days": "Mon-Fri", "time": "5:00pm"}, {"days": "Sat", "time": "3:00pm"}, {"days": "Sun", "time": "Closed"}], "id": "3275000033", "name": "USPS COLLECTION BOX - APC", "address": {"city": "LONGWOOD", "state": "FL", "street": "501 FLORIDA CENTRAL PKWY", "postcode": "32750"}}},
{"geometry": {"type": "Point", "coordinates": [-81.352837661, 28.6954108786]}, "type": "Feature", "properties": {"collection_times": [{"days": "Mon-Fri", "time": "5:00pm"}, {"days": "Sat", "time": "3:00pm"}, {"days": "Sun", "time": "Closed"}], "id": "3275000034", "name": "USPS COLLECTION BOX - PO LOBBY", "address": {"city": "LONGWOOD", "state": "FL", "street": "501 FLORIDA CENTRAL PKWY", "postcode": "32750"}}},
{"geometry": {"type": "Point", "coordinates": [-81.352837661, 28.6954108786]}, "type": "Feature", "properties": {"collection_times": [{"days": "Mon-Fri", "time": "5:00pm"}, {"days": "Sat", "time": "3:00pm"}, {"days": "Sun", "time": "Closed"}], "id": "3275000035", "name": "USPS COLLECTION BOX - PO LOBBY", "address": {"city": "LONGWOOD", "state": "FL", "street": "501 FLORIDA CENTRAL PKWY", "postcode": "32750"}}},
{"geometry": {"type": "Point", "coordinates": [-81.397145389, 28.6346079707]}, "type": "Feature", "properties": {"collection_times": [{"days": "Mon-Fri", "time": "3:00pm"}, {"days": "Sat-Sun", "time": "Closed"}], "id": "3275100001", "name": "USPS COLLECTION BOX - BLUE BOX", "address": {"city": "MAITLAND", "state": "FL", "street": "2600 MAITLAND CENTER PKWY", "postcode": "32751"}}},
{"geometry": {"type": "Point", "coordinates": [-81.3627585015, 28.6320332071]}, "type": "Feature", "properties": {"collection_times": [{"days": "Mon-Fri", "time": "2:45pm"}, {"days": "Sat-Sun", "time": "Closed"}], "id": "3275100008", "name": "USPS COLLECTION BOX - BLUE BOX", "address": {"city": "MAITLAND", "state": "FL", "street": "668 N ORLANDO AVE", "postcode": "32751"}}},
{"geometry": {"type": "Point", "coordinates": [-81.3681334165, 28.6266971106]}, "type": "Feature", "properties": {"collection_times": [{"days": "Mon-Fri", "time": "2:30pm"}, {"days": "Sat-Sun", "time": "Closed"}], "id": "3275100009", "name": "USPS COLLECTION BOX - BLUE BOX", "address": {"city": "MAITLAND", "state": "FL", "street": "105 JACKSON ST", "postcode": "32751"}}},
{"geometry": {"type": "Point", "coordinates": [-81.3872051629, 28.6229605115]}, "type": "Feature", "properties": {"collection_times": [{"days": "Mon-Fri", "time": "3:00pm"}, {"days": "Sat-Sun", "time": "Closed"}], "id": "3275100013", "name": "USPS COLLECTION BOX - BLUE BOX", "address": {"city": "MAITLAND", "state": "FL", "street": "601 S LAKE DESTINY RD", "postcode": "32751"}}},
{"geometry": {"type": "Point", "coordinates": [-81.3881040337, 28.6371182097]}, "type": "Feature", "properties": {"collection_times": [{"days": "Mon-Fri", "time": "3:00pm"}, {"days": "Sat-Sun", "time": "Closed"}], "id": "3275100015", "name": "USPS COLLECTION BOX - BLUE BOX", "address": {"city": "MAITLAND", "state": "FL", "street": "901 NORTH LAKE DESTINY RD", "postcode": "32751"}}},
{"geometry": {"type": "Point", "coordinates": [-81.3883429914, 28.6396769499]}, "type": "Feature", "properties": {"collection_times": [{"days": "Mon-Fri", "time": "3:00pm"}, {"days": "Sat-Sun", "time": "Closed"}], "id": "3275100018", "name": "USPS COLLECTION BOX - BLUE BOX", "address": {"city": "MAITLAND", "state": "FL", "street": "1101 NORTH LAKE DESTINY RD", "postcode": "32751"}}},
{"geometry": {"type": "Point", "coordinates": [-81.3881844749, 28.6251312865]}, "type": "Feature", "properties": {"collection_times": [{"days": "Mon-Fri", "time": "3:00pm"}, {"days": "Sat-Sun", "time": "Closed"}], "id": "3275100023", "name": "USPS COLLECTION BOX - BLUE BOX", "address": {"city": "MAITLAND", "state": "FL", "street": "2200 LUCIEN WAY", "postcode": "32751"}}},
{"geometry": {"type": "Point", "coordinates": [-81.3893958248, 28.6245764787]}, "type": "Feature", "properties": {"collection_times": [{"days": "Mon-Fri", "time": "3:00pm"}, {"days": "Sat-Sun", "time": "Closed"}], "id": "3275100024", "name": "USPS COLLECTION BOX - BLUE BOX", "address": {"city": "MAITLAND", "state": "FL", "street": "2250 LUCIEN WAY", "postcode": "32751"}}},
{"geometry": {"type": "Point", "coordinates": [-81.3903918763, 28.6238596056]}, "type": "Feature", "properties": {"collection_times": [{"days": "Mon-Fri", "time": "3:00pm"}, {"days": "Sat-Sun", "time": "Closed"}], "id": "3275100025", "name": "USPS COLLECTION BOX - BLUE BOX", "address": {"city": "MAITLAND", "state": "FL", "street": "2301 LUCIEN WAY", "postcode": "32751"}}},
{"geometry": {"type": "Point", "coordinates": [-81.365694059, 28.6285299276]}, "type": "Feature", "properties": {"collection_times": [{"days": "Mon-Fri", "time": "5:00pm"}, {"days": "Sat", "time": "3:00pm"}, {"days": "Sun", "time": "Closed"}], "id": "3275100029", "name": "USPS COLLECTION BOX - BLUE BOX", "address": {"city": "MAITLAND", "state": "FL", "street": "151 N MAITLAND AVE", "postcode": "32751"}}},
{"geometry": {"type": "Point", "coordinates": [-81.3648198524, 28.631256648]}, "type": "Feature", "properties": {"collection_times": [{"days": "Mon-Fri", "time": "2:45pm"}, {"days": "Sat-Sun", "time": "Closed"}], "id": "3275100033", "name": "USPS COLLECTION BOX - BLUE BOX", "address": {"city": "MAITLAND", "state": "FL", "street": "100 E SYBELIA AVE", "postcode": "32751"}}},
{"geometry": {"type": "Point", "coordinates": [-81.3974135428, 28.6370404851]}, "type": "Feature", "properties": {"collection_times": [{"days": "Mon-Fri", "time": "3:00pm"}, {"days": "Sat-Sun", "time": "Closed"}], "id": "3275100035", "name": "USPS COLLECTION BOX - BLUE BOX", "address": {"city": "MAITLAND", "state": "FL", "street": "1011 MAITLAND CENTER COMMONS BLVD", "postcode": "32751"}}},
{"geometry": {"type": "Point", "coordinates": [-81.3925649719, 28.6343962211]}, "type": "Feature", "properties": {"collection_times": [{"days": "Mon-Fri", "time": "3:00pm"}, {"days": "Sat-Sun", "time": "Closed"}], "id": "3275100037", "name": "USPS COLLECTION BOX - BLUE BOX", "address": {"city": "MAITLAND", "state": "FL", "street": "2300 MAITLAND CENTER PKWY", "postcode": "32751"}}},
{"geometry": {"type": "Point", "coordinates": [-81.3922846106, 28.6345819456]}, "type": "Feature", "properties": {"collection_times": [{"days": "Mon-Fri", "time": "3:00pm"}, {"days": "Sat-Sun", "time": "Closed"}], "id": "3275100038", "name": "USPS COLLECTION BOX - BLUE BOX", "address": {"city": "MAITLAND", "state": "FL", "street": "2301 MAITLAND CENTER PKWY", "postcode": "32751"}}},
{"geometry": {"type": "Point", "coordinates": [-81.3949214262, 28.6342660956]}, "type": "Feature", "properties": {"collection_times": [{"days": "Mon-Fri", "time": "3:00pm"}, {"days": "Sat-Sun", "time": "Closed"}], "id": "3275100045", "name": "USPS COLLECTION BOX - BLUE BOX", "address": {"city": "MAITLAND", "state": "FL", "street": "2500 MAITLAND CENTER PKWY", "postcode": "32751"}}},
{"geometry": {"type": "Point", "coordinates": [-81.3636795806, 28.6241372811]}, "type": "Feature", "properties": {"collection_times": [{"days": "Mon-Fri", "time": "2:30pm"}, {"days": "Sat-Sun", "time": "Closed"}], "id": "3275100054", "name": "USPS COLLECTION BOX - BLUE BOX", "address": {"city": "MAITLAND", "state": "FL", "street": "487 S ORLANDO AVE", "postcode": "32751"}}},
{"geometry": {"type": "Point", "coordinates": [-81.3963894782, 28.6283240927]}, "type": "Feature", "properties": {"collection_times": [{"days": "Mon-Fri", "time": "3:00pm"}, {"days": "Sat-Sun", "time": "Closed"}], "id": "3275100056", "name": "USPS COLLECTION BOX - BLUE BOX", "address": {"city": "MAITLAND", "state": "FL", "street": "151 SOUTHHALL LN", "postcode": "32751"}}},
{"geometry": {"type": "Point", "coordinates": [-81.3618624549, 28.6261521801]}, "type": "Feature", "properties": {"collection_times": [{"days": "Mon-Fri", "time": "2:45pm"}, {"days": "Sat-Sun", "time": "Closed"}], "id": "3275100058", "name": "USPS COLLECTION BOX - BLUE BOX", "address": {"city": "MAITLAND", "state": "FL", "street": "225 S SWOOPE AVE", "postcode": "32751"}}},
{"geometry": {"type": "Point", "coordinates": [-81.3913583538, 28.6344163314]}, "type": "Feature", "properties": {"collection_times": [{"days": "Mon-Fri", "time": "3:00pm"}, {"days": "Sat-Sun", "time": "Closed"}], "id": "3275100061", "name": "USPS COLLECTION BOX - BLUE BOX", "address": {"city": "MAITLAND", "state": "FL", "street": "800 TRAFALGAR CT", "postcode": "32751"}}},
{"geometry": {"type": "Point", "coordinates": [-81.3910105638, 28.6347428281]}, "type": "Feature", "properties": {"collection_times": [{"days": "Mon-Fri", "time": "3:00pm"}, {"days": "Sat-Sun", "time": "Closed"}], "id": "3275100063", "name": "USPS COLLECTION BOX - BLUE BOX", "address": {"city": "MAITLAND", "state": "FL", "street": "850 TRAFALGAR CT", "postcode": "32751"}}},
{"geometry": {"type": "Point", "coordinates": [-81.3910105638, 28.6347428281]}, "type": "Feature", "properties": {"collection_times": [{"days": "Mon-Fri", "time": "3:00pm"}, {"days": "Sat-Sun", "time": "Closed"}], "id": "3275100064", "name": "USPS COLLECTION BOX - BLUE BOX", "address": {"city": "MAITLAND", "state": "FL", "street": "851 TRAFALGAR CT", "postcode": "32751"}}},
{"geometry": {"type": "Point", "coordinates": [-81.3599768183, 28.6353307587]}, "type": "Feature", "properties": {"collection_times": [{"days": "Mon-Fri", "time": "2:45pm"}, {"days": "Sat-Sun", "time": "Closed"}], "id": "3275100067", "name": "USPS COLLECTION BOX - BLUE BOX", "address": {"city": "MAITLAND", "state": "FL", "street": "531 VERSAILLES DR", "postcode": "32751"}}},
{"geometry": {"type": "Point", "coordinates": [-81.395993187, 28.6321864537]}, "type": "Feature", "properties": {"collection_times": [{"days": "Mon-Fri", "time": "3:00pm"}, {"days": "Sat-Sun", "time": "Closed"}], "id": "3275100071", "name": "USPS COLLECTION BOX - BLUE BOX", "address": {"city": "MAITLAND", "state": "FL", "street": "500 WINDERLEY PL", "postcode": "32751"}}},
{"geometry": {"type": "Point", "coordinates": [-81.394176162, 28.6375748318]}, "type": "Feature", "properties": {"collection_times": [{"days": "Mon-Fri", "time": "3:00pm"}, {"days": "Sat-Sun", "time": "Closed"}], "id": "3275100074", "name": "USPS COLLECTION BOX - BLUE BOX", "address": {"city": "MAITLAND", "state": "FL", "street": "900 WINDERLEY PL", "postcode": "32751"}}},
{"geometry": {"type": "Point", "coordinates": [-81.3964048567, 28.6347286326]}, "type": "Feature", "properties": {"collection_times": [{"days": "Mon-Fri", "time": "3:00pm"}, {"days": "Sat-Sun", "time": "Closed"}], "id": "3275100080", "name": "USPS COLLECTION BOX - BLUE BOX", "address": {"city": "MAITLAND", "state": "FL", "street": "2603 MAITLAND CENTER PKWY", "postcode": "32751"}}},
{"geometry": {"type": "Point", "coordinates": [-81.3952656672, 28.6390428839]}, "type": "Feature", "properties": {"collection_times": [{"days": "Mon-Fri", "time": "3:00pm"}, {"days": "Sat-Sun", "time": "Closed"}], "id": "3275100081", "name": "USPS COLLECTION BOX - BLUE BOX", "address": {"city": "MAITLAND", "state": "FL", "street": "1051 WINDERLEY PL", "postcode": "32751"}}},
{"geometry": {"type": "Point", "coordinates": [-81.3637682018, 28.6380456495]}, "type": "Feature", "properties": {"collection_times": [{"days": "Mon-Fri", "time": "2:45pm"}, {"days": "Sat-Sun", "time": "Closed"}], "id": "3275100083", "name": "USPS COLLECTION BOX - BLUE BOX", "address": {"city": "MAITLAND", "state": "FL", "street": "151 LOOKOUT PL", "postcode": "32751"}}},
{"geometry": {"type": "Point", "coordinates": [-81.365694059, 28.6285299276]}, "type": "Feature", "properties": {"collection_times": [{"days": "Mon-Fri", "time": "5:00pm"}, {"days": "Sat", "time": "3:00pm"}, {"days": "Sun", "time": "Closed"}], "id": "3275100088", "name": "USPS COLLECTION BOX - PO LOBBY", "address": {"city": "MAITLAND", "state": "FL", "street": "151 N MAITLAND AVE", "postcode": "32751"}}},
{"geometry": {"type": "Point", "coordinates": [-81.3977546129, 28.634744011]}, "type": "Feature", "properties": {"collection_times": [{"days": "Mon-Fri", "time": "3:00pm"}, {"days": "Sat-Sun", "time": "Closed"}], "id": "3275100089", "name": "USPS COLLECTION BOX - BLUE BOX", "address": {"city": "MAITLAND", "state": "FL", "street": "2701 MAITLAND CENTER PKWY", "postcode": "32751"}}},
{"geometry": {"type": "Point", "coordinates": [-81.3937361013, 28.6291580788]}, "type": "Feature", "properties": {"collection_times": [{"days": "Mon-Fri", "time": "3:00pm"}, {"days": "Sat-Sun", "time": "Closed"}], "id": "3275100094", "name": "USPS COLLECTION BOX - BLUE BOX", "address": {"city": "MAITLAND", "state": "FL", "street": "291 SOUTHHALL LN", "postcode": "32751"}}},
{"geometry": {"type": "Point", "coordinates": [-81.3840334719, 28.6292645451]}, "type": "Feature", "properties": {"collection_times": [{"days": "Mon-Fri", "time": "3:00pm"}, {"days": "Sat-Sun", "time": "Closed"}], "id": "3275100098", "name": "USPS COLLECTION BOX - BLUE BOX", "address": {"city": "MAITLAND", "state": "FL", "street": "1551 SANDSPUR RD", "postcode": "32751"}}},
{"geometry": {"type": "Point", "coordinates": [-81.3882696479, 28.6387577908]}, "type": "Feature", "properties": {"collection_times": [{"days": "Mon-Fri", "time": "3:00pm"}, {"days": "Sat-Sun", "time": "Closed"}], "id": "3275100100", "name": "USPS COLLECTION BOX - BLUE BOX", "address": {"city": "MAITLAND", "state": "FL", "street": "1001 NORTH LAKE DESTINY RD", "postcode": "32751"}}},
{"geometry": {"type": "Point", "coordinates": [-81.3956891665, 28.6290184896]}, "type": "Feature", "properties": {"collection_times": [{"days": "Mon-Fri", "time": "3:00pm"}, {"days": "Sat-Sun", "time": "Closed"}], "id": "3275100102", "name": "USPS COLLECTION BOX - BLUE BOX", "address": {"city": "MAITLAND", "state": "FL", "street": "258 SOUTHHALL LN", "postcode": "32751"}}},
{"geometry": {"type": "Point", "coordinates": [-81.3850639301, 28.6320399109]}, "type": "Feature", "properties": {"collection_times": [{"days": "Mon-Fri", "time": "3:00pm"}, {"days": "Sat-Sun", "time": "Closed"}], "id": "3275100104", "name": "USPS COLLECTION BOX - BLUE BOX", "address": {"city": "MAITLAND", "state": "FL", "street": "620 N WYMORE RD", "postcode": "32751"}}},
{"geometry": {"type": "Point", "coordinates": [-81.3939230088, 28.6222425007]}, "type": "Feature", "properties": {"collection_times": [{"days": "Mon-Fri", "time": "3:00pm"}, {"days": "Sat-Sun", "time": "Closed"}], "id": "3275100105", "name": "USPS COLLECTION BOX - BLUE BOX", "address": {"city": "MAITLAND", "state": "FL", "street": "2405 LUCIEN WAY", "postcode": "32751"}}},
{"geometry": {"type": "Point", "coordinates": [-81.3968153435, 28.6217870615]}, "type": "Feature", "properties": {"collection_times": [{"days": "Mon-Fri", "time": "3:00pm"}, {"days": "Sat-Sun", "time": "Closed"}], "id": "3275100106", "name": "USPS COLLECTION BOX - BLUE BOX", "address": {"city": "MAITLAND", "state": "FL", "street": "2599 LUCIEN WAY", "postcode": "32751"}}},
{"geometry": {"type": "Point", "coordinates": [-81.3990960884, 28.6317321975]}, "type": "Feature", "properties": {"collection_times": [{"days": "Mon-Fri", "time": "3:00pm"}, {"days": "Sat-Sun", "time": "Closed"}], "id": "3275100107", "name": "USPS COLLECTION BOX - BLUE BOX", "address": {"city": "MAITLAND", "state": "FL", "street": "495 N KELLER RD", "postcode": "32751"}}},
{"geometry": {"type": "Point", "coordinates": [-81.3762981032, 28.6302795239]}, "type": "Feature", "properties": {"collection_times": [{"days": "Mon-Fri", "time": "2:45pm"}, {"days": "Sat-Sun", "time": "Closed"}], "id": "3275100108", "name": "USPS COLLECTION BOX - BLUE BOX", "address": {"city": "MAITLAND", "state": "FL", "street": "875 CONCOURSE PKWY S", "postcode": "32751"}}},
{"geometry": {"type": "Point", "coordinates": [-81.365694059, 28.6285299276]}, "type": "Feature", "properties": {"collection_times": [{"days": "Mon-Fri", "time": "5:00pm"}, {"days": "Sat", "time": "3:00pm"}, {"days": "Sun", "time": "Closed"}], "id": "3275100110", "name": "USPS COLLECTION BOX - APC", "address": {"city": "MAITLAND", "state": "FL", "street": "151 N MAITLAND AVE", "postcode": "32751"}}},
{"geometry": {"type": "Point", "coordinates": [-81.3071083028, 28.8891107469]}, "type": "Feature", "properties": {"collection_times": [{"days": "Mon-Fri", "time": "4:45pm"}, {"days": "Sat", "time": "12:00pm"}, {"days": "Sun", "time": "Closed"}], "id": "3275300001", "name": "USPS COLLECTION BOX - BLUE BOX", "address": {"city": "DEBARY", "state": "FL", "street": "133 S HIGHWAY 17 92", "postcode": "32753"}}},
{"geometry": {"type": "Point", "coordinates": [-81.3071083028, 28.8891107469]}, "type": "Feature", "properties": {"collection_times": [{"days": "Mon-Fri", "time": "4:45pm"}, {"days": "Sat", "time": "12:00pm"}, {"days": "Sun", "time": "Closed"}], "id": "3275300002", "name": "USPS COLLECTION BOX - PO LOBBY", "address": {"city": "DEBARY", "state": "FL", "street": "133 S HIGHWAY 17 92", "postcode": "32753"}}},
{"geometry": {"type": "Point", "coordinates": [-81.3071083028, 28.8891107469]}, "type": "Feature", "properties": {"collection_times": [{"days": "Mon-Fri", "time": "4:45pm"}, {"days": "Sat", "time": "12:00pm"}, {"days": "Sun", "time": "Closed"}], "id": "3275300003", "name": "USPS COLLECTION BOX - PO LOBBY", "address": {"city": "DEBARY", "state": "FL", "street": "133 S HIGHWAY 17 92", "postcode": "32753"}}},
{"geometry": {"type": "Point", "coordinates": [-80.8495832581, 28.6737378874]}, "type": "Feature", "properties": {"collection_times": [{"days": "Mon-Fri", "time": "5:00pm"}, {"days": "Sat", "time": "12:00pm"}, {"days": "Sun", "time": "Closed"}], "id": "3275400001", "name": "USPS COLLECTION BOX - BLUE BOX", "address": {"city": "MIMS", "state": "FL", "street": "3405 KELLY RD", "postcode": "32754"}}},
{"geometry": {"type": "Point", "coordinates": [-80.8495832581, 28.6737378874]}, "type": "Feature", "properties": {"collection_times": [{"days": "Mon-Fri", "time": "4:30pm"}, {"days": "Sat", "time": "12:15pm"}, {"days": "Sun", "time": "Closed"}], "id": "3275400005", "name": "USPS COLLECTION BOX - PO LOBBY", "address": {"city": "MIMS", "state": "FL", "street": "3405 KELLY RD", "postcode": "32754"}}},
{"geometry": {"type": "Point", "coordinates": [-81.6456117241, 28.8005262463]}, "type": "Feature", "properties": {"collection_times": [{"days": "Mon-Fri", "time": "4:00pm"}, {"days": "Sat", "time": "2:45pm"}, {"days": "Sun", "time": "Closed"}], "id": "3275700003", "name": "USPS COLLECTION BOX - BLUE BOX", "address": {"city": "MOUNT DORA", "state": "FL", "street": "196 W 5TH AVE", "postcode": "32757"}}},
{"geometry": {"type": "Point", "coordinates": [-81.6763436902, 28.8209734481]}, "type": "Feature", "properties": {"collection_times": [{"days": "Mon-Fri", "time": "3:30pm"}, {"days": "Sat", "time": "2:15pm"}, {"days": "Sun", "time": "Closed"}], "id": "3275700008", "name": "USPS COLLECTION BOX - BLUE BOX", "address": {"city": "MOUNT DORA", "state": "FL", "street": "16888 US HIGHWAY 441", "postcode": "32757"}}},
{"geometry": {"type": "Point", "coordinates": [-81.6837139605, 28.8118682674]}, "type": "Feature", "properties": {"collection_times": [{"days": "Mon-Fri", "time": "3:30pm"}, {"days": "Sat", "time": "2:15pm"}, {"days": "Sun", "time": "Closed"}], "id": "3275700009", "name": "USPS COLLECTION BOX - BLUE BOX", "address": {"city": "MOUNT DORA", "state": "FL", "street": "3900 LAKE CENTER DR", "postcode": "32757"}}},
{"geometry": {"type": "Point", "coordinates": [-81.6455073418, 28.8239547699]}, "type": "Feature", "properties": {"collection_times": [{"days": "Mon-Fri", "time": "3:45pm"}, {"days": "Sat", "time": "2:30pm"}, {"days": "Sun", "time": "Closed"}], "id": "3275700010", "name": "USPS COLLECTION BOX - BLUE BOX", "address": {"city": "MOUNT DORA", "state": "FL", "street": "18840 US HIGHWAY 441", "postcode": "32757"}}},
{"geometry": {"type": "Point", "coordinates": [-81.6440028999, 28.8023468201]}, "type": "Feature", "properties": {"collection_times": [{"days": "Mon-Fri", "time": "5:00pm"}, {"days": "Sat", "time": "3:00pm"}, {"days": "Sun", "time": "Closed"}], "id": "3275700012", "name": "USPS COLLECTION BOX - BLUE BOX", "address": {"city": "MOUNT DORA", "state": "FL", "street": "140 W 7TH AVE", "postcode": "32757"}}},
{"geometry": {"type": "Point", "coordinates": [-81.676115504, 28.8077931632]}, "type": "Feature", "properties": {"collection_times": [{"days": "Mon-Fri", "time": "3:30pm"}, {"days": "Sat", "time": "2:15pm"}, {"days": "Sun", "time": "Closed"}], "id": "3275700016", "name": "USPS COLLECTION BOX - BLUE BOX", "address": {"city": "MOUNT DORA", "state": "FL", "street": "3101 N HIGHWAY 19 A", "postcode": "32757"}}},
{"geometry": {"type": "Point", "coordinates": [-81.6447126753, 28.7997620548]}, "type": "Feature", "properties": {"collection_times": [{"days": "Mon-Fri", "time": "3:45pm"}, {"days": "Sat", "time": "2:30pm"}, {"days": "Sun", "time": "Closed"}], "id": "3275700019", "name": "USPS COLLECTION BOX - BLUE BOX", "address": {"city": "MOUNT DORA", "state": "FL", "street": "411 N DONNELLY ST", "postcode": "32757"}}},
{"geometry": {"type": "Point", "coordinates": [-81.6727973041, 28.8203798466]}, "type": "Feature", "properties": {"collection_times": [{"days": "Mon-Fri", "time": "3:45pm"}, {"days": "Sat", "time": "2:30pm"}, {"days": "Sun", "time": "Closed"}], "id": "3275700020", "name": "USPS COLLECTION BOX - BLUE BOX", "address": {"city": "MOUNT DORA", "state": "FL", "street": "17030 US HIGHWAY 441", "postcode": "32757"}}},
{"geometry": {"type": "Point", "coordinates": [-81.6447268708, 28.8024568353]}, "type": "Feature", "properties": {"collection_times": [{"days": "Mon-Fri", "time": "5:00pm"}, {"days": "Sat", "time": "3:00pm"}, {"days": "Sun", "time": "Closed"}], "id": "3275700023", "name": "USPS COLLECTION BOX - PO LOBBY", "address": {"city": "MOUNT DORA", "state": "FL", "street": "711 N DONNELLY ST", "postcode": "32757"}}},
{"geometry": {"type": "Point", "coordinates": [-80.8499192184, 28.8641197543]}, "type": "Feature", "properties": {"collection_times": [{"days": "Mon-Fri", "time": "4:00pm"}, {"days": "Sat", "time": "2:00pm"}, {"days": "Sun", "time": "Closed"}], "id": "3275900001", "name": "USPS COLLECTION BOX - BLUE BOX", "address": {"city": "OAK HILL", "state": "FL", "street": "129 E HALIFAX AVE", "postcode": "32759"}}},
{"geometry": {"type": "Point", "coordinates": [-80.8499192184, 28.8641197543]}, "type": "Feature", "properties": {"collection_times": [{"days": "Mon-Fri", "time": "4:00pm"}, {"days": "Sat", "time": "2:00pm"}, {"days": "Sun", "time": "Closed"}], "id": "3275900002", "name": "USPS COLLECTION BOX - PO LOBBY", "address": {"city": "OAK HILL", "state": "FL", "street": "129 E HALIFAX AVE", "postcode": "32759"}}},
{"geometry": {"type": "Point", "coordinates": [-81.206621567, 28.6712808816]}, "type": "Feature", "properties": {"collection_times": [{"days": "Mon-Fri", "time": "5:00pm"}, {"days": "Sat", "time": "2:00pm"}, {"days": "Sun", "time": "Closed"}], "id": "3276200000", "name": "USPS COLLECTION BOX - BLUE BOX", "address": {"city": "OVIEDO", "state": "FL", "street": "83 GENEVA DR", "postcode": "32762"}}},
{"geometry": {"type": "Point", "coordinates": [-81.206621567, 28.6712808816]}, "type": "Feature", "properties": {"collection_times": [{"days": "Mon-Fri", "time": "5:00pm"}, {"days": "Sat", "time": "12:00pm"}, {"days": "Sun", "time": "Closed"}], "id": "3276200001", "name": "USPS COLLECTION BOX - PO LOBBY", "address": {"city": "OVIEDO", "state": "FL", "street": "83 GENEVA DR", "postcode": "32762"}}},
{"geometry": {"type": "Point", "coordinates": [-81.206621567, 28.6712808816]}, "type": "Feature", "properties": {"collection_times": [{"days": "Mon-Fri", "time": "5:00pm"}, {"days": "Sat", "time": "12:00pm"}, {"days": "Sun", "time": "Closed"}], "id": "3276200002", "name": "USPS COLLECTION BOX - APC", "address": {"city": "OVIEDO", "state": "FL", "street": "83 GENEVA DR", "postcode": "32762"}}},
{"geometry": {"type": "Point", "coordinates": [-81.206621567, 28.6712808816]}, "type": "Feature", "properties": {"collection_times": [{"days": "Mon-Fri", "time": "5:00pm"}, {"days": "Sat", "time": "12:00pm"}, {"days": "Sun", "time": "Closed"}], "id": "3276200003", "name": "USPS COLLECTION BOX - PO LOBBY", "address": {"city": "OVIEDO", "state": "FL", "street": "83 GENEVA DR", "postcode": "32762"}}},
{"geometry": {"type": "Point", "coordinates": [-81.2957492443, 28.9143552897]}, "type": "Feature", "properties": {"collection_times": [{"days": "Mon-Fri", "time": "3:15pm"}, {"days": "Sat", "time": "2:45pm"}, {"days": "Sun", "time": "Closed"}], "id": "3276300003", "name": "USPS COLLECTION BOX - BLUE BOX", "address": {"city": "ORANGE CITY", "state": "FL", "street": "2570 ENTERPRISE RD", "postcode": "32763"}}},
{"geometry": {"type": "Point", "coordinates": [-81.2993158656, 28.9486090495]}, "type": "Feature", "properties": {"collection_times": [{"days": "Mon-Fri", "time": "3:00pm"}, {"days": "Sat", "time": "2:30pm"}, {"days": "Sun", "time": "Closed"}], "id": "3276300004", "name": "USPS COLLECTION BOX - BLUE BOX", "address": {"city": "ORANGE CITY", "state": "FL", "street": "100 E GRAVES AVE", "postcode": "32763"}}},
{"geometry": {"type": "Point", "coordinates": [-81.2964767641, 28.9370799315]}, "type": "Feature", "properties": {"collection_times": [{"days": "Mon-Fri", "time": "5:00pm"}, {"days": "Sat", "time": "3:00pm"}, {"days": "Sun", "time": "Closed"}], "id": "3276300007", "name": "USPS COLLECTION BOX - BLUE BOX", "address": {"city": "ORANGE CITY", "state": "FL", "street": "260 N INDUSTRIAL DR", "postcode": "32763"}}},
{"geometry": {"type": "Point", "coordinates": [-81.2931905041, 28.911176679]}, "type": "Feature", "properties": {"collection_times": [{"days": "Mon-Fri", "time": "3:15pm"}, {"days": "Sat", "time": "2:45pm"}, {"days": "Sun", "time": "Closed"}], "id": "3276300010", "name": "USPS COLLECTION BOX - BLUE BOX", "address": {"city": "ORANGE CITY", "state": "FL", "street": "858 SAXON BLVD", "postcode": "32763"}}},
{"geometry": {"type": "Point", "coordinates": [-81.2988829026, 28.9409257311]}, "type": "Feature", "properties": {"collection_times": [{"days": "Mon-Fri", "time": "3:00pm"}, {"days": "Sat", "time": "2:30pm"}, {"days": "Sun", "time": "Closed"}], "id": "3276300014", "name": "USPS COLLECTION BOX - BLUE BOX", "address": {"city": "ORANGE CITY", "state": "FL", "street": "760 S VOLUSIA AVE", "postcode": "32763"}}},
{"geometry": {"type": "Point", "coordinates": [-81.3002243781, 28.9201446909]}, "type": "Feature", "properties": {"collection_times": [{"days": "Mon-Fri", "time": "3:15pm"}, {"days": "Sat", "time": "2:30pm"}, {"days": "Sun", "time": "Closed"}], "id": "3276300017", "name": "USPS COLLECTION BOX - BLUE BOX", "address": {"city": "ORANGE CITY", "state": "FL", "street": "2426 S VOLUSIA AVE", "postcode": "32763"}}},