{"type": "FeatureCollection", "features": [
{"geometry": {"type": "Point", "coordinates": [-81.3790390191, 28.5425489211]}, "type": "Feature", "properties": {"collection_times": [{"days": "Mon-Fri", "time": "4:00pm"}, {"days": "Sat", "time": "3:30pm"}, {"days": "Sun", "time": "Closed"}], "id": "3280100010", "name": "USPS COLLECTION BOX - BLUE BOX", "address": {"city": "ORLANDO", "state": "FL", "street": "20 N ORANGE AVE", "postcode": "32801"}}},
{"geometry": {"type": "Point", "coordinates": [-81.3798872007, 28.5347650511]}, "type": "Feature", "properties": {"collection_times": [{"days": "Mon-Fri", "time": "2:45pm"}, {"days": "Sat-Sun", "time": "Closed"}], "id": "3280100030", "name": "USPS COLLECTION BOX - BLUE BOX", "address": {"city": "ORLANDO", "state": "FL", "street": "100 W LUCERNE CIR", "postcode": "32801"}}},
{"geometry": {"type": "Point", "coordinates": [-81.3847771272, 28.5494476586]}, "type": "Feature", "properties": {"collection_times": [{"days": "Mon-Fri", "time": "2:45pm"}, {"days": "Sat-Sun", "time": "Closed"}], "id": "3280100032", "name": "USPS COLLECTION BOX - BLUE BOX", "address": {"city": "ORLANDO", "state": "FL", "street": "445 W AMELIA ST", "postcode": "32801"}}},
{"geometry": {"type": "Point", "coordinates": [-81.3714751795, 28.5384499683]}, "type": "Feature", "properties": {"collection_times": [{"days": "Mon-Fri", "time": "2:55pm"}, {"days": "Sat-Sun", "time": "Closed"}], "id": "3280100038", "name": "USPS COLLECTION BOX - BLUE BOX", "address": {"city": "ORLANDO", "state": "FL", "street": "450 E SOUTH ST", "postcode": "32801"}}},
{"geometry": {"type": "Point", "coordinates": [-81.3744479554, 28.54134112]}, "type": "Feature", "properties": {"collection_times": [{"days": "Mon-Sat", "time": "3:00pm"}, {"days": "Sun", "time": "Closed"}], "id": "3280100044", "name": "USPS COLLECTION BOX - BLUE BOX", "address": {"city": "ORLANDO", "state": "FL", "street": "201 E PINE ST", "postcode": "32801"}}},
{"geometry": {"type": "Point", "coordinates": [-81.376274444, 28.5421869357]}, "type": "Feature", "properties": {"collection_times": [{"days": "Mon-Fri", "time": "3:30pm"}, {"days": "Sat-Sun", "time": "Closed"}], "id": "3280100051", "name": "USPS COLLECTION BOX - BLUE BOX", "address": {"city": "ORLANDO", "state": "FL", "street": "101 E CENTRAL BLVD", "postcode": "32801"}}},
{"geometry": {"type": "Point", "coordinates": [-81.3699707142, 28.5457776296]}, "type": "Feature", "properties": {"collection_times": [{"days": "Mon-Fri", "time": "2:45pm"}, {"days": "Sat-Sun", "time": "Closed"}], "id": "3280100058", "name": "USPS COLLECTION BOX - BLUE BOX", "address": {"city": "ORLANDO", "state": "FL", "street": "605 E ROBINSON ST", "postcode": "32801"}}},
{"geometry": {"type": "Point", "coordinates": [-81.3693316578, 28.5436348775]}, "type": "Feature", "properties": {"collection_times": [{"days": "Mon-Fri", "time": "2:45pm"}, {"days": "Sat-Sun", "time": "Closed"}], "id": "3280100059", "name": "USPS COLLECTION BOX - BLUE BOX", "address": {"city": "ORLANDO", "state": "FL", "street": "611 E WASHINGTON ST", "postcode": "32801"}}},
{"geometry": {"type": "Point", "coordinates": [-81.3775390271, 28.5467212174]}, "type": "Feature", "properties": {"collection_times": [{"days": "Mon-Fri", "time": "3:00pm"}, {"days": "Sat-Sun", "time": "Closed"}], "id": "3280100065", "name": "USPS COLLECTION BOX - BLUE BOX", "address": {"city": "ORLANDO", "state": "FL", "street": "326 N MAGNOLIA AVE", "postcode": "32801"}}},
{"geometry": {"type": "Point", "coordinates": [-81.3791750594, 28.5519995803]}, "type": "Feature", "properties": {"collection_times": [{"days": "Mon-Fri", "time": "3:30pm"}, {"days": "Sat-Sun", "time": "Closed"}], "id": "3280100072", "name": "USPS COLLECTION BOX - BLUE BOX", "address": {"city": "ORLANDO", "state": "FL", "street": "633 N ORANGE AVE", "postcode": "32801"}}},
{"geometry": {"type": "Point", "coordinates": [-81.3767664985, 28.5495868752]}, "type": "Feature", "properties": {"collection_times": [{"days": "Mon-Fri", "time": "3:15pm"}, {"days": "Sat-Sun", "time": "Closed"}], "id": "3280100077", "name": "USPS COLLECTION BOX - BLUE BOX", "address": {"city": "ORLANDO", "state": "FL", "street": "101 E AMELIA ST", "postcode": "32801"}}},
{"geometry": {"type": "Point", "coordinates": [-81.3771309063, 28.5413399371]}, "type": "Feature", "properties": {"collection_times": [{"days": "Mon-Sat", "time": "3:00pm"}, {"days": "Sun", "time": "Closed"}], "id": "3280100085", "name": "USPS COLLECTION BOX - BLUE BOX", "address": {"city": "ORLANDO", "state": "FL", "street": "100 E PINE ST", "postcode": "32801"}}},
{"geometry": {"type": "Point", "coordinates": [-81.381320947, 28.5420189555]}, "type": "Feature", "properties": {"collection_times": [{"days": "Mon-Fri", "time": "4:00pm"}, {"days": "Sat-Sun", "time": "Closed"}], "id": "3280100097", "name": "USPS COLLECTION BOX - BLUE BOX", "address": {"city": "ORLANDO", "state": "FL", "street": "135 W CENTRAL BLVD", "postcode": "32801"}}},
{"geometry": {"type": "Point", "coordinates": [-81.3792886235, 28.5589033288]}, "type": "Feature", "properties": {"collection_times": [{"days": "Mon-Fri", "time": "3:15pm"}, {"days": "Sat-Sun", "time": "Closed"}], "id": "3280100098", "name": "USPS COLLECTION BOX - BLUE BOX", "address": {"city": "ORLANDO", "state": "FL", "street": "1000 LEGION PL", "postcode": "32801"}}},
{"geometry": {"type": "Point", "coordinates": [-81.379042568, 28.5440749382]}, "type": "Feature", "properties": {"collection_times": [{"days": "Mon-Fri", "time": "3:45pm"}, {"days": "Sat", "time": "3:15pm"}, {"days": "Sun", "time": "Closed"}], "id": "3280100099", "name": "USPS COLLECTION BOX - BLUE BOX", "address": {"city": "ORLANDO", "state": "FL", "street": "111 N ORANGE AVE", "postcode": "32801"}}},
{"geometry": {"type": "Point", "coordinates": [-81.3790118111, 28.540015023]}, "type": "Feature", "properties": {"collection_times": [{"days": "Mon-Fri", "time": "4:00pm"}, {"days": "Sat-Sun", "time": "Closed"}], "id": "3280100100", "name": "USPS COLLECTION BOX - BLUE BOX", "address": {"city": "ORLANDO", "state": "FL", "street": "200 S ORANGE AVE", "postcode": "32801"}}},
{"geometry": {"type": "Point", "coordinates": [-81.3791324729, 28.5484779115]}, "type": "Feature", "properties": {"collection_times": [{"days": "Mon-Fri", "time": "4:00pm"}, {"days": "Sat-Sun", "time": "Closed"}], "id": "3280100101", "name": "USPS COLLECTION BOX - BLUE BOX", "address": {"city": "ORLANDO", "state": "FL", "street": "400 S ORANGE AVE", "postcode": "32801"}}},
{"geometry": {"type": "Point", "coordinates": [-81.3744467724, 28.5456967749]}, "type": "Feature", "properties": {"collection_times": [{"days": "Mon-Fri", "time": "3:00pm"}, {"days": "Sat-Sun", "time": "Closed"}], "id": "3280100102", "name": "USPS COLLECTION BOX - BLUE BOX", "address": {"city": "ORLANDO", "state": "FL", "street": "225 E ROBINSON ST", "postcode": "32801"}}},
{"geometry": {"type": "Point", "coordinates": [-81.3847952974, 28.545694409]}, "type": "Feature", "properties": {"collection_times": [{"days": "Mon-Fri", "time": "4:00pm"}, {"days": "Sat-Sun", "time": "Closed"}], "id": "3280100103", "name": "USPS COLLECTION BOX - BLUE BOX", "address": {"city": "ORLANDO", "state": "FL", "street": "400 W ROBINSON ST", "postcode": "32801"}}},
{"geometry": {"type": "Point", "coordinates": [-81.3778922099, 28.5406653098]}, "type": "Feature", "properties": {"collection_times": [{"days": "Mon-Sat", "time": "3:15pm"}, {"days": "Sun", "time": "Closed"}], "id": "3280100104", "name": "USPS COLLECTION BOX - BLUE BOX", "address": {"city": "ORLANDO", "state": "FL", "street": "155 COURT", "postcode": "32801"}}},
{"geometry": {"type": "Point", "coordinates": [-81.3790118111, 28.540015023]}, "type": "Feature", "properties": {"collection_times": [{"days": "Mon-Fri", "time": "4:00pm"}, {"days": "Sat-Sun", "time": "Closed"}], "id": "3280100105", "name": "USPS COLLECTION BOX - BLUE BOX", "address": {"city": "ORLANDO", "state": "FL", "street": "200 S ORANGE AVE", "postcode": "32801"}}},
{"geometry": {"type": "Point", "coordinates": [-81.3847952974, 28.545694409]}, "type": "Feature", "properties": {"collection_times": [{"days": "Mon-Fri", "time": "4:00pm"}, {"days": "Sat-Sun", "time": "Closed"}], "id": "3280100106", "name": "USPS COLLECTION BOX - BLUE BOX", "address": {"city": "ORLANDO", "state": "FL", "street": "400 W ROBINSON ST", "postcode": "32801"}}},
{"geometry": {"type": "Point", "coordinates": [-81.3776951777, 28.5446427585]}, "type": "Feature", "properties": {"collection_times": [{"days": "Mon-Fri", "time": "5:00pm"}, {"days": "Sat", "time": "3:45pm"}, {"days": "Sun", "time": "Closed"}], "id": "3280200001", "name": "USPS COLLECTION BOX - BLUE BOX", "address": {"city": "ORLANDO", "state": "FL", "street": "51 E JEFFERSON ST", "postcode": "32802"}}},
{"geometry": {"type": "Point", "coordinates": [-81.3776951777, 28.5446427585]}, "type": "Feature", "properties": {"collection_times": [{"days": "Mon-Fri", "time": "5:00pm"}, {"days": "Sat", "time": "1:45pm"}, {"days": "Sun", "time": "Closed"}], "id": "3280200002", "name": "USPS COLLECTION BOX - PO LOBBY", "address": {"city": "ORLANDO", "state": "FL", "street": "51 E JEFFERSON ST", "postcode": "32802"}}},
{"geometry": {"type": "Point", "coordinates": [-81.3608581228, 28.553131672]}, "type": "Feature", "properties": {"collection_times": [{"days": "Mon-Sat", "time": "9:30am"}, {"days": "Sun", "time": "Closed"}], "id": "3280300001", "name": "USPS COLLECTION BOX - BLUE BOX", "address": {"city": "ORLANDO", "state": "FL", "street": "1516 E COLONIAL DR", "postcode": "32803"}}},
{"geometry": {"type": "Point", "coordinates": [-81.3602690092, 28.5516470585]}, "type": "Feature", "properties": {"collection_times": [{"days": "Mon-Sat", "time": "9:00am"}, {"days": "Sun", "time": "Closed"}], "id": "3280300003", "name": "USPS COLLECTION BOX - BLUE BOX", "address": {"city": "ORLANDO", "state": "FL", "street": "601 N FERNCREEK AVE", "postcode": "32803"}}},
{"geometry": {"type": "Point", "coordinates": [-81.3602713751, 28.547916006]}, "type": "Feature", "properties": {"collection_times": [{"days": "Mon-Sat", "time": "2:30pm"}, {"days": "Sun", "time": "Closed"}], "id": "3280300004", "name": "USPS COLLECTION BOX - BLUE BOX", "address": {"city": "ORLANDO", "state": "FL", "street": "400 N FERNCREEK AVE", "postcode": "32803"}}},
{"geometry": {"type": "Point", "coordinates": [-81.3518664517, 28.5435638999]}, "type": "Feature", "properties": {"collection_times": [{"days": "Mon-Sat", "time": "3:00pm"}, {"days": "Sun", "time": "Closed"}], "id": "3280300006", "name": "USPS COLLECTION BOX - BLUE BOX", "address": {"city": "ORLANDO", "state": "FL", "street": "51 N BUMBY AVE", "postcode": "32803"}}},
{"geometry": {"type": "Point", "coordinates": [-81.355605785, 28.5522716609]}, "type": "Feature", "properties": {"collection_times": [{"days": "Mon-Sat", "time": "10:30am"}, {"days": "Sun", "time": "Closed"}], "id": "3280300013", "name": "USPS COLLECTION BOX - BLUE BOX", "address": {"city": "ORLANDO", "state": "FL", "street": "2000 HILLCREST ST", "postcode": "32803"}}},
{"geometry": {"type": "Point", "coordinates": [-81.3606345435, 28.5522125129]}, "type": "Feature", "properties": {"collection_times": [{"days": "Mon-Fri", "time": "3:45pm"}, {"days": "Sat", "time": "3:30pm"}, {"days": "Sun", "time": "Closed"}], "id": "3280300022", "name": "USPS COLLECTION BOX - BLUE BOX", "address": {"city": "ORLANDO", "state": "FL", "street": "1516 HILLCREST ST", "postcode": "32803"}}},
{"geometry": {"type": "Point", "coordinates": [-81.3695753474, 28.5718484488]}, "type": "Feature", "properties": {"collection_times": [{"days": "Mon-Sat", "time": "9:00am"}, {"days": "Sun", "time": "Closed"}], "id": "3280300033", "name": "USPS COLLECTION BOX - BLUE BOX", "address": {"city": "ORLANDO", "state": "FL", "street": "615 E PRINCETON ST", "postcode": "32803"}}},
{"geometry": {"type": "Point", "coordinates": [-81.36451627, 28.5554941218]}, "type": "Feature", "properties": {"collection_times": [{"days": "Mon-Sat", "time": "11:00am"}, {"days": "Sun", "time": "Closed"}], "id": "3280300036", "name": "USPS COLLECTION BOX - BLUE BOX", "address": {"city": "ORLANDO", "state": "FL", "street": "814 N MILLS AVE", "postcode": "32803"}}},
{"geometry": {"type": "Point", "coordinates": [-81.369241753, 28.5531991007]}, "type": "Feature", "properties": {"collection_times": [{"days": "Mon-Sat", "time": "9:30am"}, {"days": "Sun", "time": "Closed"}], "id": "3280300038", "name": "USPS COLLECTION BOX - BLUE BOX", "address": {"city": "ORLANDO", "state": "FL", "street": "633 E COLONIAL DR", "postcode": "32803"}}},
{"geometry": {"type": "Point", "coordinates": [-81.3768824849, 28.5553887577]}, "type": "Feature", "properties": {"collection_times": [{"days": "Mon-Sat", "time": "2:30pm"}, {"days": "Sun", "time": "Closed"}], "id": "3280300041", "name": "USPS COLLECTION BOX - BLUE BOX", "address": {"city": "ORLANDO", "state": "FL", "street": "801 N MAGNOLIA AVE", "postcode": "32803"}}},
{"geometry": {"type": "Point", "coordinates": [-81.3487635503, 28.5531647949]}, "type": "Feature", "properties": {"collection_times": [{"days": "Mon-Sat", "time": "3:00pm"}, {"days": "Sun", "time": "Closed"}], "id": "3280300054", "name": "USPS COLLECTION BOX - BLUE BOX", "address": {"city": "ORLANDO", "state": "FL", "street": "2764 E COLONIAL DR", "postcode": "32803"}}},
{"geometry": {"type": "Point", "coordinates": [-81.3501440634, 28.5532972863]}, "type": "Feature", "properties": {"collection_times": [{"days": "Mon-Sat", "time": "9:00am"}, {"days": "Sun", "time": "Closed"}], "id": "3280300057", "name": "USPS COLLECTION BOX - BLUE BOX", "address": {"city": "ORLANDO", "state": "FL", "street": "2525 E COLONIAL DR", "postcode": "32803"}}},
{"geometry": {"type": "Point", "coordinates": [-81.3398591052, 28.5535226139]}, "type": "Feature", "properties": {"collection_times": [{"days": "Mon-Sat", "time": "2:00pm"}, {"days": "Sun", "time": "Closed"}], "id": "3280300061", "name": "USPS COLLECTION BOX - BLUE BOX", "address": {"city": "ORLANDO", "state": "FL", "street": "3461 E COLONIAL DR", "postcode": "32803"}}},
{"geometry": {"type": "Point", "coordinates": [-81.3283460077, 28.5532522821]}, "type": "Feature", "properties": {"collection_times": [{"days": "Mon-Sat", "time": "10:00am"}, {"days": "Sun", "time": "Closed"}], "id": "3280300062", "name": "USPS COLLECTION BOX - BLUE BOX", "address": {"city": "ORLANDO", "state": "FL", "street": "4688 E COLONIAL DR", "postcode": "32803"}}},
{"geometry": {"type": "Point", "coordinates": [-81.3445463016, 28.5678606941]}, "type": "Feature", "properties": {"collection_times": [{"days": "Mon-Sat", "time": "10:30am"}, {"days": "Sun", "time": "Closed"}], "id": "3280300064", "name": "USPS COLLECTION BOX - BLUE BOX", "address": {"city": "ORLANDO", "state": "FL", "street": "3120 CORRINE DR", "postcode": "32803"}}},
{"geometry": {"type": "Point", "coordinates": [-81.343958371, 28.5577357483]}, "type": "Feature", "properties": {"collection_times": [{"days": "Mon-Sat", "time": "3:15pm"}, {"days": "Sun", "time": "Closed"}], "id": "3280300076", "name": "USPS COLLECTION BOX - BLUE BOX", "address": {"city": "ORLANDO", "state": "FL", "street": "999 WOODCOCK RD", "postcode": "32803"}}},
{"geometry": {"type": "Point", "coordinates": [-81.3438566365, 28.5602388895]}, "type": "Feature", "properties": {"collection_times": [{"days": "Mon-Sat", "time": "3:00pm"}, {"days": "Sun", "time": "Closed"}], "id": "3280300077", "name": "USPS COLLECTION BOX - BLUE BOX", "address": {"city": "ORLANDO", "state": "FL", "street": "1080 WOODCOCK RD", "postcode": "32803"}}},
{"geometry": {"type": "Point", "coordinates": [-81.3935338153, 28.6044661763]}, "type": "Feature", "properties": {"collection_times": [{"days": "Mon-Sat", "time": "2:45pm"}, {"days": "Sun", "time": "Closed"}], "id": "3280400001", "name": "USPS COLLECTION BOX - BLUE BOX", "address": {"city": "ORLANDO", "state": "FL", "street": "5125 ADANSON ST", "postcode": "32804"}}},
{"geometry": {"type": "Point", "coordinates": [-81.3730366853, 28.5794560579]}, "type": "Feature", "properties": {"collection_times": [{"days": "Mon-Sat", "time": "2:45pm"}, {"days": "Sun", "time": "Closed"}], "id": "3280400002", "name": "USPS COLLECTION BOX - BLUE BOX", "address": {"city": "ORLANDO", "state": "FL", "street": "3100 CLAY AVE", "postcode": "32804"}}},
{"geometry": {"type": "Point", "coordinates": [-81.3877089254, 28.6031412623]}, "type": "Feature", "properties": {"collection_times": [{"days": "Mon-Sat", "time": "3:00pm"}, {"days": "Sun", "time": "Closed"}], "id": "3280400010", "name": "USPS COLLECTION BOX - BLUE BOX", "address": {"city": "ORLANDO", "state": "FL", "street": "602 COURTLAND ST", "postcode": "32804"}}},
{"geometry": {"type": "Point", "coordinates": [-81.3893177496, 28.5625988926]}, "type": "Feature", "properties": {"collection_times": [{"days": "Mon-Sat", "time": "3:15pm"}, {"days": "Sun", "time": "Closed"}], "id": "3280400014", "name": "USPS COLLECTION BOX - BLUE BOX", "address": {"city": "ORLANDO", "state": "FL", "street": "1216 EDGEWATER DR", "postcode": "32804"}}},
{"geometry": {"type": "Point", "coordinates": [-81.3893816293, 28.5671225277]}, "type": "Feature", "properties": {"collection_times": [{"days": "Mon-Fri", "time": "5:00pm"}, {"days": "Sat", "time": "4:15pm"}, {"days": "Sun", "time": "Closed"}], "id": "3280400016", "name": "USPS COLLECTION BOX - BLUE BOX", "address": {"city": "ORLANDO", "state": "FL", "street": "1705 EDGEWATER DR", "postcode": "32804"}}},
{"geometry": {"type": "Point", "coordinates": [-81.3896489781, 28.5814931132]}, "type": "Feature", "properties": {"collection_times": [{"days": "Mon-Sat", "time": "3:15pm"}, {"days": "Sun", "time": "Closed"}], "id": "3280400023", "name": "USPS COLLECTION BOX - BLUE BOX", "address": {"city": "ORLANDO", "state": "FL", "street": "3310 EDGEWATER DR", "postcode": "32804"}}},
{"geometry": {"type": "Point", "coordinates": [-81.39773, 28.59589]}, "type": "Feature", "properties": {"collection_times": [{"days": "Mon-Sat", "time": "3:00pm"}, {"days": "Sun", "time": "Closed"}], "id": "3280400024", "name": "USPS COLLECTION BOX - BLUE BOX", "address": {"city": "ORLANDO", "state": "FL", "street": "4353 EDGEWATER DR", "postcode": "32804"}}},
{"geometry": {"type": "Point", "coordinates": [-81.3730059284, 28.5781240461]}, "type": "Feature", "properties": {"collection_times": [{"days": "Mon-Sat", "time": "2:45pm"}, {"days": "Sun", "time": "Closed"}], "id": "3280400031", "name": "USPS COLLECTION BOX - BLUE BOX", "address": {"city": "ORLANDO", "state": "FL", "street": "2909 N ORANGE AVE", "postcode": "32804"}}},
{"geometry": {"type": "Point", "coordinates": [-81.3729148405, 28.5749809241]}, "type": "Feature", "properties": {"collection_times": [{"days": "Mon-Sat", "time": "2:30pm"}, {"days": "Sun", "time": "Closed"}], "id": "3280400032", "name": "USPS COLLECTION BOX - BLUE BOX", "address": {"city": "ORLANDO", "state": "FL", "street": "2501 N ORANGE AVE", "postcode": "32804"}}},
{"geometry": {"type": "Point", "coordinates": [-81.3893816293, 28.5671225277]}, "type": "Feature", "properties": {"collection_times": [{"days": "Mon-Fri", "time": "5:00pm"}, {"days": "Sat", "time": "4:15pm"}, {"days": "Sun", "time": "Closed"}], "id": "3280400049", "name": "USPS COLLECTION BOX - PO LOBBY", "address": {"city": "ORLANDO", "state": "FL", "street": "1705 EDGEWATER DR", "postcode": "32804"}}},
{"geometry": {"type": "Point", "coordinates": [-81.3894750831, 28.5736820352]}, "type": "Feature", "properties": {"collection_times": [{"days": "Mon-Sat", "time": "3:15pm"}, {"days": "Sun", "time": "Closed"}], "id": "3280400050", "name": "USPS COLLECTION BOX - BLUE BOX", "address": {"city": "ORLANDO", "state": "FL", "street": "2424 EDGEWATER DR", "postcode": "32804"}}},
{"geometry": {"type": "Point", "coordinates": [-81.3893816293, 28.5671225277]}, "type": "Feature", "properties": {"collection_times": [{"days": "Mon-Fri", "time": "5:00pm"}, {"days": "Sat", "time": "4:15pm"}, {"days": "Sun", "time": "Closed"}], "id": "3280400051", "name": "USPS COLLECTION BOX - APC", "address": {"city": "ORLANDO", "state": "FL", "street": "1705 EDGEWATER DR", "postcode": "32804"}}},
{"geometry": {"type": "Point", "coordinates": [-81.3893816293, 28.5671225277]}, "type": "Feature", "properties": {"collection_times": [{"days": "Mon-Fri", "time": "5:00pm"}, {"days": "Sat", "time": "4:15pm"}, {"days": "Sun", "time": "Closed"}], "id": "3280400052", "name": "USPS COLLECTION BOX - PO LOBBY", "address": {"city": "ORLANDO", "state": "FL", "street": "1705 EDGEWATER DR", "postcode": "32804"}}},
{"geometry": {"type": "Point", "coordinates": [-81.3972636849, 28.5367547881]}, "type": "Feature", "properties": {"collection_times": [{"days": "Mon-Fri", "time": "5:00pm"}, {"days": "Sat", "time": "3:45pm"}, {"days": "Sun", "time": "Closed"}], "id": "3280500019", "name": "USPS COLLECTION BOX - BLUE BOX", "address": {"city": "ORLANDO", "state": "FL", "street": "440 S ORANGE BLOSSOM TRL", "postcode": "32805"}}},
{"geometry": {"type": "Point", "coordinates": [-81.3972636849, 28.5367547881]}, "type": "Feature", "properties": {"collection_times": [{"days": "Mon-Fri", "time": "5:00pm"}, {"days": "Sat-Sun", "time": "Closed"}], "id": "3280500026", "name": "USPS COLLECTION BOX - PO LOBBY", "address": {"city": "ORLANDO", "state": "FL", "street": "440 S ORANGE BLOSSOM TRL", "postcode": "32805"}}},
{"geometry": {"type": "Point", "coordinates": [-81.3802444543, 28.5311227205]}, "type": "Feature", "properties": {"collection_times": [{"days": "Mon-Fri", "time": "2:30pm"}, {"days": "Sat-Sun", "time": "Closed"}], "id": "3280600002", "name": "USPS COLLECTION BOX - BLUE BOX", "address": {"city": "ORLANDO", "state": "FL", "street": "100 W GORE ST", "postcode": "32806"}}},
{"geometry": {"type": "Point", "coordinates": [-81.3721967845, 28.5110597364]}, "type": "Feature", "properties": {"collection_times": [{"days": "Mon-Fri", "time": "5:00pm"}, {"days": "Sat", "time": "3:00pm"}, {"days": "Sun", "time": "Closed"}], "id": "3280600020", "name": "USPS COLLECTION BOX - PO LOBBY", "address": {"city": "ORLANDO", "state": "FL", "street": "2860 DELANEY AVE", "postcode": "32806"}}},
{"geometry": {"type": "Point", "coordinates": [-81.3721967845, 28.5110597364]}, "type": "Feature", "properties": {"collection_times": [{"days": "Mon-Fri", "time": "5:00pm"}, {"days": "Sat", "time": "3:00pm"}, {"days": "Sun", "time": "Closed"}], "id": "3280600021", "name": "USPS COLLECTION BOX - BLUE BOX", "address": {"city": "ORLANDO", "state": "FL", "street": "2860 DELANEY AVE", "postcode": "32806"}}},
{"geometry": {"type": "Point", "coordinates": [-81.3425920534, 28.5241681047]}, "type": "Feature", "properties": {"collection_times": [{"days": "Mon-Fri", "time": "2:30pm"}, {"days": "Sat", "time": "1:00pm"}, {"days": "Sun", "time": "Closed"}], "id": "3280600022", "name": "USPS COLLECTION BOX - BLUE BOX", "address": {"city": "ORLANDO", "state": "FL", "street": "3219 CURRY FORD RD", "postcode": "32806"}}},
{"geometry": {"type": "Point", "coordinates": [-81.3721967845, 28.5110597364]}, "type": "Feature", "properties": {"collection_times": [{"days": "Mon-Fri", "time": "5:00pm"}, {"days": "Sat", "time": "3:00pm"}, {"days": "Sun", "time": "Closed"}], "id": "3280600040", "name": "USPS COLLECTION BOX - APC", "address": {"city": "ORLANDO", "state": "FL", "street": "2860 DELANEY AVE", "postcode": "32806"}}},
{"geometry": {"type": "Point", "coordinates": [-81.3721967845, 28.5110597364]}, "type": "Feature", "properties": {"collection_times": [{"days": "Mon-Fri", "time": "5:00pm"}, {"days": "Sat", "time": "3:00pm"}, {"days": "Sun", "time": "Closed"}], "id": "3280600044", "name": "USPS COLLECTION BOX - PO LOBBY", "address": {"city": "ORLANDO", "state": "FL", "street": "2860 DELANEY AVE", "postcode": "32806"}}},
{"geometry": {"type": "Point", "coordinates": [-81.3106143067, 28.5483004676]}, "type": "Feature", "properties": {"collection_times": [{"days": "Mon-Fri", "time": "5:00pm"}, {"days": "Sat", "time": "3:00pm"}, {"days": "Sun", "time": "Closed"}], "id": "3280700001", "name": "USPS COLLECTION BOX - BLUE BOX", "address": {"city": "ORLANDO", "state": "FL", "street": "501 N SEMORAN BLVD", "postcode": "32807"}}},
{"geometry": {"type": "Point", "coordinates": [-81.3106143067, 28.5483004676]}, "type": "Feature", "properties": {"collection_times": [{"days": "Mon-Fri", "time": "5:00pm"}, {"days": "Sat", "time": "3:00pm"}, {"days": "Sun", "time": "Closed"}], "id": "3280700002", "name": "USPS COLLECTION BOX - BLUE BOX", "address": {"city": "ORLANDO", "state": "FL", "street": "501 N SEMORAN BLVD", "postcode": "32807"}}},
{"geometry": {"type": "Point", "coordinates": [-81.3108035801, 28.5649399684]}, "type": "Feature", "properties": {"collection_times": [{"days": "Mon-Sat", "time": "2:30pm"}, {"days": "Sun", "time": "Closed"}], "id": "3280700010", "name": "USPS COLLECTION BOX - BLUE BOX", "address": {"city": "ORLANDO", "state": "FL", "street": "1417 N SEMORAN BLVD", "postcode": "32807"}}},
{"geometry": {"type": "Point", "coordinates": [-81.3108769235, 28.5642006191]}, "type": "Feature", "properties": {"collection_times": [{"days": "Mon-Fri", "time": "2:45pm"}, {"days": "Sat", "time": "2:30pm"}, {"days": "Sun", "time": "Closed"}], "id": "3280700011", "name": "USPS COLLECTION BOX - BLUE BOX", "address": {"city": "ORLANDO", "state": "FL", "street": "1320 N SEMORAN BLVD", "postcode": "32807"}}},
{"geometry": {"type": "Point", "coordinates": [-81.3105161211, 28.5285355892]}, "type": "Feature", "properties": {"collection_times": [{"days": "Mon-Fri", "time": "3:00pm"}, {"days": "Sat", "time": "2:45pm"}, {"days": "Sun", "time": "Closed"}], "id": "3280700018", "name": "USPS COLLECTION BOX - BLUE BOX", "address": {"city": "ORLANDO", "state": "FL", "street": "1130 S SEMORAN BLVD", "postcode": "32807"}}},
{"geometry": {"type": "Point", "coordinates": [-81.310865094, 28.5631418708]}, "type": "Feature", "properties": {"collection_times": [{"days": "Mon-Fri", "time": "2:30pm"}, {"days": "Sat", "time": "2:15pm"}, {"days": "Sun", "time": "Closed"}], "id": "3280700020", "name": "USPS COLLECTION BOX - BLUE BOX", "address": {"city": "ORLANDO", "state": "FL", "street": "1277 N SEMORAN BLVD", "postcode": "32807"}}},
{"geometry": {"type": "Point", "coordinates": [-81.3106143067, 28.5483004676]}, "type": "Feature", "properties": {"collection_times": [{"days": "Mon-Fri", "time": "5:00pm"}, {"days": "Sat", "time": "12:00pm"}, {"days": "Sun", "time": "Closed"}], "id": "3280700028", "name": "USPS COLLECTION BOX - PO LOBBY", "address": {"city": "ORLANDO", "state": "FL", "street": "501 N SEMORAN BLVD", "postcode": "32807"}}},
{"geometry": {"type": "Point", "coordinates": [-81.2955682516, 28.5790597666]}, "type": "Feature", "properties": {"collection_times": [{"days": "Mon-Fri", "time": "2:45pm"}, {"days": "Sat-Sun", "time": "Closed"}], "id": "3280700030", "name": "USPS COLLECTION BOX - BLUE BOX", "address": {"city": "ORLANDO", "state": "FL", "street": "6955 HANGING MOSS RD", "postcode": "32807"}}},
{"geometry": {"type": "Point", "coordinates": [-81.3107279926, 28.5416796228]}, "type": "Feature", "properties": {"collection_times": [{"days": "Mon-Fri", "time": "3:00pm"}, {"days": "Sat", "time": "2:30pm"}, {"days": "Sun", "time": "Closed"}], "id": "3280700031", "name": "USPS COLLECTION BOX - BLUE BOX", "address": {"city": "ORLANDO", "state": "FL", "street": "142 S SEMORAN BLVD", "postcode": "32807"}}},
{"geometry": {"type": "Point", "coordinates": [-81.4509167888, 28.5963439801]}, "type": "Feature", "properties": {"collection_times": [{"days": "Mon-Fri", "time": "2:45pm"}, {"days": "Sat", "time": "1:45pm"}, {"days": "Sun", "time": "Closed"}], "id": "3280800005", "name": "USPS COLLECTION BOX - BLUE BOX", "address": {"city": "ORLANDO", "state": "FL", "street": "5185 NORTH LN", "postcode": "32808"}}},
{"geometry": {"type": "Point", "coordinates": [-81.4494558345, 28.5542176284]}, "type": "Feature", "properties": {"collection_times": [{"days": "Mon-Fri", "time": "4:45pm"}, {"days": "Sat-Sun", "time": "Closed"}], "id": "3280800008", "name": "USPS COLLECTION BOX - PO LOBBY", "address": {"city": "ORLANDO", "state": "FL", "street": "811 DEAUVILLE DR", "postcode": "32808"}}},
{"geometry": {"type": "Point", "coordinates": [-81.4494558345, 28.5542176284]}, "type": "Feature", "properties": {"collection_times": [{"days": "Mon-Fri", "time": "5:00pm"}, {"days": "Sat", "time": "2:00pm"}, {"days": "Sun", "time": "Closed"}], "id": "3280800010", "name": "USPS COLLECTION BOX - BLUE BOX", "address": {"city": "ORLANDO", "state": "FL", "street": "811 DEAUVILLE DR", "postcode": "32808"}}},
{"geometry": {"type": "Point", "coordinates": [-81.488271084, 28.5520563623]}, "type": "Feature", "properties": {"collection_times": [{"days": "Mon-Sat", "time": "12:00pm"}, {"days": "Sun", "time": "Closed"}], "id": "3280800016", "name": "USPS COLLECTION BOX - BLUE BOX", "address": {"city": "ORLANDO", "state": "FL", "street": "7649 W COLONIAL DR", "postcode": "32808"}}},
{"geometry": {"type": "Point", "coordinates": [-81.451399436, 28.5959808117]}, "type": "Feature", "properties": {"collection_times": [{"days": "Mon-Sat", "time": "12:00pm"}, {"days": "Sun", "time": "Closed"}], "id": "3280800032", "name": "USPS COLLECTION BOX - BLUE BOX", "address": {"city": "ORLANDO", "state": "FL", "street": "4305 N PINE HILLS RD", "postcode": "32808"}}},
{"geometry": {"type": "Point", "coordinates": [-81.4007321206, 28.4709680742]}, "type": "Feature", "properties": {"collection_times": [{"days": "Mon-Fri", "time": "10:00am"}, {"days": "Sat", "time": "9:50am"}, {"days": "Sun", "time": "Closed"}], "id": "3280900006", "name": "USPS COLLECTION BOX - BLUE BOX", "address": {"city": "ORLANDO", "state": "FL", "street": "6021 S RIO GRANDE AVE", "postcode": "32809"}}},
{"geometry": {"type": "Point", "coordinates": [-81.4155333982, 28.4724785114]}, "type": "Feature", "properties": {"collection_times": [{"days": "Mon-Fri", "time": "1:30pm"}, {"days": "Sat", "time": "1:15pm"}, {"days": "Sun", "time": "Closed"}], "id": "3280900010", "name": "USPS COLLECTION BOX - BLUE BOX", "address": {"city": "ORLANDO", "state": "FL", "street": "2901 W OAK RIDGE RD", "postcode": "32809"}}},
{"geometry": {"type": "Point", "coordinates": [-81.3650647249, 28.4561728064]}, "type": "Feature", "properties": {"collection_times": [{"days": "Mon-Fri", "time": "5:00pm"}, {"days": "Sat", "time": "2:00pm"}, {"days": "Sun", "time": "Closed"}], "id": "3280900012", "name": "USPS COLLECTION BOX - BLUE BOX", "address": {"city": "ORLANDO", "state": "FL", "street": "7707 S ORANGE AVE", "postcode": "32809"}}},
{"geometry": {"type": "Point", "coordinates": [-81.3650647249, 28.4561728064]}, "type": "Feature", "properties": {"collection_times": [{"days": "Mon-Fri", "time": "5:00pm"}, {"days": "Sat", "time": "2:00pm"}, {"days": "Sun", "time": "Closed"}], "id": "3280900013", "name": "USPS COLLECTION BOX - BLUE BOX", "address": {"city": "ORLANDO", "state": "FL", "street": "7707 S ORANGE AVE", "postcode": "32809"}}},
{"geometry": {"type": "Point", "coordinates": [-81.3968733085, 28.4661132106]}, "type": "Feature", "properties": {"collection_times": [{"days": "Mon-Fri", "time": "12:30pm"}, {"days": "Sat", "time": "12:15pm"}, {"days": "Sun", "time": "Closed"}], "id": "3280900014", "name": "USPS COLLECTION BOX - BLUE BOX", "address": {"city": "ORLANDO", "state": "FL", "street": "6220 S ORANGE BLOSSOM TRL", "postcode": "32809"}}},
{"geometry": {"type": "Point", "coordinates": [-81.4122269329, 28.4537453746]}, "type": "Feature", "properties": {"collection_times": [{"days": "Mon-Fri", "time": "12:00pm"}, {"days": "Sat", "time": "11:00am"}, {"days": "Sun", "time": "Closed"}], "id": "3280900021", "name": "USPS COLLECTION BOX - BLUE BOX", "address": {"city": "ORLANDO", "state": "FL", "street": "7594 CHANCELLOR DR", "postcode": "32809"}}},
{"geometry": {"type": "Point", "coordinates": [-81.3903236808, 28.4576268632]}, "type": "Feature", "properties": {"collection_times": [{"days": "Mon-Sat", "time": "2:00pm"}, {"days": "Sun", "time": "Closed"}], "id": "3280900023", "name": "USPS COLLECTION BOX - BLUE BOX", "address": {"city": "ORLANDO", "state": "FL", "street": "1747 ORL CENTRAL PKWY", "postcode": "32809"}}},
{"geometry": {"type": "Point", "coordinates": [-81.402883923, 28.4621112604]}, "type": "Feature", "properties": {"collection_times": [{"days": "Mon-Fri", "time": "10:15am"}, {"days": "Sat", "time": "9:15am"}, {"days": "Sun", "time": "Closed"}], "id": "3280900027", "name": "USPS COLLECTION BOX - BLUE BOX", "address": {"city": "ORLANDO", "state": "FL", "street": "7200 LAKE ELLENOR DR", "postcode": "32809"}}},
{"geometry": {"type": "Point", "coordinates": [-81.4070574022, 28.4523920695]}, "type": "Feature", "properties": {"collection_times": [{"days": "Mon-Fri", "time": "10:00am"}, {"days": "Sat", "time": "9:45am"}, {"days": "Sun", "time": "Closed"}], "id": "3280900035", "name": "USPS COLLECTION BOX - BLUE BOX", "address": {"city": "ORLANDO", "state": "FL", "street": "7800 SOUTHLAND BLVD", "postcode": "32809"}}},
{"geometry": {"type": "Point", "coordinates": [-81.3993539734, 28.4554713117]}, "type": "Feature", "properties": {"collection_times": [{"days": "Mon-Fri", "time": "12:30pm"}, {"days": "Sat", "time": "12:00pm"}, {"days": "Sun", "time": "Closed"}], "id": "3280900038", "name": "USPS COLLECTION BOX - BLUE BOX", "address": {"city": "ORLANDO", "state": "FL", "street": "7611 S ORANGE BLOSSOM TRL", "postcode": "32809"}}},
{"geometry": {"type": "Point", "coordinates": [-81.3992971914, 28.4502083273]}, "type": "Feature", "properties": {"collection_times": [{"days": "Mon-Fri", "time": "2:00pm"}, {"days": "Sat", "time": "12:15pm"}, {"days": "Sun", "time": "Closed"}], "id": "3280900039", "name": "USPS COLLECTION BOX - BLUE BOX", "address": {"city": "ORLANDO", "state": "FL", "street": "1650 SAND LAKE RD", "postcode": "32809"}}},
{"geometry": {"type": "Point", "coordinates": [-81.3964782002, 28.4596010215]}, "type": "Feature", "properties": {"collection_times": [{"days": "Mon-Fri", "time": "12:30pm"}, {"days": "Sat", "time": "12:00pm"}, {"days": "Sun", "time": "Closed"}], "id": "3280900043", "name": "USPS COLLECTION BOX - BLUE BOX", "address": {"city": "ORLANDO", "state": "FL", "street": "7245 CHANCERY LN", "postcode": "32809"}}},
{"geometry": {"type": "Point", "coordinates": [-81.3650647249, 28.4561728064]}, "type": "Feature", "properties": {"collection_times": [{"days": "Mon-Fri", "time": "4:45pm"}, {"days": "Sat", "time": "2:00pm"}, {"days": "Sun", "time": "Closed"}], "id": "3280900047", "name": "USPS COLLECTION BOX - PO LOBBY", "address": {"city": "ORLANDO", "state": "FL", "street": "7707 S ORANGE AVE", "postcode": "32809"}}},
{"geometry": {"type": "Point", "coordinates": [-81.3650647249, 28.4561728064]}, "type": "Feature", "properties": {"collection_times": [{"days": "Mon-Fri", "time": "4:45pm"}, {"days": "Sat", "time": "2:00pm"}, {"days": "Sun", "time": "Closed"}], "id": "3280900050", "name": "USPS COLLECTION BOX - APC", "address": {"city": "ORLANDO", "state": "FL", "street": "7707 S ORANGE AVE", "postcode": "32809"}}},
{"geometry": {"type": "Point", "coordinates": [-81.3722476517, 28.4853753314]}, "type": "Feature", "properties": {"collection_times": [{"days": "Mon-Fri", "time": "10:15am"}, {"days": "Sat", "time": "10:00am"}, {"days": "Sun", "time": "Closed"}], "id": "3280900051", "name": "USPS COLLECTION BOX - BLUE BOX", "address": {"city": "ORLANDO", "state": "FL", "street": "5210 S ORANGE AVE", "postcode": "32809"}}},
{"geometry": {"type": "Point", "coordinates": [-81.3650647249, 28.4561728064]}, "type": "Feature", "properties": {"collection_times": [{"days": "Mon-Fri", "time": "4:45pm"}, {"days": "Sat", "time": "2:00pm"}, {"days": "Sun", "time": "Closed"}], "id": "3280900052", "name": "USPS COLLECTION BOX - PO LOBBY", "address": {"city": "ORLANDO", "state": "FL", "street": "7707 S ORANGE AVE", "postcode": "32809"}}},
{"geometry": {"type": "Point", "coordinates": [-81.3650647249, 28.4561728064]}, "type": "Feature", "properties": {"collection_times": [{"days": "Mon-Fri", "time": "4:45pm"}, {"days": "Sat", "time": "2:00pm"}, {"days": "Sun", "time": "Closed"}], "id": "3280900053", "name": "USPS COLLECTION BOX - PO LOBBY", "address": {"city": "ORLANDO", "state": "FL", "street": "7707 S ORANGE AVE", "postcode": "32809"}}},
{"geometry": {"type": "Point", "coordinates": [-81.4097675612, 28.6058608849]}, "type": "Feature", "properties": {"collection_times": [{"days": "Mon-Fri", "time": "5:00pm"}, {"days": "Sat", "time": "3:45pm"}, {"days": "Sun", "time": "Closed"}], "id": "3281000001", "name": "USPS COLLECTION BOX - BLUE BOX", "address": {"city": "ORLANDO", "state": "FL", "street": "5087 EDGEWATER DR", "postcode": "32810"}}},
{"geometry": {"type": "Point", "coordinates": [-81.4211393457, 28.6048660164]}, "type": "Feature", "properties": {"collection_times": [{"days": "Mon-Fri", "time": "2:30pm"}, {"days": "Sat-Sun", "time": "Closed"}], "id": "3281000008", "name": "USPS COLLECTION BOX - BLUE BOX", "address": {"city": "ORLANDO", "state": "FL", "street": "5104 N ORANGE BLOSSOM TRL", "postcode": "32810"}}},
{"geometry": {"type": "Point", "coordinates": [-81.4333285549, 28.6134874214]}, "type": "Feature", "properties": {"collection_times": [{"days": "Mon-Sat", "time": "2:15pm"}, {"days": "Sun", "time": "Closed"}], "id": "3281000025", "name": "USPS COLLECTION BOX - BLUE BOX", "address": {"city": "ORLANDO", "state": "FL", "street": "6325 N ORANGE BLOSSOM TRL", "postcode": "32810"}}},
{"geometry": {"type": "Point", "coordinates": [-81.4213132407, 28.6139913619]}, "type": "Feature", "properties": {"collection_times": [{"days": "Mon-Sat", "time": "2:15pm"}, {"days": "Sun", "time": "Closed"}], "id": "3281000027", "name": "USPS COLLECTION BOX - BLUE BOX", "address": {"city": "ORLANDO", "state": "FL", "street": "6239 EDGEWATER DR", "postcode": "32810"}}},
{"geometry": {"type": "Point", "coordinates": [-81.4046441659, 28.6184783253]}, "type": "Feature", "properties": {"collection_times": [{"days": "Mon-Fri", "time": "2:15pm"}, {"days": "Sat-Sun", "time": "Closed"}], "id": "3281000029", "name": "USPS COLLECTION BOX - BLUE BOX", "address": {"city": "ORLANDO", "state": "FL", "street": "995 KENNEDY BLVD", "postcode": "32810"}}},
{"geometry": {"type": "Point", "coordinates": [-81.4097675612, 28.6058608849]}, "type": "Feature", "properties": {"collection_times": [{"days": "Mon-Fri", "time": "5:00pm"}, {"days": "Sat", "time": "3:45pm"}, {"days": "Sun", "time": "Closed"}], "id": "3281000033", "name": "USPS COLLECTION BOX - PO LOBBY", "address": {"city": "ORLANDO", "state": "FL", "street": "5087 EDGEWATER DR", "postcode": "32810"}}},
{"geometry": {"type": "Point", "coordinates": [-81.4025219375, 28.6384230134]}, "type": "Feature", "properties": {"collection_times": [{"days": "Mon-Fri", "time": "2:00pm"}, {"days": "Sat-Sun", "time": "Closed"}], "id": "3281000037", "name": "USPS COLLECTION BOX - BLUE BOX", "address": {"city": "ORLANDO", "state": "FL", "street": "1950 SUMMIT PARK DR", "postcode": "32810"}}},
{"geometry": {"type": "Point", "coordinates": [-81.4015575536, 28.6383512689]}, "type": "Feature", "properties": {"collection_times": [{"days": "Mon-Fri", "time": "9:30am"}, {"days": "Sat-Sun", "time": "Closed"}], "id": "3281000038", "name": "USPS COLLECTION BOX - BLUE BOX", "address": {"city": "ORLANDO", "state": "FL", "street": "1958 SUMMIT PARK DR", "postcode": "32810"}}},
{"geometry": {"type": "Point", "coordinates": [-81.4097675612, 28.6058608849]}, "type": "Feature", "properties": {"collection_times": [{"days": "Mon-Fri", "time": "5:00pm"}, {"days": "Sat", "time": "3:45pm"}, {"days": "Sun", "time": "Closed"}], "id": "3281000040", "name": "USPS COLLECTION BOX - PO LOBBY", "address": {"city": "ORLANDO", "state": "FL", "street": "5087 EDGEWATER DR", "postcode": "32810"}}},
{"geometry": {"type": "Point", "coordinates": [-81.4097675612, 28.6058608849]}, "type": "Feature", "properties": {"collection_times": [{"days": "Mon-Fri", "time": "5:00pm"}, {"days": "Sat", "time": "3:45pm"}, {"days": "Sun", "time": "Closed"}], "id": "3281000041", "name": "USPS COLLECTION BOX - PO LOBBY", "address": {"city": "ORLANDO", "state": "FL", "street": "5087 EDGEWATER DR", "postcode": "32810"}}},
{"geometry": {"type": "Point", "coordinates": [-81.4590803886, 28.4950578505]}, "type": "Feature", "properties": {"collection_times": [{"days": "Mon-Fri", "time": "3:15pm"}, {"days": "Sat", "time": "3:00pm"}, {"days": "Sun", "time": "Closed"}], "id": "3281100001", "name": "USPS COLLECTION BOX - BLUE BOX", "address": {"city": "ORLANDO", "state": "FL", "street": "4606 S KIRKMAN RD", "postcode": "32811"}}},
{"geometry": {"type": "Point", "coordinates": [-81.4590508146, 28.4922140172]}, "type": "Feature", "properties": {"collection_times": [{"days": "Mon-Sat", "time": "11:00am"}, {"days": "Sun", "time": "Closed"}], "id": "3281100002", "name": "USPS COLLECTION BOX - BLUE BOX", "address": {"city": "ORLANDO", "state": "FL", "street": "6735 CONROY RD", "postcode": "32811"}}},
{"geometry": {"type": "Point", "coordinates": [-81.4522878382, 28.4944415289]}, "type": "Feature", "properties": {"collection_times": [{"days": "Mon-Sat", "time": "1:00pm"}, {"days": "Sun", "time": "Closed"}], "id": "3281100003", "name": "USPS COLLECTION BOX - BLUE BOX", "address": {"city": "ORLANDO", "state": "FL", "street": "5389 CONROY RD", "postcode": "32811"}}},
{"geometry": {"type": "Point", "coordinates": [-81.431170733, 28.5004671375]}, "type": "Feature", "properties": {"collection_times": [{"days": "Mon-Fri", "time": "3:30pm"}, {"days": "Sat", "time": "3:15pm"}, {"days": "Sun", "time": "Closed"}], "id": "3281100005", "name": "USPS COLLECTION BOX - BLUE BOX", "address": {"city": "ORLANDO", "state": "FL", "street": "4301 VINELAND RD", "postcode": "32811"}}},
{"geometry": {"type": "Point", "coordinates": [-81.431170733, 28.5004671375]}, "type": "Feature", "properties": {"collection_times": [{"days": "Mon-Fri", "time": "3:30pm"}, {"days": "Sat", "time": "3:15pm"}, {"days": "Sun", "time": "Closed"}], "id": "3281100007", "name": "USPS COLLECTION BOX - BLUE BOX", "address": {"city": "ORLANDO", "state": "FL", "street": "4301 VINELAND RD", "postcode": "32811"}}},
{"geometry": {"type": "Point", "coordinates": [-81.4288262131, 28.5052987263]}, "type": "Feature", "properties": {"collection_times": [{"days": "Mon-Fri", "time": "3:30pm"}, {"days": "Sat", "time": "3:15pm"}, {"days": "Sun", "time": "Closed"}], "id": "3281100008", "name": "USPS COLLECTION BOX - BLUE BOX", "address": {"city": "ORLANDO", "state": "FL", "street": "4101 SW 34TH ST", "postcode": "32811"}}},
{"geometry": {"type": "Point", "coordinates": [-81.4341424307, 28.5073831]}, "type": "Feature", "properties": {"collection_times": [{"days": "Mon-Fri", "time": "3:45pm"}, {"days": "Sat", "time": "3:15pm"}, {"days": "Sun", "time": "Closed"}], "id": "3281100010", "name": "USPS COLLECTION BOX - BLUE BOX", "address": {"city": "ORLANDO", "state": "FL", "street": "3301 BARTLETT BLVD", "postcode": "32811"}}},
{"geometry": {"type": "Point", "coordinates": [-81.4341424307, 28.5073831]}, "type": "Feature", "properties": {"collection_times": [{"days": "Mon-Fri", "time": "3:45pm"}, {"days": "Sat", "time": "3:15pm"}, {"days": "Sun", "time": "Closed"}], "id": "3281100012", "name": "USPS COLLECTION BOX - BLUE BOX", "address": {"city": "ORLANDO", "state": "FL", "street": "3301 BARTLETT BLVD", "postcode": "32811"}}},
{"geometry": {"type": "Point", "coordinates": [-81.4588130399, 28.5332863524]}, "type": "Feature", "properties": {"collection_times": [{"days": "Mon-Fri", "time": "3:45pm"}, {"days": "Sat", "time": "3:15pm"}, {"days": "Sun", "time": "Closed"}], "id": "3281100017", "name": "USPS COLLECTION BOX - BLUE BOX", "address": {"city": "ORLANDO", "state": "FL", "street": "701 S KIRKMAN RD", "postcode": "32811"}}},
{"geometry": {"type": "Point", "coordinates": [-81.4582889891, 28.5349377631]}, "type": "Feature", "properties": {"collection_times": [{"days": "Mon-Fri", "time": "5:00pm"}, {"days": "Sat", "time": "3:30pm"}, {"days": "Sun", "time": "Closed"}], "id": "3281100018", "name": "USPS COLLECTION BOX - BLUE BOX", "address": {"city": "ORLANDO", "state": "FL", "street": "501 S KIRKMAN RD", "postcode": "32811"}}},
{"geometry": {"type": "Point", "coordinates": [-81.4582889891, 28.5349377631]}, "type": "Feature", "properties": {"collection_times": [{"days": "Mon-Fri", "time": "5:00pm"}, {"days": "Sat", "time": "3:30pm"}, {"days": "Sun", "time": "Closed"}], "id": "3281100025", "name": "USPS COLLECTION BOX - PO LOBBY", "address": {"city": "ORLANDO", "state": "FL", "street": "501 S KIRKMAN RD", "postcode": "32811"}}},
{"geometry": {"type": "Point", "coordinates": [-81.431538738, 28.5087115629]}, "type": "Feature", "properties": {"collection_times": [{"days": "Mon-Sat", "time": "10:30am"}, {"days": "Sun", "time": "Closed"}], "id": "3281100027", "name": "USPS COLLECTION BOX - BLUE BOX", "address": {"city": "ORLANDO", "state": "FL", "street": "4240 LB MCLEOD RD", "postcode": "32811"}}},
{"geometry": {"type": "Point", "coordinates": [-81.4582889891, 28.5349377631]}, "type": "Feature", "properties": {"collection_times": [{"days": "Mon-Fri", "time": "5:00pm"}, {"days": "Sat", "time": "3:30pm"}, {"days": "Sun", "time": "Closed"}], "id": "3281100028", "name": "USPS COLLECTION BOX - APC", "address": {"city": "ORLANDO", "state": "FL", "street": "501 S KIRKMAN RD", "postcode": "32811"}}},
{"geometry": {"type": "Point", "coordinates": [-81.441198027, 28.5278785789]}, "type": "Feature", "properties": {"collection_times": [{"days": "Mon-Sat", "time": "3:45pm"}, {"days": "Sun", "time": "Closed"}], "id": "3281100029", "name": "USPS COLLECTION BOX - BLUE BOX", "address": {"city": "ORLANDO", "state": "FL", "street": "4767 RALEIGH ST", "postcode": "32811"}}},
{"geometry": {"type": "Point", "coordinates": [-81.3294375497, 28.4805701521]}, "type": "Feature", "properties": {"collection_times": [{"days": "Mon-Fri", "time": "3:00pm"}, {"days": "Sat", "time": "2:30pm"}, {"days": "Sun", "time": "Closed"}], "id": "3281200002", "name": "USPS COLLECTION BOX - BLUE BOX", "address": {"city": "ORLANDO", "state": "FL", "street": "4501 HOFFNER AVE", "postcode": "32812"}}},
{"geometry": {"type": "Point", "coordinates": [-81.3296138106, 28.5242035935]}, "type": "Feature", "properties": {"collection_times": [{"days": "Mon-Sat", "time": "2:45pm"}, {"days": "Sun", "time": "Closed"}], "id": "3281200006", "name": "USPS COLLECTION BOX - BLUE BOX", "address": {"city": "ORLANDO", "state": "FL", "street": "4402 CURRY FORD RD", "postcode": "32812"}}},
{"geometry": {"type": "Point", "coordinates": [-81.3286650775, 28.5132896141]}, "type": "Feature", "properties": {"collection_times": [{"days": "Mon-Sat", "time": "2:45pm"}, {"days": "Sun", "time": "Closed"}], "id": "3281200007", "name": "USPS COLLECTION BOX - BLUE BOX", "address": {"city": "ORLANDO", "state": "FL", "street": "4656 E MICHIGAN ST", "postcode": "32812"}}},
{"geometry": {"type": "Point", "coordinates": [-81.3270647614, 28.5597512908]}, "type": "Feature", "properties": {"collection_times": [{"days": "Mon-Fri", "time": "12:00pm"}, {"days": "Sat-Sun", "time": "Closed"}], "id": "3281400010", "name": "USPS COLLECTION BOX - BLUE BOX", "address": {"city": "ORLANDO", "state": "FL", "street": "942 LAKE BALDWIN LN", "postcode": "32814"}}},
{"geometry": {"type": "Point", "coordinates": [-81.3283882651, 28.5661749776]}, "type": "Feature", "properties": {"collection_times": [{"days": "Mon-Fri", "time": "12:00pm"}, {"days": "Sat-Sun", "time": "Closed"}], "id": "3281400049", "name": "USPS COLLECTION BOX - BLUE BOX", "address": {"city": "ORLANDO", "state": "FL", "street": "4776 NEW BROAD ST", "postcode": "32814"}}},
{"geometry": {"type": "Point", "coordinates": [-81.3374615604, 28.556274794]}, "type": "Feature", "properties": {"collection_times": [{"days": "Mon-Fri", "time": "5:00pm"}, {"days": "Sat", "time": "3:45pm"}, {"days": "Sun", "time": "Closed"}], "id": "3281400050", "name": "USPS COLLECTION BOX - BLUE BOX", "address": {"city": "ORLANDO", "state": "FL", "street": "821 HERNDON AVE", "postcode": "32814"}}},
{"geometry": {"type": "Point", "coordinates": [-81.3374615604, 28.556274794]}, "type": "Feature", "properties": {"collection_times": [{"days": "Mon-Fri", "time": "5:00pm"}, {"days": "Sat-Sun", "time": "Closed"}], "id": "3281400051", "name": "USPS COLLECTION BOX - PO LOBBY", "address": {"city": "ORLANDO", "state": "FL", "street": "821 HERNDON AVE", "postcode": "32814"}}},
{"geometry": {"type": "Point", "coordinates": [-81.2227109919, 28.6017311752]}, "type": "Feature", "properties": {"collection_times": [{"days": "Mon-Fri", "time": "3:35pm"}, {"days": "Sat", "time": "2:30pm"}, {"days": "Sun", "time": "Closed"}], "id": "3281700002", "name": "USPS COLLECTION BOX - BLUE BOX", "address": {"city": "ORLANDO", "state": "FL", "street": "11301 CORPORATE BLVD", "postcode": "32817"}}},
{"geometry": {"type": "Point", "coordinates": [-81.2425042613, 28.5975588789]}, "type": "Feature", "properties": {"collection_times": [{"days": "Mon-Fri", "time": "3:45pm"}, {"days": "Sat", "time": "2:15pm"}, {"days": "Sun", "time": "Closed"}], "id": "3281700005", "name": "USPS COLLECTION BOX - BLUE BOX", "address": {"city": "ORLANDO", "state": "FL", "street": "10151 UNIVERSITY BLVD", "postcode": "32817"}}},
{"geometry": {"type": "Point", "coordinates": [-81.2532277843, 28.5690779589]}, "type": "Feature", "properties": {"collection_times": [{"days": "Mon-Fri", "time": "5:00pm"}, {"days": "Sat", "time": "3:00pm"}, {"days": "Sun", "time": "Closed"}], "id": "3281700009", "name": "USPS COLLECTION BOX - BLUE BOX", "address": {"city": "ORLANDO", "state": "FL", "street": "1801 N ECONLOCKHATCHEE TRL", "postcode": "32817"}}},
{"geometry": {"type": "Point", "coordinates": [-81.2532277843, 28.5690779589]}, "type": "Feature", "properties": {"collection_times": [{"days": "Mon-Fri", "time": "5:00pm"}, {"days": "Sat", "time": "3:00pm"}, {"days": "Sun", "time": "Closed"}], "id": "3281700017", "name": "USPS COLLECTION BOX - PO LOBBY", "address": {"city": "ORLANDO", "state": "FL", "street": "1801 N ECONLOCKHATCHEE TRL", "postcode": "32817"}}},
{"geometry": {"type": "Point", "coordinates": [-81.2158640254, 28.6009031039]}, "type": "Feature", "properties": {"collection_times": [{"days": "Mon-Fri", "time": "3:40pm"}, {"days": "Sat", "time": "2:30pm"}, {"days": "Sun", "time": "Closed"}], "id": "3281700022", "name": "USPS COLLECTION BOX - BLUE BOX", "address": {"city": "ORLANDO", "state": "FL", "street": "3501 QUADRANGLE BLVD", "postcode": "32817"}}},
{"geometry": {"type": "Point", "coordinates": [-81.4760452031, 28.5831516217]}, "type": "Feature", "properties": {"collection_times": [{"days": "Mon-Fri", "time": "5:00pm"}, {"days": "Sat", "time": "3:00pm"}, {"days": "Sun", "time": "Closed"}], "id": "3281800006", "name": "USPS COLLECTION BOX - PO LOBBY", "address": {"city": "ORLANDO", "state": "FL", "street": "3200 N HIAWASSEE RD", "postcode": "32818"}}},
{"geometry": {"type": "Point", "coordinates": [-81.4760452031, 28.5831516217]}, "type": "Feature", "properties": {"collection_times": [{"days": "Mon-Fri", "time": "5:00pm"}, {"days": "Sat", "time": "3:00pm"}, {"days": "Sun", "time": "Closed"}], "id": "3281800008", "name": "USPS COLLECTION BOX - BLUE BOX", "address": {"city": "ORLANDO", "state": "FL", "street": "3200 N HIAWASSEE RD", "postcode": "32818"}}},
{"geometry": {"type": "Point", "coordinates": [-81.4760452031, 28.5831516217]}, "type": "Feature", "properties": {"collection_times": [{"days": "Mon-Fri", "time": "5:00pm"}, {"days": "Sat", "time": "3:00pm"}, {"days": "Sun", "time": "Closed"}], "id": "3281800011", "name": "USPS COLLECTION BOX - PO LOBBY", "address": {"city": "ORLANDO", "state": "FL", "street": "3200 N HIAWASSEE RD", "postcode": "32818"}}},
{"geometry": {"type": "Point", "coordinates": [-81.475124861, 28.4157191587]}, "type": "Feature", "properties": {"collection_times": [{"days": "Mon-Sat", "time": "5:00pm"}, {"days": "Sun", "time": "Closed"}], "id": "3281900015", "name": "USPS COLLECTION BOX - PO LOBBY", "address": {"city": "ORLANDO", "state": "FL", "street": "10450 TURKEY LAKE RD", "postcode": "32819"}}},
{"geometry": {"type": "Point", "coordinates": [-81.4526320793, 28.4500095902]}, "type": "Feature", "properties": {"collection_times": [{"days": "Mon-Fri", "time": "2:45pm"}, {"days": "Sat-Sun", "time": "Closed"}], "id": "3281900017", "name": "USPS COLLECTION BOX - BLUE BOX", "address": {"city": "ORLANDO", "state": "FL", "street": "5600 W SAND LAKE RD", "postcode": "32819"}}},
{"geometry": {"type": "Point", "coordinates": [-81.4821114167, 28.4498924772]}, "type": "Feature", "properties": {"collection_times": [{"days": "Mon-Fri", "time": "2:45pm"}, {"days": "Sat-Sun", "time": "Closed"}], "id": "3281900018", "name": "USPS COLLECTION BOX - BLUE BOX", "address": {"city": "ORLANDO", "state": "FL", "street": "7380 W SAND LAKE RD", "postcode": "32819"}}},
{"geometry": {"type": "Point", "coordinates": [-81.4786902994, 28.4499421615]}, "type": "Feature", "properties": {"collection_times": [{"days": "Mon-Fri", "time": "2:45pm"}, {"days": "Sat-Sun", "time": "Closed"}], "id": "3281900019", "name": "USPS COLLECTION BOX - BLUE BOX", "address": {"city": "ORLANDO", "state": "FL", "street": "7208 W SAND LAKE RD", "postcode": "32819"}}},
{"geometry": {"type": "Point", "coordinates": [-81.475124861, 28.4157191587]}, "type": "Feature", "properties": {"collection_times": [{"days": "Mon-Sat", "time": "5:00pm"}, {"days": "Sun", "time": "Closed"}], "id": "3281900024", "name": "USPS COLLECTION BOX - BLUE BOX", "address": {"city": "ORLANDO", "state": "FL", "street": "10450 TURKEY LAKE RD", "postcode": "32819"}}},
{"geometry": {"type": "Point", "coordinates": [-81.4705811157, 28.4778316021]}, "type": "Feature", "properties": {"collection_times": [{"days": "Mon-Fri", "time": "2:00pm"}, {"days": "Sat", "time": "2:45pm"}, {"days": "Sun", "time": "Closed"}], "id": "3281900026", "name": "USPS COLLECTION BOX - BLUE BOX", "address": {"city": "ORLANDO", "state": "FL", "street": "1000 UNIVERSAL STUDIOS PLZ", "postcode": "32819"}}},
{"geometry": {"type": "Point", "coordinates": [-81.5011234263, 28.4633288948]}, "type": "Feature", "properties": {"collection_times": [{"days": "Mon-Sat", "time": "2:30pm"}, {"days": "Sun", "time": "Closed"}], "id": "3281900029", "name": "USPS COLLECTION BOX - BLUE BOX", "address": {"city": "ORLANDO", "state": "FL", "street": "6080 S APOPKA VINELAND RD", "postcode": "32819"}}},
{"geometry": {"type": "Point", "coordinates": [-81.4879919057, 28.4525387564]}, "type": "Feature", "properties": {"collection_times": [{"days": "Mon-Fri", "time": "2:30pm"}, {"days": "Sat-Sun", "time": "Closed"}], "id": "3281900038", "name": "USPS COLLECTION BOX - BLUE BOX", "address": {"city": "ORLANDO", "state": "FL", "street": "7575 DR PHILLIPS BLVD", "postcode": "32819"}}},
{"geometry": {"type": "Point", "coordinates": [-81.4881409585, 28.4531775543]}, "type": "Feature", "properties": {"collection_times": [{"days": "Mon-Sat", "time": "2:30pm"}, {"days": "Sun", "time": "Closed"}], "id": "3281900039", "name": "USPS COLLECTION BOX - BLUE BOX", "address": {"city": "ORLANDO", "state": "FL", "street": "7600 DR PHILLIPS BLVD", "postcode": "32819"}}},
{"geometry": {"type": "Point", "coordinates": [-81.458724318, 28.4838729735]}, "type": "Feature", "properties": {"collection_times": [{"days": "Mon-Fri", "time": "1:45pm"}, {"days": "Sat-Sun", "time": "Closed"}], "id": "3281900052", "name": "USPS COLLECTION BOX - BLUE BOX", "address": {"city": "ORLANDO", "state": "FL", "street": "5401 S KIRKMAN RD", "postcode": "32819"}}},
{"geometry": {"type": "Point", "coordinates": [-81.4881409585, 28.4531775543]}, "type": "Feature", "properties": {"collection_times": [{"days": "Mon-Sat", "time": "2:30pm"}, {"days": "Sun", "time": "Closed"}], "id": "3281900064", "name": "USPS COLLECTION BOX - BLUE BOX", "address": {"city": "ORLANDO", "state": "FL", "street": "7600 DR PHILLIPS BLVD", "postcode": "32819"}}},
{"geometry": {"type": "Point", "coordinates": [-81.4292201384, 28.4434524486]}, "type": "Feature", "properties": {"collection_times": [{"days": "Mon-Fri", "time": "3:00pm"}, {"days": "Sat-Sun", "time": "Closed"}], "id": "3281900077", "name": "USPS COLLECTION BOX - BLUE BOX", "address": {"city": "ORLANDO", "state": "FL", "street": "8801 COMMODITY CIR", "postcode": "32819"}}},
{"geometry": {"type": "Point", "coordinates": [-81.4562330064, 28.4601783054]}, "type": "Feature", "properties": {"collection_times": [{"days": "Mon-Fri", "time": "3:00pm"}, {"days": "Sat-Sun", "time": "Closed"}], "id": "3281900083", "name": "USPS COLLECTION BOX - BLUE BOX", "address": {"city": "ORLANDO", "state": "FL", "street": "7011 GRAND NATIONAL DR", "postcode": "32819"}}},
{"geometry": {"type": "Point", "coordinates": [-81.4253266139, 28.4391309329]}, "type": "Feature", "properties": {"collection_times": [{"days": "Mon-Fri", "time": "3:00pm"}, {"days": "Sat-Sun", "time": "Closed"}], "id": "3281900087", "name": "USPS COLLECTION BOX - BLUE BOX", "address": {"city": "ORLANDO", "state": "FL", "street": "8517 SOUTH PARK CIR", "postcode": "32819"}}},
{"geometry": {"type": "Point", "coordinates": [-81.4699269394, 28.4560154728]}, "type": "Feature", "properties": {"collection_times": [{"days": "Mon-Fri", "time": "3:15pm"}, {"days": "Sat-Sun", "time": "Closed"}], "id": "3281900089", "name": "USPS COLLECTION BOX - BLUE BOX", "address": {"city": "ORLANDO", "state": "FL", "street": "6500 CARRIER DR", "postcode": "32819"}}},
{"geometry": {"type": "Point", "coordinates": [-81.475124861, 28.4157191587]}, "type": "Feature", "properties": {"collection_times": [{"days": "Mon-Sat", "time": "5:00pm"}, {"days": "Sun", "time": "Closed"}], "id": "3281900090", "name": "USPS COLLECTION BOX - APC", "address": {"city": "ORLANDO", "state": "FL", "street": "10450 TURKEY LAKE RD", "postcode": "32819"}}},
{"geometry": {"type": "Point", "coordinates": [-81.4562330064, 28.4601783054]}, "type": "Feature", "properties": {"collection_times": [{"days": "Mon-Fri", "time": "3:00pm"}, {"days": "Sat-Sun", "time": "Closed"}], "id": "3281900091", "name": "USPS COLLECTION BOX - BLUE BOX", "address": {"city": "ORLANDO", "state": "FL", "street": "7011 GRAND NATIONAL DR", "postcode": "32819"}}},
{"geometry": {"type": "Point", "coordinates": [-81.4758367561, 28.4624402031]}, "type": "Feature", "properties": {"collection_times": [{"days": "Mon-Fri", "time": "11:00am"}, {"days": "Sat-Sun", "time": "Closed"}], "id": "3281900094", "name": "USPS COLLECTION BOX - BLUE BOX", "address": {"city": "ORLANDO", "state": "FL", "street": "9800 INTERNATIONAL DR", "postcode": "32819"}}},
{"geometry": {"type": "Point", "coordinates": [-81.4758367561, 28.4624402031]}, "type": "Feature", "properties": {"collection_times": [{"days": "Mon-Fri", "time": "11:00am"}, {"days": "Sat", "time": "9:00am"}, {"days": "Sun", "time": "Closed"}], "id": "3281900095", "name": "USPS COLLECTION BOX - BLUE BOX", "address": {"city": "ORLANDO", "state": "FL", "street": "8723 INTERNATIONAL DR STE 109", "postcode": "32819"}}},
{"geometry": {"type": "Point", "coordinates": [-81.447044882, 28.4083507733]}, "type": "Feature", "properties": {"collection_times": [{"days": "Mon-Sat", "time": "3:00pm"}, {"days": "Sun", "time": "Closed"}], "id": "3282100000", "name": "USPS COLLECTION BOX - BLUE BOX", "address": {"city": "ORLANDO", "state": "FL", "street": "5334 CENTRAL FLORIDA PKWY", "postcode": "32821"}}},
{"geometry": {"type": "Point", "coordinates": [-81.5054038787, 28.370104261]}, "type": "Feature", "properties": {"collection_times": [{"days": "Mon-Sat", "time": "1:45pm"}, {"days": "Sun", "time": "Closed"}], "id": "3282100003", "name": "USPS COLLECTION BOX - BLUE BOX", "address": {"city": "ORLANDO", "state": "FL", "street": "13501 MEADOWCREEK DR", "postcode": "32821"}}},
{"geometry": {"type": "Point", "coordinates": [-81.504946162, 28.3680196579]}, "type": "Feature", "properties": {"collection_times": [{"days": "Mon-Sat", "time": "1:45pm"}, {"days": "Sun", "time": "Closed"}], "id": "3282100007", "name": "USPS COLLECTION BOX - BLUE BOX", "address": {"city": "ORLANDO", "state": "FL", "street": "8800 VISTANA CENTRE DR", "postcode": "32821"}}},
{"geometry": {"type": "Point", "coordinates": [-81.4383335209, 28.4152626673]}, "type": "Feature", "properties": {"collection_times": [{"days": "Mon-Sat", "time": "3:00pm"}, {"days": "Sun", "time": "Closed"}], "id": "3282100008", "name": "USPS COLLECTION BOX - BLUE BOX", "address": {"city": "ORLANDO", "state": "FL", "street": "5051 GATEWAY AVE", "postcode": "32821"}}},
{"geometry": {"type": "Point", "coordinates": [-81.3110023172, 28.5237162144]}, "type": "Feature", "properties": {"collection_times": [{"days": "Mon-Sat", "time": "3:00pm"}, {"days": "Sun", "time": "Closed"}], "id": "3282200001", "name": "USPS COLLECTION BOX - BLUE BOX", "address": {"city": "ORLANDO", "state": "FL", "street": "5660 CURRY FORD RD", "postcode": "32822"}}},
{"geometry": {"type": "Point", "coordinates": [-81.296824554, 28.4591858029]}, "type": "Feature", "properties": {"collection_times": [{"days": "Mon-Fri", "time": "5:00pm"}, {"days": "Sat", "time": "1:00pm"}, {"days": "Sun", "time": "Closed"}], "id": "3282200008", "name": "USPS COLLECTION BOX - BLUE BOX", "address": {"city": "ORLANDO", "state": "FL", "street": "6301 HAZELTINE NATIONAL DR", "postcode": "32822"}}},
{"geometry": {"type": "Point", "coordinates": [-81.3102097347, 28.4780374369]}, "type": "Feature", "properties": {"collection_times": [{"days": "Mon-Fri", "time": "3:00pm"}, {"days": "Sat", "time": "2:45pm"}, {"days": "Sun", "time": "Closed"}], "id": "3282200011", "name": "USPS COLLECTION BOX - BLUE BOX", "address": {"city": "ORLANDO", "state": "FL", "street": "5800 S SEMORAN BLVD", "postcode": "32822"}}},
{"geometry": {"type": "Point", "coordinates": [-81.3100204613, 28.4821777933]}, "type": "Feature", "properties": {"collection_times": [{"days": "Mon-Sat", "time": "9:15am"}, {"days": "Sun", "time": "Closed"}], "id": "3282200015", "name": "USPS COLLECTION BOX - BLUE BOX", "address": {"city": "ORLANDO", "state": "FL", "street": "5575 S SEMORAN BLVD", "postcode": "32822"}}},
{"geometry": {"type": "Point", "coordinates": [-81.310413024, 28.5043679586]}, "type": "Feature", "properties": {"collection_times": [{"days": "Mon-Sat", "time": "3:00pm"}, {"days": "Sun", "time": "Closed"}], "id": "3282200018", "name": "USPS COLLECTION BOX - BLUE BOX", "address": {"city": "ORLANDO", "state": "FL", "street": "3936 S SEMORAN BLVD", "postcode": "32822"}}},
{"geometry": {"type": "Point", "coordinates": [-81.3032385575, 28.4614736455]}, "type": "Feature", "properties": {"collection_times": [{"days": "Mon-Fri", "time": "1:30pm"}, {"days": "Sat", "time": "12:00pm"}, {"days": "Sun", "time": "Closed"}], "id": "3282200034", "name": "USPS COLLECTION BOX - BLUE BOX", "address": {"city": "ORLANDO", "state": "FL", "street": "5950 HAZELTINE NATIONAL DR", "postcode": "32822"}}},
{"geometry": {"type": "Point", "coordinates": [-81.3051360237, 28.4592875373]}, "type": "Feature", "properties": {"collection_times": [{"days": "Mon-Fri", "time": "2:30pm"}, {"days": "Sat", "time": "1:00pm"}, {"days": "Sun", "time": "Closed"}], "id": "3282200036", "name": "USPS COLLECTION BOX - BLUE BOX", "address": {"city": "ORLANDO", "state": "FL", "street": "5850 T G LEE BLVD", "postcode": "32822"}}},
{"geometry": {"type": "Point", "coordinates": [-81.3101186468, 28.494872126]}, "type": "Feature", "properties": {"collection_times": [{"days": "Mon-Sat", "time": "3:15pm"}, {"days": "Sun", "time": "Closed"}], "id": "3282200038", "name": "USPS COLLECTION BOX - BLUE BOX", "address": {"city": "ORLANDO", "state": "FL", "street": "4701 S SEMORAN BLVD", "postcode": "32822"}}},
{"geometry": {"type": "Point", "coordinates": [-81.2757369461, 28.4656011509]}, "type": "Feature", "properties": {"collection_times": [{"days": "Mon-Fri", "time": "3:30pm"}, {"days": "Sat", "time": "3:15pm"}, {"days": "Sun", "time": "Closed"}], "id": "3282200039", "name": "USPS COLLECTION BOX - BLUE BOX", "address": {"city": "ORLANDO", "state": "FL", "street": "7018 NARCOOSSEE RD", "postcode": "32822"}}},
{"geometry": {"type": "Point", "coordinates": [-81.2851932811, 28.4775368601]}, "type": "Feature", "properties": {"collection_times": [{"days": "Mon-Sat", "time": "11:00am"}, {"days": "Sun", "time": "Closed"}], "id": "3282200040", "name": "USPS COLLECTION BOX - BLUE BOX", "address": {"city": "ORLANDO", "state": "FL", "street": "4779 S GOLDENROD RD", "postcode": "32822"}}},
{"geometry": {"type": "Point", "coordinates": [-81.2340529581, 28.5287883014]}, "type": "Feature", "properties": {"collection_times": [{"days": "Mon-Fri", "time": "2:45pm"}, {"days": "Sat-Sun", "time": "Closed"}], "id": "3282500001", "name": "USPS COLLECTION BOX - BLUE BOX", "address": {"city": "ORLANDO", "state": "FL", "street": "100 GLOBAL INNOVATION CIR", "postcode": "32825"}}},
{"geometry": {"type": "Point", "coordinates": [-81.2690597319, 28.512634419]}, "type": "Feature", "properties": {"collection_times": [{"days": "Mon-Fri", "time": "2:00pm"}, {"days": "Sat", "time": "2:15pm"}, {"days": "Sun", "time": "Closed"}], "id": "3282500008", "name": "USPS COLLECTION BOX - BLUE BOX", "address": {"city": "ORLANDO", "state": "FL", "street": "2300 S CHICKASAW TRL", "postcode": "32825"}}},
{"geometry": {"type": "Point", "coordinates": [-81.2388139742, 28.5099940492]}, "type": "Feature", "properties": {"collection_times": [{"days": "Mon-Fri", "time": "1:45pm"}, {"days": "Sat", "time": "2:00pm"}, {"days": "Sun", "time": "Closed"}], "id": "3282500010", "name": "USPS COLLECTION BOX - BLUE BOX", "address": {"city": "ORLANDO", "state": "FL", "street": "10250 CURRY FORD RD", "postcode": "32825"}}},
{"geometry": {"type": "Point", "coordinates": [-81.1736980238, 28.5654836771]}, "type": "Feature", "properties": {"collection_times": [{"days": "Mon-Sat", "time": "2:00pm"}, {"days": "Sun", "time": "Closed"}], "id": "3282600003", "name": "USPS COLLECTION BOX - BLUE BOX", "address": {"city": "ORLANDO", "state": "FL", "street": "14205 E COLONIAL DR", "postcode": "32826"}}},
{"geometry": {"type": "Point", "coordinates": [-81.2042642114, 28.5665870209]}, "type": "Feature", "properties": {"collection_times": [{"days": "Mon-Sat", "time": "2:15pm"}, {"days": "Sun", "time": "Closed"}], "id": "3282600004", "name": "USPS COLLECTION BOX - BLUE BOX", "address": {"city": "ORLANDO", "state": "FL", "street": "11955 E COLONIAL DR", "postcode": "32826"}}},
{"geometry": {"type": "Point", "coordinates": [-81.195983217, 28.5872044391]}, "type": "Feature", "properties": {"collection_times": [{"days": "Mon-Fri", "time": "2:30pm"}, {"days": "Sat", "time": "2:15pm"}, {"days": "Sun", "time": "Closed"}], "id": "3282600006", "name": "USPS COLLECTION BOX - BLUE BOX", "address": {"city": "ORLANDO", "state": "FL", "street": "12424 RESEARCH PKWY", "postcode": "32826"}}},
{"geometry": {"type": "Point", "coordinates": [-81.2040036669, 28.596730583]}, "type": "Feature", "properties": {"collection_times": [{"days": "Mon-Fri", "time": "2:45pm"}, {"days": "Sat", "time": "2:15pm"}, {"days": "Sun", "time": "Closed"}], "id": "3282600012", "name": "USPS COLLECTION BOX - BLUE BOX", "address": {"city": "ORLANDO", "state": "FL", "street": "4000 CENTRAL FLORIDA BLVD", "postcode": "32826"}}},
{"geometry": {"type": "Point", "coordinates": [-81.2040036669, 28.596730583]}, "type": "Feature", "properties": {"collection_times": [{"days": "Mon-Fri", "time": "2:45pm"}, {"days": "Sat", "time": "2:15pm"}, {"days": "Sun", "time": "Closed"}], "id": "3282600026", "name": "USPS COLLECTION BOX - BLUE BOX", "address": {"city": "ORLANDO", "state": "FL", "street": "4000 CENTRAL FLORIDA BLVD", "postcode": "32826"}}},
{"geometry": {"type": "Point", "coordinates": [-81.1895573786, 28.5839439364]}, "type": "Feature", "properties": {"collection_times": [{"days": "Mon-Sat", "time": "2:15pm"}, {"days": "Sun", "time": "Closed"}], "id": "3282600027", "name": "USPS COLLECTION BOX - BLUE BOX", "address": {"city": "ORLANDO", "state": "FL", "street": "12231 E COLONIAL DR", "postcode": "32826"}}},
{"geometry": {"type": "Point", "coordinates": [-81.261552252, 28.3962873119]}, "type": "Feature", "properties": {"collection_times": [{"days": "Mon-Fri", "time": "2:45pm"}, {"days": "Sat", "time": "2:15pm"}, {"days": "Sun", "time": "Closed"}], "id": "3282700005", "name": "USPS COLLECTION BOX - BLUE BOX", "address": {"city": "ORLANDO", "state": "FL", "street": "7151 EARHART DR", "postcode": "32827"}}},
{"geometry": {"type": "Point", "coordinates": [-81.2065391049, 28.5544719544]}, "type": "Feature", "properties": {"collection_times": [{"days": "Mon-Fri", "time": "5:00pm"}, {"days": "Sat", "time": "3:00pm"}, {"days": "Sun", "time": "Closed"}], "id": "3282800002", "name": "USPS COLLECTION BOX - BLUE BOX", "address": {"city": "ORLANDO", "state": "FL", "street": "650 N ALAFAYA TRL", "postcode": "32828"}}},
{"geometry": {"type": "Point", "coordinates": [-81.1932091783, 28.5245005162]}, "type": "Feature", "properties": {"collection_times": [{"days": "Mon-Fri", "time": "2:30pm"}, {"days": "Sat", "time": "2:45pm"}, {"days": "Sun", "time": "Closed"}], "id": "3282800008", "name": "USPS COLLECTION BOX - BLUE BOX", "address": {"city": "ORLANDO", "state": "FL", "street": "1921 S ALAFAYA TRL", "postcode": "32828"}}},
{"geometry": {"type": "Point", "coordinates": [-81.2008771183, 28.5466703502]}, "type": "Feature", "properties": {"collection_times": [{"days": "Mon-Fri", "time": "2:30pm"}, {"days": "Sat", "time": "2:45pm"}, {"days": "Sun", "time": "Closed"}], "id": "3282800009", "name": "USPS COLLECTION BOX - BLUE BOX", "address": {"city": "ORLANDO", "state": "FL", "street": "12500 LAKE UNDERHILL RD", "postcode": "32828"}}},
{"geometry": {"type": "Point", "coordinates": [-81.2065391049, 28.5544719544]}, "type": "Feature", "properties": {"collection_times": [{"days": "Mon-Fri", "time": "5:00pm"}, {"days": "Sat", "time": "3:00pm"}, {"days": "Sun", "time": "Closed"}], "id": "3282800011", "name": "USPS COLLECTION BOX - APC", "address": {"city": "ORLANDO", "state": "FL", "street": "650 N ALAFAYA TRL", "postcode": "32828"}}},
{"geometry": {"type": "Point", "coordinates": [-81.2065391049, 28.5544719544]}, "type": "Feature", "properties": {"collection_times": [{"days": "Mon-Fri", "time": "5:00pm"}, {"days": "Sat", "time": "3:00pm"}, {"days": "Sun", "time": "Closed"}], "id": "3282800012", "name": "USPS COLLECTION BOX - APC", "address": {"city": "ORLANDO", "state": "FL", "street": "650 N ALAFAYA TRL", "postcode": "32828"}}},
{"geometry": {"type": "Point", "coordinates": [-81.2065391049, 28.5544719544]}, "type": "Feature", "properties": {"collection_times": [{"days": "Mon-Fri", "time": "5:00pm"}, {"days": "Sat", "time": "3:00pm"}, {"days": "Sun", "time": "Closed"}], "id": "3282800013", "name": "USPS COLLECTION BOX - PO LOBBY", "address": {"city": "ORLANDO", "state": "FL", "street": "650 N ALAFAYA TRL", "postcode": "32828"}}},
{"geometry": {"type": "Point", "coordinates": [-81.2065391049, 28.5544719544]}, "type": "Feature", "properties": {"collection_times": [{"days": "Mon-Fri", "time": "5:00pm"}, {"days": "Sat", "time": "3:00pm"}, {"days": "Sun", "time": "Closed"}], "id": "3282800014", "name": "USPS COLLECTION BOX - PO LOBBY", "address": {"city": "ORLANDO", "state": "FL", "street": "650 N ALAFAYA TRL", "postcode": "32828"}}},
{"geometry": {"type": "Point", "coordinates": [-81.2065391049, 28.5544719544]}, "type": "Feature", "properties": {"collection_times": [{"days": "Mon-Fri", "time": "5:00pm"}, {"days": "Sat", "time": "3:00pm"}, {"days": "Sun", "time": "Closed"}], "id": "3282800018", "name": "USPS COLLECTION BOX - APC", "address": {"city": "ORLANDO", "state": "FL", "street": "650 N ALAFAYA TRL", "postcode": "32828"}}},
{"geometry": {"type": "Point", "coordinates": [-81.5130777335, 28.3710884828]}, "type": "Feature", "properties": {"collection_times": [{"days": "Mon-Fri", "time": "2:15pm"}, {"days": "Sat-Sun", "time": "Closed"}], "id": "3283000001", "name": "USPS COLLECTION BOX - BLUE BOX", "address": {"city": "ORLANDO", "state": "FL", "street": "1675 N BUENA VISTA DR", "postcode": "32830"}}},
{"geometry": {"type": "Point", "coordinates": [-81.5233209174, 28.3687741239]}, "type": "Feature", "properties": {"collection_times": [{"days": "Mon-Sat", "time": "2:00pm"}, {"days": "Sun", "time": "Closed"}], "id": "3283000002", "name": "USPS COLLECTION BOX - BLUE BOX", "address": {"city": "ORLANDO", "state": "FL", "street": "1380 N BUENA VISTA AVE", "postcode": "32830"}}},
{"geometry": {"type": "Point", "coordinates": [-81.4736035758, 28.5388651869]}, "type": "Feature", "properties": {"collection_times": [{"days": "Mon-Fri", "time": "3:30pm"}, {"days": "Sat", "time": "3:15pm"}, {"days": "Sun", "time": "Closed"}], "id": "3283500002", "name": "USPS COLLECTION BOX - BLUE BOX", "address": {"city": "ORLANDO", "state": "FL", "street": "6600 OLD WINTER GARDEN RD", "postcode": "32835"}}},
{"geometry": {"type": "Point", "coordinates": [-81.470311401, 28.5215750587]}, "type": "Feature", "properties": {"collection_times": [{"days": "Mon-Fri", "time": "3:30pm"}, {"days": "Sat", "time": "3:00pm"}, {"days": "Sun", "time": "Closed"}], "id": "3283500005", "name": "USPS COLLECTION BOX - BLUE BOX", "address": {"city": "ORLANDO", "state": "FL", "street": "1700 PARK CENTER DR", "postcode": "32835"}}},
{"geometry": {"type": "Point", "coordinates": [-81.4823306895, 28.4937921307]}, "type": "Feature", "properties": {"collection_times": [{"days": "Mon-Fri", "time": "2:00pm"}, {"days": "Sat", "time": "1:30pm"}, {"days": "Sun", "time": "Closed"}], "id": "3283500007", "name": "USPS COLLECTION BOX - BLUE BOX", "address": {"city": "ORLANDO", "state": "FL", "street": "7479 CONROY RD", "postcode": "32835"}}},
{"geometry": {"type": "Point", "coordinates": [-81.4693414258, 28.4937920388]}, "type": "Feature", "properties": {"collection_times": [{"days": "Mon-Sat", "time": "2:00pm"}, {"days": "Sun", "time": "Closed"}], "id": "3283500009", "name": "USPS COLLECTION BOX - BLUE BOX", "address": {"city": "ORLANDO", "state": "FL", "street": "6421 CONROY RD", "postcode": "32835"}}},
{"geometry": {"type": "Point", "coordinates": [-81.4854769349, 28.5072423279]}, "type": "Feature", "properties": {"collection_times": [{"days": "Mon-Fri", "time": "3:15pm"}, {"days": "Sat", "time": "3:00pm"}, {"days": "Sun", "time": "Closed"}], "id": "3283500010", "name": "USPS COLLECTION BOX - BLUE BOX", "address": {"city": "ORLANDO", "state": "FL", "street": "3300 S HIAWASSEE RD", "postcode": "32835"}}},
{"geometry": {"type": "Point", "coordinates": [-81.4854769349, 28.5072423279]}, "type": "Feature", "properties": {"collection_times": [{"days": "Mon-Sat", "time": "12:00pm"}, {"days": "Sun", "time": "Closed"}], "id": "3283500011", "name": "USPS COLLECTION BOX - BLUE BOX", "address": {"city": "ORLANDO", "state": "FL", "street": "3300 S HIAWASSEE RD", "postcode": "32835"}}},
{"geometry": {"type": "Point", "coordinates": [-81.5054533118, 28.3828808088]}, "type": "Feature", "properties": {"collection_times": [{"days": "Mon-Fri", "time": "2:00pm"}, {"days": "Sat-Sun", "time": "Closed"}], "id": "3283600002", "name": "USPS COLLECTION BOX - BLUE BOX", "address": {"city": "ORLANDO", "state": "FL", "street": "12527 STATE ROAD 535", "postcode": "32836"}}},
{"geometry": {"type": "Point", "coordinates": [-81.4102608551, 28.4242802327]}, "type": "Feature", "properties": {"collection_times": [{"days": "Mon-Fri", "time": "2:30pm"}, {"days": "Sat", "time": "2:15pm"}, {"days": "Sun", "time": "Closed"}], "id": "3283700003", "name": "USPS COLLECTION BOX - BLUE BOX", "address": {"city": "ORLANDO", "state": "FL", "street": "9751 DELEGATES DR", "postcode": "32837"}}},
{"geometry": {"type": "Point", "coordinates": [-81.4047320015, 28.4026002494]}, "type": "Feature", "properties": {"collection_times": [{"days": "Mon-Fri", "time": "3:15pm"}, {"days": "Sat", "time": "3:00pm"}, {"days": "Sun", "time": "Closed"}], "id": "3283700004", "name": "USPS COLLECTION BOX - BLUE BOX", "address": {"city": "ORLANDO", "state": "FL", "street": "11200 S ORANGE BLOSSOM TRL", "postcode": "32837"}}},
{"geometry": {"type": "Point", "coordinates": [-81.4251080619, 28.3636472727]}, "type": "Feature", "properties": {"collection_times": [{"days": "Mon-Fri", "time": "2:30pm"}, {"days": "Sat", "time": "2:15pm"}, {"days": "Sun", "time": "Closed"}], "id": "3283700007", "name": "USPS COLLECTION BOX - BLUE BOX", "address": {"city": "ORLANDO", "state": "FL", "street": "3964 TOWN CENTER BLVD", "postcode": "32837"}}},
{"geometry": {"type": "Point", "coordinates": [-81.4005333835, 28.3878947808]}, "type": "Feature", "properties": {"collection_times": [{"days": "Mon-Fri", "time": "5:00pm"}, {"days": "Sat", "time": "3:15pm"}, {"days": "Sun", "time": "Closed"}], "id": "3283700010", "name": "USPS COLLECTION BOX - PO LOBBY", "address": {"city": "ORLANDO", "state": "FL", "street": "1701 W WETHERBEE RD", "postcode": "32837"}}},
{"geometry": {"type": "Point", "coordinates": [-81.4005333835, 28.3878947808]}, "type": "Feature", "properties": {"collection_times": [{"days": "Mon-Fri", "time": "5:00pm"}, {"days": "Sat", "time": "3:15pm"}, {"days": "Sun", "time": "Closed"}], "id": "3283700011", "name": "USPS COLLECTION BOX - BLUE BOX", "address": {"city": "ORLANDO", "state": "FL", "street": "1701 W WETHERBEE RD", "postcode": "32837"}}},
{"geometry": {"type": "Point", "coordinates": [-81.4005333835, 28.3878947808]}, "type": "Feature", "properties": {"collection_times": [{"days": "Mon-Fri", "time": "5:00pm"}, {"days": "Sat", "time": "3:15pm"}, {"days": "Sun", "time": "Closed"}], "id": "3283700013", "name": "USPS COLLECTION BOX - APC", "address": {"city": "ORLANDO", "state": "FL", "street": "1701 W WETHERBEE RD", "postcode": "32837"}}},
{"geometry": {"type": "Point", "coordinates": [-81.4005333835, 28.3878947808]}, "type": "Feature", "properties": {"collection_times": [{"days": "Mon-Fri", "time": "5:00pm"}, {"days": "Sat", "time": "3:15pm"}, {"days": "Sun", "time": "Closed"}], "id": "3283700015", "name": "USPS COLLECTION BOX - PO LOBBY", "address": {"city": "ORLANDO", "state": "FL", "street": "1701 W WETHERBEE RD", "postcode": "32837"}}},
{"geometry": {"type": "Point", "coordinates": [-81.4005333835, 28.3878947808]}, "type": "Feature", "properties": {"collection_times": [{"days": "Mon-Fri", "time": "5:00pm"}, {"days": "Sat", "time": "3:15pm"}, {"days": "Sun", "time": "Closed"}], "id": "3283700016", "name": "USPS COLLECTION BOX - PO LOBBY", "address": {"city": "ORLANDO", "state": "FL", "street": "1701 W WETHERBEE RD", "postcode": "32837"}}},
{"geometry": {"type": "Point", "coordinates": [-81.3968602959, 28.4971741641]}, "type": "Feature", "properties": {"collection_times": [{"days": "Mon-Fri", "time": "2:45pm"}, {"days": "Sat", "time": "1:00pm"}, {"days": "Sun", "time": "Closed"}], "id": "3283900013", "name": "USPS COLLECTION BOX - BLUE BOX", "address": {"city": "ORLANDO", "state": "FL", "street": "4600 S ORANGE BLOSSOM TRL", "postcode": "32839"}}},
{"geometry": {"type": "Point", "coordinates": [-81.4031063193, 28.5089812775]}, "type": "Feature", "properties": {"collection_times": [{"days": "Mon-Fri", "time": "2:45pm"}, {"days": "Sat", "time": "12:45pm"}, {"days": "Sun", "time": "Closed"}], "id": "3283900015", "name": "USPS COLLECTION BOX - BLUE BOX", "address": {"city": "ORLANDO", "state": "FL", "street": "1800 33RD ST", "postcode": "32839"}}},
{"geometry": {"type": "Point", "coordinates": [-81.4173278519, 28.4875910135]}, "type": "Feature", "properties": {"collection_times": [{"days": "Mon-Fri", "time": "3:00pm"}, {"days": "Sat", "time": "1:00pm"}, {"days": "Sun", "time": "Closed"}], "id": "3283900017", "name": "USPS COLLECTION BOX - BLUE BOX", "address": {"city": "ORLANDO", "state": "FL", "street": "5265 S JOHN YOUNG PKWY", "postcode": "32839"}}},
{"geometry": {"type": "Point", "coordinates": [-81.3644342077, 28.5516683518]}, "type": "Feature", "properties": {"collection_times": [{"days": "Mon-Fri", "time": "5:00pm"}, {"days": "Sat", "time": "3:45pm"}, {"days": "Sun", "time": "Closed"}], "id": "3285300002", "name": "USPS COLLECTION BOX - BLUE BOX", "address": {"city": "ORLANDO", "state": "FL", "street": "611 N MILLS AVE", "postcode": "32853"}}},
{"geometry": {"type": "Point", "coordinates": [-81.3644342077, 28.5516683518]}, "type": "Feature", "properties": {"collection_times": [{"days": "Mon-Fri", "time": "5:00pm"}, {"days": "Sat", "time": "12:00pm"}, {"days": "Sun", "time": "Closed"}], "id": "3285300003", "name": "USPS COLLECTION BOX - PO LOBBY", "address": {"city": "ORLANDO", "state": "FL", "street": "611 N MILLS AVE", "postcode": "32853"}}},
{"geometry": {"type": "Point", "coordinates": [-81.3323239696, 28.415622156]}, "type": "Feature", "properties": {"collection_times": [{"days": "Mon-Sat", "time": "8:00pm"}, {"days": "Sun", "time": "Closed"}], "id": "3286200000", "name": "USPS COLLECTION BOX - PO LOBBY", "address": {"city": "ORLANDO", "state": "FL", "street": "10401 POST OFFICE BLVD", "postcode": "32862"}}},
{"geometry": {"type": "Point", "coordinates": [-81.3323239696, 28.415622156]}, "type": "Feature", "properties": {"collection_times": [{"days": "Mon-Sat", "time": "8:00pm"}, {"days": "Sun", "time": "Closed"}], "id": "3286200003", "name": "USPS COLLECTION BOX - BLUE BOX", "address": {"city": "ORLANDO", "state": "FL", "street": "10401 POST OFFICE BLVD", "postcode": "32862"}}},
{"geometry": {"type": "Point", "coordinates": [-81.3323239696, 28.415622156]}, "type": "Feature", "properties": {"collection_times": [{"days": "Mon-Sat", "time": "8:00pm"}, {"days": "Sun", "time": "Closed"}], "id": "3286200004", "name": "USPS COLLECTION BOX - APC", "address": {"city": "ORLANDO", "state": "FL", "street": "10401 POST OFFICE BLVD", "postcode": "32862"}}},
{"geometry": {"type": "Point", "coordinates": [-81.2875915593, 28.5143176054]}, "type": "Feature", "properties": {"collection_times": [{"days": "Mon-Fri", "time": "5:00pm"}, {"days": "Sat", "time": "2:00pm"}, {"days": "Sun", "time": "Closed"}], "id": "3287200001", "name": "USPS COLLECTION BOX - BLUE BOX", "address": {"city": "ORLANDO", "state": "FL", "street": "7360 CURRY FORD RD", "postcode": "32872"}}},
{"geometry": {"type": "Point", "coordinates": [-81.2875915593, 28.5143176054]}, "type": "Feature", "properties": {"collection_times": [{"days": "Mon-Fri", "time": "5:00pm"}, {"days": "Sat", "time": "2:00pm"}, {"days": "Sun", "time": "Closed"}], "id": "3287200003", "name": "USPS COLLECTION BOX - PO LOBBY", "address": {"city": "ORLANDO", "state": "FL", "street": "7360 CURRY FORD RD", "postcode": "32872"}}}
]}
